#--------------------------------------------------#
#-------------------ENVERUS, INC.------------------#
#------------------WWW.ENVERUS.COM-----------------#
#------------------COPYRIGHT 2020------------------#
#--------------------------------------------------#
#THIS FILE MAY BE USED ONLY IN ACCORDANCE WITH A CURRENT SUBSCRIPTION AGREEMENT BETWEEN
#THE USER AND ENVERUS, INC. NO PART OF THIS FILE MAY BE REPRODUCED, USED, COPIED,
#MODIFIED, PROPAGATED, OR DISTRIBUTED EXCEPT IN ACCORDANCE WITH THE SUBSCRIPTION
#AGREEMENT. UNAUTHORIZED USE OR DISTRIBUTION OF ALL OR ANY PART OF THIS FILE MAY VIOLATE
#COPYRIGHT, TRADEMARK, AND/OR OTHER LAWS AND IS SUBJECT TO CIVIL AS WELL AS CRIMINAL
#SANCTIONS.
#--------------------------------------------------#
#THIS FILE IS PROVIDED "AS-IS" AND ALL WARRANTIES ARE EXPRESSLY DISCLAIMED, WHETHER
#EXPRESS, ORAL, IMPLIED, STATUTORY OR OTHERWISE, INCLUDING ANY IMPLIED WARRANTY OF FITNESS
#FOR A PARTICULAR PURPOSE, MERCHANTABILITY, TITLE OR NON-INFRINGEMENT, AND ANY WARRANTIES
#ARISING BY VIRTUE OF CUSTOM OF TRADE OR COURSE OF DEALING.  FURTHER, ENVERUS, INC.
#AND ITS LICENSORS DO NOT REPRESENT OR WARRANT THAT THIS FILE WILL MEET USER'S
#REQUIREMENTS OR ARE SUITABLE FOR USER'S NEEDS OR THAT THE DATA OR RESULTS PROVIDED IN
#CONJUNCTION THEREWITH ARE CORRECT, ACCURATE, TIMELY OR RELIABLE. THESE DISCLAIMERS SHALL
#APPLY REGARDLESS OF ANY FAILURE OF ESSENTIAL PURPOSE OF ANY LIMITED REMEDY.  SOME
#JURISDICTIONS DO NOT ALLOW THE EXCLUSION OF CERTAIN WARRANTIES SO SOME OF THE ABOVE
#EXCLUSIONS MAY NOT APPLY. IN NO EVENT SHALL ENVERUS, INC. OR ANY OF ITS AFFILIATES
#BE LIABLE UNDER ANY LEGAL THEORY, WHETHER IN TORT (INCLUDING WITHOUT LIMITATION
#NEGLIGENCE), CONTRACT, STRICT LIABILITY, STATUTORY OR OTHERWISE, FOR ANY SPECIAL,
#INCIDENTAL, CONSEQUENTIAL, EXEMPLARY, PUNITIVE OR INDIRECT DAMAGE OF ANY KIND, INCLUDING
#WITHOUT LIMITATION LOSS OF REVENUE, PROFITS, GOODWILL, USE, AND/OR DATA OR THE COST OF
#PROCUREMENT OF SUBSTITUTE GOODS OR SERVICES, EVEN IF APPRISED OF THE POSSIBILITY OF SUCH
#DAMAGES IN ADVANCE.
#--------------------------------------------------#

~VERSION INFORMATION
VERS. 2.0 : CWLS LOG ASCII STANDARD - VERSION 2.0
WRAP. NO : ONE LINE PER DEPTH STEP
~WELL INFORMATION
#MNEMONIC     .UNIT              VALUE :DESCRIPTION
STRT       .FT                101.00000 :START DEPTH
STOP       .FT                5802.00000 :STOP DEPTH
STEP       .FT                0.50000 :STEP
NULL       .                -999.25000 :NULL VALUE
UWI       .                42389010150000 :UNIQUE WELL ID
API       .                42389010150000 :API NUMBER
COMP       .                 :COMPANY
WELL       .                 :WELL
FLD       .                 :FIELD
LOC       .                 :LOCATION
CNTY       .                 :COUNTY
STAT       .                 :STATE
CTRY       .                 :COUNTRY
SRVC       .                 :SERVICE COMPANY
DATE       .                 :DATE
~CURVE INFORMATION
#MNEMONIC     .UNIT      API CODE :CURVE DESCRIPTION
DEPTH       .FT                      :MEASURED DEPTH
DT       .US/FT        UNKNOWN   :DT
GR       .GAPI        UNKNOWN   :GR
~A    DEPTH    DT    GR
# ...
1905.00000    62.51521    4.72933
1905.50000    66.87962    5.33140
1906.00000    71.24403    5.70162
1906.50000    75.60845    5.44479
1907.00000    79.97286    5.18795
1907.50000    77.24375    4.93112
1908.00000    72.12526    4.67429
1908.50000    67.00676    4.41745
1909.00000    64.70539    4.16062
1909.50000    66.71204    3.90379
1910.00000    68.71868    3.64695
1910.50000    70.72533    4.01401
1911.00000    68.23025    4.44466
1911.50000    63.10606    4.87530
1912.00000    61.96440    5.30594
1912.50000    64.39814    5.63697
1913.00000    66.83189    5.04500
1913.50000    69.26564    4.45304
1914.00000    69.22160    3.86107
1914.50000    67.40351    4.18406
1915.00000    65.58543    4.55217
1915.50000    63.76734    4.68980
1916.00000    61.94926    4.63147
1916.50000    60.13117    4.57313
1917.00000    58.31309    4.51480
1917.50000    80.94290    4.45646
1918.00000    78.29003    4.15089
1918.50000    75.63717    3.69828
1919.00000    72.98430    3.24567
1919.50000    70.33143    3.36673
1920.00000    67.67857    3.61778
1920.50000    65.02570    3.86884
1921.00000    62.37284    4.11989
1921.50000    62.37700    3.98091
1922.00000    66.08422    3.78675
1922.50000    69.79144    3.59259
1923.00000    73.49865    3.39843
1923.50000    68.20500    3.52415
1924.00000    63.22827    3.70199
1924.50000    65.41724    3.87983
1925.00000    67.60622    3.92196
1925.50000    69.79520    3.83642
1926.00000    71.98417    3.75088
1926.50000    74.17315    3.66533
1927.00000    76.36213    3.57979
1927.50000    78.55111    3.49425
1928.00000    80.74008    3.40871
1928.50000    82.92906    3.67115
1929.00000    85.11804    4.04895
1929.50000    73.46460    4.42675
1930.00000    52.40115    4.80455
1930.50000    42.19836    4.81589
1931.00000    45.85867    4.75348
1931.50000    48.45158    4.69107
1932.00000    50.48097    4.62866
1932.50000    52.51037    4.56625
1933.00000    52.92968    4.50384
1933.50000    52.55235    4.36378
1934.00000    52.17501    4.18854
1934.50000    51.79767    4.01330
1935.00000    51.66761    3.83806
1935.50000    51.79332    3.66282
1936.00000    51.91904    3.58790
1936.50000    52.04475    4.18138
1937.00000    52.17047    4.77486
1937.50000    52.40482    5.20241
1938.00000    52.74514    4.63489
1938.50000    53.08546    4.06737
1939.00000    53.42577    3.49985
1939.50000    53.76609    3.72756
1940.00000    53.80457    4.31358
1940.50000    53.43726    4.89961
1941.00000    53.06995    5.48564
1941.50000    52.70265    6.07167
1942.00000    52.33534    6.17890
1942.50000    51.96804    5.21422
1943.00000    51.60073    4.35211
1943.50000    51.23342    4.83388
1944.00000    50.88796    5.31565
1944.50000    50.89594    5.79742
1945.00000    50.90391    6.27919
1945.50000    50.91188    6.82161
1946.00000    50.91986    7.41008
1946.50000    50.92783    7.99855
1947.00000    50.93581    8.58702
1947.50000    50.94378    9.68806
1948.00000    50.95176    11.61367
1948.50000    50.95973    13.53927
1949.00000    52.86912    14.68430
1949.50000    55.23746    13.69832
1950.00000    57.60580    12.71234
1950.50000    57.41631    11.72636
1951.00000    56.21351    10.74038
1951.50000    55.01070    8.97669
1952.00000    53.80790    7.00668
1952.50000    52.60509    5.52245
1953.00000    51.40229    4.63713
1953.50000    51.02680    3.75181
1954.00000    51.29142    3.99860
1954.50000    51.55604    4.37240
1955.00000    51.82066    4.74620
1955.50000    52.08529    5.12000
1956.00000    54.12433    5.49380
1956.50000    57.80994    5.86760
1957.00000    59.88963    5.72312
1957.50000    61.36183    5.18046
1958.00000    62.83402    4.63780
1958.50000    64.34945    4.09514
1959.00000    66.03846    3.55249
1959.50000    67.72747    3.00983
1960.00000    69.41648    3.01552
1960.50000    71.10548    3.37860
1961.00000    72.79449    3.74168
1961.50000    73.24173    3.77140
1962.00000    72.00761    3.75897
1962.50000    70.77349    3.74654
1963.00000    69.53937    3.73411
1963.50000    68.30524    3.72168
1964.00000    67.07112    3.70925
1964.50000    67.22111    3.69682
1965.00000    70.57754    3.61170
1965.50000    71.17029    3.51221
1966.00000    69.65381    3.41272
1966.50000    68.13734    3.31323
1967.00000    66.62087    3.21374
1967.50000    65.80247    3.11425
1968.00000    67.65300    3.23689
1968.50000    69.50352    3.36237
1969.00000    70.24672    3.48785
1969.50000    68.06257    3.60856
1970.00000    65.87842    3.53474
1970.50000    66.81816    3.46093
1971.00000    69.22692    3.38711
1971.50000    71.63568    3.31329
1972.00000    74.04445    3.23948
1972.50000    72.92774    3.46713
1973.00000    70.89695    3.77172
1973.50000    68.86616    4.07631
1974.00000    66.83537    4.38090
1974.50000    64.80458    4.58962
1975.00000    63.04455    4.52252
1975.50000    74.66732    4.45542
1976.00000    78.38930    4.38833
1976.50000    70.68178    4.32123
1977.00000    62.97425    4.65187
1977.50000    61.10993    5.00173
1978.00000    66.74608    5.35159
1978.50000    72.38223    5.70144
1979.00000    78.01838    5.62665
1979.50000    75.22361    5.38999
1980.00000    71.26318    5.15332
1980.50000    67.30275    4.91666
1981.00000    63.34232    4.68000
1981.50000    59.38188    4.90689
1982.00000    55.42145    5.27201
1982.50000    65.32918    5.63714
1983.00000    77.16212    6.00226
1983.50000    75.97194    6.36739
1984.00000    72.95213    6.37927
1984.50000    69.93232    6.18981
1985.00000    66.91250    6.00035
1985.50000    63.89269    5.81089
1986.00000    65.41928    5.62143
1986.50000    71.81953    5.43197
1987.00000    78.21978    5.24251
1987.50000    84.62002    5.05305
1988.00000    91.02027    5.65671
1988.50000    97.42052    6.33671
1989.00000    103.82077    7.01671
1989.50000    99.79682    7.69670
1990.00000    87.54801    8.37670
1990.50000    75.29920    5.99911
1991.00000    63.05038    5.78199
1991.50000    80.15612    5.56486
1992.00000    74.68583    5.34774
1992.50000    71.24136    5.13061
1993.00000    70.91292    4.99235
1993.50000    70.58447    5.21617
1994.00000    70.25603    5.43999
1994.50000    69.92759    5.66382
1995.00000    69.59915    5.88764
1995.50000    69.27070    5.98981
1996.00000    68.94226    5.83189
1996.50000    68.61382    5.67397
1997.00000    68.28538    5.51605
1997.50000    69.45582    5.35814
1998.00000    71.00757    5.21450
1998.50000    72.55932    5.07090
1999.00000    74.11107    4.92729
1999.50000    75.66282    4.61754
2000.00000    77.21457    4.19876
2000.50000    78.76632    3.77999
2001.00000    80.31807    3.36121
2001.50000    81.86982    3.85405
2002.00000    83.42157    4.49500
2002.50000    84.97332    5.13595
2003.00000    86.52507    5.77690
2003.50000    87.68497    6.41785
2004.00000    48.27365    7.15002
2004.50000    47.70435    7.98008
2005.00000    47.13505    8.81015
2005.50000    46.56575    9.64021
2006.00000    47.89455    10.47028
2006.50000    51.46112    9.29631
2007.00000    52.38712    7.41187
2007.50000    52.37677    5.63969
2008.00000    52.36642    5.15756
2008.50000    52.35607    4.67543
2009.00000    52.34572    4.19330
2009.50000    52.33537    3.73774
2010.00000    52.32502    5.27146
2010.50000    52.31467    5.78691
2011.00000    53.88681    6.13499
2011.50000    56.06277    6.48306
2012.00000    57.15408    6.83114
2012.50000    57.08229    6.92542
2013.00000    57.01050    6.49102
2013.50000    56.93870    6.05663
2014.00000    56.86691    5.62224
2014.50000    56.79512    5.28805
2015.00000    72.70535    5.23363
2015.50000    84.57209    5.17922
2016.00000    83.07337    5.12481
2016.50000    81.57466    5.07040
2017.00000    80.07595    5.01598
2017.50000    78.57724    4.96157
2018.00000    77.07852    5.13311
2018.50000    75.57981    6.22990
2019.00000    74.08110    7.32668
2019.50000    68.38551    8.42346
2020.00000    59.77208    6.94034
2020.50000    51.15865    5.36718
2021.00000    45.44643    4.11029
2021.50000    46.46387    3.45626
2022.00000    47.48130    2.80223
2022.50000    48.49874    2.33520
