#--------------------------------------------------#
#-------------------ENVERUS, INC.------------------#
#------------------WWW.ENVERUS.COM-----------------#
#------------------COPYRIGHT 2020------------------#
#--------------------------------------------------#
#THIS FILE MAY BE USED ONLY IN ACCORDANCE WITH A CURRENT SUBSCRIPTION AGREEMENT BETWEEN
#THE USER AND ENVERUS, INC. NO PART OF THIS FILE MAY BE REPRODUCED, USED, COPIED,
#MODIFIED, PROPAGATED, OR DISTRIBUTED EXCEPT IN ACCORDANCE WITH THE SUBSCRIPTION
#AGREEMENT. UNAUTHORIZED USE OR DISTRIBUTION OF ALL OR ANY PART OF THIS FILE MAY VIOLATE
#COPYRIGHT, TRADEMARK, AND/OR OTHER LAWS AND IS SUBJECT TO CIVIL AS WELL AS CRIMINAL
#SANCTIONS.
#--------------------------------------------------#
#THIS FILE IS PROVIDED "AS-IS" AND ALL WARRANTIES ARE EXPRESSLY DISCLAIMED, WHETHER
#EXPRESS, ORAL, IMPLIED, STATUTORY OR OTHERWISE, INCLUDING ANY IMPLIED WARRANTY OF FITNESS
#FOR A PARTICULAR PURPOSE, MERCHANTABILITY, TITLE OR NON-INFRINGEMENT, AND ANY WARRANTIES
#ARISING BY VIRTUE OF CUSTOM OF TRADE OR COURSE OF DEALING.  FURTHER, ENVERUS, INC.
#AND ITS LICENSORS DO NOT REPRESENT OR WARRANT THAT THIS FILE WILL MEET USER'S
#REQUIREMENTS OR ARE SUITABLE FOR USER'S NEEDS OR THAT THE DATA OR RESULTS PROVIDED IN
#CONJUNCTION THEREWITH ARE CORRECT, ACCURATE, TIMELY OR RELIABLE. THESE DISCLAIMERS SHALL
#APPLY REGARDLESS OF ANY FAILURE OF ESSENTIAL PURPOSE OF ANY LIMITED REMEDY.  SOME
#JURISDICTIONS DO NOT ALLOW THE EXCLUSION OF CERTAIN WARRANTIES SO SOME OF THE ABOVE
#EXCLUSIONS MAY NOT APPLY. IN NO EVENT SHALL ENVERUS, INC. OR ANY OF ITS AFFILIATES
#BE LIABLE UNDER ANY LEGAL THEORY, WHETHER IN TORT (INCLUDING WITHOUT LIMITATION
#NEGLIGENCE), CONTRACT, STRICT LIABILITY, STATUTORY OR OTHERWISE, FOR ANY SPECIAL,
#INCIDENTAL, CONSEQUENTIAL, EXEMPLARY, PUNITIVE OR INDIRECT DAMAGE OF ANY KIND, INCLUDING
#WITHOUT LIMITATION LOSS OF REVENUE, PROFITS, GOODWILL, USE, AND/OR DATA OR THE COST OF
#PROCUREMENT OF SUBSTITUTE GOODS OR SERVICES, EVEN IF APPRISED OF THE POSSIBILITY OF SUCH
#DAMAGES IN ADVANCE.
#--------------------------------------------------#

# EXPORTED FROM DI TRANSFORM
# DI TRANSFORM - A PRODUCT OF DRILLINGINFO, INC. - WWW.DRILLINGINFO.COM
#
~VERSION INFORMATION
 VERS.        2.0 : LAS ASCII STANDARD - VERSION 2.0
 WRAP.         NO : ONE LINE PER DEPTH STEP

~WELL INFORMATION
#MNEM.UNIT       DATA TYPE       INFORMATION
#---------       ---------       -----------
 STRT.FT           100 : START DEPTH
 STOP.FT         18040 : STOP DEPTH
 STEP.FT           0.5 : STEP LENGTH
 NULL.         -999.25 : NULL VALUE
 UWI.   42371302980000 : UNIQUE WELL ID
 API.   42371302980000 : WELL IDENTIFIER
 COMP.                 : COMPANY
 WELL.          DRD_55 : WELL NAME
 FLD.                  : FIELD NAME
 LOC.                  : WELL LOCATION
 CNTY.                 : COUNTY
 STAT.                 : STATE OR PROVINCE
 CTRY.                 : COUNTRY
 SRVC.                 : SERVICE COMPANY
 DATE.                 : DATE

~CURVE INFORMATION
#MNEM.UNIT       API CODE       CURVE DESCRIPTION
#---------       --------       -----------------
 DEPT.FT        : <MEASURED DEPTH>
 CAL.IN         : CALIPER
 DT.US/FT       : SONIC
 GR.GAPI        : GAMMA RAY

~PARAMETER INFORMATION
#MNEM.UNIT       VALUE       DESCRIPTION
#---------       -----       -----------

~A       DEPT         CAL          DT          GR
# ...
         8500     13.3322      78.215     91.6059
       8500.5     13.3322     78.4493     89.9088
         8501     13.2534     78.0089     85.3468
       8501.5     13.2039     76.8634     83.3751
         8502     13.1418     75.7318     80.9696
       8502.5     13.1735     76.3526     77.1987
         8503     13.1963     78.9939     76.4041
       8503.5     13.2687     82.1356     78.9563
         8504     13.2687     83.6724     85.2942
       8504.5     13.2687     84.3481     88.5719
         8505     13.2687     84.5436     91.1123
       8505.5      13.237     84.6653     87.6428
         8506      13.237     84.5351     82.8267
       8506.5      13.237     84.2237     76.5363
         8507      13.237      83.346     74.4939
       8507.5      13.237     82.5056     75.3515
         8508      13.237     81.5857     78.3223
       8508.5     13.2665      81.606      81.531
         8509     13.2687     81.6227     84.1467
       8509.5     13.2687     81.6227     85.0202
         8510     13.2687     81.4355     83.0739
       8510.5     13.2656     81.2458     81.7421
         8511      13.237      81.094     80.7063
       8511.5      13.237     81.3793     81.9256
         8512      13.237     82.0652     87.1916
       8512.5      13.237     83.6902     92.0344
         8513     13.2652     85.0851     93.4313
       8513.5     13.2972     85.9369     90.7927
         8514     13.3956     86.0032     86.8379
       8514.5     13.3956     85.6918     85.4865
         8515     13.3956     84.5285     83.4776
       8515.5     13.3956     83.8461     81.1643
         8516     13.3956     82.9321     80.6645
       8516.5     13.3671     82.6207     81.2955
         8517     13.3639       82.64     81.5217
       8517.5     13.3552     82.7181     82.7432
         8518     13.3436     82.7759     86.2917
       8518.5     13.3311     82.8398      90.716
         8519     13.2752     82.8398     92.5477
       8519.5     13.2687     82.8398     93.1787
         8520     13.2687     83.0911     94.9069
       8520.5     13.3004     83.4973     96.5738
         8521     13.3294     84.4091     98.3106
       8521.5     13.3322     85.6859     97.7414
         8522     13.3322     85.9973     96.3788
       8522.5     13.3322     86.5528     95.3429
         8523     13.3322     87.5366       93.84
       8523.5     13.3322     86.4494     88.6233
         8524      13.263     82.2028     85.8154
       8524.5     13.1819     78.8359     81.9513
         8525     13.1735      77.735     76.9686
       8525.5     13.1735     77.1728      74.034
         8526     13.1735     81.3779      67.563
       8526.5     13.2052     84.6584     67.5998
         8527      13.237     84.7225      71.043
       8527.5      13.237     84.5328     75.4114
         8528      13.237     84.3002     79.1742
       8528.5      13.237     84.4219     84.7464
         8529     13.2062     84.5436     89.1994
       8529.5     13.1124     84.9443      92.099
         8530     13.0088     86.1362     95.1765
       8530.5      13.004     87.0435    100.2432
         8531      13.004     88.1941     99.5961
       8531.5      13.004     88.9659     97.8396
         8532     13.0445     89.2759     95.9045
       8532.5     13.0445     89.1684     96.2245
         8533     13.0445     88.7749    100.3168
       8533.5     13.0445     87.9183    103.4329
         8534     13.0445     87.5436    106.1541
       8534.5      13.004     87.4534    107.8394
         8535      13.023     87.6431     111.336
       8535.5     13.0445     88.2683    108.6622
         8536     13.0445     89.0317    103.2356
       8536.5     13.0445     89.4988     97.3969
         8537     13.0445     89.8804     92.8296
       8537.5     13.0445     89.6076     90.1695
         8538     13.0445       88.98     87.9275
       8538.5     13.0445     87.8203      86.082
         8539     13.0445     85.3023      86.209
       8539.5      13.004     82.5707     86.6397
         8540     12.9209     80.7448     85.7976
       8540.5     12.8826      80.115     83.8722
         8541     12.8757     81.4741     79.6144
       8541.5     12.8421     83.4825     76.3327
         8542     12.8538     84.0218     75.6558
       8542.5     12.9573     83.7104     81.6414
         8543     13.0445      83.741     86.1192
       8543.5     13.0835     83.9351     89.6021
         8544      13.085     83.8134     94.1563
       8544.5      13.085     84.0666     97.0777
         8545     13.1109     84.3999     96.4627
       8545.5      13.174     84.1544     92.4724
         8546     13.2065     83.9647      86.876
       8546.5     13.2065     83.3558      84.338
         8547     13.1711     81.0919     85.7531
       8547.5     13.1255     79.4997     86.4647
         8548     13.1255     78.5813     84.2219
       8548.5     13.0292      78.647     78.3117
         8549     12.9497     79.9779     72.2017
       8549.5     12.9197     81.3184     71.5249
         8550     12.8879       81.86      74.251
       8550.5     12.8879      82.565     77.1527
         8551     12.8562     84.2234     81.7921
       8551.5     12.8562     84.7749     84.7174
         8552     12.8576     85.6948     86.4208
       8552.5     12.8591     85.8802     85.8227
         8553     12.8605     84.8973     84.7868
       8553.5      12.862     83.9302     84.2105
         8554     12.8634     82.9143     83.8057
       8554.5     12.8649     82.0629     84.7175
         8555     12.8663     81.7444     84.5278
       8555.5     12.8678     81.7444     81.8871
         8556     12.8692     81.6227     80.2057
       8556.5     12.8707     81.1392     79.1552
         8557     12.8721     80.2675     79.8119
       8557.5     12.8736     79.3207     81.3765
         8558      12.875     78.5604     81.3108
       8558.5     12.8765      78.249     80.9717
         8559     12.8779     77.6942      79.102
       8559.5     12.8794     77.6065     76.6165
         8560     12.8808     77.7765      75.143
       8560.5     12.8823     78.0879     74.3006
         8561     12.8837     79.4092     76.7318
       8561.5     12.8852     80.4277      77.284
         8562     12.8866     81.1678     75.5277
       8562.5     12.8885     81.5241     73.4539
         8563     12.8967     81.6227     72.3167
       8563.5     12.9048     81.6227     73.6681
         8564     12.9129      81.501     71.5938
       8564.5     12.9197      81.206     72.2364
         8565     12.9197     81.3772     74.2667
       8565.5     12.9197     81.5669      77.859
         8566     12.9218     82.6085     81.0322
       8566.5     12.9759     82.9199     82.9217
         8567     12.9831     83.0568     86.5421
       8567.5     12.9831     82.7454     89.0439
         8568     12.9831     81.9469     91.2283
       8568.5     12.9831     81.6227     93.0304
         8569     12.9831     81.9641     92.1448
       8569.5     12.9831     83.2114     91.0971
         8570     12.9831     84.6377     92.1329
       8570.5     12.9831     84.6344     92.3591
         8571      12.994     83.9699     92.0302
       8571.5     13.0149      82.902     89.2314
         8572     13.0435     82.2056     84.0826
       8572.5     13.0466     82.7181     78.7503
         8573     13.0466     82.6061      77.263
       8573.5     13.0466     81.9349     78.3313
         8574     13.0466     82.0126      81.204
       8574.5     13.0454     83.0572     84.8089
         8575     13.0445     84.1225     91.2348
       8575.5     13.0445     85.4816    103.6953
         8576     13.0445     85.6389    102.8717
       8576.5     13.0445     85.2854    101.6883
         8577     13.0445     84.7397     101.934
       8577.5     13.0445     84.6653    101.4491
         8578     13.0445     84.2072     98.8809
       8578.5     13.0445     83.3109     97.5448
         8579     13.0445     82.6652      97.823
       8579.5      13.085      81.844     98.3806
