###############################################
##         ENVERUS                           ##
##         ESS - Open Hole                   ##
##         PERMIAN / DELAWARE                ##
##         Nov 04 2023  V4.0                 ##
##         42-371-36358-00-00                ##
###############################################
## Copyright 2017-2023  ENVERUS.  All Rights Reserved. 
## Confidential - Property of ENVERUS, use governed by terms and 
## conditions found within the existing Information Services Subscription Agreement 
## (as may be amended, the “ISSA”) between Customer and ENVERUS. 
## 
~VERSION INFORMATION
# MNEM.UNIT                               DATA : DESCRIPTION OF MNEMONIC
#-----.-----     ----------------------------- : -----------------------------
VERS.                                     2.00 : CWLS LOG ASCII STANDARD - VERSION 2.00
WRAP.                                       NO : MULTIPLE LINES PER DEPTH STEP
VEND.                                  ENVERUS : VENDOR
TYPE.                          ESS - OPEN HOLE : ENVERUS ESSENTIAL CURVES – ACCESSIBLE THROUGH ENVERUS PRISM(TM)
DOC.                                  32044985 : ENVERUS HEADER RAW DOCUMENT ID
#___________________________________________________________________________________________________ 
~WELL INFORMATION 
# 9/F+NtSLBEAIaZM9LpLMxALTyCH3LMfPBQiNKTeSadJ6NAezaEZy+3+OEP8rVGNvVB4ifWNnxSKvs1BiqqZA9A== 
# MNEM.UNIT                                              DATA : DESCRIPTION OF MNEMONIC 
#-----.-----                    ----------------------------- : ----------------------------- 
CNTY.                                                   PECOS : COUNTY 
STATE.                                                  TEXAS : STATE 
CNTRY.                                                    USA : COUNTRY 
API.                                             42-371-36358 : API (10 Digit) 
API_14.                                    42-371-36358-00-00 : API (14 Digits) 
API_14_std.                                 42-371-36358-0000 : API (14 Digits Standard) 
UWI.                                           42371363580000 : UNIQUE WELL ID 
WELL.                           SCHLOSSER, FRED ESTATE -B-  9 : WELL NAME
STRT.FT                                                 151.0 : START DEPTH
STOP.FT                                                5707.0 : STOP DEPTH
STEP.FT                                                   0.5 : STEP BETWEEN DEPTHS
NULL.                                                 -999.25 : NULL VALUE
COMP.                                      APACHE CORPORATION : COMPANY 
DATE.                                             07-JUN-1992 : LOG DATE
#___________________________________________________________________________________________________ 
~CURVE INFORMATION 
# MNEM.UNIT           : CURVE DESCRIPTION 
#-----.-----          : ----------------------------- 
 DEPT.FT               : MEASURED DEPTH 
 GR.API                : GAMMA RAY (GR) 
 DT.US/FT              : SONIC DELTA TRANSIT TIME (DT) 
 #___________________________________________________________________________________________________ 
~A         DEPT             GR             DT
# ...
          499.0         44.877       -999.250
          499.5         44.251       -999.250
          500.0         43.909       -999.250
          500.5         43.568       -999.250
          501.0         43.452       -999.250
          501.5         44.664       -999.250
          502.0         45.877       -999.250
          502.5         47.089       -999.250
          503.0         48.302       -999.250
          503.5         49.514       -999.250
          504.0         49.936       -999.250
          504.5         49.935       -999.250
          505.0         49.935       -999.250
          505.5         49.484       -999.250
          506.0         48.265       -999.250
          506.5         47.046       -999.250
          507.0         45.827       -999.250
          507.5         41.074       -999.250
          508.0         39.274       -999.250
          508.5         39.223       -999.250
          509.0         39.171       -999.250
          509.5         39.119       -999.250
          510.0         44.885       -999.250
          510.5         46.888       -999.250
          511.0         48.892       -999.250
          511.5         47.869       -999.250
          512.0         46.506       -999.250
          512.5         46.468       -999.250
          513.0         46.559       -999.250
          513.5         46.651       -999.250
          514.0         46.743       -999.250
          514.5         45.712       -999.250
          515.0         42.902       -999.250
          515.5         41.942       -999.250
          516.0         43.159       -999.250
          516.5         44.377       -999.250
          517.0         45.595       -999.250
          517.5         46.813       -999.250
          518.0         48.031       -999.250
          518.5         49.249       -999.250
          519.0         49.834       -999.250
          519.5         48.793       -999.250
          520.0         47.753       -999.250
          520.5         46.712       -999.250
          521.0         46.027       -999.250
          521.5         45.513       -999.250
          522.0         45.207       -999.250
          522.5         45.016       -999.250
          523.0         44.824       -999.250
          523.5         45.186       -999.250
          524.0         46.466       -999.250
          524.5         47.746       -999.250
          525.0         49.025       -999.250
          525.5         50.087       -999.250
          526.0         49.883       -999.250
          526.5         49.008       -999.250
          527.0         42.427       -999.250
          527.5         39.618       -999.250
          528.0         38.577       -999.250
          528.5         37.537       -999.250
          529.0         38.648       -999.250
          529.5         40.066       -999.250
          530.0         41.484       -999.250
          530.5         42.806       -999.250
          531.0         42.550       -999.250
          531.5         42.294       -999.250
          532.0         43.789       -999.250
          532.5         46.411       -999.250
          533.0         46.433       -999.250
          533.5         47.904       -999.250
          534.0         49.375       -999.250
          534.5         50.845       -999.250
          535.0         50.885       -999.250
          535.5         50.162       -999.250
          536.0         43.588       -999.250
          536.5         42.850       -999.250
          537.0         42.112       -999.250
          537.5         41.055       -999.250
          538.0         39.723       -999.250
          538.5         38.391       -999.250
          539.0         37.058       -999.250
          539.5         36.773       -999.250
          540.0         42.122       -999.250
          540.5         43.289       -999.250
          541.0         43.097       -999.250
          541.5         42.905       -999.250
          542.0         41.704       -999.250
          542.5         39.437       -999.250
          543.0         41.605       -999.250
          543.5         44.139       -999.250
          544.0         46.673       -999.250
          544.5         49.206       -999.250
          545.0         50.229       -999.250
          545.5         50.101       -999.250
          546.0         50.886       -999.250
          546.5         51.739       -999.250
          547.0         52.592       -999.250
          547.5         54.625       -999.250
          548.0         56.658       -999.250
          548.5         54.773       -999.250
          549.0         52.192       -999.250
          549.5         49.611       -999.250
          550.0         47.030       -999.250
          550.5         48.715       -999.250
          551.0         50.515       -999.250
          551.5         52.315       -999.250
          552.0         54.115       -999.250
          552.5         53.160       -999.250
          553.0         50.983       -999.250
          553.5         48.807       -999.250
          554.0         46.630       -999.250
          554.5         44.458       -999.250
          555.0         45.288       -999.250
          555.5         46.117       -999.250
          556.0         46.947       -999.250
          556.5         47.776       -999.250
          557.0         48.606       -999.250
          557.5         48.001       -999.250
          558.0         47.371       -999.250
          558.5         46.741       -999.250
          559.0         45.809       -999.250
          559.5         44.299       -999.250
          560.0         42.788       -999.250
          560.5         41.174       -999.250
          561.0         39.045       -999.250
          561.5         36.916       -999.250
          562.0         38.282       -999.250
          562.5         40.419       -999.250
          563.0         42.557       -999.250
          563.5         43.068       -999.250
          564.0         43.169       -999.250
          564.5         44.843       -999.250
          565.0         47.060       -999.250
          565.5         48.469       -999.250
          566.0         49.298       -999.250
          566.5         49.873       -999.250
          567.0         47.180       -999.250
          567.5         44.486       -999.250
          568.0         43.223       -999.250
          568.5         44.456       -999.250
          569.0         45.690       -999.250
          569.5         46.923       -999.250
          570.0         48.157       -999.250
          570.5         49.390       -999.250
          571.0         49.781       -999.250
          571.5         49.162       -999.250
          572.0         48.544       -999.250
          572.5         47.925       -999.250
          573.0         47.307       -999.250
          573.5         46.688       -999.250
          574.0         46.873       -999.250
          574.5         48.345       -999.250
          575.0         49.816       -999.250
          575.5         51.288       -999.250
          576.0         50.770       -999.250
          576.5         48.702       -999.250
          577.0         46.633       -999.250
          577.5         44.688       -999.250
          578.0         46.197       -999.250
          578.5         47.706       -999.250
          579.0         49.215       -999.250
          579.5         50.723       -999.250
          580.0         52.232       -999.250
          580.5         51.878       -999.250
          581.0         49.750       -999.250
          581.5         47.622       -999.250
          582.0         47.187       -999.250
          582.5         49.543       -999.250
          583.0         51.899       -999.250
          583.5         54.256       -999.250
          584.0         56.366       -999.250
          584.5         53.262       -999.250
          585.0         50.157       -999.250
          585.5         48.101       -999.250
