#--------------------------------------------------#
#-------------------ENVERUS, INC.------------------#
#------------------WWW.ENVERUS.COM-----------------#
#------------------COPYRIGHT 2020------------------#
#--------------------------------------------------#
#THIS FILE MAY BE USED ONLY IN ACCORDANCE WITH A CURRENT SUBSCRIPTION AGREEMENT BETWEEN
#THE USER AND ENVERUS, INC. NO PART OF THIS FILE MAY BE REPRODUCED, USED, COPIED,
#MODIFIED, PROPAGATED, OR DISTRIBUTED EXCEPT IN ACCORDANCE WITH THE SUBSCRIPTION
#AGREEMENT. UNAUTHORIZED USE OR DISTRIBUTION OF ALL OR ANY PART OF THIS FILE MAY VIOLATE
#COPYRIGHT, TRADEMARK, AND/OR OTHER LAWS AND IS SUBJECT TO CIVIL AS WELL AS CRIMINAL
#SANCTIONS.
#--------------------------------------------------#
#THIS FILE IS PROVIDED "AS-IS" AND ALL WARRANTIES ARE EXPRESSLY DISCLAIMED, WHETHER
#EXPRESS, ORAL, IMPLIED, STATUTORY OR OTHERWISE, INCLUDING ANY IMPLIED WARRANTY OF FITNESS
#FOR A PARTICULAR PURPOSE, MERCHANTABILITY, TITLE OR NON-INFRINGEMENT, AND ANY WARRANTIES
#ARISING BY VIRTUE OF CUSTOM OF TRADE OR COURSE OF DEALING.  FURTHER, ENVERUS, INC.
#AND ITS LICENSORS DO NOT REPRESENT OR WARRANT THAT THIS FILE WILL MEET USER'S
#REQUIREMENTS OR ARE SUITABLE FOR USER'S NEEDS OR THAT THE DATA OR RESULTS PROVIDED IN
#CONJUNCTION THEREWITH ARE CORRECT, ACCURATE, TIMELY OR RELIABLE. THESE DISCLAIMERS SHALL
#APPLY REGARDLESS OF ANY FAILURE OF ESSENTIAL PURPOSE OF ANY LIMITED REMEDY.  SOME
#JURISDICTIONS DO NOT ALLOW THE EXCLUSION OF CERTAIN WARRANTIES SO SOME OF THE ABOVE
#EXCLUSIONS MAY NOT APPLY. IN NO EVENT SHALL ENVERUS, INC. OR ANY OF ITS AFFILIATES
#BE LIABLE UNDER ANY LEGAL THEORY, WHETHER IN TORT (INCLUDING WITHOUT LIMITATION
#NEGLIGENCE), CONTRACT, STRICT LIABILITY, STATUTORY OR OTHERWISE, FOR ANY SPECIAL,
#INCIDENTAL, CONSEQUENTIAL, EXEMPLARY, PUNITIVE OR INDIRECT DAMAGE OF ANY KIND, INCLUDING
#WITHOUT LIMITATION LOSS OF REVENUE, PROFITS, GOODWILL, USE, AND/OR DATA OR THE COST OF
#PROCUREMENT OF SUBSTITUTE GOODS OR SERVICES, EVEN IF APPRISED OF THE POSSIBILITY OF SUCH
#DAMAGES IN ADVANCE.
#--------------------------------------------------#

~VERSION INFORMATION
VERS. 2.0 : CWLS LOG ASCII STANDARD - VERSION 2.0
WRAP. NO : ONE LINE PER DEPTH STEP
~WELL INFORMATION
#MNEMONIC     .UNIT              VALUE :DESCRIPTION
STRT       .FT                101.00000 :START DEPTH
STOP       .FT                5802.00000 :STOP DEPTH
STEP       .FT                0.50000 :STEP
NULL       .                -999.25000 :NULL VALUE
UWI       .                42389010150000 :UNIQUE WELL ID
API       .                42389010150000 :API NUMBER
COMP       .                 :COMPANY
WELL       .                 :WELL
FLD       .                 :FIELD
LOC       .                 :LOCATION
CNTY       .                 :COUNTY
STAT       .                 :STATE
CTRY       .                 :COUNTRY
SRVC       .                 :SERVICE COMPANY
DATE       .                 :DATE
~CURVE INFORMATION
#MNEMONIC     .UNIT      API CODE :CURVE DESCRIPTION
DEPTH       .FT                      :MEASURED DEPTH
DT       .US/FT        UNKNOWN   :DT
GR       .GAPI        UNKNOWN   :GR
~A    DEPTH    DT    GR
# ...
4585.50000    49.90039    2.42245
4586.00000    49.85839    2.64382
4586.50000    49.81640    2.86518
4587.00000    49.77440    3.08655
4587.50000    49.73241    3.30792
4588.00000    49.69042    3.52929
4588.50000    49.64842    3.49308
4589.00000    49.60643    3.15272
4589.50000    49.56443    2.81237
4590.00000    49.52244    2.47202
4590.50000    49.48045    2.20693
4591.00000    49.72106    2.45738
4591.50000    50.01263    2.70783
4592.00000    50.30420    2.95828
4592.50000    50.59577    3.20873
4593.00000    50.88734    2.08507
4593.50000    51.17891    2.04955
4594.00000    51.47048    2.13721
4594.50000    51.74430    2.22487
4595.00000    51.43642    2.31252
4595.50000    51.12854    2.40018
4596.00000    50.82066    2.48784
4596.50000    50.51278    2.57550
4597.00000    50.20490    2.65266
4597.50000    49.89702    2.70121
4598.00000    49.59674    2.74977
4598.50000    49.80239    2.79832
4599.00000    50.00805    2.84688
4599.50000    50.21371    2.89543
4600.00000    50.41936    2.88172
4600.50000    50.62502    2.79307
4601.00000    50.83067    2.70442
4601.50000    51.03633    2.61576
4602.00000    51.24198    2.52711
4602.50000    51.12206    2.43845
4603.00000    50.93302    2.34980
4603.50000    50.74398    2.24139
4604.00000    50.55493    2.26509
4604.50000    50.36589    2.28878
4605.00000    50.29625    2.31248
4605.50000    50.40074    2.33618
4606.00000    50.50522    2.35988
4606.50000    50.60971    2.38358
4607.00000    50.71420    2.41146
4607.50000    50.58055    2.55039
4608.00000    50.34859    2.68933
4608.50000    50.11663    2.82827
4609.00000    49.88467    2.96721
4609.50000    49.65272    3.10615
4610.00000    49.42076    3.24509
4610.50000    49.58342    3.38403
4611.00000    49.79344    3.58727
4611.50000    50.00347    3.88548
4612.00000    50.20852    4.18370
4612.50000    50.01448    4.48191
4613.00000    49.82044    4.78013
4613.50000    49.62639    4.00153
4614.00000    49.43235    3.02291
4614.50000    49.24206    2.86027
4615.00000    49.35541    3.15293
4615.50000    49.46876    3.44560
4616.00000    49.58212    3.73827
4616.50000    49.69547    4.03094
4617.00000    49.80882    4.32360
4617.50000    49.92218    4.61627
4618.00000    50.03553    4.65524
4618.50000    50.10756    4.20660
4619.00000    50.09069    3.75795
4619.50000    50.07383    3.30930
4620.00000    50.05696    3.17853
4620.50000    50.04009    3.24054
4621.00000    50.02323    3.30255
4621.50000    50.00636    3.36456
4622.00000    49.98949    3.42657
4622.50000    49.97263    3.48858
4623.00000    49.95576    3.33938
4623.50000    49.93890    2.98194
4624.00000    49.92203    2.62450
4624.50000    49.91187    2.26706
4625.00000    50.01638    1.90962
4625.50000    50.12089    1.81108
4626.00000    50.22541    1.91947
4626.50000    50.32992    2.02786
4627.00000    50.35770    2.13625
4627.50000    50.24793    2.24464
4628.00000    50.13816    2.35304
4628.50000    50.02839    2.46143
4629.00000    49.91862    2.56982
4629.50000    49.80885    2.67821
4630.00000    49.79498    2.81322
4630.50000    49.88366    2.95992
4631.00000    49.97234    3.10663
4631.50000    50.06103    3.25333
4632.00000    50.14971    3.40004
4632.50000    50.23839    3.54674
4633.00000    50.04086    3.69345
4633.50000    49.82488    3.84015
4634.00000    49.60891    3.78479
4634.50000    49.45121    2.54596
4635.00000    49.53673    2.01315
4635.50000    49.62224    2.02298
4636.00000    49.70775    2.03282
4636.50000    49.76460    2.04266
4637.00000    49.76982    2.05250
4637.50000    49.77504    2.06234
4638.00000    49.78026    2.07218
4638.50000    49.78549    2.08202
4639.00000    49.79071    2.13728
4639.50000    49.79594    2.30144
4640.00000    49.80116    2.46559
4640.50000    49.80638    2.62974
4641.00000    49.81161    2.79389
4641.50000    49.81683    2.95805
4642.00000    49.82205    3.12220
4642.50000    49.82302    3.28635
4643.00000    49.77094    3.43516
4643.50000    49.71887    3.32012
4644.00000    49.66679    3.20508
4644.50000    49.61472    3.09004
4645.00000    49.56264    2.97500
4645.50000    49.51057    2.85996
4646.00000    49.45849    2.74492
4646.50000    49.50765    2.62988
4647.00000    49.56724    2.51484
4647.50000    49.62683    2.39980
4648.00000    49.68642    2.28476
4648.50000    49.74601    2.16972
4649.00000    49.78158    2.05468
4649.50000    49.77749    1.93964
4650.00000    49.77339    1.96470
4650.50000    49.76929    2.46167
4651.00000    49.76519    2.95864
4651.50000    49.76109    3.45561
4652.00000    49.75699    3.46846
4652.50000    49.75290    3.42667
4653.00000    49.74880    3.38489
4653.50000    49.74470    3.34310
4654.00000    49.74060    3.30131
4654.50000    49.83226    3.25953
4655.00000    50.08396    3.21774
4655.50000    50.33566    3.34316
4656.00000    50.58735    3.61149
4656.50000    50.83905    3.87981
4657.00000    51.02231    4.14813
4657.50000    50.91998    4.41645
4658.00000    50.81766    4.68478
4658.50000    50.71534    4.45422
4659.00000    50.61301    4.06100
4659.50000    50.52073    3.66778
4660.00000    50.42852    3.27456
4660.50000    50.33631    2.88135
4661.00000    50.24410    2.48813
4661.50000    50.15188    2.24096
4662.00000    50.05967    2.40970
4662.50000    49.96746    2.57844
4663.00000    49.92585    2.74718
4663.50000    49.95222    2.91593
4664.00000    49.97859    2.84646
4664.50000    50.00496    2.66585
4665.00000    50.03132    2.48524
4665.50000    50.05769    2.30464
4666.00000    50.08406    2.12403
4666.50000    50.11042    2.12757
4667.00000    50.13679    2.18954
4667.50000    50.16316    2.25151
4668.00000    50.18953    2.31348
4668.50000    50.21589    2.37544
4669.00000    50.24226    2.43741
4669.50000    50.26863    2.49938
4670.00000    50.29499    2.58587
4670.50000    50.34668    2.86639
4671.00000    50.41648    3.14691
4671.50000    50.48628    3.42743
4672.00000    50.55608    3.70795
4672.50000    50.62588    3.98847
4673.00000    50.69568    4.26899
4673.50000    50.76547    4.54951
4674.00000    50.83527    4.53536
4674.50000    50.90507    4.22929
4675.00000    50.97487    3.92323
4675.50000    50.94231    3.61716
4676.00000    50.73521    3.31109
4676.50000    50.52810    3.00502
4677.00000    50.32099    2.69895
4677.50000    50.11389    2.39289
4678.00000    49.90678    2.43200
4678.50000    49.73032    2.56344
4679.00000    49.78217    2.69489
4679.50000    49.83403    2.79383
4680.00000    49.88588    2.66455
4680.50000    49.93774    2.53528
4681.00000    49.98959    2.40600
4681.50000    50.04145    2.27672
4682.00000    50.09330    2.34139
4682.50000    50.14516    2.58894
4683.00000    50.01066    2.83649
4683.50000    49.76265    3.08404
4684.00000    49.51464    3.33159
4684.50000    49.26662    3.57914
4685.00000    49.03540    3.82669
4685.50000    49.11918    4.07425
4686.00000    49.20296    4.32180
4686.50000    49.28674    4.56935
4687.00000    49.37053    4.81690
4687.50000    49.45431    4.24682
4688.00000    49.53809    3.00442
4688.50000    49.62187    2.93648
4689.00000    49.70565    2.90097
4689.50000    49.78943    2.86546
4690.00000    49.77743    2.82996
4690.50000    49.48415    2.79445
4691.00000    49.19087    2.76664
4691.50000    48.89758    2.78305
4692.00000    48.60430    2.79946
4692.50000    48.31102    2.81586
4693.00000    48.01774    2.83227
4693.50000    48.17002    2.84868
4694.00000    48.58956    2.86508
4694.50000    49.00910    2.88149
4695.00000    49.35517    2.89790
4695.50000    49.21917    2.91430
4696.00000    49.08317    2.93071
4696.50000    48.94716    2.94711
4697.00000    48.81116    2.96352
4697.50000    48.67515    2.97993
4698.00000    48.53915    2.99633
4698.50000    48.40674    3.01274
4699.00000    48.74065    3.06459
4699.50000    49.07456    3.23817
4700.00000    49.40847    3.41176
4700.50000    49.74238    3.58535
4701.00000    50.07630    3.75894
4701.50000    50.41021    3.93253
4702.00000    50.74412    4.10612
4702.50000    50.98530    4.27971
4703.00000    50.85692    4.45329
