#--------------------------------------------------#
#-------------------ENVERUS, INC.------------------#
#------------------WWW.ENVERUS.COM-----------------#
#------------------COPYRIGHT 2020------------------#
#--------------------------------------------------#
#THIS FILE MAY BE USED ONLY IN ACCORDANCE WITH A CURRENT SUBSCRIPTION AGREEMENT BETWEEN
#THE USER AND ENVERUS, INC. NO PART OF THIS FILE MAY BE REPRODUCED, USED, COPIED,
#MODIFIED, PROPAGATED, OR DISTRIBUTED EXCEPT IN ACCORDANCE WITH THE SUBSCRIPTION
#AGREEMENT. UNAUTHORIZED USE OR DISTRIBUTION OF ALL OR ANY PART OF THIS FILE MAY VIOLATE
#COPYRIGHT, TRADEMARK, AND/OR OTHER LAWS AND IS SUBJECT TO CIVIL AS WELL AS CRIMINAL
#SANCTIONS.
#--------------------------------------------------#
#THIS FILE IS PROVIDED "AS-IS" AND ALL WARRANTIES ARE EXPRESSLY DISCLAIMED, WHETHER
#EXPRESS, ORAL, IMPLIED, STATUTORY OR OTHERWISE, INCLUDING ANY IMPLIED WARRANTY OF FITNESS
#FOR A PARTICULAR PURPOSE, MERCHANTABILITY, TITLE OR NON-INFRINGEMENT, AND ANY WARRANTIES
#ARISING BY VIRTUE OF CUSTOM OF TRADE OR COURSE OF DEALING.  FURTHER, ENVERUS, INC.
#AND ITS LICENSORS DO NOT REPRESENT OR WARRANT THAT THIS FILE WILL MEET USER'S
#REQUIREMENTS OR ARE SUITABLE FOR USER'S NEEDS OR THAT THE DATA OR RESULTS PROVIDED IN
#CONJUNCTION THEREWITH ARE CORRECT, ACCURATE, TIMELY OR RELIABLE. THESE DISCLAIMERS SHALL
#APPLY REGARDLESS OF ANY FAILURE OF ESSENTIAL PURPOSE OF ANY LIMITED REMEDY.  SOME
#JURISDICTIONS DO NOT ALLOW THE EXCLUSION OF CERTAIN WARRANTIES SO SOME OF THE ABOVE
#EXCLUSIONS MAY NOT APPLY. IN NO EVENT SHALL ENVERUS, INC. OR ANY OF ITS AFFILIATES
#BE LIABLE UNDER ANY LEGAL THEORY, WHETHER IN TORT (INCLUDING WITHOUT LIMITATION
#NEGLIGENCE), CONTRACT, STRICT LIABILITY, STATUTORY OR OTHERWISE, FOR ANY SPECIAL,
#INCIDENTAL, CONSEQUENTIAL, EXEMPLARY, PUNITIVE OR INDIRECT DAMAGE OF ANY KIND, INCLUDING
#WITHOUT LIMITATION LOSS OF REVENUE, PROFITS, GOODWILL, USE, AND/OR DATA OR THE COST OF
#PROCUREMENT OF SUBSTITUTE GOODS OR SERVICES, EVEN IF APPRISED OF THE POSSIBILITY OF SUCH
#DAMAGES IN ADVANCE.
#--------------------------------------------------#

~VERSION INFORMATION
VERS. 2.0 : CWLS LOG ASCII STANDARD - VERSION 2.0
WRAP.  NO : ONE LINE PER DEPTH STEP
~WELL INFORMATION
#MNEMONIC     .UNIT              VALUE :DESCRIPTION
STRT       .FT                102 :START DEPTH
STOP       .FT                5463 :STOP DEPTH
STEP       .FT                   0.500 :STEP
NULL       .                  -999.990 :NULL
UWI        .              42371363560000 :UNIQUE WELL ID
API        .              42371363560000 :API NUMBER
COMP       .         APACHE CORPORATION :COMPANY
WELL       .        SCHLOSSER, FRED ESTATE -B-  11 :WELL
DATE       .                22-JUN-1992 :LOG DATE
~CURVE INFORMATION
#MNEMONIC     .UNIT      API CODE :CURVE DESCRIPTION
DEPTH       .FT                      :MEASURED DEPTH
DT.US/FT        UNKNOWN   :DT
GR.API        UNKNOWN   :GR
~A    DEPTH    DT    GR
# ...
 4607     49.663   4.506
 4607.5     49.599   4.765
 4608     49.536   6.028
 4608.5     49.472   7.517
 4609     49.433   9.209
 4609.5     49.636   9.598
 4610     49.839   9.825
 4610.5     49.939   10.051
 4611     49.859   10.136
 4611.5     49.938   9.191
 4612     50.072   8.246
 4612.5     50.134   7.301
 4613     50.036   6.709
 4613.5     49.938   7
 4614     49.84   7.291
 4614.5     49.742   7.415
 4615     49.644   7.237
 4615.5     49.871   7.06
 4616     50.258   6.882
 4616.5     50.644   6.788
 4617     50.624   7.175
 4617.5     50.372   7.562
 4618     50.121   7.949
 4618.5     49.87   8.336
 4619     49.619   8.724
 4619.5     49.849   9.036
 4620     50.165   8.611
 4620.5     50.296   8.187
 4621     50.12   7.762
 4621.5     49.945   7.447
 4622     50.002   8.478
 4622.5     50.066   9.509
 4623     50.13   10.382
 4623.5     50.194   10.538
 4624     50.258   10.695
 4624.5     50.322   10.462
 4625     50.386   9.766
 4625.5     50.45   9.071
 4626     50.462   8.206
 4626.5     50.358   7.268
 4627     50.255   7.786
 4627.5     50.151   8.314
 4628     50.18   8.842
 4628.5     50.317   9.371
 4629     50.194   9.899
 4629.5     49.932   10.427
 4630     50.034   9.771
 4630.5     50.233   8.7
 4631     50.311   7.63
 4631.5     50.146   7.395
 4632     49.981   7.433
 4632.5     49.815   7.471
 4633     49.824   7.509
 4633.5     49.952   7.547
 4634     50.081   7.585
 4634.5     50.209   7.623
 4635     50.029   7.661
 4635.5     49.766   7.792
 4636     49.503   8.087
 4636.5     49.474   8.383
 4637     49.921   8.679
 4637.5     50.368   8.975
 4638     50.295   9.271
 4638.5     49.821   9.567
 4639     50.108   9.277
 4639.5     50.405   8.905
 4640     50.701   8.533
 4640.5     50.328   8.161
 4641     49.765   8.552
 4641.5     49.875   9.063
 4642     49.984   9.574
 4642.5     50.051   10.085
 4643     49.881   10.195
 4643.5     49.906   9.266
 4644     49.976   8.336
 4644.5     50.045   7.406
 4645     50.115   6.476
 4645.5     50.185   6.849
 4646     49.763   7.532
 4646.5     49.181   8.215
 4647     49.32   8.896
 4647.5     49.458   9.536
 4648     49.596   10.176
 4648.5     49.498   10.325
 4649     49.223   10.1
 4649.5     48.947   9.875
 4650     48.979   9.65
 4650.5     49.507   9.482
 4651     50.034   9.33
 4651.5     50.542   9.178
 4652     50.669   9.025
 4652.5     50.797   8.674
 4653     50.924   8.17
 4653.5     51.052   7.667
 4654     50.841   7.163
 4654.5     50.488   6.659
 4655     50.661   6.768
 4655.5     51.208   7.143
 4656     50.501   7.517
 4656.5     50.603   7.891
 4657     50.824   8.265
 4657.5     51.046   8.639
 4658     51.225   8.969
 4658.5     50.768   9.24
 4659     50.311   9.512
 4659.5     49.727   9.141
 4660     49.664   7.24
 4660.5     49.67   6.855
 4661     49.675   6.892
 4661.5     49.681   6.93
 4662     49.686   6.967
 4662.5     49.691   7.004
 4663     49.978   6.958
 4663.5     50.383   6.273
 4664     50.208   5.587
 4664.5     49.864   6.301
 4665     49.579   7.407
 4665.5     49.699   8.512
 4666     49.819   8.089
 4666.5     50.028   7.475
 4667     50.278   6.079
 4667.5     50.528   6.092
 4668     50.132   6.727
 4668.5     49.7   7.362
 4669     49.961   7.996
 4669.5     50.354   8.631
 4670     50.748   8.706
 4670.5     50.757   8.202
 4671     50.427   7.698
 4671.5     50.096   7.194
 4672     49.793   6.789
 4672.5     49.783   6.662
 4673     49.774   6.535
 4673.5     49.764   6.408
 4674     49.927   6.622
 4674.5     50.121   6.877
 4675     50.082   7.131
 4675.5     49.928   7.322
 4676     49.773   7.084
 4676.5     49.849   6.845
 4677     50.013   6.607
 4677.5     50.176   7.099
 4678     50.077   8.195
 4678.5     49.882   7.794
 4679     49.701   7.215
 4679.5     49.731   6.637
 4680     49.762   6.058
 4680.5     49.792   6.49
 4681     49.822   7.451
 4681.5     49.852   8.411
 4682     49.883   8.474
 4682.5     49.847   7.804
 4683     49.762   7.133
 4683.5     49.677   6.462
 4684     49.74   5.913
 4684.5     49.82   6.476
 4685     49.848   7.038
 4685.5     49.813   7.601
 4686     49.777   8.163
 4686.5     49.742   8.241
 4687     49.706   8.283
 4687.5     49.75   8.066
 4688     49.804   7.479
 4688.5     49.858   6.891
 4689     49.913   6.304
 4689.5     49.967   6.234
 4690     50.003   6.51
 4690.5     50.018   6.786
 4691     50.034   7.063
 4691.5     50.049   7.339
 4692     50.041   8.07
 4692.5     49.904   9.13
 4693     49.766   10.19
 4693.5     49.629   11.183
 4694     49.573   11.183
 4694.5     50.054   11.183
 4695     50.535   11.183
 4695.5     50.939   10.756
 4696     50.536   9.889
 4696.5     50.133   9.023
 4697     49.827   8.157
 4697.5     49.955   7.291
 4698     50.083   6.876
 4698.5     50.211   6.563
 4699     50.319   6.251
 4699.5     50.266   5.938
 4700     50.214   6.372
 4700.5     50.161   7.995
 4701     50.108   8.315
 4701.5     49.889   8.188
 4702     49.63   8.061
 4702.5     49.545   8.137
 4703     49.545   8.546
 4703.5     49.546   8.783
 4704     49.807   8.602
 4704.5     50.177   8.421
 4705     50.341   8.589
 4705.5     50.305   9.43
 4706     50.269   10.192
 4706.5     50.646   9.734
 4707     51.117   9.275
 4707.5     51.535   8.817
 4708     50.956   8.358
 4708.5     50.377   8.367
 4709     50.318   8.927
 4709.5     50.491   8.846
 4710     50.579   8.766
 4710.5     50.404   8.686
 4711     50.228   8.397
 4711.5     50.052   7.069
 4712     49.877   7.064
 4712.5     49.959   7.233
 4713     50.38   7.402
 4713.5     50.603   7.572
 4714     50.576   7.741
 4714.5     50.261   7.911
 4715     50.047   8.08
 4715.5     50.077   7.665
 4716     50.108   7.233
 4716.5     50.134   6.809
 4717     50.086   7.076
 4717.5     50.038   7.344
 4718     49.991   7.612
 4718.5     49.947   7.856
 4719     49.903   7.477
 4719.5     49.779   7.098
 4720     49.535   6.719
 4720.5     49.293   6.857
 4721     49.619   7.261
 4721.5     49.946   7.664
 4722     50.081   8.068
 4722.5     50.171   8.472
 4723     50.262   8.444
 4723.5     50.352   8.183
 4724     50.029   7.921
 4724.5     49.626   7.659
 4725     49.718   7.398
 4725.5     49.81   7.136
 4726     49.903   7.397
 4726.5     49.995   8.109
 4727     49.414   8.822
 4727.5     49.31   9.535
 4728     49.37   10.248
 4728.5     49.734   9.717
 4729     50.281   8.778
 4729.5     50.343   7.838
 4730     50.144   6.899
 4730.5     49.474   5.959
 4731     49.053   6.069
 4731.5     49.383   6.752
 4732     49.713   7.435
 4732.5     49.96   7.446
 4733     50.183   6.855
 4733.5     50.201   6.264
 4734     50.079   5.673
 4734.5     49.958   5.082
 4735     49.837   5.148
 4735.5     49.915   5.556
 4736     50.139   5.964
 4736.5     50.199   6.372
 4737     50.009   6.502
 4737.5     49.819   6.333
 4738     49.629   6.164
 4738.5     49.48   6.436
 4739     49.625   7.622
 4739.5     49.771   8.603
 4740     49.916   9
 4740.5     49.883   8.68
 4741     49.464   7.82
 4741.5     49.564   8.377
 4742     49.666   8.918
 4742.5     49.768   8.314
 4743     50.026   7.71
 4743.5     50.101   8.136
 4744     49.98   8.681
 4744.5     49.887   9.226
 4745     49.888   8.643
 4745.5     49.888   7.724
 4746     49.888   7.018
 4746.5     49.888   7.068
 4747     50.04   7.25
 4747.5     49.933   8.4
 4748     49.825   9.55
 4748.5     49.922   10.139
 4749     50.114   9.991
 4749.5     50.305   9.843
 4750     50.496   9.695
 4750.5     50.466   9.547
 4751     50.288   9.612
 4751.5     50.111   10.02
 4752     49.955   10.429
 4752.5     49.956   10.576
 4753     49.956   9.947
 4753.5     49.956   9.318
 4754     49.956   8.688
 4754.5     49.956   8.068
 4755     49.957   7.991
 4755.5     49.958   7.915
 4756     49.97   7.839
 4756.5     49.982   7.762
 4757     49.993   8.105
 4757.5     50.005   8.546
 4758     50.017   8.987
 4758.5     49.99   9.428
 4759     49.916   9.655
 4759.5     49.843   9.125
 4760     49.769   8.594
 4760.5     49.695   8.063
 4761     49.8   7.819
 4761.5     50.021   8.708
