###############################################
##         ENVERUS                           ##
##         ESS - Open Hole                   ##
##         PERMIAN / DELAWARE                ##
##         Nov 04 2023  V4.0                 ##
##         42-389-10119-00-00                ##
###############################################
## Copyright 2017-2023  ENVERUS.  All Rights Reserved. 
## Confidential - Property of ENVERUS, use governed by terms and 
## conditions found within the existing Information Services Subscription Agreement 
## (as may be amended, the “ISSA”) between Customer and ENVERUS. 
## 
~VERSION INFORMATION
# MNEM.UNIT                               DATA : DESCRIPTION OF MNEMONIC
#-----.-----     ----------------------------- : -----------------------------
VERS.                                     2.00 : CWLS LOG ASCII STANDARD - VERSION 2.00
WRAP.                                       NO : MULTIPLE LINES PER DEPTH STEP
VEND.                                  ENVERUS : VENDOR
TYPE.                          ESS - OPEN HOLE : ENVERUS ESSENTIAL CURVES – ACCESSIBLE THROUGH ENVERUS PRISM(TM)
DOC.                                  32008410 : ENVERUS HEADER RAW DOCUMENT ID
#___________________________________________________________________________________________________ 
~WELL INFORMATION 
# X8E3XgEZRMs+LiTqjMYqety/5rGXYLbzRNciiYBq17B6ClLelYcJjKNVvvPfWOVGxhvISow7q4Dbthq8gKP2Nw== 
# MNEM.UNIT                                              DATA : DESCRIPTION OF MNEMONIC 
#-----.-----                    ----------------------------- : ----------------------------- 
CNTY.                                                  REEVES : COUNTY 
STATE.                                                  TEXAS : STATE 
CNTRY.                                                    USA : COUNTRY 
API.                                             42-389-10119 : API (10 Digit) 
API_14.                                    42-389-10119-00-00 : API (14 Digits) 
API_14_std.                                 42-389-10119-0000 : API (14 Digits Standard) 
UWI.                                           42389101190000 : UNIQUE WELL ID 
WELL.                                                   1-40, : WELL NAME
STRT.FT                                                  58.0 : START DEPTH
STOP.FT                                                5338.0 : STOP DEPTH
STEP.FT                                                   0.5 : STEP BETWEEN DEPTHS
NULL.                                                 -999.25 : NULL VALUE
#___________________________________________________________________________________________________ 
~CURVE INFORMATION 
# MNEM.UNIT           : CURVE DESCRIPTION 
#-----.-----          : ----------------------------- 
 DEPT.FT               : MEASURED DEPTH 
 GR.API                : GAMMA RAY (GR) 
 DT.US/FT              : SONIC DELTA TRANSIT TIME (DT) 
 #___________________________________________________________________________________________________ 
~A         DEPT             GR             DT
# ...
         4234.0          9.227         48.949
         4234.5          9.125         48.846
         4235.0          9.024         48.744
         4235.5          8.922         48.642
         4236.0          8.821         48.540
         4236.5          8.719         48.438
         4237.0          8.617         48.335
         4237.5          9.211         48.233
         4238.0         10.101         48.131
         4238.5         10.991         48.109
         4239.0         11.881         48.327
         4239.5         12.375         48.545
         4240.0         11.441         48.762
         4240.5         10.508         48.980
         4241.0          9.574         49.198
         4241.5          8.641         49.134
         4242.0          8.881         48.974
         4242.5          9.655         48.813
         4243.0         10.428         48.653
         4243.5         11.202         48.492
         4244.0         11.975         48.332
         4244.5         12.419         48.172
         4245.0         11.578         48.082
         4245.5         10.738         48.189
         4246.0          9.897         48.295
         4246.5          9.057         48.402
         4247.0          8.378         48.509
         4247.5          8.462         48.616
         4248.0          8.546         48.723
         4248.5          8.630         48.830
         4249.0          8.715         48.937
         4249.5          8.799         49.044
         4250.0          9.000         49.151
         4250.5          9.773         49.258
         4251.0         10.547         49.365
         4251.5         11.320         49.471
         4252.0         12.094         49.578
         4252.5         12.867         49.685
         4253.0         12.644         49.792
         4253.5         11.964         49.899
         4254.0         11.284         50.006
         4254.5         10.604         49.943
         4255.0          9.924         49.828
         4255.5          9.244         49.712
         4256.0          8.564         49.597
         4256.5          7.884         49.482
         4257.0          8.010         49.366
         4257.5          8.582         49.251
         4258.0          9.154         49.135
         4258.5          9.543         49.020
         4259.0          8.907         48.904
         4259.5          8.270         48.789
         4260.0          7.634         48.673
         4260.5          7.589         49.362
         4261.0          7.883         49.882
         4261.5          8.178         49.768
         4262.0          8.472         49.654
         4262.5          8.767         49.540
         4263.0          9.061         49.426
         4263.5          9.355         49.312
         4264.0          9.650         49.199
         4264.5          9.600         49.085
         4265.0          7.804         48.971
         4265.5          8.932         52.579
         4266.0          9.830         52.699
         4266.5          9.253         52.267
         4267.0          8.676         50.249
         4267.5          8.099         48.877
         4268.0          7.522         49.037
         4268.5          6.945         49.197
         4269.0          6.521         49.356
         4269.5          7.386         49.516
         4270.0          8.251         49.676
         4270.5          9.116         49.763
         4271.0          9.981         49.674
         4271.5         10.846         49.585
         4272.0         11.015         49.496
         4272.5         10.768         49.407
         4273.0         10.520         49.318
         4273.5         10.273         49.230
         4274.0         10.026         49.141
         4274.5         10.586         49.052
         4275.0         11.655         48.963
         4275.5         12.724         48.874
         4276.0         13.793         48.785
         4276.5         14.862         48.883
         4277.0         15.931         49.024
         4277.5         17.000         49.165
         4278.0         17.756         49.306
         4278.5         16.697         49.447
         4279.0         15.639         49.588
         4279.5         14.580         49.728
         4280.0         13.522         49.869
         4280.5         12.463         49.856
         4281.0         11.405         49.494
         4281.5         10.469         49.133
         4282.0         10.669         48.772
         4282.5         10.870         48.890
         4283.0         11.071         49.113
         4283.5         11.271         49.335
         4284.0         11.472         49.217
         4284.5         11.672         48.370
         4285.0         11.873         48.176
         4285.5         11.660         49.275
         4286.0         11.165         49.957
         4286.5         10.670         49.741
         4287.0         10.175         49.524
         4287.5          9.681         49.308
         4288.0          9.186         49.091
         4288.5          8.796         48.874
         4289.0          9.798         48.658
         4289.5         10.800         48.441
         4290.0         11.801         50.998
         4290.5         12.803         54.091
         4291.0         12.230         54.528
         4291.5         10.555         49.615
         4292.0          9.047         49.277
         4292.5         10.049         48.940
         4293.0         11.051         48.970
         4293.5         12.053         49.072
         4294.0         12.215         49.173
         4294.5         11.762         49.275
         4295.0         11.308         49.376
         4295.5         10.855         49.477
         4296.0         10.401         49.475
         4296.5          9.948         49.271
         4297.0         10.863         49.066
         4297.5         12.686         48.862
         4298.0         11.944         48.657
         4298.5         11.202         48.642
         4299.0         10.460         48.977
         4299.5          9.718         49.312
         4300.0          9.026         49.251
         4300.5          9.455         49.119
         4301.0          9.884         48.986
         4301.5         10.313         48.853
         4302.0         10.160         48.720
         4302.5          9.524         48.587
         4303.0          8.888         48.454
         4303.5          8.284         48.321
         4304.0          8.760         48.188
         4304.5          9.235         48.165
         4305.0          9.710         48.334
         4305.5         10.186         48.503
         4306.0         10.661         48.672
         4306.5         11.136         48.840
         4307.0         11.612         49.009
         4307.5         12.027         49.178
         4308.0         12.242         49.347
         4308.5         12.457         49.515
         4309.0         12.672         49.684
         4309.5         12.106         49.853
         4310.0         10.872         49.876
         4310.5         10.219         49.635
         4311.0         10.096         49.395
         4311.5          9.973         49.154
         4312.0          9.850         48.913
         4312.5          9.727         48.673
         4313.0          9.605         48.746
         4313.5          9.764         48.866
         4314.0         10.193         48.986
         4314.5         10.622         49.106
         4315.0         11.035         49.225
         4315.5         10.470         49.345
         4316.0          9.905         49.151
         4316.5          9.339         48.911
         4317.0          9.338         48.670
         4317.5          9.901         48.429
         4318.0         10.464         49.206
         4318.5         11.027         50.653
         4319.0         11.590         53.014
         4319.5         12.152         55.375
         4320.0         12.715         49.420
         4320.5         13.278         48.937
