#--------------------------------------------------#
#-------------------ENVERUS, INC.------------------#
#------------------WWW.ENVERUS.COM-----------------#
#------------------COPYRIGHT 2020------------------#
#--------------------------------------------------#
#THIS FILE MAY BE USED ONLY IN ACCORDANCE WITH A CURRENT SUBSCRIPTION AGREEMENT BETWEEN
#THE USER AND ENVERUS, INC. NO PART OF THIS FILE MAY BE REPRODUCED, USED, COPIED,
#MODIFIED, PROPAGATED, OR DISTRIBUTED EXCEPT IN ACCORDANCE WITH THE SUBSCRIPTION
#AGREEMENT. UNAUTHORIZED USE OR DISTRIBUTION OF ALL OR ANY PART OF THIS FILE MAY VIOLATE
#COPYRIGHT, TRADEMARK, AND/OR OTHER LAWS AND IS SUBJECT TO CIVIL AS WELL AS CRIMINAL
#SANCTIONS.
#--------------------------------------------------#
#THIS FILE IS PROVIDED "AS-IS" AND ALL WARRANTIES ARE EXPRESSLY DISCLAIMED, WHETHER
#EXPRESS, ORAL, IMPLIED, STATUTORY OR OTHERWISE, INCLUDING ANY IMPLIED WARRANTY OF FITNESS
#FOR A PARTICULAR PURPOSE, MERCHANTABILITY, TITLE OR NON-INFRINGEMENT, AND ANY WARRANTIES
#ARISING BY VIRTUE OF CUSTOM OF TRADE OR COURSE OF DEALING.  FURTHER, ENVERUS, INC.
#AND ITS LICENSORS DO NOT REPRESENT OR WARRANT THAT THIS FILE WILL MEET USER'S
#REQUIREMENTS OR ARE SUITABLE FOR USER'S NEEDS OR THAT THE DATA OR RESULTS PROVIDED IN
#CONJUNCTION THEREWITH ARE CORRECT, ACCURATE, TIMELY OR RELIABLE. THESE DISCLAIMERS SHALL
#APPLY REGARDLESS OF ANY FAILURE OF ESSENTIAL PURPOSE OF ANY LIMITED REMEDY.  SOME
#JURISDICTIONS DO NOT ALLOW THE EXCLUSION OF CERTAIN WARRANTIES SO SOME OF THE ABOVE
#EXCLUSIONS MAY NOT APPLY. IN NO EVENT SHALL ENVERUS, INC. OR ANY OF ITS AFFILIATES
#BE LIABLE UNDER ANY LEGAL THEORY, WHETHER IN TORT (INCLUDING WITHOUT LIMITATION
#NEGLIGENCE), CONTRACT, STRICT LIABILITY, STATUTORY OR OTHERWISE, FOR ANY SPECIAL,
#INCIDENTAL, CONSEQUENTIAL, EXEMPLARY, PUNITIVE OR INDIRECT DAMAGE OF ANY KIND, INCLUDING
#WITHOUT LIMITATION LOSS OF REVENUE, PROFITS, GOODWILL, USE, AND/OR DATA OR THE COST OF
#PROCUREMENT OF SUBSTITUTE GOODS OR SERVICES, EVEN IF APPRISED OF THE POSSIBILITY OF SUCH
#DAMAGES IN ADVANCE.
#--------------------------------------------------#

~VERSION INFORMATION
VERS. 2.0 : CWLS LOG ASCII STANDARD - VERSION 2.0
WRAP.  NO : ONE LINE PER DEPTH STEP
~WELL INFORMATION
#MNEMONIC     .UNIT              VALUE :DESCRIPTION
STRT       .FT                102 :START DEPTH
STOP       .FT                5463 :STOP DEPTH
STEP       .FT                   0.500 :STEP
NULL       .                  -999.990 :NULL
UWI        .              42371363560000 :UNIQUE WELL ID
API        .              42371363560000 :API NUMBER
COMP       .         APACHE CORPORATION :COMPANY
WELL       .        SCHLOSSER, FRED ESTATE -B-  11 :WELL
DATE       .                22-JUN-1992 :LOG DATE
~CURVE INFORMATION
#MNEMONIC     .UNIT      API CODE :CURVE DESCRIPTION
DEPTH       .FT                      :MEASURED DEPTH
DT.US/FT        UNKNOWN   :DT
GR.API        UNKNOWN   :GR
~A    DEPTH    DT    GR
# ...
 819.5     -999.990   37.548
 820     -999.990   38.091
 820.5     -999.990   38.635
 821     -999.990   37.864
 821.5     -999.990   37.077
 822     -999.990   36.971
 822.5     -999.990   39.157
 823     -999.990   42.202
 823.5     -999.990   45.19
 824     -999.990   48.064
 824.5     -999.990   49.134
 825     -999.990   48.146
 825.5     -999.990   47.158
 826     -999.990   46.679
 826.5     -999.990   47.361
 827     -999.990   48.044
 827.5     -999.990   47.208
 828     -999.990   45.974
 828.5     -999.990   44.345
 829     -999.990   41.867
 829.5     -999.990   40.443
 830     -999.990   39.019
 830.5     -999.990   37.594
 831     -999.990   36.17
 831.5     -999.990   35.557
 832     -999.990   40.108
 832.5     -999.990   44.041
 833     -999.990   47.309
 833.5     -999.990   50.577
 834     -999.990   44.292
 834.5     -999.990   42.707
 835     -999.990   40.893
 835.5     -999.990   38.313
 836     -999.990   35.733
 836.5     -999.990   36.555
 837     -999.990   38.888
 837.5     -999.990   38.52
 838     -999.990   39.887
 838.5     -999.990   42.679
 839     -999.990   43.28
 839.5     -999.990   42.704
 840     -999.990   47.243
 840.5     -999.990   47.931
 841     -999.990   47.38
 841.5     -999.990   46.828
 842     -999.990   46.277
 842.5     -999.990   45.726
 843     -999.990   45.435
 843.5     -999.990   48.305
 844     -999.990   51.174
 844.5     -999.990   54.005
 845     -999.990   56.826
 845.5     -999.990   58.665
 846     -999.990   59.545
 846.5     -999.990   60.424
 847     -999.990   61.412
 847.5     -999.990   62.478
 848     -999.990   63.545
 848.5     -999.990   62.093
 849     -999.990   60.226
 849.5     -999.990   58.359
 850     -999.990   56.554
 850.5     -999.990   55.889
 851     -999.990   55.223
 851.5     -999.990   55.93
 852     -999.990   56.716
 852.5     -999.990   57.502
 853     -999.990   58.83
 853.5     -999.990   60.287
 854     -999.990   61.151
 854.5     -999.990   60.638
 855     -999.990   61.448
 855.5     -999.990   62.532
 856     -999.990   63.616
 856.5     -999.990   64.58
 857     -999.990   63.829
 857.5     -999.990   63.078
 858     -999.990   62.327
 858.5     -999.990   61.074
 859     -999.990   59.76
 859.5     -999.990   56.788
 860     -999.990   53.816
 860.5     -999.990   50.845
 861     -999.990   54.755
 861.5     -999.990   59.336
 862     -999.990   59.933
 862.5     -999.990   60.53
 863     -999.990   59.21
 863.5     -999.990   56.905
 864     -999.990   54.6
 864.5     -999.990   54.666
 865     -999.990   54.98
 865.5     -999.990   54.335
 866     -999.990   51.682
 866.5     -999.990   51.072
 867     -999.990   50.462
 867.5     -999.990   49.852
 868     -999.990   50.101
 868.5     -999.990   52.054
 869     -999.990   53.033
 869.5     -999.990   57.4
 870     -999.990   58.871
 870.5     -999.990   58.312
 871     -999.990   65.069
 871.5     -999.990   68.515
 872     -999.990   66.696
 872.5     -999.990   62.83
 873     -999.990   55.524
 873.5     -999.990   50.428
 874     -999.990   49.339
 874.5     -999.990   49.916
 875     -999.990   55.367
 875.5     -999.990   60.627
 876     -999.990   61.782
 876.5     -999.990   62.197
 877     -999.990   61.36
 877.5     -999.990   60.596
 878     -999.990   61.107
 878.5     -999.990   61.335
 879     -999.990   60.157
 879.5     -999.990   58.979
 880     -999.990   59.178
 880.5     -999.990   61.242
 881     -999.990   66.006
 881.5     -999.990   68.068
 882     -999.990   67.633
 882.5     -999.990   67.199
 883     -999.990   68.792
 883.5     -999.990   70.914
 884     -999.990   68.032
 884.5     -999.990   64.62
 885     -999.990   61.086
 885.5     -999.990   55.87
 886     -999.990   51.486
 886.5     -999.990   47.866
 887     -999.990   41.561
 887.5     -999.990   41.247
 888     -999.990   41.707
 888.5     -999.990   40.364
 889     -999.990   38.622
 889.5     -999.990   39.134
 890     -999.990   39.645
 890.5     -999.990   42.475
 891     -999.990   47.177
 891.5     -999.990   49.084
 892     -999.990   48.144
 892.5     -999.990   47.196
 893     -999.990   46.906
 893.5     -999.990   46.831
 894     -999.990   46.755
 894.5     -999.990   46.68
 895     -999.990   51.769
 895.5     -999.990   52.394
 896     -999.990   52.235
 896.5     -999.990   53.834
 897     -999.990   55.097
 897.5     -999.990   55.943
 898     -999.990   59.002
 898.5     -999.990   64.882
 899     -999.990   64.641
 899.5     -999.990   64.401
 900     -999.990   64.16
 900.5     -999.990   70.396
 901     -999.990   73.399
 901.5     -999.990   72.556
 902     -999.990   71.712
 902.5     -999.990   70.869
 903     -999.990   65.859
 903.5     -999.990   64.644
 904     -999.990   63.43
 904.5     -999.990   62.216
 905     -999.990   61.001
 905.5     -999.990   61.387
 906     -999.990   62.111
 906.5     -999.990   62.834
 907     -999.990   62.495
 907.5     -999.990   59.241
 908     -999.990   54.7
 908.5     -999.990   47.76
 909     -999.990   42.512
 909.5     -999.990   41.311
 910     -999.990   41.309
 910.5     -999.990   46.817
 911     -999.990   52.458
 911.5     -999.990   54.577
 912     -999.990   56.368
 912.5     -999.990   57.584
 913     -999.990   58.482
 913.5     -999.990   54.873
 914     -999.990   52.896
 914.5     -999.990   50.4
 915     -999.990   50.216
 915.5     -999.990   53.333
 916     -999.990   56.309
 916.5     -999.990   59.249
 917     -999.990   60.816
 917.5     -999.990   59.29
 918     -999.990   61.6
 918.5     -999.990   59.287
 919     -999.990   55.544
 919.5     -999.990   50.271
 920     -999.990   48.693
 920.5     -999.990   48.84
 921     -999.990   49.23
 921.5     -999.990   47.847
 922     -999.990   48.911
 922.5     -999.990   49.975
 923     -999.990   51.174
 923.5     -999.990   52.511
 924     -999.990   51.87
 924.5     -999.990   49.522
 925     -999.990   47.535
 925.5     -999.990   45.98
 926     -999.990   45.941
 926.5     -999.990   45.903
 927     -999.990   46.845
 927.5     -999.990   47.415
 928     -999.990   46.49
 928.5     -999.990   45.565
 929     -999.990   43.486
 929.5     -999.990   41.501
 930     -999.990   41.227
 930.5     -999.990   40.953
 931     -999.990   45.145
 931.5     -999.990   50.241
 932     -999.990   51.08
 932.5     -999.990   51.623
 933     -999.990   50.784
 933.5     -999.990   49.944
 934     -999.990   49.472
 934.5     -999.990   50.266
 935     -999.990   51.061
 935.5     -999.990   51.856
 936     -999.990   52.462
 936.5     -999.990   48.336
 937     -999.990   44.686
 937.5     -999.990   44.917
 938     -999.990   45.148
 938.5     -999.990   47.311
 939     -999.990   49.953
 939.5     -999.990   49.566
 940     -999.990   48.04
 940.5     -999.990   46.514
 941     -999.990   45.285
 941.5     -999.990   46.054
 942     -999.990   46.823
 942.5     -999.990   47.592
 943     -999.990   46.99
 943.5     -999.990   46.004
 944     -999.990   45.017
 944.5     -999.990   41.867
 945     -999.990   37.999
 945.5     -999.990   39.233
 946     -999.990   40.467
 946.5     -999.990   41.701
 947     -999.990   42.935
 947.5     -999.990   42.028
 948     -999.990   40.969
 948.5     -999.990   39.911
 949     -999.990   38.852
 949.5     -999.990   37.793
 950     -999.990   38.646
 950.5     -999.990   41.908
 951     -999.990   44.726
 951.5     -999.990   45.367
 952     -999.990   45.085
 952.5     -999.990   43.862
 953     -999.990   42.64
 953.5     -999.990   40.725
 954     -999.990   37.61
 954.5     -999.990   39.895
 955     -999.990   42.18
 955.5     -999.990   44.742
 956     -999.990   47.529
 956.5     -999.990   47.219
 957     -999.990   46.538
 957.5     -999.990   46.798
 958     -999.990   48.71
 958.5     -999.990   50.876
 959     -999.990   53.678
 959.5     -999.990   56.48
 960     -999.990   58.919
 960.5     -999.990   59.689
 961     -999.990   56.862
 961.5     -999.990   51.19
 962     -999.990   48.209
 962.5     -999.990   45.228
 963     -999.990   43.826
