###############################################
##         ENVERUS                           ##
##         ESS - Open Hole                   ##
##         PERMIAN / DELAWARE                ##
##         Nov 04 2023  V4.0                 ##
##         42-371-32680-00-00                ##
###############################################
## Copyright 2017-2023  ENVERUS.  All Rights Reserved. 
## Confidential - Property of ENVERUS, use governed by terms and 
## conditions found within the existing Information Services Subscription Agreement 
## (as may be amended, the “ISSA”) between Customer and ENVERUS. 
## 
~VERSION INFORMATION
# MNEM.UNIT                               DATA : DESCRIPTION OF MNEMONIC
#-----.-----     ----------------------------- : -----------------------------
VERS.                                     2.00 : CWLS LOG ASCII STANDARD - VERSION 2.00
WRAP.                                       NO : MULTIPLE LINES PER DEPTH STEP
VEND.                                  ENVERUS : VENDOR
TYPE.                          ESS - OPEN HOLE : ENVERUS ESSENTIAL CURVES – ACCESSIBLE THROUGH ENVERUS PRISM(TM)
DOC.                                  31991434 : ENVERUS HEADER RAW DOCUMENT ID
#___________________________________________________________________________________________________ 
~WELL INFORMATION 
# uAv5E/S3ZwrMaovXfwZJbnQ+z8RwnTA5GIEFL0LfM7mdkMX/8iXP+LiYgCnT3sJm4ejuYgXNUZeSPI/Yhcow4w== 
# MNEM.UNIT                                              DATA : DESCRIPTION OF MNEMONIC 
#-----.-----                    ----------------------------- : ----------------------------- 
CNTY.                                                   PECOS : COUNTY 
STATE.                                                  TEXAS : STATE 
CNTRY.                                                    USA : COUNTRY 
API.                                             42-371-32680 : API (10 Digit) 
API_14.                                    42-371-32680-00-00 : API (14 Digits) 
API_14_std.                                 42-371-32680-0000 : API (14 Digits Standard) 
UWI.                                           42371326800000 : UNIQUE WELL ID 
WELL.                                     MARALO - STEWART  1 : WELL NAME
STRT.FT                                                  21.0 : START DEPTH
STOP.FT                                               21630.0 : STOP DEPTH
STEP.FT                                                   0.5 : STEP BETWEEN DEPTHS
NULL.                                                 -999.25 : NULL VALUE
COMP.                                            MARALO, INC. : COMPANY 
DATE.                                             11-DEC-1978 : LOG DATE
#___________________________________________________________________________________________________ 
~CURVE INFORMATION 
# MNEM.UNIT           : CURVE DESCRIPTION 
#-----.-----          : ----------------------------- 
 DEPT.FT               : MEASURED DEPTH 
 GR__D.API             : GAMMA RAY (GR) 
 DT__D.US/FT           : SONIC DELTA TRANSIT TIME (DT) 
 RESD__D.OHMM          : DEEP INDUCTION RESISTIVITY (ILD - ILD) 
 #___________________________________________________________________________________________________ 
~A         DEPT          GR__D          DT__D        RESD__D
# ...
         9525.0         70.903         76.479       -999.250
         9525.5         74.100         76.145       -999.250
         9526.0         77.296         75.787       -999.250
         9526.5         74.317         74.937       -999.250
         9527.0         71.221         71.612       -999.250
         9527.5         68.366         68.286       -999.250
         9528.0         67.995         62.289       -999.250
         9528.5         67.624         60.993       -999.250
         9529.0         67.253         62.626       -999.250
         9529.5         62.513         65.385       -999.250
         9530.0         54.467         68.145       -999.250
         9530.5         49.311         70.904       -999.250
         9531.0         51.226         71.549       -999.250
         9531.5         53.141         71.699       -999.250
         9532.0         55.056         72.231       -999.250
         9532.5         56.971         72.882       -999.250
         9533.0         58.790         73.494       -999.250
         9533.5         60.502         74.018       -999.250
         9534.0         62.213         74.541       -999.250
         9534.5         64.000         75.257       -999.250
         9535.0         70.679         75.842       -999.250
         9535.5         73.524         76.122       -999.250
         9536.0         74.702         76.371       -999.250
         9536.5         77.675         75.641       -999.250
         9537.0         81.768         74.397       -999.250
         9537.5         82.874         73.233       -999.250
         9538.0         75.180         72.348       -999.250
         9538.5         67.486         72.574       -999.250
         9539.0         68.679         73.726       -999.250
         9539.5         70.032         73.860       -999.250
         9540.0         71.143         73.726       -999.250
         9540.5         71.348         73.497       -999.250
         9541.0         72.183         73.237       -999.250
         9541.5         78.149         72.950       -999.250
         9542.0         84.114         72.361       -999.250
         9542.5         82.601         71.646       -999.250
         9543.0         79.064         70.495       -999.250
         9543.5         75.527         70.795       -999.250
         9544.0         71.990         73.594       -999.250
         9544.5         68.452         77.566       -999.250
         9545.0         64.915         78.973       -999.250
         9545.5         64.039         79.342       -999.250
         9546.0         70.998         78.305       -999.250
         9546.5         77.957         77.126       -999.250
         9547.0         84.915         76.275       -999.250
         9547.5         91.874         77.203       -999.250
         9548.0         93.444         79.174       -999.250
         9548.5         92.099         80.662       -999.250
         9549.0         90.755         80.655       -999.250
         9549.5         89.410         79.525       -999.250
         9550.0         88.131         78.163       -999.250
         9550.5         89.285         77.993       -999.250
         9551.0         90.439         78.701       -999.250
         9551.5         91.593         79.041       -999.250
         9552.0         88.240         78.899       -999.250
         9552.5         84.404         77.691       -999.250
         9553.0         80.569         76.049       -999.250
         9553.5         76.733         73.305       -999.250
         9554.0         75.457         71.458       -999.250
         9554.5         76.406         70.836       -999.250
         9555.0         76.982         70.701       -999.250
         9555.5         74.299         70.338       -999.250
         9556.0         71.616         69.586       -999.250
         9556.5         68.934         69.311       -999.250
         9557.0         66.251         70.213       -999.250
         9557.5         63.568         71.116       -999.250
         9558.0         60.885         72.436       -999.250
         9558.5         58.202         72.525       -999.250
         9559.0         57.577         68.595       -999.250
         9559.5         65.910         62.306       -999.250
         9560.0         69.130         58.923       -999.250
         9560.5         68.312         57.797       -999.250
         9561.0         67.493         61.367       -999.250
         9561.5         66.675         66.783       -999.250
         9562.0         65.856         71.303       -999.250
         9562.5         65.037         75.091       -999.250
         9563.0         66.245         76.444       -999.250
         9563.5         67.668         76.884       -999.250
         9564.0         69.091         75.213       -999.250
         9564.5         70.514         73.209       -999.250
         9565.0         77.563         69.207       -999.250
         9565.5         86.488         65.204       -999.250
         9566.0         88.202         60.766       -999.250
         9566.5         82.276         54.864       -999.250
         9567.0         76.351         53.488       -999.250
         9567.5         70.426         54.946       -999.250
         9568.0         64.501         61.460       -999.250
         9568.5         58.576         68.788       -999.250
         9569.0         52.650         72.749       -999.250
         9569.5         46.725         73.293       -999.250
         9570.0         52.162         73.236       -999.250
         9570.5         62.796         72.962       -999.250
         9571.0         73.431         72.899       -999.250
         9571.5         78.255         73.182       -999.250
         9572.0         77.180         73.465       -999.250
         9572.5         76.104         74.136       -999.250
         9573.0         75.029         74.895       -999.250
         9573.5         78.199         75.577       -999.250
         9574.0         84.237         76.119       -999.250
         9574.5         90.276         76.660       -999.250
         9575.0         90.575         76.158       -999.250
         9575.5         87.186         75.313       -999.250
         9576.0         85.091         73.945       -999.250
         9576.5         84.679         72.087       -999.250
         9577.0         84.267         70.609       -999.250
         9577.5         81.989         69.789       -999.250
         9578.0         78.568         69.148       -999.250
         9578.5         75.147         68.927       -999.250
         9579.0         71.725         70.680       -999.250
         9579.5         70.556         72.646       -999.250
         9580.0         75.430         75.138       -999.250
         9580.5         78.967         76.480       -999.250
         9581.0         78.657         76.047       -999.250
         9581.5         78.348         75.357       -999.250
         9582.0         80.212         74.315       -999.250
         9582.5         84.819         72.724       -999.250
         9583.0         89.425         71.541       -999.250
         9583.5         94.032         70.628       -999.250
         9584.0         91.623         70.334       -999.250
         9584.5         86.818         70.040       -999.250
         9585.0         82.013         69.957       -999.250
         9585.5         79.775         69.926       -999.250
         9586.0         80.811         69.896       -999.250
         9586.5         79.675         70.118       -999.250
         9587.0         74.586         70.576       -999.250
         9587.5         73.796         72.067       -999.250
         9588.0         73.599         73.558       -999.250
         9588.5         73.402         75.048       -999.250
         9589.0         73.204         75.241       -999.250
         9589.5         73.007         73.149       -999.250
         9590.0         72.810         70.500       -999.250
         9590.5         72.613         64.816       -999.250
