#--------------------------------------------------#
#-------------------ENVERUS, INC.------------------#
#------------------WWW.ENVERUS.COM-----------------#
#------------------COPYRIGHT 2020------------------#
#--------------------------------------------------#
#THIS FILE MAY BE USED ONLY IN ACCORDANCE WITH A CURRENT SUBSCRIPTION AGREEMENT BETWEEN
#THE USER AND ENVERUS, INC. NO PART OF THIS FILE MAY BE REPRODUCED, USED, COPIED,
#MODIFIED, PROPAGATED, OR DISTRIBUTED EXCEPT IN ACCORDANCE WITH THE SUBSCRIPTION
#AGREEMENT. UNAUTHORIZED USE OR DISTRIBUTION OF ALL OR ANY PART OF THIS FILE MAY VIOLATE
#COPYRIGHT, TRADEMARK, AND/OR OTHER LAWS AND IS SUBJECT TO CIVIL AS WELL AS CRIMINAL
#SANCTIONS.
#--------------------------------------------------#
#THIS FILE IS PROVIDED "AS-IS" AND ALL WARRANTIES ARE EXPRESSLY DISCLAIMED, WHETHER
#EXPRESS, ORAL, IMPLIED, STATUTORY OR OTHERWISE, INCLUDING ANY IMPLIED WARRANTY OF FITNESS
#FOR A PARTICULAR PURPOSE, MERCHANTABILITY, TITLE OR NON-INFRINGEMENT, AND ANY WARRANTIES
#ARISING BY VIRTUE OF CUSTOM OF TRADE OR COURSE OF DEALING.  FURTHER, ENVERUS, INC.
#AND ITS LICENSORS DO NOT REPRESENT OR WARRANT THAT THIS FILE WILL MEET USER'S
#REQUIREMENTS OR ARE SUITABLE FOR USER'S NEEDS OR THAT THE DATA OR RESULTS PROVIDED IN
#CONJUNCTION THEREWITH ARE CORRECT, ACCURATE, TIMELY OR RELIABLE. THESE DISCLAIMERS SHALL
#APPLY REGARDLESS OF ANY FAILURE OF ESSENTIAL PURPOSE OF ANY LIMITED REMEDY.  SOME
#JURISDICTIONS DO NOT ALLOW THE EXCLUSION OF CERTAIN WARRANTIES SO SOME OF THE ABOVE
#EXCLUSIONS MAY NOT APPLY. IN NO EVENT SHALL ENVERUS, INC. OR ANY OF ITS AFFILIATES
#BE LIABLE UNDER ANY LEGAL THEORY, WHETHER IN TORT (INCLUDING WITHOUT LIMITATION
#NEGLIGENCE), CONTRACT, STRICT LIABILITY, STATUTORY OR OTHERWISE, FOR ANY SPECIAL,
#INCIDENTAL, CONSEQUENTIAL, EXEMPLARY, PUNITIVE OR INDIRECT DAMAGE OF ANY KIND, INCLUDING
#WITHOUT LIMITATION LOSS OF REVENUE, PROFITS, GOODWILL, USE, AND/OR DATA OR THE COST OF
#PROCUREMENT OF SUBSTITUTE GOODS OR SERVICES, EVEN IF APPRISED OF THE POSSIBILITY OF SUCH
#DAMAGES IN ADVANCE.
#--------------------------------------------------#

~VERSION INFORMATION
VERS. 2.0 : CWLS LOG ASCII STANDARD - VERSION 2.0
WRAP.  NO : ONE LINE PER DEPTH STEP
~WELL INFORMATION
#MNEMONIC     .UNIT              VALUE :DESCRIPTION
STRT       .FT                102 :START DEPTH
STOP       .FT                5463 :STOP DEPTH
STEP       .FT                   0.500 :STEP
NULL       .                  -999.990 :NULL
UWI        .              42371363560000 :UNIQUE WELL ID
API        .              42371363560000 :API NUMBER
COMP       .         APACHE CORPORATION :COMPANY
WELL       .        SCHLOSSER, FRED ESTATE -B-  11 :WELL
DATE       .                22-JUN-1992 :LOG DATE
~CURVE INFORMATION
#MNEMONIC     .UNIT      API CODE :CURVE DESCRIPTION
DEPTH       .FT                      :MEASURED DEPTH
DT.US/FT        UNKNOWN   :DT
GR.API        UNKNOWN   :GR
~A    DEPTH    DT    GR
 102     -999.990   29.075
 102.5     -999.990   28.965
 103     -999.990   28.855
 103.5     -999.990   28.745
 104     -999.990   28.635
 104.5     -999.990   30.048
 105     -999.990   32.968
 105.5     -999.990   33.773
 106     -999.990   33.082
 106.5     -999.990   33.151
 107     -999.990   33.54
 107.5     -999.990   33.928
 108     -999.990   34.102
 108.5     -999.990   32.852
 109     -999.990   31.602
 109.5     -999.990   30.352
 110     -999.990   29.103
 110.5     -999.990   27.853
 111     -999.990   26.346
 111.5     -999.990   24.59
 112     -999.990   25.673
 112.5     -999.990   27.265
 113     -999.990   28.857
 113.5     -999.990   30.88
 114     -999.990   33.112
 114.5     -999.990   34.47
 115     -999.990   35.118
 115.5     -999.990   35.974
 116     -999.990   37.501
 116.5     -999.990   39.722
 117     -999.990   43.134
 117.5     -999.990   42.873
 118     -999.990   42.612
 118.5     -999.990   40.358
 119     -999.990   38.013
 119.5     -999.990   36.131
 120     -999.990   34.31
 120.5     -999.990   32.489
 121     -999.990   36.462
 121.5     -999.990   37.658
 122     -999.990   37.557
 122.5     -999.990   37.457
 123     -999.990   37.235
 123.5     -999.990   36.773
 124     -999.990   35.866
 124.5     -999.990   34.428
 125     -999.990   32.989
 125.5     -999.990   33.625
 126     -999.990   34.948
 126.5     -999.990   36.271
 127     -999.990   39.569
 127.5     -999.990   43.765
 128     -999.990   41.55
 128.5     -999.990   39.409
 129     -999.990   37.369
 129.5     -999.990   35.33
 130     -999.990   36.568
 130.5     -999.990   38.055
 131     -999.990   39.137
 131.5     -999.990   38.392
 132     -999.990   37.647
 132.5     -999.990   36.902
 133     -999.990   38.571
 133.5     -999.990   38.13
 134     -999.990   36.963
 134.5     -999.990   35.796
 135     -999.990   33.87
 135.5     -999.990   30.995
 136     -999.990   31.676
 136.5     -999.990   31.981
 137     -999.990   31.1
 137.5     -999.990   30.876
 138     -999.990   31.503
 138.5     -999.990   32.13
 139     -999.990   31.021
 139.5     -999.990   29.172
 140     -999.990   27.565
 140.5     -999.990   26.008
 141     -999.990   24.451
 141.5     -999.990   29.216
 142     -999.990   31.816
 142.5     -999.990   32.775
 143     -999.990   33.735
 143.5     -999.990   34.545
 144     -999.990   32.033
 144.5     -999.990   29.522
 145     -999.990   32.009
 145.5     -999.990   33.273
 146     -999.990   34.259
 146.5     -999.990   35.244
 147     -999.990   33.97
 147.5     -999.990   31.932
 148     -999.990   30.771
 148.5     -999.990   32.144
 149     -999.990   32.453
 149.5     -999.990   29.679
 150     -999.990   29.727
 150.5     -999.990   31.004
 151     -999.990   33.726
 151.5     -999.990   35.685
 152     -999.990   36.693
 152.5     -999.990   37.246
 153     -999.990   37.8
 153.5     -999.990   38.353
 154     -999.990   38.906
 154.5     -999.990   38.125
 155     -999.990   37.087
 155.5     -999.990   33.766
 156     -999.990   33.441
 156.5     -999.990   33.116
 157     -999.990   32.791
 157.5     -999.990   33.767
 158     -999.990   35.092
 158.5     -999.990   35.245
 159     -999.990   34.845
 159.5     -999.990   34.445
 160     -999.990   35.497
 160.5     -999.990   36.611
 161     -999.990   37.725
 161.5     -999.990   43.146
 162     -999.990   45.506
 162.5     -999.990   45.342
 163     -999.990   45.177
 163.5     -999.990   44.37
 164     -999.990   42.394
 164.5     -999.990   40.419
 165     -999.990   38.65
 165.5     -999.990   37.535
 166     -999.990   36.42
 166.5     -999.990   35.305
 167     -999.990   34.27
 167.5     -999.990   34.313
 168     -999.990   34.356
 168.5     -999.990   36.339
 169     -999.990   38.93
 169.5     -999.990   37.894
 170     -999.990   36.219
 170.5     -999.990   36.126
 171     -999.990   36.333
 171.5     -999.990   39.202
 172     -999.990   41.312
 172.5     -999.990   39.919
 173     -999.990   38.527
 173.5     -999.990   37.134
 174     -999.990   36.3
 174.5     -999.990   37.432
 175     -999.990   38.563
 175.5     -999.990   39.695
 176     -999.990   39.775
 176.5     -999.990   38.431
 177     -999.990   37.088
 177.5     -999.990   35.744
 178     -999.990   34.4
 178.5     -999.990   36.371
 179     -999.990   38.348
 179.5     -999.990   36.583
 180     -999.990   34.817
 180.5     -999.990   33.091
 181     -999.990   33.087
 181.5     -999.990   33.083
 182     -999.990   33.08
 182.5     -999.990   33.076
 183     -999.990   33.073
 183.5     -999.990   33.069
 184     -999.990   35.327
 184.5     -999.990   38.419
 185     -999.990   38.592
 185.5     -999.990   38.106
 186     -999.990   37.619
 186.5     -999.990   35.963
 187     -999.990   32.972
 187.5     -999.990   30.562
 188     -999.990   30.559
 188.5     -999.990   31.569
 189     -999.990   32.96
 189.5     -999.990   34.351
 190     -999.990   34.978
 190.5     -999.990   35.003
 191     -999.990   35.028
 191.5     -999.990   35.054
 192     -999.990   36.877
 192.5     -999.990   39.198
 193     -999.990   41.518
 193.5     -999.990   45.939
 194     -999.990   45.993
 194.5     -999.990   44.793
 195     -999.990   40.375
 195.5     -999.990   35.957
 196     -999.990   37.386
 196.5     -999.990   40.146
 197     -999.990   42.196
 197.5     -999.990   44.171
 198     -999.990   42.222
 198.5     -999.990   40.264
 199     -999.990   39.02
 199.5     -999.990   39.473
 200     -999.990   39.426
 200.5     -999.990   38.649
 201     -999.990   37.872
 201.5     -999.990   37.095
 202     -999.990   36.318
 202.5     -999.990   35.541
 203     -999.990   36.12
 203.5     -999.990   37.631
 204     -999.990   37.138
 204.5     -999.990   36.645
 205     -999.990   36.152
 205.5     -999.990   35.659
 206     -999.990   36.686
 206.5     -999.990   37.901
 207     -999.990   38.859
 207.5     -999.990   38.34
 208     -999.990   37.761
 208.5     -999.990   36.177
 209     -999.990   34.594
 209.5     -999.990   33.011
 210     -999.990   31.899
 210.5     -999.990   35.027
 211     -999.990   38.155
 211.5     -999.990   38.446
 212     -999.990   37.841
 212.5     -999.990   37.236
 213     -999.990   36.631
 213.5     -999.990   36.026
 214     -999.990   36.735
 214.5     -999.990   37.904
 215     -999.990   39.073
 215.5     -999.990   39.834
 216     -999.990   38.393
 216.5     -999.990   37.568
 217     -999.990   38.313
 217.5     -999.990   39.058
 218     -999.990   38.741
 218.5     -999.990   37.543
 219     -999.990   36.345
 219.5     -999.990   35.378
 220     -999.990   35.289
 220.5     -999.990   35.2
 221     -999.990   37.536
 221.5     -999.990   40.951
 222     -999.990   41.456
 222.5     -999.990   41.931
 223     -999.990   42.406
 223.5     -999.990   40.959
 224     -999.990   39.143
 224.5     -999.990   37.735
 225     -999.990   37.113
 225.5     -999.990   36.492
 226     -999.990   39.305
 226.5     -999.990   39.336
 227     -999.990   39.005
 227.5     -999.990   41.171
 228     -999.990   43.024
 228.5     -999.990   42.574
 229     -999.990   42.124
 229.5     -999.990   40.936
 230     -999.990   37.672
 230.5     -999.990   36.593
 231     -999.990   35.514
 231.5     -999.990   35.045
 232     -999.990   35.156
 232.5     -999.990   35.267
 233     -999.990   35.377
 233.5     -999.990   38.156
 234     -999.990   41.633
 234.5     -999.990   41.115
 235     -999.990   40.596
 235.5     -999.990   40.078
 236     -999.990   39.56
 236.5     -999.990   41.078
 237     -999.990   42.059
 237.5     -999.990   41.466
 238     -999.990   40.874
 238.5     -999.990   41.359
 239     -999.990   43.224
 239.5     -999.990   45.09
 240     -999.990   48.364
 240.5     -999.990   49.894
 241     -999.990   51.423
 241.5     -999.990   50.539
 242     -999.990   49.504
 242.5     -999.990   44.569
 243     -999.990   42.012
 243.5     -999.990   41.309
 244     -999.990   40.605
 244.5     -999.990   43.071
 245     -999.990   46.926
