#--------------------------------------------------#
#-------------------ENVERUS, INC.------------------#
#------------------WWW.ENVERUS.COM-----------------#
#------------------COPYRIGHT 2020------------------#
#--------------------------------------------------#
#THIS FILE MAY BE USED ONLY IN ACCORDANCE WITH A CURRENT SUBSCRIPTION AGREEMENT BETWEEN
#THE USER AND ENVERUS, INC. NO PART OF THIS FILE MAY BE REPRODUCED, USED, COPIED,
#MODIFIED, PROPAGATED, OR DISTRIBUTED EXCEPT IN ACCORDANCE WITH THE SUBSCRIPTION
#AGREEMENT. UNAUTHORIZED USE OR DISTRIBUTION OF ALL OR ANY PART OF THIS FILE MAY VIOLATE
#COPYRIGHT, TRADEMARK, AND/OR OTHER LAWS AND IS SUBJECT TO CIVIL AS WELL AS CRIMINAL
#SANCTIONS.
#--------------------------------------------------#
#THIS FILE IS PROVIDED "AS-IS" AND ALL WARRANTIES ARE EXPRESSLY DISCLAIMED, WHETHER
#EXPRESS, ORAL, IMPLIED, STATUTORY OR OTHERWISE, INCLUDING ANY IMPLIED WARRANTY OF FITNESS
#FOR A PARTICULAR PURPOSE, MERCHANTABILITY, TITLE OR NON-INFRINGEMENT, AND ANY WARRANTIES
#ARISING BY VIRTUE OF CUSTOM OF TRADE OR COURSE OF DEALING.  FURTHER, ENVERUS, INC.
#AND ITS LICENSORS DO NOT REPRESENT OR WARRANT THAT THIS FILE WILL MEET USER'S
#REQUIREMENTS OR ARE SUITABLE FOR USER'S NEEDS OR THAT THE DATA OR RESULTS PROVIDED IN
#CONJUNCTION THEREWITH ARE CORRECT, ACCURATE, TIMELY OR RELIABLE. THESE DISCLAIMERS SHALL
#APPLY REGARDLESS OF ANY FAILURE OF ESSENTIAL PURPOSE OF ANY LIMITED REMEDY.  SOME
#JURISDICTIONS DO NOT ALLOW THE EXCLUSION OF CERTAIN WARRANTIES SO SOME OF THE ABOVE
#EXCLUSIONS MAY NOT APPLY. IN NO EVENT SHALL ENVERUS, INC. OR ANY OF ITS AFFILIATES
#BE LIABLE UNDER ANY LEGAL THEORY, WHETHER IN TORT (INCLUDING WITHOUT LIMITATION
#NEGLIGENCE), CONTRACT, STRICT LIABILITY, STATUTORY OR OTHERWISE, FOR ANY SPECIAL,
#INCIDENTAL, CONSEQUENTIAL, EXEMPLARY, PUNITIVE OR INDIRECT DAMAGE OF ANY KIND, INCLUDING
#WITHOUT LIMITATION LOSS OF REVENUE, PROFITS, GOODWILL, USE, AND/OR DATA OR THE COST OF
#PROCUREMENT OF SUBSTITUTE GOODS OR SERVICES, EVEN IF APPRISED OF THE POSSIBILITY OF SUCH
#DAMAGES IN ADVANCE.
#--------------------------------------------------#

~VERSION INFORMATION
VERS. 2.0 : CWLS LOG ASCII STANDARD - VERSION 2.0
WRAP.  NO : ONE LINE PER DEPTH STEP
~WELL INFORMATION
#MNEMONIC     .UNIT              VALUE :DESCRIPTION
STRT       .FT                75 :START DEPTH
STOP       .FT                5648 :STOP DEPTH
STEP       .FT                   0.500 :STEP
NULL       .                  -999.990 :NULL
UWI        .              42371363570000 :UNIQUE WELL ID
API        .              42371363570000 :API NUMBER
COMP       .         APACHE CORPORATION :COMPANY
WELL       .        SCHLOSSER, FRED ESTATE -B-  13 :WELL
DATE       .                16-MAY-1992 :LOG DATE
~CURVE INFORMATION
#MNEMONIC     .UNIT      API CODE :CURVE DESCRIPTION
DEPTH       .FT                      :MEASURED DEPTH
DT.US/FT        UNKNOWN   :DT
GR.API        UNKNOWN   :GR
~A    DEPTH    DT    GR
# ...
 3397     47.738   11.141
 3397.5     47.675   10.551
 3398     47.612   9.759
 3398.5     47.55   10.203
 3399     47.49   10.937
 3399.5     47.43   11.672
 3400     47.37   12.407
 3400.5     47.31   13.141
 3401     47.252   13.12
 3401.5     47.252   13.028
 3402     47.253   12.936
 3402.5     47.253   12.634
 3403     47.254   11.786
 3403.5     47.254   10.937
 3404     47.334   10.089
 3404.5     47.419   9.844
 3405     47.503   10.474
 3405.5     47.588   11.103
 3406     47.673   10.787
 3406.5     47.757   9.939
 3407     47.842   9.233
 3407.5     47.873   10.778
 3408     47.873   12.323
 3408.5     47.868   12.833
 3409     47.805   12.949
 3409.5     47.741   12.534
 3410     47.678   12.118
 3410.5     47.615   11.702
 3411     47.552   11.905
 3411.5     47.503   12.537
 3412     47.702   13.168
 3412.5     47.9   13.799
 3413     48.099   18.727
 3413.5     48.307   22.978
 3414     48.522   26.967
 3414.5     48.736   27.778
 3415     48.951   28.589
 3415.5     47.321   24.357
 3416     46.767   20.095
 3416.5     47.501   16.864
 3417     47.796   15.464
 3417.5     47.873   16.541
 3418     47.951   16.957
 3418.5     48.014   15.829
 3419     48.055   14.7
 3419.5     48.096   13.572
 3420     48.179   13.192
 3420.5     48.301   13.831
 3421     48.278   14.47
 3421.5     48.167   15.11
 3422     48.057   15.432
 3422.5     47.946   14.155
 3423     48.318   12.878
 3423.5     48.368   11.601
 3424     48.347   10.325
 3424.5     48.325   9.048
 3425     48.23   8.033
 3425.5     48.004   7.522
 3426     47.778   7.011
 3426.5     47.971   7.202
 3427     48.259   7.602
 3427.5     48.272   8.002
 3428     47.564   13.547
 3428.5     46.856   20.523
 3429     46.317   27.374
 3429.5     46.032   33.32
 3430     45.747   39.266
 3430.5     45.462   48.217
 3431     45.826   54.843
 3431.5     46.202   55.535
 3432     46.445   56.227
 3432.5     46.58   57.119
 3433     46.674   61.928
 3433.5     46.769   66.737
 3434     47.326   71.699
 3434.5     47.955   77.576
 3435     47.109   83.452
 3435.5     46.217   83.449
 3436     45.786   80.578
 3436.5     45.801   77.928
 3437     45.817   75.863
 3437.5     46.074   73.798
 3438     46.601   65.172
 3438.5     47.311   55.759
 3439     47.597   46.346
 3439.5     47.205   39.9
 3440     46.814   33.663
 3440.5     47.172   22.786
 3441     47.678   22.507
 3441.5     47.486   22.227
 3442     47.248   23.658
 3442.5     47.163   26.014
 3443     47.077   27.756
 3443.5     47.069   28.266
 3444     47.082   28.777
 3444.5     47.094   29.287
 3445     47.569   30.031
 3445.5     48.326   31.37
 3446     49.083   32.708
 3446.5     48.898   34.076
 3447     48.439   35.702
 3447.5     47.98   37.328
 3448     47.521   38.325
 3448.5     47.061   38.17
 3449     47.082   38.015
 3449.5     47.337   37.861
 3450     47.592   36.601
 3450.5     47.001   26.349
 3451     46.336   25.712
 3451.5     46.337   25.074
 3452     46.337   24.437
 3452.5     46.348   22.138
 3453     46.618   19.701
 3453.5     46.888   17.184
 3454     47.205   13.934
 3454.5     47.731   10.685
 3455     48.177   7.321
 3455.5     48.42   6.886
 3456     48.472   7.129
 3456.5     48.443   7.371
 3457     48.413   7.614
 3457.5     48.383   7.857
 3458     48.562   7.164
 3458.5     48.768   6.378
 3459     48.975   5.591
 3459.5     49.004   4.804
 3460     48.96   4.189
 3460.5     48.917   4.358
 3461     48.893   4.526
 3461.5     48.943   4.695
 3462     48.993   4.864
 3462.5     49.043   5.033
 3463     49.093   5.202
 3463.5     49.143   5.855
 3464     49.192   6.652
 3464.5     49.246   7.449
 3465     49.313   8.246
 3465.5     49.379   8.202
 3466     49.446   8.108
 3466.5     49.464   7.831
 3467     49.465   7.425
 3467.5     49.491   7.019
 3468     49.635   6.613
 3468.5     49.778   6.207
 3469     49.922   5.801
 3469.5     50.05   6.451
 3470     50.036   8.887
 3470.5     49.045   10.553
 3471     49.318   10.093
 3471.5     49.591   9.58
 3472     49.691   8.683
 3472.5     49.677   7.785
 3473     49.664   6.888
 3473.5     49.65   6.422
 3474     49.636   6.454
 3474.5     49.649   6.486
 3475     49.771   7.181
 3475.5     49.934   9.777
 3476     50.125   12.372
 3476.5     51.364   14.319
 3477     50.979   15.68
 3477.5     50.825   17.04
 3478     50.916   17.243
 3478.5     51.007   16.535
 3479     51.099   15.826
 3479.5     50.784   15.117
 3480     50.272   14.408
 3480.5     49.706   11.268
 3481     48.897   10.43
 3481.5     48.873   9.592
 3482     48.849   8.935
 3482.5     48.825   9.221
 3483     48.802   9.508
 3483.5     48.778   9.794
 3484     48.754   9.235
 3484.5     48.824   8.387
 3485     48.916   7.54
 3485.5     49.009   7.188
 3486     49.101   7.297
 3486.5     49.193   7.407
 3487     49.286   7.516
 3487.5     49.378   7.626
 3488     49.471   7.299
 3488.5     49.311   6.687
 3489     49.11   6.074
 3489.5     48.909   5.462
 3490     48.72   5.083
 3490.5     48.805   5.221
 3491     48.89   5.359
 3491.5     48.975   4.846
 3492     49.06   4.305
 3492.5     49.146   3.765
 3493     49.231   3.542
 3493.5     49.207   4.023
 3494     49.133   4.503
 3494.5     49.06   4.984
 3495     48.987   6.276
 3495.5     48.913   7.938
 3496     48.84   8.205
 3496.5     48.858   8.087
 3497     48.879   7.969
 3497.5     48.901   7.852
 3498     48.922   7.702
 3498.5     48.944   7.166
 3499     48.965   6.63
 3499.5     48.987   6.094
 3500     48.959   5.558
 3500.5     48.904   5.843
 3501     48.85   6.354
 3501.5     48.833   6.865
 3502     49.019   6.859
 3502.5     49.205   6.724
 3503     49.391   6.589
 3503.5     49.577   6.454
 3504     49.5   6.32
 3504.5     49.019   7.279
 3505     48.805   8.392
 3505.5     48.881   9.059
 3506     48.957   8.819
 3506.5     49.033   8.58
 3507     49.109   8.316
 3507.5     48.756   7.869
 3508     47.757   7.421
 3508.5     47.438   6.974
 3509     47.867   7.796
 3509.5     48.296   9.202
 3510     48.725   9.724
 3510.5     49.154   8.656
 3511     48.481   7.588
 3511.5     47.386   6.519
 3512     46.919   5.682
 3512.5     49.718   5.495
 3513     52.516   5.307
 3513.5     55.315   5.12
 3514     58.113   4.933
 3514.5     61.698   5.091
 3515     59.184   5.528
 3515.5     57.346   5.965
 3516     57.653   5.92
 3516.5     57.96   5.506
 3517     58.267   5.092
 3517.5     58.573   4.678
 3518     58.88   4.291
 3518.5     59.669   4.289
 3519     60.501   4.287
 3519.5     61.21   4.286
 3520     61.204   4.284
 3520.5     59.971   4.795
 3521     58.887   5.306
 3521.5     58.853   5.817
 3522     58.819   6.001
 3522.5     59.912   5.96
 3523     61.13   5.919
 3523.5     61.944   5.237
 3524     62.287   4.404
 3524.5     60.679   4.151
 3525     61.599   4.623
 3525.5     62.518   5.094
 3526     62.844   5.125
 3526.5     61.779   4.944
 3527     60.714   4.762
 3527.5     61.092   4.639
 3528     59.519   6.185
 3528.5     59.319   7.117
 3529     61.168   6.86
 3529.5     63.016   6.604
 3530     64.204   5.763
 3530.5     61.938   4.747
 3531     52.47   4.566
 3531.5     50.158   4.906
 3532     48.275   5.245
 3532.5     46.933   5.585
 3533     47.143   5.924
 3533.5     47.649   5.983
 3534     47.731   5.754
 3534.5     47.787   5.526
 3535     47.842   5.298
 3535.5     48.034   5.069
 3536     48.215   4.841
 3536.5     48.206   5.197
 3537     48.197   5.789
 3537.5     48.188   6.381
 3538     48.349   6.973
 3538.5     48.81   7.116
 3539     48.703   7.034
 3539.5     48.432   6.952
 3540     48.247   6.87
 3540.5     48.351   7.201
 3541     48.454   7.809
 3541.5     48.39   8.416
 3542     48.325   8.885
 3542.5     48.26   8.78
 3543     48.196   8.674
 3543.5     48.716   8.569
 3544     48.671   8.463
 3544.5     48.569   8.358
 3545     48.467   8.252
 3545.5     48.365   8.147
 3546     48.605   8.042
 3546.5     48.939   7.936
 3547     49.272   7.831
 3547.5     49.606   7.725
 3548     49.579   7.62
 3548.5     49.545   7.452
 3549     49.51   7.237
 3549.5     49.475   7.022
