~Version Information Block
 VERS.                2.00:     CWLS LOG ASCII STANDARD - VERSION 2.000000
 WRAP.                  NO:     One Line Per Depth Step
#
~Well Information Block
#MNEM.UNIT                     Data                         Information
#----------   ------------------------------------------   ----------------
 STRT.FT                                     5200.0000:     START DEPTH
 STOP.FT                                    11550.0000:     STOP DEPTH
 STEP.FT                                        0.5000:     STEP
 NULL.                                       -999.2500:     NULL VALUE
 COMP.               AMERICAN QUASAR PETROLEUM COMPANY:     COMPANY
 WELL.                               MCCARTER # 1 - 31:     WELL
 FLD .                                         WILDCAT:     FIELD
 LOC .                                                :     LOCATION
 CNTY.                                          REEVES:     COUNTY
 STAT.                                           TEXAS:     STATE
 CTRY.                                             USA:     COUNTRY
 SRVC.                                                :     SERVICE COMPANY
 DATE.                                      08/07/2015:     DATE
 API .                                  42389311800000:     API NUMBER
 UWI .                                  42389311800000:     UWI NUMBER
 TVD .                                              NO:     TVD flag
 WSTA.                                             LOC:     Well status
#
~Curve Information Block
#MNEM.UNIT       API CODE      Curve Description
#----------    -------------   -------------------
 DEPT.FT                   :   Depth in Feet
 GR  .GAPI                 :   Gamma Ray
 LLD .OHMM                 :   Latero-Log Deep (Resistivity)
 CALI.IN                   :   Caliper
 DT  .US/F                 :   Delta-T
#
~Parameter Information Block
#MNEM.UNIT            Value               Description
#----------    --------------------    -------------------
 RUN .                         ONE:    Run Number
 PDAT.                          GL:    Permanent Datum
 EPD .FT                          :    Elevation Of Perm. Datum
 LMF .               KELLY BUSHING:    Log Measured From
 EKB .FT                          :    Elevation Of Kelly Bushing
 DF .FT                           :    Elevation Of Derrick Floor
 GL .FT                           :    Elevation Of Ground Level
 TD  .FT                          :    Total Depth
 CSGD.FT                          :    Casing Bottom (Driller) 1
 CSGL.FT                          :    Casing Bottom (Logger) 1
 MUD .                            :    Drilling Fluid Type
 MUDV .CP                         :    Drilling Fluid Viscosity
 MUDD .LB/USG                     :    Drilling Fluid Density
 FL .ML/30MIN                     :    Drilling Fluid Loss
 PH.                              :    Drilling Fluid Ph
 MUDS .                           :    Mud Sample Source
 RM .OHMM                         :    Resistivity Of Mud Sample
 RMT .DEGF                        :    Mud Sample Temperature
 RMF .OHMM                        :    Mud Filtrate Resistivity
 RMFT.DEGF                        :    Mud Filtrate Sample Temperature
 RMC .OHMM                        :    Mud Cake Resistivity
 RMCT.DEGF                        :    Mud Cake Sample Temperature
 RMB .OHMM                        :    Mud Resistivity At Bht
 TMAX .DEGF                       :    Bottom Hole Temperature    
#
~Other Information Block
<DescLogPlotStart>   NEURALOG PLOT DEFINITION
PLOTDEFVERSION: 3
LASFILE: E:\Nair Innovations\Texas - NII\Shivam\42389311800000\42389311800000_G
DEPTHSCALE: 239.999996
RESOLUTION: 200
DEPTHLABELFREQ: 100.000000
HEAVYGRIDFREQ: 100.000000
MEDIUMGRIDFREQ: 50.000000
LIGHTGRIDFREQ: 10.000000
#
#   TRACK 1
#
STARTTRACK: 
 LEFTX: 0.500000 inch
 RIGHTX: 3.000000 inch
 SCALETYPE: Linear
 NUMCHARTDIVISIONS: 10
CURVE: GR    0.000000   125.000000 (0,0,255)      Solid             2     Y    
BACKUP: 125.000000 250.000000 (0,0,255)      Solid             2    
CURVE: CALI  6.000000   16.000000  (0,0,255)      Solid             2     N    
ENDTRACK: 
#
#   TRACK 2
#
STARTTRACK: 
 LEFTX: 3.500000 inch
 RIGHTX: 8.500000 inch
 SCALETYPE: Log
 NUMCYCLES: 4
 STARTCYCLE: 2
CURVE: LLD   0.200000   2000.000000 (0,131,131)    Solid             2     Y   
BACKUP: 2000.000000 20000000.000000 (0,131,131)    Solid             2    
ENDTRACK: 
#
#   TRACK 3
#
STARTTRACK: 
 LEFTX: 3.500000 inch
 RIGHTX: 8.500000 inch
 SCALETYPE: Linear
 NUMCHARTDIVISIONS: 10
CURVE: DT    100.000000 40.000000  (0,131,131)    Solid             2     Y    
BACKUP: 160.000000 100.000000 (0,131,131)    Solid             2    
BACKUP: 40.000000  -20.000000 (0,131,131)    Solid             2    
ENDTRACK: 
<DescLogPlotEnd>
<DepthTrack type='Reference' track='1' Label='0' color='0' hor='0' />
<Reference font='144,0,-900,0,500,0,16777216,Arial' />
~A DEPTH     GR               LLD              CALI             DT              
# ...
   10645.000 63.21712158      9.34046878       12.33734670      88.52147852     
   10645.500 63.35913219      8.83731991       12.33698877      89.96003996     
   10646.000 61.42343470      9.78157419       12.33663084      85.68124184     
   10646.500 62.75055131      10.62871832      12.33627291      81.97417967     
   10647.000 66.12354036      10.62871832      12.33591498      79.53046953     
   10647.500 71.98146412      10.72726263      12.33555705      79.59040959     
   10648.000 76.95143561      10.72726263      12.33519912      82.39760240     
   10648.500 79.42880352      10.65740561      12.33484119      85.91158841     
   10649.000 81.50739162      10.59217851      12.33448326      88.22177822     
   10649.500 85.72805074      10.52761879      12.33412533      88.47118506     
   10650.000 87.51612266      10.46352021      12.33376740      88.79120879     
   10650.500 87.93993306      10.39980375      12.33340947      89.11123252     
   10651.000 87.85927234      10.33647527      12.33305154      89.18081918     
   10651.500 87.26510983      10.27433985      12.33269361      89.18081918     
   10652.000 87.37916250      10.15090175      12.33233569      89.84255744     
   10652.500 90.12062557      10.30668114      12.33197776      90.56543457     
   10653.000 91.93147637      10.52577937      12.33161983      91.18373584     
   10653.500 85.90379528      10.92710070      12.33126190      90.66787575     
   10654.000 77.56699570      12.09464490      12.33090397      89.13346697     
   10654.500 72.80969763      12.82578938      12.33054604      87.58861727     
   10655.000 71.47669191      13.63632459      12.33018811      86.54345654     
   10655.500 81.23075586      14.25791587      12.32983018      85.29520480     
   10656.000 83.29694281      14.72703359      12.32947225      84.78854479     
   10656.500 83.16736331      15.82981269      12.32911432      84.62121212     
   10657.000 78.18042135      16.86093674      12.32875639      84.50549451     
   10657.500 68.59135682      17.53540364      12.32839846      83.66258741     
   10658.000 63.75988783      17.98613345      12.32804053      83.06293706     
   10658.500 63.77029193      18.35956246      12.32768260      82.42707293     
   10659.000 66.45526108      18.66250235      12.32732467      82.33206793     
   10659.500 66.68083600      18.98339763      12.32696674      82.64735265     
   10660.000 65.29085914      19.30619601      12.32660881      82.88166379     
   10660.500 63.11980461      19.79925460      12.32625089      83.04595405     
   10661.000 61.38352412      20.28169178      12.32589296      82.98561427     
   10661.500 61.43092143      20.27829678      12.32553503      81.97434096     
   10662.000 62.10963263      20.27983720      12.32517710      78.28223556     
   10662.500 66.32096383      20.28736823      12.32481917      76.48996922     
   10663.000 71.72520544      20.27590098      12.32446124      77.47642610     
   10663.500 74.08131676      18.42141862      12.32410331      78.14806501     
   10664.000 73.18355853      17.49499260      12.32374538      79.21408269     
   10664.500 70.38620833      17.30337676      12.32338745      80.62324942     
   10665.000 67.61525977      17.33427759      12.32302952      81.23714728     
   10665.500 66.29694838      17.17503897      12.32267159      81.23201798     
   10666.000 63.43145209      18.15289215      12.32231366      81.01052793     
   10666.500 61.38446259      19.46262157      12.32195573      80.54714516     
   10667.000 58.10733144      21.04137342      12.32159780      80.06993007     
   10667.500 57.81088865      22.65365134      12.32123987      78.87112887     
   10668.000 61.13382727      23.72347433      12.32088194      78.48951049     
   10668.500 67.57038049      22.37548618      12.32052401      78.59205866     
   10669.000 74.06793331      20.65656252      12.32016608      79.43555879     
   10669.500 74.51420969      17.65719768      12.31980816      81.26060819     
   10670.000 68.90627979      17.01726317      12.31945023      80.63499751     
   10670.500 61.20763132      17.10749053      12.31909230      79.52480209     
   10671.000 55.43471025      17.17503897      12.31873437      78.69677094     
   10671.500 60.15006673      17.01726317      12.31837633      79.43756244     
   10672.000 64.20883709      16.55257891      12.31801754      81.12287712     
   10672.500 66.37030579      16.47046239      12.31765318      83.49900100     
   10673.000 66.76146988      16.40052124      12.31734716      84.75399088     
   10673.500 65.92595738      16.90820341      12.31739085      84.50569467     
   10674.000 65.75773297      17.17503897      12.32122119      84.06870042     
   10674.500 63.10609634      17.35099410      12.33181700      83.72504476     
   10675.000 63.15269411      17.49499260      12.35491020      84.31168255     
   10675.500 61.58340247      18.49874305      12.33941248      83.57877973     
   10676.000 57.90492675      20.09250123      12.33700322      82.72059140     
   10676.500 56.31971447      21.33474170      12.33728854      81.85076688     
   10677.000 55.33029231      22.65744346      12.33732535      80.66933067     
   10677.500 54.88799348      22.65882909      12.33732535      79.66908092     
   10678.000 54.90092473      21.63207261      12.33732535      79.76679194     
   10678.500 55.84515085      20.81779872      12.33732535      80.13744923     
   10679.000 57.18393017      20.27878915      12.33732535      80.41345675     
   10679.500 58.40431595      20.09250123      12.33732535      80.24975025     
   10680.000 56.94398442      22.76797483      12.33732535      78.62337662     
   10680.500 53.62077690      25.84086786      12.33732535      77.13746254     
   10681.000 50.37806278      30.18508645      12.33732535      75.81418581     
   10681.500 51.48636600      30.16669077      12.33732535      75.57442557     
   10682.000 56.96718509      27.49278315      12.33732535      76.69290709     
   10682.500 61.18316113      26.85031430      12.33732535      77.92782218     
   10683.000 66.23108566      26.40689008      12.33732535      78.39160839     
   10683.500 67.99644839      26.02416849      12.33732535      75.30919081     
   10684.000 68.53847579      28.79695906      12.33732535      73.57842158     
   10684.500 68.27955369      31.77499127      12.33732535      73.21028971     
   10685.000 66.15513336      35.60664033      12.33732535      73.83616384     
   10685.500 63.21895864      34.92192151      12.33732535      79.13436563     
   10686.000 62.66524386      34.00093950      12.33732535      80.30036630     
   10686.500 62.11837514      32.91491373      12.33732535      81.20879121     
   10687.000 59.96127258      31.87387061      12.33732535      80.30969031     
   10687.500 56.34878821      31.87387061      12.33732535      79.57482517     
   10688.000 56.88621201      33.93197622      12.33732535      78.87747547     
   10688.500 58.94630314      35.52247361      12.33732535      78.73573485     
   10689.000 58.67868414      36.93301810      12.33732535      78.59399424     
   10689.500 55.23792106      35.27968660      12.33732535      78.45154845     
   10690.000 54.41101980      31.97330354      12.33732535      76.63155027     
   10690.500 55.17543914      28.96988888      12.33732535      76.19344292     
   10691.000 55.63675284      26.50174584      12.33732535      75.93406593     
   10691.500 55.70562520      25.77807225      12.33732535      76.58366633     
   10692.000 57.76697899      26.74745716      12.33732535      77.70447734     
   10692.500 64.00868080      26.90373402      12.33732535      78.77236400     
   10693.000 71.42521491      26.99544660      12.33732535      79.71028971     
   10693.500 74.34903928      24.83660319      12.33732535      80.90909091     
   10694.000 73.82984041      24.61887335      12.33732535      80.88245088     
