#--------------------------------------------------#
#-------------------ENVERUS, INC.------------------#
#------------------WWW.ENVERUS.COM-----------------#
#------------------COPYRIGHT 2020------------------#
#--------------------------------------------------#
#THIS FILE MAY BE USED ONLY IN ACCORDANCE WITH A CURRENT SUBSCRIPTION AGREEMENT BETWEEN
#THE USER AND ENVERUS, INC. NO PART OF THIS FILE MAY BE REPRODUCED, USED, COPIED,
#MODIFIED, PROPAGATED, OR DISTRIBUTED EXCEPT IN ACCORDANCE WITH THE SUBSCRIPTION
#AGREEMENT. UNAUTHORIZED USE OR DISTRIBUTION OF ALL OR ANY PART OF THIS FILE MAY VIOLATE
#COPYRIGHT, TRADEMARK, AND/OR OTHER LAWS AND IS SUBJECT TO CIVIL AS WELL AS CRIMINAL
#SANCTIONS.
#--------------------------------------------------#
#THIS FILE IS PROVIDED "AS-IS" AND ALL WARRANTIES ARE EXPRESSLY DISCLAIMED, WHETHER
#EXPRESS, ORAL, IMPLIED, STATUTORY OR OTHERWISE, INCLUDING ANY IMPLIED WARRANTY OF FITNESS
#FOR A PARTICULAR PURPOSE, MERCHANTABILITY, TITLE OR NON-INFRINGEMENT, AND ANY WARRANTIES
#ARISING BY VIRTUE OF CUSTOM OF TRADE OR COURSE OF DEALING.  FURTHER, ENVERUS, INC.
#AND ITS LICENSORS DO NOT REPRESENT OR WARRANT THAT THIS FILE WILL MEET USER'S
#REQUIREMENTS OR ARE SUITABLE FOR USER'S NEEDS OR THAT THE DATA OR RESULTS PROVIDED IN
#CONJUNCTION THEREWITH ARE CORRECT, ACCURATE, TIMELY OR RELIABLE. THESE DISCLAIMERS SHALL
#APPLY REGARDLESS OF ANY FAILURE OF ESSENTIAL PURPOSE OF ANY LIMITED REMEDY.  SOME
#JURISDICTIONS DO NOT ALLOW THE EXCLUSION OF CERTAIN WARRANTIES SO SOME OF THE ABOVE
#EXCLUSIONS MAY NOT APPLY. IN NO EVENT SHALL ENVERUS, INC. OR ANY OF ITS AFFILIATES
#BE LIABLE UNDER ANY LEGAL THEORY, WHETHER IN TORT (INCLUDING WITHOUT LIMITATION
#NEGLIGENCE), CONTRACT, STRICT LIABILITY, STATUTORY OR OTHERWISE, FOR ANY SPECIAL,
#INCIDENTAL, CONSEQUENTIAL, EXEMPLARY, PUNITIVE OR INDIRECT DAMAGE OF ANY KIND, INCLUDING
#WITHOUT LIMITATION LOSS OF REVENUE, PROFITS, GOODWILL, USE, AND/OR DATA OR THE COST OF
#PROCUREMENT OF SUBSTITUTE GOODS OR SERVICES, EVEN IF APPRISED OF THE POSSIBILITY OF SUCH
#DAMAGES IN ADVANCE.
#--------------------------------------------------#

~VERSION INFORMATION
VERS. 2.0 : CWLS LOG ASCII STANDARD - VERSION 2.0
WRAP. NO : ONE LINE PER DEPTH STEP
~WELL INFORMATION
#MNEMONIC     .UNIT              VALUE :DESCRIPTION
STRT       .FT                38.00000 :START DEPTH
STOP       .FT                20083.00000 :STOP DEPTH
STEP       .FT                0.50000 :STEP
NULL       .                -999.25000 :NULL VALUE
UWI       .                42389302750000 :UNIQUE WELL ID
API       .                42389302750000 :API NUMBER
COMP       .                 :COMPANY
WELL       .                 :WELL
FLD       .                 :FIELD
LOC       .                 :LOCATION
CNTY       .                 :COUNTY
STAT       .                 :STATE
CTRY       .                 :COUNTRY
SRVC       .                 :SERVICE COMPANY
DATE       .                 :DATE
~CURVE INFORMATION
#MNEMONIC     .UNIT      API CODE :CURVE DESCRIPTION
DEPTH       .FT                      :MEASURED DEPTH
CAL       .IN        UNKNOWN   :CAL
DT       .US/FT        UNKNOWN   :DT
GR       .GAPI        UNKNOWN   :GR
~A    DEPTH    CAL    DT    GR
# ...
14045.50000    -999.25000    90.07149    65.96517
14046.00000    -999.25000    89.61510    64.71652
14046.50000    -999.25000    88.45290    63.46787
14047.00000    -999.25000    87.29069    64.07230
14047.50000    -999.25000    86.12849    66.46191
14048.00000    -999.25000    84.96629    68.85152
14048.50000    -999.25000    83.80409    71.24114
14049.00000    -999.25000    87.24219    73.49786
14049.50000    -999.25000    91.25594    72.84847
14050.00000    -999.25000    90.12448    72.19909
14050.50000    -999.25000    88.99302    71.54970
14051.00000    -999.25000    87.86155    70.90032
14051.50000    -999.25000    86.73009    70.25093
14052.00000    -999.25000    85.59863    69.60155
14052.50000    -999.25000    84.46716    68.95216
14053.00000    -999.25000    83.33570    68.30278
14053.50000    -999.25000    84.45478    67.65339
14054.00000    -999.25000    85.86022    67.00401
14054.50000    -999.25000    87.26566    66.35462
14055.00000    -999.25000    88.67110    65.70524
14055.50000    -999.25000    89.92320    65.05585
14056.00000    -999.25000    88.92928    64.40646
14056.50000    -999.25000    87.93536    63.75708
14057.00000    -999.25000    86.94144    65.52848
14057.50000    -999.25000    85.98704    68.49085
14058.00000    -999.25000    86.56903    71.45322
14058.50000    -999.25000    87.15101    71.95922
14059.00000    -999.25000    87.73299    70.31043
14059.50000    -999.25000    86.97814    68.66163
14060.00000    -999.25000    85.60926    67.01283
14060.50000    -999.25000    85.02372    65.36404
14061.00000    -999.25000    84.43818    63.71524
14061.50000    -999.25000    83.85264    62.06644
14062.00000    -999.25000    83.29643    60.41764
14062.50000    -999.25000    85.04010    60.90879
14063.00000    -999.25000    86.78378    62.83317
14063.50000    -999.25000    88.52745    64.75755
14064.00000    -999.25000    87.54820    66.68193
14064.50000    -999.25000    86.32462    68.60630
14065.00000    -999.25000    85.10105    70.53068
14065.50000    -999.25000    83.87747    72.45506
14066.00000    -999.25000    84.34724    74.37943
14066.50000    -999.25000    84.92960    75.75543
14067.00000    -999.25000    85.51197    74.81962
14067.50000    -999.25000    86.09433    73.88380
14068.00000    -999.25000    86.67669    72.94799
14068.50000    -999.25000    87.25906    72.01218
14069.00000    -999.25000    86.70466    71.07637
14069.50000    -999.25000    85.71179    70.14056
14070.00000    -999.25000    84.71891    69.20475
14070.50000    -999.25000    83.72604    68.26894
14071.00000    -999.25000    85.69145    68.51749
14071.50000    -999.25000    88.06421    69.20154
14072.00000    -999.25000    87.47986    69.88559
14072.50000    -999.25000    86.89551    70.56964
14073.00000    -999.25000    86.31117    71.25370
14073.50000    -999.25000    85.72682    71.93775
14074.00000    -999.25000    85.14247    72.62180
14074.50000    -999.25000    84.55813    73.30585
14075.00000    -999.25000    84.67770    71.73813
14075.50000    -999.25000    85.51623    69.11818
14076.00000    -999.25000    85.43758    68.01779
14076.50000    -999.25000    85.08158    68.78946
14077.00000    -999.25000    84.72558    69.56113
14077.50000    -999.25000    84.36958    70.33280
14078.00000    -999.25000    84.01358    70.31277
14078.50000    -999.25000    83.65758    69.25878
14079.00000    -999.25000    83.30158    68.20479
14079.50000    -999.25000    83.35674    67.15080
14080.00000    -999.25000    84.09698    66.09681
14080.50000    -999.25000    84.83721    65.04282
14081.00000    -999.25000    85.57745    63.98884
14081.50000    -999.25000    85.99472    62.93485
14082.00000    -999.25000    85.87217    61.88086
14082.50000    -999.25000    85.74963    66.45114
14083.00000    -999.25000    85.62709    68.21192
14083.50000    -999.25000    85.56604    68.93125
14084.00000    -999.25000    86.19790    69.65059
14084.50000    -999.25000    86.82976    69.39158
14085.00000    -999.25000    87.46163    67.67693
14085.50000    -999.25000    88.09349    65.96229
14086.00000    -999.25000    88.72536    64.24764
14086.50000    -999.25000    88.63163    62.53300
14087.00000    -999.25000    88.52146    60.81835
14087.50000    -999.25000    88.41130    59.10371
14088.00000    -999.25000    88.30114    58.00551
14088.50000    -999.25000    88.19097    59.82431
14089.00000    -999.25000    87.73931    61.64312
14089.50000    -999.25000    87.06413    63.46192
14090.00000    -999.25000    86.38895    65.28072
14090.50000    -999.25000    85.71377    67.09953
14091.00000    -999.25000    85.03859    68.91833
14091.50000    -999.25000    84.80484    70.73714
14092.00000    -999.25000    85.13461    72.55594
14092.50000    -999.25000    85.46438    74.36218
14093.00000    -999.25000    85.79415    76.04232
14093.50000    -999.25000    86.12392    77.72246
14094.00000    -999.25000    86.00020    79.40261
14094.50000    -999.25000    85.32051    81.08275
14095.00000    -999.25000    84.64081    82.76290
14095.50000    -999.25000    84.54734    84.44304
14096.00000    -999.25000    85.53599    86.12318
14096.50000    -999.25000    86.52464    83.63364
14097.00000    -999.25000    87.51329    80.78651
14097.50000    -999.25000    88.50194    77.93938
14098.00000    -999.25000    89.49060    75.09225
14098.50000    -999.25000    90.47925    72.24512
14099.00000    -999.25000    90.97424    69.39799
14099.50000    -999.25000    90.60000    66.55086
14100.00000    -999.25000    90.22576    65.89466
14100.50000    -999.25000    89.85151    68.19872
14101.00000    -999.25000    89.47727    70.50279
14101.50000    -999.25000    89.10303    72.80685
14102.00000    -999.25000    88.72879    75.11092
14102.50000    -999.25000    88.35455    75.88577
14103.00000    -999.25000    87.98030    76.56959
14103.50000    -999.25000    87.53756    77.25341
14104.00000    -999.25000    86.99059    77.93724
14104.50000    -999.25000    86.44362    78.62106
14105.00000    -999.25000    85.89664    79.30488
14105.50000    -999.25000    85.34967    78.71585
14106.00000    -999.25000    85.48441    77.99281
14106.50000    -999.25000    85.90399    77.26976
14107.00000    -999.25000    86.32356    76.54672
14107.50000    -999.25000    86.74313    75.82367
14108.00000    -999.25000    87.16271    75.10063
14108.50000    -999.25000    86.85967    74.37758
14109.00000    -999.25000    86.22527    73.65454
14109.50000    -999.25000    85.72423    72.93150
14110.00000    -999.25000    86.52737    72.20845
14110.50000    -999.25000    87.33050    71.48541
14111.00000    -999.25000    87.30928    70.76409
14111.50000    -999.25000    87.08004    71.62328
14112.00000    -999.25000    86.85080    72.48247
14112.50000    -999.25000    86.36337    73.34166
14113.00000    -999.25000    86.23915    74.20085
14113.50000    -999.25000    86.11101    75.06004
14114.00000    -999.25000    86.17708    75.91923
14114.50000    -999.25000    86.70939    75.19334
14115.00000    -999.25000    88.41671    74.45623
14115.50000    -999.25000    89.08030    73.71912
14116.00000    -999.25000    88.52778    72.98202
14116.50000    -999.25000    87.97526    73.45899
14117.00000    -999.25000    87.42273    74.25936
14117.50000    -999.25000    86.87021    75.05973
14118.00000    -999.25000    86.31768    75.86010
14118.50000    -999.25000    85.76516    76.66047
14119.00000    -999.25000    85.21263    77.46084
14119.50000    -999.25000    84.84395    78.03747
14120.00000    -999.25000    85.73868    78.54755
14120.50000    -999.25000    86.63340    77.79742
14121.00000    -999.25000    87.52813    76.62057
14121.50000    -999.25000    88.29313    75.44372
14122.00000    -999.25000    87.60129    74.26687
14122.50000    -999.25000    86.90944    73.09002
14123.00000    -999.25000    86.21759    74.24013
14123.50000    -999.25000    86.29209    76.06611
14124.00000    -999.25000    87.23632    77.89209
14124.50000    -999.25000    86.73672    79.71807
14125.00000    -999.25000    85.69324    81.54406
