###############################################
##         ENVERUS                           ##
##         ESS - Open Hole                   ##
##         PERMIAN / DELAWARE                ##
##         Nov 04 2023  V4.0                 ##
##         42-371-32680-00-00                ##
###############################################
## Copyright 2017-2023  ENVERUS.  All Rights Reserved. 
## Confidential - Property of ENVERUS, use governed by terms and 
## conditions found within the existing Information Services Subscription Agreement 
## (as may be amended, the “ISSA”) between Customer and ENVERUS. 
## 
~VERSION INFORMATION
# MNEM.UNIT                               DATA : DESCRIPTION OF MNEMONIC
#-----.-----     ----------------------------- : -----------------------------
VERS.                                     2.00 : CWLS LOG ASCII STANDARD - VERSION 2.00
WRAP.                                       NO : MULTIPLE LINES PER DEPTH STEP
VEND.                                  ENVERUS : VENDOR
TYPE.                          ESS - OPEN HOLE : ENVERUS ESSENTIAL CURVES – ACCESSIBLE THROUGH ENVERUS PRISM(TM)
DOC.                                  31991434 : ENVERUS HEADER RAW DOCUMENT ID
#___________________________________________________________________________________________________ 
~WELL INFORMATION 
# uAv5E/S3ZwrMaovXfwZJbnQ+z8RwnTA5GIEFL0LfM7mdkMX/8iXP+LiYgCnT3sJm4ejuYgXNUZeSPI/Yhcow4w== 
# MNEM.UNIT                                              DATA : DESCRIPTION OF MNEMONIC 
#-----.-----                    ----------------------------- : ----------------------------- 
CNTY.                                                   PECOS : COUNTY 
STATE.                                                  TEXAS : STATE 
CNTRY.                                                    USA : COUNTRY 
API.                                             42-371-32680 : API (10 Digit) 
API_14.                                    42-371-32680-00-00 : API (14 Digits) 
API_14_std.                                 42-371-32680-0000 : API (14 Digits Standard) 
UWI.                                           42371326800000 : UNIQUE WELL ID 
WELL.                                     MARALO - STEWART  1 : WELL NAME
STRT.FT                                                  21.0 : START DEPTH
STOP.FT                                               21630.0 : STOP DEPTH
STEP.FT                                                   0.5 : STEP BETWEEN DEPTHS
NULL.                                                 -999.25 : NULL VALUE
COMP.                                            MARALO, INC. : COMPANY 
DATE.                                             11-DEC-1978 : LOG DATE
#___________________________________________________________________________________________________ 
~CURVE INFORMATION 
# MNEM.UNIT           : CURVE DESCRIPTION 
#-----.-----          : ----------------------------- 
 DEPT.FT               : MEASURED DEPTH 
 GR__D.API             : GAMMA RAY (GR) 
 DT__D.US/FT           : SONIC DELTA TRANSIT TIME (DT) 
 RESD__D.OHMM          : DEEP INDUCTION RESISTIVITY (ILD - ILD) 
 #___________________________________________________________________________________________________ 
~A         DEPT          GR__D          DT__D        RESD__D
# ...
         7347.0         60.065         70.269       -999.250
         7347.5         58.904         70.178       -999.250
         7348.0         58.782         68.607       -999.250
         7348.5         58.661         67.284       -999.250
         7349.0         58.539         66.731       -999.250
         7349.5         54.525         66.704       -999.250
         7350.0         51.718         68.352       -999.250
         7350.5         51.628         70.000       -999.250
         7351.0         51.538         71.088       -999.250
         7351.5         50.883         72.013       -999.250
         7352.0         47.642         72.315       -999.250
         7352.5         44.400         71.951       -999.250
         7353.0         41.159         71.504       -999.250
         7353.5         37.918         71.361       -999.250
         7354.0         35.918         71.358       -999.250
         7354.5         41.069         71.356       -999.250
         7355.0         46.221         71.353       -999.250
         7355.5         50.831         71.017       -999.250
         7356.0         50.116         70.661       -999.250
         7356.5         49.401         70.357       -999.250
         7357.0         48.686         70.307       -999.250
         7357.5         51.455         70.258       -999.250
         7358.0         54.761         70.208       -999.250
         7358.5         51.950         70.158       -999.250
         7359.0         48.778         70.096       -999.250
         7359.5         45.605         70.005       -999.250
         7360.0         44.722         69.397       -999.250
         7360.5         44.239         68.786       -999.250
         7361.0         43.757         68.650       -999.250
         7361.5         43.274         68.801       -999.250
         7362.0         42.792         68.951       -999.250
         7362.5         42.310         69.678       -999.250
         7363.0         41.827         70.524       -999.250
         7363.5         41.345         71.207       -999.250
         7364.0         40.863         71.580       -999.250
         7364.5         44.541         71.820       -999.250
         7365.0         51.029         72.058       -999.250
         7365.5         53.444         72.198       -999.250
         7366.0         52.205         72.574       -999.250
         7366.5         50.966         72.188       -999.250
         7367.0         54.668         71.183       -999.250
         7367.5         61.438         68.208       -999.250
         7368.0         65.433         65.105       -999.250
         7368.5         61.945         62.391       -999.250
         7369.0         58.457         61.789       -999.250
         7369.5         54.968         62.073       -999.250
         7370.0         51.480         62.423       -999.250
         7370.5         47.992         62.445       -999.250
         7371.0         44.504         62.236       -999.250
         7371.5         42.199         61.333       -999.250
         7372.0         43.718         60.366       -999.250
         7372.5         45.238         59.424       -999.250
         7373.0         46.757         59.031       -999.250
         7373.5         48.276         58.637       -999.250
         7374.0         48.999         58.157       -999.250
         7374.5         46.433         58.979       -999.250
         7375.0         43.867         60.878       -999.250
         7375.5         41.301         62.778       -999.250
         7376.0         38.735         62.619       -999.250
         7376.5         41.254         59.254       -999.250
         7377.0         46.641         56.683       -999.250
         7377.5         52.027         54.904       -999.250
         7378.0         52.011         55.080       -999.250
         7378.5         48.540         59.010       -999.250
         7379.0         45.068         61.643       -999.250
         7379.5         41.597         62.215       -999.250
         7380.0         43.896         63.318       -999.250
         7380.5         48.647         65.389       -999.250
         7381.0         49.810         67.459       -999.250
         7381.5         47.962         68.397       -999.250
         7382.0         46.115         68.053       -999.250
         7382.5         46.217         66.422       -999.250
         7383.0         47.751         64.791       -999.250
         7383.5         49.285         64.623       -999.250
         7384.0         50.820         65.506       -999.250
         7384.5         52.354         66.521       -999.250
         7385.0         53.888         66.855       -999.250
         7385.5         55.422         66.729       -999.250
         7386.0         56.956         66.603       -999.250
         7386.5         55.062         65.679       -999.250
         7387.0         52.574         64.668       -999.250
         7387.5         50.086         64.022       -999.250
         7388.0         47.598         63.964       -999.250
         7388.5         45.110         64.775       -999.250
         7389.0         43.857         67.398       -999.250
         7389.5         48.728         68.967       -999.250
         7390.0         53.599         70.320       -999.250
         7390.5         58.470         68.361       -999.250
         7391.0         63.341         65.722       -999.250
         7391.5         68.212         61.089       -999.250
         7392.0         65.592         57.428       -999.250
         7392.5         58.986         55.942       -999.250
         7393.0         52.379         55.679       -999.250
         7393.5         45.773         56.767       -999.250
         7394.0         39.166         57.855       -999.250
         7394.5         36.331         58.738       -999.250
         7395.0         38.965         59.285       -999.250
         7395.5         41.598         59.803       -999.250
         7396.0         44.232         59.932       -999.250
         7396.5         46.865         61.189       -999.250
         7397.0         47.231         62.675       -999.250
         7397.5         45.555         63.154       -999.250
         7398.0         43.879         63.532       -999.250
         7398.5         42.203         63.439       -999.250
         7399.0         40.527         62.377       -999.250
         7399.5         38.851         61.315       -999.250
         7400.0         37.999         60.463       -999.250
         7400.5         39.731         59.762       -999.250
         7401.0         41.463         59.700       -999.250
         7401.5         43.195         59.835       -999.250
         7402.0         44.116         59.970       -999.250
         7402.5         42.426         60.105       -999.250
         7403.0         40.735         59.419       -999.250
         7403.5         39.045         58.724       -999.250
         7404.0         37.355         58.510       -999.250
         7404.5         35.664         58.682       -999.250
         7405.0         35.500         59.890       -999.250
         7405.5         36.023         61.518       -999.250
         7406.0         36.547         63.149       -999.250
         7406.5         37.070         64.633       -999.250
         7407.0         40.504         64.488       -999.250
         7407.5         46.399         64.342       -999.250
         7408.0         46.087         64.056       -999.250
         7408.5         43.743         63.699       -999.250
         7409.0         41.398         63.342       -999.250
         7409.5         39.054         61.792       -999.250
         7410.0         36.709         60.108       -999.250
         7410.5         34.577         58.179       -999.250
         7411.0         34.578         58.224       -999.250
         7411.5         34.580         58.988       -999.250
         7412.0         34.581         59.753       -999.250
         7412.5         34.582         61.187       -999.250
