#--------------------------------------------------#
#-------------------ENVERUS, INC.------------------#
#------------------WWW.ENVERUS.COM-----------------#
#------------------COPYRIGHT 2020------------------#
#--------------------------------------------------#
#THIS FILE MAY BE USED ONLY IN ACCORDANCE WITH A CURRENT SUBSCRIPTION AGREEMENT BETWEEN
#THE USER AND ENVERUS, INC. NO PART OF THIS FILE MAY BE REPRODUCED, USED, COPIED,
#MODIFIED, PROPAGATED, OR DISTRIBUTED EXCEPT IN ACCORDANCE WITH THE SUBSCRIPTION
#AGREEMENT. UNAUTHORIZED USE OR DISTRIBUTION OF ALL OR ANY PART OF THIS FILE MAY VIOLATE
#COPYRIGHT, TRADEMARK, AND/OR OTHER LAWS AND IS SUBJECT TO CIVIL AS WELL AS CRIMINAL
#SANCTIONS.
#--------------------------------------------------#
#THIS FILE IS PROVIDED "AS-IS" AND ALL WARRANTIES ARE EXPRESSLY DISCLAIMED, WHETHER
#EXPRESS, ORAL, IMPLIED, STATUTORY OR OTHERWISE, INCLUDING ANY IMPLIED WARRANTY OF FITNESS
#FOR A PARTICULAR PURPOSE, MERCHANTABILITY, TITLE OR NON-INFRINGEMENT, AND ANY WARRANTIES
#ARISING BY VIRTUE OF CUSTOM OF TRADE OR COURSE OF DEALING.  FURTHER, ENVERUS, INC.
#AND ITS LICENSORS DO NOT REPRESENT OR WARRANT THAT THIS FILE WILL MEET USER'S
#REQUIREMENTS OR ARE SUITABLE FOR USER'S NEEDS OR THAT THE DATA OR RESULTS PROVIDED IN
#CONJUNCTION THEREWITH ARE CORRECT, ACCURATE, TIMELY OR RELIABLE. THESE DISCLAIMERS SHALL
#APPLY REGARDLESS OF ANY FAILURE OF ESSENTIAL PURPOSE OF ANY LIMITED REMEDY.  SOME
#JURISDICTIONS DO NOT ALLOW THE EXCLUSION OF CERTAIN WARRANTIES SO SOME OF THE ABOVE
#EXCLUSIONS MAY NOT APPLY. IN NO EVENT SHALL ENVERUS, INC. OR ANY OF ITS AFFILIATES
#BE LIABLE UNDER ANY LEGAL THEORY, WHETHER IN TORT (INCLUDING WITHOUT LIMITATION
#NEGLIGENCE), CONTRACT, STRICT LIABILITY, STATUTORY OR OTHERWISE, FOR ANY SPECIAL,
#INCIDENTAL, CONSEQUENTIAL, EXEMPLARY, PUNITIVE OR INDIRECT DAMAGE OF ANY KIND, INCLUDING
#WITHOUT LIMITATION LOSS OF REVENUE, PROFITS, GOODWILL, USE, AND/OR DATA OR THE COST OF
#PROCUREMENT OF SUBSTITUTE GOODS OR SERVICES, EVEN IF APPRISED OF THE POSSIBILITY OF SUCH
#DAMAGES IN ADVANCE.
#--------------------------------------------------#

~VERSION INFORMATION
VERS. 2.0 : CWLS LOG ASCII STANDARD - VERSION 2.0
WRAP.  NO : ONE LINE PER DEPTH STEP
~WELL INFORMATION
#MNEMONIC     .UNIT              VALUE :DESCRIPTION
STRT       .FT                10841 :START DEPTH
STOP       .FT                18209 :STOP DEPTH
STEP       .FT                   0.500 :STEP
NULL       .                  -999.99 :NULL
UWI        .                42371326180000 :UNIQUE WELL ID
API        .                42371326180000 :API NUMBER
COMP       .         :COMPANY
WELL       .        :WELL
DATE       .                 :LOG DATE
FLD       .                 :FIELD NAME
LOC       .                  UNK :LOCATION
CNTY       .                 UNK :COUNTY
STAT       .                 UNK :STATE
CTRY       .                 UNK :COUNTY
SRVC       .                 UNK :SERVICE COMPANY
~CURVE INFORMATION
#MNEMONIC     .UNIT      API CODE :CURVE DESCRIPTION
DEPTH       .FT                      :MEASURED DEPTH
CAL.IN        UNKNOWN   :CAL
DT.MSEC/FT        UNKNOWN   :DT
GR.API        UNKNOWN   :GR
ILD.OHM        UNKNOWN   :ILD
ILS.OHM        UNKNOWN   :ILS
SP.MV        UNKNOWN   :SP
~A    DEPTH    CAL    DT    GR    ILD    ILS    SP
# ...
 10897     10.02417   56.78419   -999.99   -999.99   -999.99   -999.99
 10897.5     10.02392   56.78159   -999.99   -999.99   -999.99   -999.99
 10898     10.02367   56.69815   -999.99   -999.99   -999.99   -999.99
 10898.5     10.02341   56.48561   -999.99   -999.99   -999.99   -999.99
 10899     10.02316   56.42163   -999.99   -999.99   -999.99   -999.99
 10899.5     10.02291   56.17259   -999.99   -999.99   -999.99   -999.99
 10900     10.02266   56.01946   -999.99   -999.99   -999.99   -999.99
 10900.5     10.02241   56.47099   -999.99   -999.99   -999.99   -999.99
 10901     10.02216   57.20673   -999.99   -999.99   -999.99   -999.99
 10901.5     10.02191   58.14431   -999.99   -999.99   -999.99   -999.99
 10902     10.02166   58.93221   -999.99   -999.99   -999.99   -999.99
 10902.5     10.02141   60.62721   -999.99   -999.99   -999.99   -999.99
 10903     10.02116   62.84123   -999.99   -999.99   -999.99   -999.99
 10903.5     10.02091   64.94006   -999.99   -999.99   -999.99   -999.99
 10904     10.02066   65.64936   -999.99   -999.99   -999.99   -999.99
 10904.5     10.02041   65.47472   -999.99   -999.99   -999.99   -999.99
 10905     10.02016   64.96689   -999.99   -999.99   -999.99   -999.99
 10905.5     10.01991   62.25412   -999.99   -999.99   -999.99   -999.99
 10906     10.01966   58.72388   50.28827   57.99659   -999.99   -999.99
 10906.5     10.01941   56.52557   47.9236   63.54531   -999.99   -999.99
 10907     10.01851   56.52955   44.42506   69.09402   -999.99   -33.04559
 10907.5     10.01732   56.65433   40.92651   72.72642   -999.99   -33.54425
 10908     10.01614   56.69879   37.42797   75.11927   -999.99   -33.47416
 10908.5     10.01496   56.65522   34.8268   69.34528   -999.99   -33.18089
 10909     10.01377   56.64766   34.60193   82.20433   -999.99   -32.88763
 10909.5     10.01259   56.68285   34.98259   82.12943   -999.99   -32.59436
 10910     10.0114   56.68647   36.98862   77.10441   -999.99   -32.3011
 10910.5     10.01022   56.6224   40.3478   75.6932   -999.99   -32.03554
 10911     10.00903   56.5676   43.70698   74.68718   -999.99   -31.79723
 10911.5     10.00785   56.54959   45.88483   69.04304   -999.99   -31.55892
 10912     10.00667   56.53157   46.49485   63.3989   -999.99   -31.4499
 10912.5     10.00548   56.52187   46.32335   63.06344   -999.99   -32.4576
 10913     10.0043   56.51237   45.66821   64.84378   -999.99   -33.4653
 10913.5     10.00311   56.38141   45.01307   66.62412   -999.99   -33.21825
 10914     10.00193   56.25477   44.12446   68.43329   -999.99   -32.68256
 10914.5     10.00074   56.28388   42.72543   70.37249   -999.99   -32.14687
 10915     9.99956   56.19897   41.52032   70.09366   -999.99   -31.61118
 10915.5     9.99838   56.07449   40.96652   68.17805   -999.99   -31.0755
 10916     9.99719   55.96178   41.10991   66.26245   -999.99   -31.09233
 10916.5     9.99601   55.88574   41.03119   63.97878   -999.99   -31.37369
 10917     9.99482   55.98316   40.11623   59.82358   -999.99   -31.64845
 10917.5     9.99364   56.06213   37.28591   57.17322   -999.99   -31.85888
 10918     9.99245   56.0933   34.26082   55.87772   -999.99   -32.06931
 10918.5     9.99127   56.0027   34.14908   54.92893   -999.99   -32.01864
 10919     9.99009   55.98525   36.5356   54.01723   -999.99   -31.68391
 10919.5     9.9889   56.06391   37.5124   53.10553   -999.99   -31.34919
 10920     9.98772   56.08282   36.34758   52.94989   -999.99   -31.01446
 10920.5     9.98653   56.01215   35.79114   52.95515   -999.99   -30.67973
 10921     9.98535   55.87993   37.68804   53.54491   -999.99   -30.345
 10921.5     9.98416   55.72125   37.30528   54.5879   -999.99   -30.01027
 10922     9.98298   55.80242   35.51581   55.63089   -999.99   -29.67554
 10922.5     9.9818   55.86491   35.02339   56.67389   -999.99   -29.35838
 10923     9.98061   55.84439   37.44897   57.22932   -999.99   -29.04297
 10923.5     9.97943   55.88143   40.81997   56.0381   -999.99   -28.72756
 10924     9.97824   55.94808   43.30462   54.84689   -999.99   -28.41214
 10924.5     9.97706   55.87527   41.53206   52.75689   -999.99   -27.99995
 10925     9.97587   55.8143   40.45244   50.42143   -999.99   -27.2425
 10925.5     9.97469   55.83176   42.98889   48.08598   -999.99   -26.52185
 10926     9.97351   55.85609   45.69753   46.22614   -999.99   -25.80424
 10926.5     9.97232   55.88362   48.55254   46.66215   -999.99   -25.08663
 10927     9.97114   55.91116   48.94538   47.09815   -999.99   -25.56322
 10927.5     9.96995   55.93869   46.87076   47.84863   -999.99   -26.25264
 10928     9.96877   55.95091   42.73482   49.49814   -999.99   -26.94207
 10928.5     9.96758   55.95089   38.59889   51.14765   -999.99   -27.6315
 10929     9.9664   55.95087   36.62116   52.79715   -999.99   -28.32092
 10929.5     9.96521   55.95085   37.17317   54.29536   -999.99   -28.76319
 10930     9.96403   55.95084   37.72518   54.72037   -999.99   -28.2456
 10930.5     9.96285   55.95082   38.56083   55.21586   -999.99   -27.728
 10931     9.96166   55.9508   39.49726   56.01502   -999.99   -27.2104
 10931.5     9.96048   55.95078   40.40349   56.41998   -999.99   -26.6928
 10932     9.95929   55.96146   39.19017   53.35431   -999.99   -26.1752
 10932.5     9.95811   55.99032   38.02763   52.34468   -999.99   -25.75046
 10933     9.95692   56.10912   37.65478   51.33505   -999.99   -25.86183
 10933.5     9.95574   56.21037   39.25738   50.32543   -999.99   -25.97319
 10934     9.95456   56.29251   41.55375   50.0338   -999.99   -26.08456
 10934.5     9.95337   56.08102   44.5683   50.51928   -999.99   -26.19592
 10935     9.95219   55.44285   46.73179   52.4105   -999.99   -26.30729
 10935.5     9.951   52.48584   46.12939   54.30173   -999.99   -26.32464
 10936     9.94982   49.04529   44.80289   56.19295   -999.99   -26.04705
 10936.5     9.94863   57.98051   44.99313   57.81555   -999.99   -25.76945
 10937     9.94745   78.403   47.25487   59.0403   -999.99   -25.49185
 10937.5     9.94627   90.63655   49.20899   60.26505   -999.99   -25.14421
 10938     9.94508   91.20254   48.72554   61.4898   -999.99   -24.76427
 10938.5     9.9439   84.92865   44.94211   61.96496   -999.99   -25.19031
 10939     9.94271   79.88385   40.44998   62.12114   -999.99   -25.89425
 10939.5     9.94153   78.07027   35.78574   62.12732   -999.99   -26.172
 10940     9.94034   77.52177   30.75475   62.13351   -999.99   -25.5657
 10940.5     9.93916   77.15767   24.39667   54.47436   -999.99   -24.9594
 10941     9.93798   76.94157   22.60635   44.27356   -999.99   -24.3531
 10941.5     9.93679   76.87778   22.16244   39.03422   -999.99   -23.7468
 10942     9.93561   76.90325   21.51992   45.00411   -999.99   -22.83202
 10942.5     9.93442   76.84957   20.76527   49.01037   -999.99   -21.5697
 10943     9.93324   76.73581   20.24821   52.11729   -999.99   -20.30738
 10943.5     9.93205   76.72763   20.09352   351.6479   -999.99   -19.04506
 10944     9.93087   76.89163   19.30682   1007.34017   -999.99   -18.65286
 10944.5     9.92969   77.06111   17.89318   1474.29371   -999.99   -18.5556
 10945     9.9285   77.13675   16.47953   1058.0369   -999.99   -18.45833
 10945.5     10.00335   77.1775   16.25864   478.13244   -999.99   -18.36106
 10946     10.10392   77.2447   17.01924   137.14339   -999.99   -18.2638
 10946.5     11.78351   80.36405   20.37318   331.82772   -999.99   -18.16653
 10947     11.00197   85.58211   24.30523   961.53614   -999.99   -18.49774
 10947.5     9.90343   88.65982   28.69143   1387.85854   -999.99   -19.08748
 10948     9.69966   89.50953   32.74146   1750.07109   -999.99   -19.67722
 10948.5     9.59347   89.82663   36.22552   1757.97575   -999.99   -20.26697
 10949     9.67166   89.65898   39.30475   1765.88041   -999.99   -20.22219
 10949.5     9.74986   89.36793   44.51008   1773.78507   -999.99   -18.0458
 10950     10.19505   89.14816   49.60898   1078.83156   -999.99   -15.86941
 10950.5     10.85909   89.02676   52.5567   416.20093   -999.99   -13.26432
