~Version Information Block
 VERS.                2.00:     CWLS LOG ASCII STANDARD - VERSION 2.000000
 WRAP.                  NO:     One Line Per Depth Step
#
~Well Information Block
#MNEM.UNIT                     Data                         Information
#----------   ------------------------------------------   ----------------
 STRT.FT                                       50.0000:     START DEPTH
 STOP.FT                                    15192.0000:     STOP DEPTH
 STEP.FT                                        0.5000:     STEP
 NULL.                                       -999.0000:     NULL VALUE
 COMP.                                 MOBIL PRODUCING:     COMPANY
 WELL.                                     ST MCINTYRE:     WELL
 FLD .                                   ROJO CABALLOS:     FIELD
 LOC .                                         UNKNOWN:     LOCATION
 LONG.                                 -103.1618580000:     LONGITUDE
 LATI.                                   31.1192890000:     LATITUDE
 CNTY.                                           PECOS:     COUNTY
 STAT.                                           TEXAS:     STATE
 CTRY.                                           U.S.A:     COUNTRY
 SRVC.                                         UNKNOWN:     SERVICE COMPANY
 DATE.                                         UNKNOWN:     DATE
 API .                                  42371053110000:     API NUMBER
 UWI .                                  42371053110000:     UWI NUMBER
 SLAT.                                       31.119289:     Surface latitude
 SLON.                                     -103.161858:     surface longitude
 TVD .                                              NO:     TVD flag
 WSTA.                                             LOC:     Well status
#
~Curve Information Block
#MNEM.UNIT       API CODE      Curve Description
#----------    -------------   -------------------
 DEPT.FT                   :   Depth in Feet
 DT  .UNKNOWN          UNKNOWN:   DT-Load
 DTedit.ft/s          UNKNOWN:   DT-Load
 GR  .UNKNOWN          UNKNOWN:   GR-Load
#
~Parameter Information Block
#MNEM.UNIT            Value               Description
#----------    --------------------    -------------------
 RUN .                         ONE:    Run Number
 PDAT.                          GL:    Permanent Datum
 EPD .FT                          :    Elevation Of Perm. Datum
 LMF .               KELLY BUSHING:    Log Measured From
 EKB .FT                          :    Elevation Of Kelly Bushing
 DF .FT                           :    Elevation Of Derrick Floor
 GL .FT                           :    Elevation Of Ground Level
 TD  .FT                          :    Total Depth
 CSGD.FT                          :    Casing Bottom (Driller) 1
 CSGL.FT                          :    Casing Bottom (Logger) 1
 MUD .                            :    Drilling Fluid Type
 MUDV .CP                         :    Drilling Fluid Viscosity
 MUDD .LB/USG                     :    Drilling Fluid Density
 FL .ML/30MIN                     :    Drilling Fluid Loss
 PH.                              :    Drilling Fluid Ph
 MUDS .                           :    Mud Sample Source
 RM .OHMM                         :    Resistivity Of Mud Sample
 RMT .DEGF                        :    Mud Sample Temperature
 RMF .OHMM                        :    Mud Filtrate Resistivity
 RMFT.DEGF                        :    Mud Filtrate Sample Temperature
 RMC .OHMM                        :    Mud Cake Resistivity
 RMCT.DEGF                        :    Mud Cake Sample Temperature
 RMB .OHMM                        :    Mud Resistivity At Bht
 TMAX .DEGF                       :    Bottom Hole Temperature
#
~Other Information Block
<DescLogPlotStart>   NEURALOG PLOT DEFINITION
PLOTDEFVERSION: 3
LASFILE: E:\Nair Innovations\42_TEXAS\371_Pecos\Mobil_St McIntyre 1 Pecos_1.las
DEPTHSCALE: 239.999996
RESOLUTION: 200
DEPTHLABELFREQ: 100.000000
HEAVYGRIDFREQ: 50.000000
MEDIUMGRIDFREQ: 50.000000
LIGHTGRIDFREQ: 10.000000
#
#   TRACK 1
#
STARTTRACK: 
 LEFTX: 0.500000 inch
 RIGHTX: 3.000000 inch
 SCALETYPE: Linear
 NUMCHARTDIVISIONS: 10
CURVE: GR    0.000000   150.000000 (255,0,0)      Short_Dash        4     N    
CURVE: DTedit 5571.227500 23879.853500 (0,131,131)    Solid             2     N
ENDTRACK: 
#
#   TRACK 2
#
STARTTRACK: 
 LEFTX: 3.750000 inch
 RIGHTX: 6.250000 inch
 SCALETYPE: Linear
 NUMCHARTDIVISIONS: 10
ENDTRACK: 
#
#   TRACK 3
#
STARTTRACK: 
 LEFTX: 6.250000 inch
 RIGHTX: 8.750000 inch
 SCALETYPE: Linear
 NUMCHARTDIVISIONS: 10
CURVE: DT    190.000000 50.000000  (255,0,131)    Solid             2     N    
ENDTRACK: 
<DescLogPlotEnd>
<DepthTrack type='Reference' track='1' Label='0' color='0' hor='0' />
<Reference font='144,0,-900,0,500,0,16777216,Arial' />
~A DEPTH     DT               DTedit             GR              
# ...
   13175.000 -999.99000000    10619.46880000   30.38680000     
   13175.500 -999.99000000    10567.74510000   30.03530000     
   13176.000 -999.99000000    10516.02250000   31.18100000     
   13176.500 -999.99000000    10464.29880000   32.48990000     
   13177.000 -999.99000000    10412.70610000   32.96070000     
   13177.500 -999.99000000    10360.98240000   31.81190000     
   13178.000 -999.99000000    10309.25980000   31.62670000     
   13178.500 -999.99000000    10257.53610000   30.88280000     
   13179.000 -999.99000000    10205.81350000   31.11510000     
   13179.500 -999.99000000    10154.08980000   31.82290000     
   13180.000 -999.99000000    10088.49610000   31.35680000     
   13180.500 -999.99000000    10034.16410000   31.52620000     
   13181.000 -999.99000000    9979.94530000    30.92670000     
   13181.500 -999.99000000    9925.61330000    30.43630000     
   13182.000 -999.99000000    9871.39450000    31.54820000     
   13182.500 -999.99000000    9817.06250000    32.06450000     
   13183.000 -999.99000000    9762.73050000    32.11440000     
   13183.500 -999.99000000    9708.51170000    32.77550000     
   13184.000 -999.99000000    9654.17970000    32.28580000     
   13184.500 -999.99000000    9599.96090000    31.54190000     
   13185.000 -999.99000000    9545.62890000    30.80900000     
   13185.500 -999.99000000    9491.29690000    32.08810000     
   13186.000 -999.99000000    9437.07810000    34.31980000     
   13186.500 -999.99000000    9382.74610000    36.43850000     
   13187.000 -999.99000000    9328.41410000    38.35630000     
   13187.500 -999.99000000    9274.19530000    40.12350000     
   13188.000 -999.99000000    9219.86330000    41.84980000     
   13188.500 -999.99000000    9165.64450000    42.79460000     
   13189.000 -999.99000000    9111.31250000    41.77130000     
   13189.500 -999.99000000    9056.98050000    39.61180000     
   13190.000 -999.99000000    9002.76170000    37.25770000     
   13190.500 -999.99000000    8948.42970000    36.35850000     
   13191.000 -999.99000000    8894.21090000    36.77120000     
   13191.500 -999.99000000    8839.87890000    39.05310000     
   13192.000 -999.99000000    8785.54690000    41.30360000     
   13192.500 -999.99000000    8731.32810000    42.39910000     
   13193.000 89.42100000      8676.99610000    43.04300000     
   13193.500 91.58680000      8622.77730000    44.26650000     
   13194.000 98.07690000      8568.44530000    45.92810000     
   13194.500 100.04720000     8514.11330000    46.59480000     
   13195.000 109.98060000     8459.89450000    45.65690000     
   13195.500 105.27370000     8405.56250000    45.77690000     
   13196.000 116.56400000     8351.23050000    44.56270000     
   13196.500 114.03990000     8297.01170000    41.67290000     
   13197.000 101.75670000     8230.08890000    37.62030000     
   13197.500 97.88680000      8152.56880000    33.76100000     
   13198.000 85.27690000      8075.04880000    30.57510000     
   13198.500 84.29430000      7997.52880000    27.91600000     
   13199.000 108.07260000     7964.60210000    28.12480000     
   13199.500 115.19370000     7887.08200000    28.94310000     
   13200.000 142.26000000     7809.56200000    28.36800000     
   13200.500 -999.99000000    7699.11520000    25.48750000     
   13201.000 -999.99000000    7660.32280000    23.08090000     
   13201.500 -999.99000000    7621.53030000    21.07340000     
   13202.000 -999.99000000    7582.73780000    19.73130000     
   13202.500 -999.99000000    7544.04250000    20.66500000     
   13203.000 -999.99000000    7505.25000000    20.66500000     
   13203.500 -999.99000000    7466.45800000    20.35640000     
   13204.000 153.84620000     7427.66550000    20.30960000     
   13204.500 120.21770000     7388.87300000    19.83380000     
   13205.000 159.54030000     7350.08060000    19.13750000     
   13205.500 154.56740000     7311.38530000    19.78430000     
   13206.000 143.77440000     7272.59280000    19.71730000     
   13206.500 137.88530000     7233.80030000    19.90120000     
   13207.000 124.61660000     7195.00780000    21.69680000     
   13207.500 124.66460000     7156.21530000    25.23820000     
   13208.000 129.53660000     7117.42290000    30.05760000     
   13208.500 109.04020000     7078.63040000    33.85460000     
   13209.000 119.76090000     7039.93550000    38.06300000     
   13209.500 108.72770000     7001.14310000    38.85050000     
   13210.000 116.53990000     6962.35060000    36.05540000     
   13210.500 110.79430000     6923.55810000    32.86940000     
   13211.000 104.37680000     6902.65480000    30.18850000     
   13211.500 91.99540000      10870.10840000   28.15600000     
   13212.000 93.59390000      10684.45700000   28.45140000     
   13212.500 98.32930000      10169.90820000   28.77400000     
   13213.000 120.08690000     8327.30270000    27.62290000     
   13213.500 155.22920000     6442.08690000    24.42760000     
   13214.000 144.61570000     6914.87840000    22.21070000     
   13214.500 152.01930000     6578.11180000    22.29500000     
   13215.000 112.50160000     8888.76270000    20.83020000     
   13215.500 96.00960000      10415.62500000   20.23790000     
   13216.000 89.28970000      11199.50000000   21.60960000     
   13216.500 91.73710000      10900.71580000   25.09480000     
   13217.000 91.80310000      10892.87790000   28.50520000     
   13217.500 117.11680000     8538.48440000    31.34510000     
   13218.000 118.57700000     8433.33890000    32.66370000     
   13218.500 126.53360000     7903.03910000    33.11720000     
   13219.000 99.90580000      10009.42870000   31.08010000     
   13219.500 131.34690000     7613.42720000    29.96250000     
   13220.000 138.84670000     7202.18800000    30.00070000     
   13220.500 98.17310000      10186.08890000   30.13240000     
   13221.000 108.46330000     9219.70800000    28.00950000     
   13221.500 99.85780000      10014.24020000   26.57240000     
   13222.000 100.45860000     9954.34860000    26.04480000     
   13222.500 125.62610000     7960.12940000    27.45770000     
   13223.000 131.32300000     7614.81250000    29.11300000     
   13223.500 82.69290000      12092.93650000   28.93220000     
   13224.000 118.03630000     8471.96970000    29.35150000     
   13224.500 86.07010000      11618.43650000   28.95910000     
   13225.000 89.61570000      11158.75880000   29.61800000     
   13225.500 100.96040000     9904.87300000    30.91490000     
   13226.000 133.07760000     7514.41210000    31.04890000     
   13226.500 128.08400000     7807.37650000    29.19100000     
   13227.000 89.86210000      11128.16210000   26.54120000     
   13227.500 130.19310000     7680.89840000    24.67240000     
   13228.000 109.79280000     9108.06540000    23.96320000     
   13228.500 67.19910000      14881.15230000   23.97410000     
   13229.000 63.57090000      15730.46780000   25.13220000     
   13229.500 68.80510000      14533.80660000   26.98390000     
   13230.000 105.19410000     9506.23630000    29.34680000     
   13230.500 107.33950000     9316.23540000    31.41990000     
   13231.000 126.81590000     7885.44630000    32.75410000     
   13231.500 112.66980000     8875.49320000    32.03710000     
   13232.000 112.24910000     8908.75780000    30.59070000     
   13232.500 102.51990000     9754.20410000    28.92600000     
   13233.000 86.00000000      11627.90720000   28.76080000     
   13233.500 120.38590000     8306.62010000    28.92910000     
   13234.000 97.06740000      10302.12010000   29.74660000     
   13234.500 126.31710000     7916.58450000    29.29390000     
   13235.000 101.04760000     9896.32620000    28.18640000     
   13235.500 91.92330000      10878.63480000   29.19720000     
   13236.000 91.53870000      10924.34180000   30.57820000     
   13236.500 116.16720000     8608.28220000    29.79730000     
   13237.000 99.78430000      10021.61620000   30.89930000     
