~Version Information Block
 VERS.                2.00:     CWLS LOG ASCII STANDARD - VERSION 2.000000
 WRAP.                  NO:     One Line Per Depth Step
#
~Well Information Block
#MNEM.UNIT                     Data                         Information
#----------   ------------------------------------------   ----------------
 STRT.FT                                       50.0000:     START DEPTH
 STOP.FT                                    15192.0000:     STOP DEPTH
 STEP.FT                                        0.5000:     STEP
 NULL.                                       -999.0000:     NULL VALUE
 COMP.                                 MOBIL PRODUCING:     COMPANY
 WELL.                                     ST MCINTYRE:     WELL
 FLD .                                   ROJO CABALLOS:     FIELD
 LOC .                                         UNKNOWN:     LOCATION
 LONG.                                 -103.1618580000:     LONGITUDE
 LATI.                                   31.1192890000:     LATITUDE
 CNTY.                                           PECOS:     COUNTY
 STAT.                                           TEXAS:     STATE
 CTRY.                                           U.S.A:     COUNTRY
 SRVC.                                         UNKNOWN:     SERVICE COMPANY
 DATE.                                         UNKNOWN:     DATE
 API .                                  42371053110000:     API NUMBER
 UWI .                                  42371053110000:     UWI NUMBER
 SLAT.                                       31.119289:     Surface latitude
 SLON.                                     -103.161858:     surface longitude
 TVD .                                              NO:     TVD flag
 WSTA.                                             LOC:     Well status
#
~Curve Information Block
#MNEM.UNIT       API CODE      Curve Description
#----------    -------------   -------------------
 DEPT.FT                   :   Depth in Feet
 DT  .UNKNOWN          UNKNOWN:   DT-Load
 DTedit.ft/s          UNKNOWN:   DT-Load
 GR  .UNKNOWN          UNKNOWN:   GR-Load
#
~Parameter Information Block
#MNEM.UNIT            Value               Description
#----------    --------------------    -------------------
 RUN .                         ONE:    Run Number
 PDAT.                          GL:    Permanent Datum
 EPD .FT                          :    Elevation Of Perm. Datum
 LMF .               KELLY BUSHING:    Log Measured From
 EKB .FT                          :    Elevation Of Kelly Bushing
 DF .FT                           :    Elevation Of Derrick Floor
 GL .FT                           :    Elevation Of Ground Level
 TD  .FT                          :    Total Depth
 CSGD.FT                          :    Casing Bottom (Driller) 1
 CSGL.FT                          :    Casing Bottom (Logger) 1
 MUD .                            :    Drilling Fluid Type
 MUDV .CP                         :    Drilling Fluid Viscosity
 MUDD .LB/USG                     :    Drilling Fluid Density
 FL .ML/30MIN                     :    Drilling Fluid Loss
 PH.                              :    Drilling Fluid Ph
 MUDS .                           :    Mud Sample Source
 RM .OHMM                         :    Resistivity Of Mud Sample
 RMT .DEGF                        :    Mud Sample Temperature
 RMF .OHMM                        :    Mud Filtrate Resistivity
 RMFT.DEGF                        :    Mud Filtrate Sample Temperature
 RMC .OHMM                        :    Mud Cake Resistivity
 RMCT.DEGF                        :    Mud Cake Sample Temperature
 RMB .OHMM                        :    Mud Resistivity At Bht
 TMAX .DEGF                       :    Bottom Hole Temperature
#
~Other Information Block
<DescLogPlotStart>   NEURALOG PLOT DEFINITION
PLOTDEFVERSION: 3
LASFILE: E:\Nair Innovations\42_TEXAS\371_Pecos\Mobil_St McIntyre 1 Pecos_1.las
DEPTHSCALE: 239.999996
RESOLUTION: 200
DEPTHLABELFREQ: 100.000000
HEAVYGRIDFREQ: 50.000000
MEDIUMGRIDFREQ: 50.000000
LIGHTGRIDFREQ: 10.000000
#
#   TRACK 1
#
STARTTRACK: 
 LEFTX: 0.500000 inch
 RIGHTX: 3.000000 inch
 SCALETYPE: Linear
 NUMCHARTDIVISIONS: 10
CURVE: GR    0.000000   150.000000 (255,0,0)      Short_Dash        4     N    
CURVE: DTedit 5571.227500 23879.853500 (0,131,131)    Solid             2     N
ENDTRACK: 
#
#   TRACK 2
#
STARTTRACK: 
 LEFTX: 3.750000 inch
 RIGHTX: 6.250000 inch
 SCALETYPE: Linear
 NUMCHARTDIVISIONS: 10
ENDTRACK: 
#
#   TRACK 3
#
STARTTRACK: 
 LEFTX: 6.250000 inch
 RIGHTX: 8.750000 inch
 SCALETYPE: Linear
 NUMCHARTDIVISIONS: 10
CURVE: DT    190.000000 50.000000  (255,0,131)    Solid             2     N    
ENDTRACK: 
<DescLogPlotEnd>
<DepthTrack type='Reference' track='1' Label='0' color='0' hor='0' />
<Reference font='144,0,-900,0,500,0,16777216,Arial' />
~A DEPTH     DT               DTedit             GR              
# ...
    2362.500 47.51230000      17526.08790000   15.22970000     
    2363.000 40.89060000      17578.77340000   18.40040000     
    2363.500 40.05650000      17631.46880000   23.57520000     
    2364.000 41.42860000      17684.15820000   29.63600000     
    2364.500 51.83480000      17736.84960000   31.44570000     
    2365.000 62.41330000      17789.54100000   31.87770000     
    2365.500 72.99170000      17842.23240000   31.13360000     
    2366.000 83.05760000      17894.92190000   25.59660000     
    2366.500 99.42770000      17947.61330000   19.66120000     
    2367.000 105.07810000     17979.86910000   17.15140000     
    2367.500 108.72010000     8773.55570000    15.83890000     
    2368.000 108.50570000     8790.88870000    15.46880000     
    2368.500 100.90310000     9453.24410000    15.34170000     
    2369.000 99.96770000      9541.69820000    15.38130000     
    2369.500 76.34410000      12494.24120000   15.50520000     
    2370.000 73.32140000      13009.32030000   15.32720000     
    2370.500 70.84020000      13464.97750000   14.99670000     
    2371.000 70.81810000      13469.17770000   14.63610000     
    2371.500 78.63920000      12129.59570000   13.87830000     
    2372.000 91.87650000      10381.99800000   13.41940000     
    2372.500 98.13770000      9719.62500000    13.73140000     
    2373.000 109.11020000     8742.18650000    14.04330000     
    2373.500 106.18130000     8983.32910000    14.35830000     
    2374.000 99.81290000      9556.49610000    14.67360000     
    2374.500 98.29580000      9703.99320000    14.77120000     
    2375.000 93.12430000      10242.88770000   14.74120000     
    2375.500 92.47120000      10315.22950000   14.50910000     
    2376.000 87.56450000      10893.24510000   14.27710000     
    2376.500 85.59170000      11144.32520000   13.97060000     
    2377.000 77.39210000      12325.05180000   13.66300000     
    2377.500 66.62780000      14316.27050000   13.63540000     
    2378.000 62.34910000      15298.72360000   14.52600000     
    2378.500 63.63550000      14989.45610000   15.76790000     
    2379.000 75.36880000      12655.92090000   16.95220000     
    2379.500 84.66720000      11266.01170000   16.99030000     
    2380.000 92.54350000      10307.16990000   15.75610000     
    2380.500 94.68520000      10074.03030000   14.52170000     
    2381.000 95.90220000      9946.19240000    14.36260000     
    2381.500 99.51350000      9585.24900000    14.62670000     
    2382.000 115.27600000     8274.58980000    14.90520000     
    2382.500 129.34400000     7374.61040000    15.19040000     
    2383.000 129.65550000     7356.89210000    15.47560000     
    2383.500 122.87780000     7762.68460000    15.76250000     
    2384.000 105.40190000     9049.75680000    16.05740000     
    2384.500 99.85910000      9552.07520000    16.35230000     
    2385.000 76.89450000      12404.81050000   16.64800000     
    2385.500 59.76030000      15961.46000000   16.94370000     
    2386.000 59.75460000      15962.98340000   16.92050000     
    2386.500 67.26640000      14180.35740000   15.69540000     
    2387.000 72.48950000      13158.61720000   15.05250000     
    2387.500 72.53830000      13149.76560000   16.25520000     
    2388.000 56.57090000      16861.34770000   17.48890000     
    2388.500 47.42790000      20111.82810000   17.34780000     
    2389.000 47.54930000      20060.47660000   16.66590000     
    2389.500 60.10810000      15869.10250000   15.98040000     
    2390.000 62.90940000      15162.46390000   15.20770000     
    2390.500 66.91860000      14254.05760000   14.29610000     
    2391.000 79.54440000      11991.56250000   14.13470000     
    2391.500 86.47970000      11029.89060000   13.97740000     
    2392.000 86.53200000      11023.22560000   14.09000000     
    2392.500 83.33340000      11446.33110000   14.20260000     
    2393.000 70.82390000      13468.07520000   13.93770000     
    2393.500 70.60030000      13510.72950000   13.55100000     
    2394.000 72.72340000      9116.55470000    13.03700000     
    2394.500 83.46900000      9077.03220000    11.79620000     
    2395.000 84.48710000      9037.52440000    11.69530000     
    2395.500 80.37170000      8998.00390000    12.82890000     
    2396.000 56.43900000      8958.48140000    14.64280000     
    2396.500 -999.99000000    8918.97660000    15.95100000     
    2397.000 -999.99000000    8879.45310000    17.16940000     
    2397.500 -999.99000000    8839.94530000    17.79940000     
    2398.000 44.06500000      8800.42480000    17.40150000     
    2398.500 83.47730000      8760.90330000    17.00340000     
    2399.000 99.30710000      8356.84280000    16.60430000     
    2399.500 110.08410000     8356.84280000    16.14110000     
    2400.000 113.95120000     8356.84280000    15.67810000     
    2400.500 114.00390000     8356.84280000    14.82740000     
    2401.000 99.86050000      8396.36230000    13.63250000     
    2401.500 99.04600000      8435.86910000    12.24690000     
    2402.000 65.57570000      8475.39160000    12.33040000     
    2402.500 -999.99000000    8514.91410000    12.92210000     
    2403.000 -999.99000000    8554.43550000    13.59860000     
    2403.500 -999.99000000    8593.94140000    14.47220000     
    2404.000 -999.99000000    8610.07910000    15.50090000     
    2404.500 -999.99000000    8636.42290000    16.90050000     
    2405.000 -999.99000000    8662.76860000    18.51880000     
    2405.500 -999.99000000    8689.11430000    19.74000000     
    2406.000 46.13340000      8715.46000000    18.00680000     
    2406.500 49.88820000      8741.80660000    16.05060000     
    2407.000 48.81990000      8768.15140000    15.64260000     
    2407.500 48.16660000      8794.49610000    15.69800000     
    2408.000 50.49180000      8820.84180000    15.50720000     
    2408.500 54.90430000      8847.18650000    15.31280000     
    2409.000 56.34610000      16928.61910000   14.90860000     
    2409.500 56.51150000      16879.07230000   14.18820000     
    2410.000 55.26850000      17258.68360000   13.79270000     
    2410.500 54.34800000      17550.99610000   13.39730000     
    2411.000 53.47890000      17836.22460000   13.19180000     
    2411.500 51.43310000      18545.67770000   13.05990000     
    2412.000 50.38430000      18931.72270000   13.02300000     
    2412.500 50.68070000      18821.00590000   13.11140000     
    2413.000 51.24200000      18614.83790000   14.20180000     
    2413.500 51.61850000      18479.06640000   14.47500000     
    2414.000 51.99530000      18345.15040000   14.51820000     
    2414.500 51.86180000      18392.37500000   14.72030000     
    2415.000 51.10930000      18663.17190000   15.05510000     
    2415.500 49.93470000      19102.18160000   16.34850000     
    2416.000 49.36380000      19323.09960000   17.59630000     
    2416.500 48.96310000      19481.23440000   18.40310000     
    2417.000 48.75810000      19563.14060000   19.61260000     
    2417.500 48.65500000      19604.59960000   21.54210000     
    2418.000 48.68690000      19591.75000000   22.79900000     
    2418.500 49.17910000      19395.67190000   23.76140000     
    2419.000 49.87880000      19123.58590000   24.27460000     
    2419.500 50.79430000      18778.91210000   23.57880000     
    2420.000 51.70510000      18448.11130000   22.16940000     
    2420.500 51.53590000      18508.68160000   20.14500000     
    2421.000 51.04600000      18686.31450000   17.68220000     
    2421.500 51.38080000      18564.55270000   15.81810000     
    2422.000 51.41170000      18553.39650000   15.98540000     
    2422.500 51.37170000      18567.84180000   16.08110000     
    2423.000 51.32880000      18583.35940000   15.55270000     
    2423.500 51.81640000      18408.49020000   15.02400000     
    2424.000 52.52830000      18159.00390000   14.44540000     
    2424.500 53.12770000      17954.12890000   14.14480000     
