#--------------------------------------------------#
#-------------------ENVERUS, INC.------------------#
#------------------WWW.ENVERUS.COM-----------------#
#------------------COPYRIGHT 2020------------------#
#--------------------------------------------------#
#THIS FILE MAY BE USED ONLY IN ACCORDANCE WITH A CURRENT SUBSCRIPTION AGREEMENT BETWEEN
#THE USER AND ENVERUS, INC. NO PART OF THIS FILE MAY BE REPRODUCED, USED, COPIED,
#MODIFIED, PROPAGATED, OR DISTRIBUTED EXCEPT IN ACCORDANCE WITH THE SUBSCRIPTION
#AGREEMENT. UNAUTHORIZED USE OR DISTRIBUTION OF ALL OR ANY PART OF THIS FILE MAY VIOLATE
#COPYRIGHT, TRADEMARK, AND/OR OTHER LAWS AND IS SUBJECT TO CIVIL AS WELL AS CRIMINAL
#SANCTIONS.
#--------------------------------------------------#
#THIS FILE IS PROVIDED "AS-IS" AND ALL WARRANTIES ARE EXPRESSLY DISCLAIMED, WHETHER
#EXPRESS, ORAL, IMPLIED, STATUTORY OR OTHERWISE, INCLUDING ANY IMPLIED WARRANTY OF FITNESS
#FOR A PARTICULAR PURPOSE, MERCHANTABILITY, TITLE OR NON-INFRINGEMENT, AND ANY WARRANTIES
#ARISING BY VIRTUE OF CUSTOM OF TRADE OR COURSE OF DEALING.  FURTHER, ENVERUS, INC.
#AND ITS LICENSORS DO NOT REPRESENT OR WARRANT THAT THIS FILE WILL MEET USER'S
#REQUIREMENTS OR ARE SUITABLE FOR USER'S NEEDS OR THAT THE DATA OR RESULTS PROVIDED IN
#CONJUNCTION THEREWITH ARE CORRECT, ACCURATE, TIMELY OR RELIABLE. THESE DISCLAIMERS SHALL
#APPLY REGARDLESS OF ANY FAILURE OF ESSENTIAL PURPOSE OF ANY LIMITED REMEDY.  SOME
#JURISDICTIONS DO NOT ALLOW THE EXCLUSION OF CERTAIN WARRANTIES SO SOME OF THE ABOVE
#EXCLUSIONS MAY NOT APPLY. IN NO EVENT SHALL ENVERUS, INC. OR ANY OF ITS AFFILIATES
#BE LIABLE UNDER ANY LEGAL THEORY, WHETHER IN TORT (INCLUDING WITHOUT LIMITATION
#NEGLIGENCE), CONTRACT, STRICT LIABILITY, STATUTORY OR OTHERWISE, FOR ANY SPECIAL,
#INCIDENTAL, CONSEQUENTIAL, EXEMPLARY, PUNITIVE OR INDIRECT DAMAGE OF ANY KIND, INCLUDING
#WITHOUT LIMITATION LOSS OF REVENUE, PROFITS, GOODWILL, USE, AND/OR DATA OR THE COST OF
#PROCUREMENT OF SUBSTITUTE GOODS OR SERVICES, EVEN IF APPRISED OF THE POSSIBILITY OF SUCH
#DAMAGES IN ADVANCE.
#--------------------------------------------------#

~VERSION INFORMATION
VERS. 2.0 : CWLS LOG ASCII STANDARD - VERSION 2.0
WRAP.  NO : ONE LINE PER DEPTH STEP
~WELL INFORMATION
#MNEMONIC     .UNIT              VALUE :DESCRIPTION
STRT       .FT                51 :START DEPTH
STOP       .FT                6194 :STOP DEPTH
STEP       .FT                   0.500 :STEP
NULL       .                  -999.990 :NULL
UWI        .              42389004340000 :UNIQUE WELL ID
API        .              42389004340000 :API NUMBER
COMP       .         :COMPANY
WELL       .         1, :WELL
DATE       .                            :LOG DATE
~CURVE INFORMATION
#MNEMONIC     .UNIT      API CODE :CURVE DESCRIPTION
DEPTH       .FT                      :MEASURED DEPTH
GR.API        UNKNOWN   :GR
DT.US/FT        UNKNOWN   :DT
~A    DEPTH    GR    DT
 51     53.267   -999.990
 51.5     53.58   -999.990
 52     53.893   -999.990
 52.5     54.206   -999.990
 53     54.484   -999.990
 53.5     53.098   -999.990
 54     51.712   -999.990
 54.5     49.31   -999.990
 55     45.45   -999.990
 55.5     41.59   -999.990
 56     37.73   -999.990
 56.5     33.871   -999.990
 57     32.9   -999.990
 57.5     33.955   -999.990
 58     35.011   -999.990
 58.5     36.066   -999.990
 59     37.121   -999.990
 59.5     37.942   -999.990
 60     37.774   -999.990
 60.5     37.607   -999.990
 61     37.44   -999.990
 61.5     37.272   -999.990
 62     37.105   -999.990
 62.5     36.938   -999.990
 63     36.77   -999.990
 63.5     36.603   -999.990
 64     37.426   -999.990
 64.5     38.593   -999.990
 65     39.76   -999.990
 65.5     40.926   -999.990
 66     40.448   -999.990
 66.5     39.705   -999.990
 67     39.264   -999.990
 67.5     39.704   -999.990
 68     40.143   -999.990
 68.5     40.552   -999.990
 69     38.389   -999.990
 69.5     36.227   -999.990
 70     34.064   -999.990
 70.5     32.747   -999.990
 71     33.347   -999.990
 71.5     33.946   -999.990
 72     34.545   -999.990
 72.5     34.389   -999.990
 73     33.794   -999.990
 73.5     33.199   -999.990
 74     32.604   -999.990
 74.5     33.514   -999.990
 75     33.762   -999.990
 75.5     33.604   -999.990
 76     33.446   -999.990
 76.5     33.476   -999.990
 77     33.79   -999.990
 77.5     34.104   -999.990
 78     34.418   -999.990
 78.5     34.733   -999.990
 79     34.661   -999.990
 79.5     34.524   -999.990
 80     34.387   -999.990
 80.5     34.25   -999.990
 81     34.114   -999.990
 81.5     34.165   -999.990
 82     34.872   -999.990
 82.5     35.578   -999.990
 83     36.284   -999.990
 83.5     36.991   -999.990
 84     37.697   -999.990
 84.5     38.181   -999.990
 85     37.613   -999.990
 85.5     37.045   -999.990
 86     36.477   -999.990
 86.5     35.909   -999.990
 87     35.341   -999.990
 87.5     34.773   -999.990
 88     34.205   -999.990
 88.5     33.638   -999.990
 89     33.07   -999.990
 89.5     34.05   -999.990
 90     35.944   -999.990
 90.5     37.837   -999.990
 91     39.731   -999.990
 91.5     41.262   -999.990
 92     42.042   -999.990
 92.5     42.821   -999.990
 93     43.601   -999.990
 93.5     44.38   -999.990
 94     45.159   -999.990
 94.5     45.939   -999.990
 95     45.025   -999.990
 95.5     43.803   -999.990
 96     42.581   -999.990
 96.5     41.359   -999.990
 97     40.137   -999.990
 97.5     38.915   -999.990
 98     37.693   -999.990
 98.5     36.471   -999.990
 99     35.249   -999.990
 99.5     34.027   -999.990
 100     32.805   -999.990
 100.5     32.204   -999.990
 101     32.918   -999.990
 101.5     33.632   -999.990
 102     34.345   -999.990
 102.5     35.059   -999.990
 103     35.772   -999.990
 103.5     36.486   -999.990
 104     37.2   -999.990
 104.5     37.913   -999.990
 105     38.278   -999.990
 105.5     37.593   -999.990
 106     36.908   -999.990
 106.5     36.223   -999.990
 107     35.538   -999.990
 107.5     34.853   -999.990
 108     34.168   -999.990
 108.5     33.656   -999.990
 109     34.993   -999.990
 109.5     38.131   -999.990
 110     41.269   -999.990
 110.5     42.842   -999.990
 111     44.171   -999.990
 111.5     45.5   -999.990
 112     46.83   -999.990
 112.5     48.159   -999.990
 113     49.488   -999.990
 113.5     49.221   -999.990
 114     48.626   -999.990
 114.5     48.383   -999.990
 115     48.583   -999.990
 115.5     48.783   -999.990
 116     48.983   -999.990
 116.5     48.056   -999.990
 117     46.203   -999.990
 117.5     44.35   -999.990
 118     42.639   -999.990
 118.5     43.089   -999.990
 119     43.185   -999.990
 119.5     42.57   -999.990
 120     41.954   -999.990
 120.5     41.339   -999.990
 121     40.724   -999.990
 121.5     40.109   -999.990
 122     39.569   -999.990
 122.5     40.963   -999.990
 123     42.357   -999.990
 123.5     43.751   -999.990
 124     45.145   -999.990
 124.5     46.539   -999.990
 125     47.925   -999.990
 125.5     47.571   -999.990
 126     47.217   -999.990
 126.5     46.862   -999.990
 127     46.508   -999.990
 127.5     46.153   -999.990
 128     45.799   -999.990
 128.5     45.445   -999.990
 129     45.09   -999.990
 129.5     44.736   -999.990
 130     44.382   -999.990
 130.5     45.937   -999.990
 131     47.927   -999.990
 131.5     49.917   -999.990
 132     51.907   -999.990
 132.5     53.897   -999.990
 133     55.261   -999.990
 133.5     54.454   -999.990
 134     53.647   -999.990
 134.5     52.988   -999.990
 135     52.989   -999.990
 135.5     52.99   -999.990
 136     52.869   -999.990
 136.5     52.069   -999.990
 137     51.269   -999.990
 137.5     50.47   -999.990
 138     49.67   -999.990
 138.5     48.87   -999.990
 139     48.07   -999.990
 139.5     48.915   -999.990
 140     49.861   -999.990
 140.5     49.601   -999.990
 141     49.341   -999.990
 141.5     49.082   -999.990
 142     49.509   -999.990
 142.5     50.288   -999.990
 143     51.067   -999.990
 143.5     51.847   -999.990
 144     52.626   -999.990
 144.5     53.406   -999.990
 145     52.991   -999.990
 145.5     47.246   -999.990
 146     41.5   -999.990
 146.5     35.755   -999.990
 147     30.914   -999.990
 147.5     29.69   -999.990
 148     28.465   -999.990
 148.5     27.241   -999.990
 149     29.645   -999.990
 149.5     33.477   -999.990
 150     37.31   -999.990
 150.5     41.143   -999.990
 151     44.976   -999.990
 151.5     48.808   -999.990
 152     52.641   -999.990
 152.5     54.762   -999.990
 153     54.891   -999.990
 153.5     55.02   -999.990
 154     53.893   -999.990
 154.5     51.108   -999.990
 155     48.324   -999.990
 155.5     45.54   -999.990
 156     42.756   -999.990
 156.5     42.298   -999.990
 157     42.298   -999.990
 157.5     42.299   -999.990
 158     42.3   -999.990
 158.5     42.301   -999.990
 159     42.491   -999.990
 159.5     43.418   -999.990
 160     44.345   -999.990
 160.5     45.272   -999.990
 161     46.199   -999.990
 161.5     47.06   -999.990
 162     47.843   -999.990
 162.5     48.625   -999.990
 163     49.407   -999.990
 163.5     50.19   -999.990
 164     51.639   -999.990
 164.5     53.775   -999.990
 165     55.539   -999.990
 165.5     54.833   -999.990
 166     54.127   -999.990
 166.5     53.422   -999.990
 167     51.98   -999.990
 167.5     50.15   -999.990
 168     48.321   -999.990
 168.5     46.492   -999.990
 169     44.662   -999.990
 169.5     44.881   -999.990
 170     46.254   -999.990
 170.5     47.626   -999.990
 171     48.999   -999.990
 171.5     50.142   -999.990
 172     49.531   -999.990
 172.5     48.919   -999.990
 173     48.307   -999.990
 173.5     47.695   -999.990
 174     47.083   -999.990
 174.5     46.471   -999.990
 175     45.859   -999.990
 175.5     45.606   -999.990
 176     45.685   -999.990
 176.5     45.764   -999.990
 177     45.843   -999.990
 177.5     45.922   -999.990
 178     45.101   -999.990
 178.5     43.512   -999.990
 179     41.923   -999.990
 179.5     40.335   -999.990
 180     38.746   -999.990
 180.5     37.339   -999.990
 181     37.775   -999.990
 181.5     38.211   -999.990
 182     38.647   -999.990
 182.5     39.083   -999.990
 183     39.519   -999.990
 183.5     39.955   -999.990
 184     40.39   -999.990
 184.5     40.826   -999.990
 185     41.262   -999.990
 185.5     40.811   -999.990
 186     39.713   -999.990
 186.5     38.616   -999.990
 187     37.518   -999.990
 187.5     36.42   -999.990
 188     35.323   -999.990
 188.5     34.225   -999.990
 189     34.139   -999.990
 189.5     35.578   -999.990
 190     37.016   -999.990
 190.5     38.455   -999.990
 191     39.893   -999.990
 191.5     41.331   -999.990
 192     42.241   -999.990
 192.5     42.26   -999.990
 193     42.279   -999.990
 193.5     42.299   -999.990
 194     42.318   -999.990
 194.5     42.337   -999.990
 195     42.356   -999.990
 195.5     42.654   -999.990
 196     43.906   -999.990
