###############################################
##         ENVERUS                           ##
##         ESS - Open Hole                   ##
##         PERMIAN / DELAWARE                ##
##         Nov 04 2023  V4.0                 ##
##         42-371-36358-00-00                ##
###############################################
## Copyright 2017-2023  ENVERUS.  All Rights Reserved. 
## Confidential - Property of ENVERUS, use governed by terms and 
## conditions found within the existing Information Services Subscription Agreement 
## (as may be amended, the “ISSA”) between Customer and ENVERUS. 
## 
~VERSION INFORMATION
# MNEM.UNIT                               DATA : DESCRIPTION OF MNEMONIC
#-----.-----     ----------------------------- : -----------------------------
VERS.                                     2.00 : CWLS LOG ASCII STANDARD - VERSION 2.00
WRAP.                                       NO : MULTIPLE LINES PER DEPTH STEP
VEND.                                  ENVERUS : VENDOR
TYPE.                          ESS - OPEN HOLE : ENVERUS ESSENTIAL CURVES – ACCESSIBLE THROUGH ENVERUS PRISM(TM)
DOC.                                  32044985 : ENVERUS HEADER RAW DOCUMENT ID
#___________________________________________________________________________________________________ 
~WELL INFORMATION 
# 9/F+NtSLBEAIaZM9LpLMxALTyCH3LMfPBQiNKTeSadJ6NAezaEZy+3+OEP8rVGNvVB4ifWNnxSKvs1BiqqZA9A== 
# MNEM.UNIT                                              DATA : DESCRIPTION OF MNEMONIC 
#-----.-----                    ----------------------------- : ----------------------------- 
CNTY.                                                   PECOS : COUNTY 
STATE.                                                  TEXAS : STATE 
CNTRY.                                                    USA : COUNTRY 
API.                                             42-371-36358 : API (10 Digit) 
API_14.                                    42-371-36358-00-00 : API (14 Digits) 
API_14_std.                                 42-371-36358-0000 : API (14 Digits Standard) 
UWI.                                           42371363580000 : UNIQUE WELL ID 
WELL.                           SCHLOSSER, FRED ESTATE -B-  9 : WELL NAME
STRT.FT                                                 151.0 : START DEPTH
STOP.FT                                                5707.0 : STOP DEPTH
STEP.FT                                                   0.5 : STEP BETWEEN DEPTHS
NULL.                                                 -999.25 : NULL VALUE
COMP.                                      APACHE CORPORATION : COMPANY 
DATE.                                             07-JUN-1992 : LOG DATE
#___________________________________________________________________________________________________ 
~CURVE INFORMATION 
# MNEM.UNIT           : CURVE DESCRIPTION 
#-----.-----          : ----------------------------- 
 DEPT.FT               : MEASURED DEPTH 
 GR.API                : GAMMA RAY (GR) 
 DT.US/FT              : SONIC DELTA TRANSIT TIME (DT) 
 #___________________________________________________________________________________________________ 
~A         DEPT             GR             DT
# ...
         1978.0          9.083         54.032
         1978.5         10.639         53.987
         1979.0         10.969         58.672
         1979.5         10.970         63.541
         1980.0         10.374         66.796
         1980.5          8.754         63.208
         1981.0          7.135         60.398
         1981.5          7.429         60.458
         1982.0          8.754         60.824
         1982.5         10.078         61.318
         1983.0         10.476         62.810
         1983.5          8.929         64.302
         1984.0          7.381         65.795
         1984.5          5.833         67.287
         1985.0          5.586         68.407
         1985.5          5.912         66.390
         1986.0          6.238         64.374
         1986.5          6.563         62.357
         1987.0          6.889         60.341
         1987.5          6.543         61.433
         1988.0          5.655         63.626
         1988.5          4.767         65.818
         1989.0          3.879         67.757
         1989.5          3.562         68.221
         1990.0          3.588         68.616
         1990.5          3.613         73.659
         1991.0          3.639         88.613
         1991.5          3.665         93.754
         1992.0          3.691         94.007
         1992.5          3.717         79.588
         1993.0          3.743         70.566
         1993.5          3.769         65.917
         1994.0          3.795         65.980
         1994.5          3.821         67.016
         1995.0          3.847         68.036
         1995.5          3.619         68.775
         1996.0          3.168         68.975
         1996.5          2.717         68.774
         1997.0          2.599         68.574
         1997.5          2.805         68.528
         1998.0          3.011         68.541
         1998.5          3.218         68.554
         1999.0          3.424         68.567
         1999.5          3.630         68.639
         2000.0          3.837         68.724
         2000.5          3.619         68.809
         2001.0          3.329         68.825
         2001.5          3.039         68.703
         2002.0          2.749         68.581
         2002.5          2.459         68.460
         2003.0          2.442         68.338
         2003.5          4.644         68.216
         2004.0          6.845         68.094
         2004.5          9.047         65.915
         2005.0         10.769         61.192
         2005.5         10.268         58.906
         2006.0          9.767         57.052
         2006.5          8.441         55.197
         2007.0          6.132         54.633
         2007.5          5.358         54.736
         2008.0          4.673         54.884
         2008.5          3.989         55.289
         2009.0          3.751         55.674
         2009.5          3.788         55.768
         2010.0          3.824         55.861
         2010.5          3.861         55.955
         2011.0          3.898         56.008
         2011.5          3.934         55.989
         2012.0          3.971         55.970
         2012.5          4.007         55.950
         2013.0          4.177         55.873
         2013.5          5.082         55.731
         2014.0          5.986         55.582
         2014.5          7.179         55.213
         2015.0         10.309         54.845
         2015.5         13.439         54.476
         2016.0         16.568         54.108
         2016.5         18.760         54.030
         2017.0         17.193         54.875
         2017.5         15.626         55.746
         2018.0         14.869         56.158
         2018.5         14.341         56.306
         2019.0         13.813         56.454
         2019.5         13.285         56.001
         2020.0         12.757         55.476
         2020.5         12.213         54.688
         2021.0         11.251         53.901
         2021.5         10.289         53.685
         2022.0          9.327         53.910
         2022.5          8.246         54.135
         2023.0          6.991         54.281
         2023.5          5.736         54.200
         2024.0          4.864         54.119
         2024.5          4.600         54.037
         2025.0          4.337         55.640
         2025.5          4.073         58.460
         2026.0          3.809         63.338
         2026.5          3.546         66.829
         2027.0          3.513         68.505
         2027.5          3.609         68.585
         2028.0          3.706         68.756
         2028.5          3.802         68.974
         2029.0          3.899         69.065
         2029.5          3.995         68.952
         2030.0          4.034         68.839
         2030.5          3.934         68.705
         2031.0          3.835         68.553
         2031.5          3.735         68.414
         2032.0          3.635         68.419
         2032.5          3.535         68.424
         2033.0          3.597         68.429
         2033.5          4.151         68.434
         2034.0          4.706         68.150
         2034.5          5.261         67.375
         2035.0          5.816         65.930
         2035.5          6.370         63.425
         2036.0          6.925         61.500
         2036.5          7.480         59.638
         2037.0          8.035         57.247
         2037.5          7.998         55.601
         2038.0          7.315         54.692
         2038.5          6.631         54.605
         2039.0          6.083         54.855
         2039.5          6.299         55.142
         2040.0          6.545         55.135
         2040.5          7.600         54.897
         2041.0          8.656         54.403
         2041.5          9.714         53.909
         2042.0         11.034         53.898
         2042.5         12.354         54.232
         2043.0         12.095         54.869
         2043.5         10.766         55.801
         2044.0          9.436         56.734
         2044.5          8.106         57.666
         2045.0          6.776         58.396
         2045.5          5.446         59.247
         2046.0          4.928         60.186
         2046.5          5.079         61.125
         2047.0          5.231         61.057
         2047.5          5.382         60.415
         2048.0          5.533         59.773
         2048.5          5.685         59.153
         2049.0          5.943         59.016
         2049.5          6.310         58.768
         2050.0          6.676         58.362
         2050.5          6.914         58.752
         2051.0          6.552         60.352
         2051.5          6.190         61.951
         2052.0          5.827         63.551
         2052.5          5.465         64.695
         2053.0          5.103         64.285
         2053.5          4.984         63.874
         2054.0          4.954         63.711
         2054.5          4.923         64.504
         2055.0          4.892         65.298
         2055.5          4.862         65.221
         2056.0          4.717         62.342
         2056.5          4.559         59.463
         2057.0          4.401         56.585
         2057.5          4.243         56.101
         2058.0          4.085         57.383
         2058.5          4.262         58.666
         2059.0          6.271         62.273
         2059.5          6.525         62.680
         2060.0          6.676         63.962
         2060.5          6.827         65.521
         2061.0          5.729         67.080
         2061.5          4.525         68.638
         2062.0          3.321         69.237
         2062.5          2.963         69.173
         2063.0          2.702         69.109
         2063.5          2.440         69.045
         2064.0          2.179         68.803
         2064.5          1.918         68.488
