###############################################
##         ENVERUS                           ##
##         ESS - Open Hole                   ##
##         PERMIAN / DELAWARE                ##
##         Nov 04 2023  V4.0                 ##
##         42-389-00802-00-00                ##
###############################################
## Copyright 2017-2023  ENVERUS.  All Rights Reserved. 
## Confidential - Property of ENVERUS, use governed by terms and 
## conditions found within the existing Information Services Subscription Agreement 
## (as may be amended, the “ISSA”) between Customer and ENVERUS. 
## 
~VERSION INFORMATION
# MNEM.UNIT                               DATA : DESCRIPTION OF MNEMONIC
#-----.-----     ----------------------------- : -----------------------------
VERS.                                     2.00 : CWLS LOG ASCII STANDARD - VERSION 2.00
WRAP.                                       NO : MULTIPLE LINES PER DEPTH STEP
VEND.                                  ENVERUS : VENDOR
TYPE.                          ESS - OPEN HOLE : ENVERUS ESSENTIAL CURVES – ACCESSIBLE THROUGH ENVERUS PRISM(TM)
DOC.                                  31817456 : ENVERUS HEADER RAW DOCUMENT ID
#___________________________________________________________________________________________________ 
~WELL INFORMATION 
# RyAIq6UWQPnCIzV1aSVljU5sZzU8mzXCuHzh8Tf3VVfaeSb2oya67RMqigcBPLsftsjdPp3J13KbDcbgGgUr7w== 
# MNEM.UNIT                                              DATA : DESCRIPTION OF MNEMONIC 
#-----.-----                    ----------------------------- : ----------------------------- 
CNTY.                                                  REEVES : COUNTY 
STATE.                                                  TEXAS : STATE 
CNTRY.                                                    USA : COUNTRY 
API.                                             42-389-00802 : API (10 Digit) 
API_14.                                    42-389-00802-00-00 : API (14 Digits) 
API_14_std.                                 42-389-00802-0000 : API (14 Digits Standard) 
UWI.                                           42389008020000 : UNIQUE WELL ID 
WELL.                                                      1, : WELL NAME
STRT.FT                                                 103.0 : START DEPTH
STOP.FT                                                5419.0 : STOP DEPTH
STEP.FT                                                   0.5 : STEP BETWEEN DEPTHS
NULL.                                                 -999.25 : NULL VALUE
#___________________________________________________________________________________________________ 
~CURVE INFORMATION 
# MNEM.UNIT           : CURVE DESCRIPTION 
#-----.-----          : ----------------------------- 
 DEPT.FT               : MEASURED DEPTH 
 GR.API                : GAMMA RAY (GR) 
 DT.US/FT              : SONIC DELTA TRANSIT TIME (DT) 
 #___________________________________________________________________________________________________ 
~A         DEPT             GR             DT
# ...
         3931.0          9.213         50.550
         3931.5         10.131         50.404
         3932.0         11.048         50.258
         3932.5         10.960         50.112
         3933.0          9.984         49.966
         3933.5          9.008         49.820
         3934.0          8.225         49.674
         3934.5          9.065         49.528
         3935.0          9.905         49.718
         3935.5         10.745         49.973
         3936.0         11.585         50.228
         3936.5         11.049         50.482
         3937.0          9.881         50.737
         3937.5          8.712         50.992
         3938.0          7.957         51.061
         3938.5          8.444         50.970
         3939.0          8.932         50.879
         3939.5          8.915         50.787
         3940.0          8.327         50.696
         3940.5          7.739         50.605
         3941.0          7.151         50.514
         3941.5          7.475         50.423
         3942.0          8.703         50.332
         3942.5          8.593         50.240
         3943.0          8.258         50.149
         3943.5          7.922         50.147
         3944.0          7.587         50.285
         3944.5          7.251         50.424
         3945.0          6.915         50.563
         3945.5          6.580         50.702
         3946.0          6.244         50.841
         3946.5          5.909         50.894
         3947.0          5.573         50.429
         3947.5          5.237         49.964
         3948.0          4.920         49.499
         3948.5          7.603         49.034
         3949.0         10.287         49.130
         3949.5         12.970         49.364
         3950.0         15.653         49.598
         3950.5         18.337         49.832
         3951.0         20.276         50.066
         3951.5         16.375         50.300
         3952.0         12.475         50.395
         3952.5          8.575         50.358
         3953.0          6.704         50.321
         3953.5          6.858         50.285
         3954.0          7.013         50.248
         3954.5          7.167         50.211
         3955.0          7.322         50.379
         3955.5          7.477         50.567
         3956.0          7.631         50.737
         3956.5          7.786         50.656
         3957.0          7.940         50.575
         3957.5          8.647         50.494
         3958.0          9.805         50.413
         3958.5         10.964         50.339
         3959.0         12.122         50.440
         3959.5         13.281         50.541
         3960.0         12.035         50.641
         3960.5          9.195         50.726
         3961.0          6.355         50.614
         3961.5          5.834         50.503
         3962.0          6.566         50.392
         3962.5          7.299         50.280
         3963.0          8.031         50.169
         3963.5          8.763         50.057
         3964.0          9.391         49.996
         3964.5          9.185         50.011
         3965.0          8.979         50.026
         3965.5          8.773         50.041
         3966.0          8.567         50.056
         3966.5          8.361         50.071
         3967.0          8.155         50.086
         3967.5          7.949         50.101
         3968.0          7.743         50.116
         3968.5          7.537         50.819
         3969.0          7.844         50.835
         3969.5          8.590         50.636
         3970.0          9.336         50.436
         3970.5         10.082         50.237
         3971.0         10.828         50.038
         3971.5         11.574         49.838
         3972.0         12.320         49.908
         3972.5         13.065         50.104
         3973.0         13.811         50.299
         3973.5         14.557         50.494
         3974.0         14.275         50.689
         3974.5         13.222         50.885
         3975.0         12.168         51.080
         3975.5         11.115         51.040
         3976.0         10.061         50.955
         3976.5          9.008         50.870
         3977.0          9.313         50.785
         3977.5          9.846         50.700
         3978.0         10.380         50.687
         3978.5         10.913         50.883
         3979.0         10.844         51.078
         3979.5          9.907         51.273
         3980.0          8.969         51.238
         3980.5          8.758         51.157
         3981.0          9.124         51.076
         3981.5          9.490         50.995
         3982.0          9.122         50.914
         3982.5          8.533         50.833
         3983.0          7.945         50.751
         3983.5          8.315         50.670
         3984.0          8.750         50.589
         3984.5          9.186         50.508
         3985.0          9.595         50.427
         3985.5          9.344         50.346
         3986.0          9.094         50.265
         3986.5          8.843         50.286
         3987.0          8.751         50.440
         3987.5         10.214         50.593
         3988.0         11.677         50.747
         3988.5         13.140         50.900
         3989.0         14.603         51.054
         3989.5         12.097         51.207
         3990.0          8.024         51.347
         3990.5          7.756         51.182
         3991.0          7.889         51.016
         3991.5          8.022         50.850
         3992.0          8.155         50.684
         3992.5          8.288         50.518
         3993.0          8.421         50.352
         3993.5          8.555         50.379
         3994.0          8.743         50.418
         3994.5          9.704         50.456
         3995.0         10.666         50.495
         3995.5         11.627         50.534
         3996.0         12.079         50.573
         3996.5         10.554         50.612
         3997.0          9.029         50.651
         3997.5          7.504         50.565
         3998.0          5.979         50.348
         3998.5          5.882         50.130
         3999.0          6.764         49.912
         3999.5          7.647         49.695
         4000.0          8.529         49.477
         4000.5          9.412         49.259
         4001.0          9.792         49.042
         4001.5          9.863         49.192
         4002.0          9.934         49.469
         4002.5         10.005         49.746
         4003.0         10.077         50.022
         4003.5         11.362         50.236
         4004.0         12.213         50.096
         4004.5         11.709         49.956
         4005.0         11.205         49.816
         4005.5         10.701         49.676
         4006.0         10.197         49.536
         4006.5          9.693         49.395
         4007.0          9.189         49.255
         4007.5          8.686         49.268
         4008.0          9.088         49.294
         4008.5         10.177         49.319
         4009.0         11.266         49.345
         4009.5         12.354         49.370
         4010.0         13.443         49.623
         4010.5         12.125         49.914
         4011.0          9.285         50.205
         4011.5          9.520         50.287
         4012.0         10.335         50.060
         4012.5         11.149         49.834
         4013.0         11.056         49.608
         4013.5         10.135         49.381
         4014.0          9.214         49.155
         4014.5          8.294         48.928
         4015.0          7.766         48.702
         4015.5          7.587         48.727
         4016.0          7.407         48.877
         4016.5          7.228         49.027
         4017.0          7.049         49.178
         4017.5          6.870         49.328
