~Version Information Block
 VERS.                2.00:     CWLS LOG ASCII STANDARD - VERSION 2.000000
 WRAP.                  NO:     One Line Per Depth Step
#
~Well Information Block
#MNEM.UNIT                     Data                         Information
#----------   ------------------------------------------   ----------------
 STRT.FT                                     5200.0000:     START DEPTH
 STOP.FT                                    11550.0000:     STOP DEPTH
 STEP.FT                                        0.5000:     STEP
 NULL.                                       -999.2500:     NULL VALUE
 COMP.               AMERICAN QUASAR PETROLEUM COMPANY:     COMPANY
 WELL.                               MCCARTER # 1 - 31:     WELL
 FLD .                                         WILDCAT:     FIELD
 LOC .                                                :     LOCATION
 CNTY.                                          REEVES:     COUNTY
 STAT.                                           TEXAS:     STATE
 CTRY.                                             USA:     COUNTRY
 SRVC.                                                :     SERVICE COMPANY
 DATE.                                      08/07/2015:     DATE
 API .                                  42389311800000:     API NUMBER
 UWI .                                  42389311800000:     UWI NUMBER
 TVD .                                              NO:     TVD flag
 WSTA.                                             LOC:     Well status
#
~Curve Information Block
#MNEM.UNIT       API CODE      Curve Description
#----------    -------------   -------------------
 DEPT.FT                   :   Depth in Feet
 GR  .GAPI                 :   Gamma Ray
 LLD .OHMM                 :   Latero-Log Deep (Resistivity)
 CALI.IN                   :   Caliper
 DT  .US/F                 :   Delta-T
#
~Parameter Information Block
#MNEM.UNIT            Value               Description
#----------    --------------------    -------------------
 RUN .                         ONE:    Run Number
 PDAT.                          GL:    Permanent Datum
 EPD .FT                          :    Elevation Of Perm. Datum
 LMF .               KELLY BUSHING:    Log Measured From
 EKB .FT                          :    Elevation Of Kelly Bushing
 DF .FT                           :    Elevation Of Derrick Floor
 GL .FT                           :    Elevation Of Ground Level
 TD  .FT                          :    Total Depth
 CSGD.FT                          :    Casing Bottom (Driller) 1
 CSGL.FT                          :    Casing Bottom (Logger) 1
 MUD .                            :    Drilling Fluid Type
 MUDV .CP                         :    Drilling Fluid Viscosity
 MUDD .LB/USG                     :    Drilling Fluid Density
 FL .ML/30MIN                     :    Drilling Fluid Loss
 PH.                              :    Drilling Fluid Ph
 MUDS .                           :    Mud Sample Source
 RM .OHMM                         :    Resistivity Of Mud Sample
 RMT .DEGF                        :    Mud Sample Temperature
 RMF .OHMM                        :    Mud Filtrate Resistivity
 RMFT.DEGF                        :    Mud Filtrate Sample Temperature
 RMC .OHMM                        :    Mud Cake Resistivity
 RMCT.DEGF                        :    Mud Cake Sample Temperature
 RMB .OHMM                        :    Mud Resistivity At Bht
 TMAX .DEGF                       :    Bottom Hole Temperature    
#
~Other Information Block
<DescLogPlotStart>   NEURALOG PLOT DEFINITION
PLOTDEFVERSION: 3
LASFILE: E:\Nair Innovations\Texas - NII\Shivam\42389311800000\42389311800000_G
DEPTHSCALE: 239.999996
RESOLUTION: 200
DEPTHLABELFREQ: 100.000000
HEAVYGRIDFREQ: 100.000000
MEDIUMGRIDFREQ: 50.000000
LIGHTGRIDFREQ: 10.000000
#
#   TRACK 1
#
STARTTRACK: 
 LEFTX: 0.500000 inch
 RIGHTX: 3.000000 inch
 SCALETYPE: Linear
 NUMCHARTDIVISIONS: 10
CURVE: GR    0.000000   125.000000 (0,0,255)      Solid             2     Y    
BACKUP: 125.000000 250.000000 (0,0,255)      Solid             2    
CURVE: CALI  6.000000   16.000000  (0,0,255)      Solid             2     N    
ENDTRACK: 
#
#   TRACK 2
#
STARTTRACK: 
 LEFTX: 3.500000 inch
 RIGHTX: 8.500000 inch
 SCALETYPE: Log
 NUMCYCLES: 4
 STARTCYCLE: 2
CURVE: LLD   0.200000   2000.000000 (0,131,131)    Solid             2     Y   
BACKUP: 2000.000000 20000000.000000 (0,131,131)    Solid             2    
ENDTRACK: 
#
#   TRACK 3
#
STARTTRACK: 
 LEFTX: 3.500000 inch
 RIGHTX: 8.500000 inch
 SCALETYPE: Linear
 NUMCHARTDIVISIONS: 10
CURVE: DT    100.000000 40.000000  (0,131,131)    Solid             2     Y    
BACKUP: 160.000000 100.000000 (0,131,131)    Solid             2    
BACKUP: 40.000000  -20.000000 (0,131,131)    Solid             2    
ENDTRACK: 
<DescLogPlotEnd>
<DepthTrack type='Reference' track='1' Label='0' color='0' hor='0' />
<Reference font='144,0,-900,0,500,0,16777216,Arial' />
~A DEPTH     GR               LLD              CALI             DT              
# ...
    6437.500 45.74021713      10.95234081      12.76872728      66.86438561     
    6438.000 45.99205147      9.91818555       12.76816973      67.30749251     
    6438.500 44.14239381      9.72262427       12.76761218      67.81953047     
    6439.000 42.01768114      9.53091896       12.76705462      68.11863137     
    6439.500 39.77963658      9.42706907       12.76649707      67.74841825     
    6440.000 38.31031598      9.84449107       12.76593952      67.17957356     
    6440.500 37.69090782      9.94126765       12.76538197      66.61304954     
    6441.000 38.79682761      10.03899559      12.76482442      66.00935512     
    6441.500 43.71566274      10.15171902      12.76426687      65.19801564     
    6442.000 47.23983056      9.88218209       12.76370932      65.29925899     
    6442.500 48.56999561      9.42501176       12.76315177      65.56599042     
    6443.000 46.56372507      9.42700932       12.76259422      65.72665507     
    6443.500 44.97765363      9.34046878       12.76203667      65.25544723     
    6444.000 43.20480440      10.18177704      12.76147912      64.19422523     
    6444.500 40.11444549      11.56963278      12.76092157      62.96445628     
    6445.000 37.71872231      13.14211509      12.76036402      61.48851149     
    6445.500 38.66049463      14.14911885      12.75980646      60.88911089     
    6446.000 41.24165832      13.67160728      12.75924891      61.03416583     
    6446.500 42.42374123      13.02138711      12.75869136      61.60644356     
    6447.000 43.02409901      12.77701386      12.75813381      62.17872128     
    6447.500 44.27604004      12.54946426      12.75757626      62.75099900     
    6448.000 47.65447495      12.24881637      12.75701871      63.32327672     
    6448.500 51.91124452      10.43433715      12.75646116      63.89555445     
    6449.000 56.93547162      10.53107926      12.75590361      64.54545455     
    6449.500 61.03296254      9.78157419       12.75534606      65.31936372     
    6450.000 63.84523150      10.79821032      12.75478851      65.89740319     
    6450.500 67.49274587      11.92876306      12.75423096      66.48259445     
    6451.000 72.47523721      13.02980185      12.75367341      67.09290709     
    6451.500 78.58352435      15.33696458      12.75311586      68.07692308     
    6452.000 83.08060451      16.52243621      12.75255830      68.54345654     
    6452.500 80.84782929      16.84775613      12.75200075      68.64385614     
    6453.000 71.95579193      14.97778335      12.75144320      68.44155844     
    6453.500 61.33459160      13.92875251      12.75088565      67.88111888     
    6454.000 54.63928832      13.24333878      12.75032810      67.21158841     
    6454.500 51.43042956      13.13767690      12.74977055      66.72967033     
    6455.000 49.20175029      13.34748516      12.74921300      66.04395604     
    6455.500 47.95659228      13.79098379      12.74865545      64.44547120     
    6456.000 47.13703639      16.69238090      12.74809790      62.92274392     
    6456.500 45.65087617      20.09699106      12.74754035      61.40001665     
    6457.000 46.21350175      23.50554235      12.74698280      59.93206793     
    6457.500 50.76912612      21.97159874      12.74642525      59.27072927     
    6458.000 54.77208999      16.87338983      12.74586770      60.22857143     
    6458.500 56.40286379      12.18820683      12.74531014      61.64420579     
    6459.000 54.36068379      10.99170504      12.74475259      63.47102897     
    6459.500 50.30767283      10.79354892      12.74419504      64.36563437     
    6460.000 48.52893198      10.67393576      12.74363749      64.94428648     
    6460.500 49.97073126      10.53107926      12.74307994      65.52351495     
    6461.000 49.48475002      10.74509740      12.74252239      66.04395604     
    6461.500 51.93460275      11.44313511      12.74196484      66.18961039     
    6462.000 55.28477393      11.28660711      12.74140729      66.19544092     
    6462.500 58.00210004      10.98331756      12.74084974      66.14067750     
    6463.000 59.17622852      10.68817791      12.74029219      66.04395604     
    6463.500 61.35368637      10.40096913      12.73973464      66.18481518     
    6464.000 61.89584427      10.12147812      12.73917709      66.62417582     
    6464.500 63.63016411      9.84949750       12.73861954      66.74465534     
    6465.000 68.69024685      9.69171729       12.73806198      66.82317682     
    6465.500 77.64137062      13.51297908      12.73749524      67.40159840     
    6466.000 89.70018768      17.11333315      12.73695030      69.20879121     
    6466.500 104.91163599     21.67295380      12.73641697      71.01259314     
    6467.000 110.95718938     27.44742491      12.74328425      72.84806743     
    6467.500 119.55083175     36.60623351      12.75688750      74.66259228     
    6468.000 121.77928583     42.04121766      12.76150936      75.51448551     
    6468.500 113.05675710     37.42952919      12.76641657      73.72054868     
    6469.000 100.50237656     34.10779491      12.77139479      71.89018674     
    6469.500 87.91424542      31.08085244      12.78061669      70.66083916     
    6470.000 77.93337367      27.01206075      12.81621930      69.52047952     
    6470.500 71.34527403      23.31595681      12.85075965      66.82317682     
    6471.000 69.34718997      21.63207261      12.84130364      66.65659237     
    6471.500 68.73087557      21.04137342      12.75355667      66.36930752     
    6472.000 65.80903307      21.23645882      12.75565049      65.91979768     
    6472.500 62.35093632      20.44084394      12.75591872      65.44443350     
    6473.000 56.21747575      20.50076524      12.75826356      64.49604367     
    6473.500 51.50931071      17.48188776      12.77362833      63.33508968     
    6474.000 50.48319939      17.15993813      12.75523138      61.84815185     
    6474.500 50.90528946      17.06967378      12.75597995      61.49581668     
    6475.000 51.07147067      16.86897088      12.75596759      61.72827173     
    6475.500 50.00833730      16.70075340      12.75591555      62.38786214     
    6476.000 46.61578090      16.26319626      12.75358524      60.94905095     
    6476.500 42.93409724      15.44483525      12.74755750      62.72734408     
    6477.000 42.56846468      14.81731367      12.74139622      63.78361638     
    6477.500 49.79636325      13.76275397      12.74116552      64.34565435     
    6478.000 51.36025403      11.69563978      12.75532591      65.19825629     
    6478.500 50.66240041      10.23305826      12.75606585      66.07447098     
    6479.000 46.83816927      9.39515885       12.75598589      66.46353646     
    6479.500 44.19104526      9.09228186       12.75595238      65.68431568     
    6480.000 44.08565157      8.67756796       12.75595238      65.90997238     
    6480.500 47.63242790      7.41597526       12.75595238      66.22888876     
    6481.000 51.17335536      9.78157419       12.75595238      66.54780514     
    6481.500 56.19770850      10.43433715      12.75595238      67.06293706     
    6482.000 58.21801505      12.54946426      12.75595238      67.06193909     
    6482.500 56.43708909      14.32225451      12.75595238      65.26728655     
    6483.000 54.75930086      15.23328343      12.75595238      63.84865115     
    6483.500 55.10332341      14.95469261      12.75595238      63.64665335     
    6484.000 58.40867599      13.00157386      12.75595238      64.25308025     
    6484.500 61.52898877      11.98616623      12.75595238      65.69214119     
    6485.000 63.67851165      11.13066156      12.75595238      67.10789211     
    6485.500 63.13640987      11.02841148      12.75595238      68.02197802     
    6486.000 62.88304517      10.62871832      12.75595238      67.97402597     
    6486.500 62.80958228      10.62871832      12.75595238      67.67282717     
