#--------------------------------------------------#
#-------------------ENVERUS, INC.------------------#
#------------------WWW.ENVERUS.COM-----------------#
#------------------COPYRIGHT 2020------------------#
#--------------------------------------------------#
#THIS FILE MAY BE USED ONLY IN ACCORDANCE WITH A CURRENT SUBSCRIPTION AGREEMENT BETWEEN
#THE USER AND ENVERUS, INC. NO PART OF THIS FILE MAY BE REPRODUCED, USED, COPIED,
#MODIFIED, PROPAGATED, OR DISTRIBUTED EXCEPT IN ACCORDANCE WITH THE SUBSCRIPTION
#AGREEMENT. UNAUTHORIZED USE OR DISTRIBUTION OF ALL OR ANY PART OF THIS FILE MAY VIOLATE
#COPYRIGHT, TRADEMARK, AND/OR OTHER LAWS AND IS SUBJECT TO CIVIL AS WELL AS CRIMINAL
#SANCTIONS.
#--------------------------------------------------#
#THIS FILE IS PROVIDED "AS-IS" AND ALL WARRANTIES ARE EXPRESSLY DISCLAIMED, WHETHER
#EXPRESS, ORAL, IMPLIED, STATUTORY OR OTHERWISE, INCLUDING ANY IMPLIED WARRANTY OF FITNESS
#FOR A PARTICULAR PURPOSE, MERCHANTABILITY, TITLE OR NON-INFRINGEMENT, AND ANY WARRANTIES
#ARISING BY VIRTUE OF CUSTOM OF TRADE OR COURSE OF DEALING.  FURTHER, ENVERUS, INC.
#AND ITS LICENSORS DO NOT REPRESENT OR WARRANT THAT THIS FILE WILL MEET USER'S
#REQUIREMENTS OR ARE SUITABLE FOR USER'S NEEDS OR THAT THE DATA OR RESULTS PROVIDED IN
#CONJUNCTION THEREWITH ARE CORRECT, ACCURATE, TIMELY OR RELIABLE. THESE DISCLAIMERS SHALL
#APPLY REGARDLESS OF ANY FAILURE OF ESSENTIAL PURPOSE OF ANY LIMITED REMEDY.  SOME
#JURISDICTIONS DO NOT ALLOW THE EXCLUSION OF CERTAIN WARRANTIES SO SOME OF THE ABOVE
#EXCLUSIONS MAY NOT APPLY. IN NO EVENT SHALL ENVERUS, INC. OR ANY OF ITS AFFILIATES
#BE LIABLE UNDER ANY LEGAL THEORY, WHETHER IN TORT (INCLUDING WITHOUT LIMITATION
#NEGLIGENCE), CONTRACT, STRICT LIABILITY, STATUTORY OR OTHERWISE, FOR ANY SPECIAL,
#INCIDENTAL, CONSEQUENTIAL, EXEMPLARY, PUNITIVE OR INDIRECT DAMAGE OF ANY KIND, INCLUDING
#WITHOUT LIMITATION LOSS OF REVENUE, PROFITS, GOODWILL, USE, AND/OR DATA OR THE COST OF
#PROCUREMENT OF SUBSTITUTE GOODS OR SERVICES, EVEN IF APPRISED OF THE POSSIBILITY OF SUCH
#DAMAGES IN ADVANCE.
#--------------------------------------------------#

~VERSION INFORMATION
VERS. 2.0 : CWLS LOG ASCII STANDARD - VERSION 2.0
WRAP.  NO : ONE LINE PER DEPTH STEP
~WELL INFORMATION
#MNEMONIC     .UNIT              VALUE :DESCRIPTION
STRT       .FT                10841 :START DEPTH
STOP       .FT                18209 :STOP DEPTH
STEP       .FT                   0.500 :STEP
NULL       .                  -999.99 :NULL
UWI        .                42371326180000 :UNIQUE WELL ID
API        .                42371326180000 :API NUMBER
COMP       .         :COMPANY
WELL       .        :WELL
DATE       .                 :LOG DATE
FLD       .                 :FIELD NAME
LOC       .                  UNK :LOCATION
CNTY       .                 UNK :COUNTY
STAT       .                 UNK :STATE
CTRY       .                 UNK :COUNTY
SRVC       .                 UNK :SERVICE COMPANY
~CURVE INFORMATION
#MNEMONIC     .UNIT      API CODE :CURVE DESCRIPTION
DEPTH       .FT                      :MEASURED DEPTH
CAL.IN        UNKNOWN   :CAL
DT.MSEC/FT        UNKNOWN   :DT
GR.API        UNKNOWN   :GR
ILD.OHM        UNKNOWN   :ILD
ILS.OHM        UNKNOWN   :ILS
SP.MV        UNKNOWN   :SP
~A    DEPTH    CAL    DT    GR    ILD    ILS    SP
# ...
 12836     9.8322   67.89197   47.17946   10.33469   14.18951   -13.22339
 12836.5     9.68056   68.30354   47.78703   11.21579   11.73173   -13.22099
 12837     9.6308   71.81564   47.35976   12.07666   12.80674   -13.2186
 12837.5     9.6365   75.32775   46.58989   11.61856   16.24272   -13.21621
 12838     9.64219   77.62223   45.33083   11.16046   20.44352   -13.22657
 12838.5     9.64788   76.20389   42.55763   10.98421   23.13228   -13.40175
 12839     9.61899   74.6886   43.1302   10.96294   18.77057   -13.57692
 12839.5     9.58668   71.61704   46.48455   10.94167   14.40885   -13.7521
 12840     9.55436   70.42638   50.82989   10.9204   13.91651   -13.92247
 12840.5     9.52205   69.88996   52.29525   10.15779   13.91746   -13.92011
 12841     9.48974   71.81079   53.1585   9.15076   12.81181   -13.79779
 12841.5     9.521   72.90583   53.81782   9.32765   11.54268   -13.46631
 12842     9.57727   72.96371   54.20067   9.24446   11.53333   -13.13483
 12842.5     9.74802   75.21517   51.46227   8.81029   12.69809   -12.80336
 12843     9.93916   76.00663   47.45118   8.37612   12.96406   -12.47188
 12843.5     9.67529   76.7981   47.43143   7.94195   12.1334   -12.1404
 12844     9.4546   77.86179   54.06628   7.50778   10.63729   -12.36399
 12844.5     9.25603   78.90373   62.52436   7.07362   9.3215   -12.64494
 12845     9.33881   78.90351   70.98243   7.00569   9.08618   -12.92589
 12845.5     9.42159   80.16119   74.04626   7.04053   8.85086   -13.15207
 12846     9.43921   81.60727   71.72334   7.07537   8.86376   -12.88258
 12846.5     9.43927   81.37873   68.18311   7.54007   9.17476   -12.61308
 12847     9.43933   80.49338   63.28815   8.33587   9.48577   -12.34359
 12847.5     9.43939   80.06461   59.3645   9.13167   10.47407   -12.13387
 12848     9.43945   80.01739   56.45003   9.92746   11.50771   -12.80191
 12848.5     9.47397   79.11093   51.34944   10.64863   16.33841   -13.46995
 12849     9.50914   77.13641   44.87548   11.0019   26.40823   -13.93849
 12849.5     9.45762   71.56868   40.30627   11.35517   27.78685   -14.38913
 12850     9.51546   69.82982   39.88669   11.28258   27.92143   -14.47344
 12850.5     9.63218   68.60937   43.1574   11.19603   22.00987   -14.24157
 12851     9.75867   69.078   47.73552   11.28695   16.09831   -14.0097
 12851.5     9.85376   71.11119   54.0225   11.38974   12.15397   -13.77783
 12852     9.89428   73.58754   58.51082   11.49252   11.46973   -13.54596
 12852.5     9.92797   74.99073   54.36141   11.5953   11.47047   -13.3141
 12853     9.94488   76.39918   47.08277   11.36006   12.73021   -13.08223
 12853.5     9.96179   78.97455   41.39356   10.83402   16.46769   -12.85036
 12854     9.98832   75.03633   38.49985   10.30798   30.65829   -12.84657
 12854.5     10.01729   70.38414   35.78087   9.98719   31.17471   -12.93904
 12855     10.04627   71.57145   38.31086   10.09829   23.33049   -13.0315
 12855.5     9.97889   75.35325   45.67986   10.20939   13.69284   -13.12396
 12856     9.89945   77.52103   53.07341   10.05706   8.2783   -12.80695
 12856.5     9.82001   78.0757   60.64981   9.57567   9.27248   -12.44367
 12857     9.93595   78.52516   62.58207   9.09428   10.68486   -12.0804
 12857.5     10.05559   79.45952   61.24472   8.61289   11.90879   -11.71713
 12858     10.12709   80.89991   58.27879   8.1315   11.69099   -11.35385
 12858.5     10.1777   81.03334   54.49109   7.91627   11.09448   -11.52987
 12859     10.21942   80.39211   54.84384   7.81239   10.00942   -11.75476
 12859.5     10.22673   80.60234   60.67432   7.66611   8.99191   -11.97965
 12860     10.23403   80.8382   66.50479   7.43593   8.71661   -12.20453
 12860.5     10.22627   80.85228   69.78403   7.20576   8.44132   -12.37196
 12861     10.18299   79.55031   70.54522   7.08313   8.27532   -12.23194
 12861.5     10.13971   78.31151   69.35996   6.98776   8.27582   -12.09192
 12862     10.09643   77.95313   71.10494   6.8924   8.27633   -11.9519
 12862.5     10.05314   77.95369   73.68118   7.09593   8.27684   -11.81188
 12863     10.10459   78.0822   74.71284   7.32547   8.37685   -11.67185
 12863.5     10.16243   78.2107   73.69698   7.555   8.51909   -11.53183
 12864     10.22027   78.32775   73.76641   7.78453   9.27616   -11.39181
 12864.5     10.27811   78.42117   73.55378   7.95934   10.13858   -11.34711
 12865     10.30277   78.54601   67.81168   8.03345   11.00099   -11.50448
 12865.5     10.30283   78.68982   61.45433   8.10756   11.35101   -11.66184
 12866     10.30289   78.82912   57.24999   8.18166   10.66285   -11.8192
 12866.5     10.21444   78.93832   58.42948   8.25577   9.97469   -11.97656
 12867     10.11336   79.04753   61.01835   8.32988   9.51145   -11.77803
 12867.5     10.04552   79.15673   63.60722   8.31091   10.44809   -11.49198
 12868     9.98608   79.25051   65.55289   8.02712   11.38474   -11.20594
 12868.5     9.92665   79.34161   64.96032   7.74333   11.75038   -10.92354
 12869     9.92222   79.40611   61.54754   7.45954   10.83772   -11.33322
 12869.5     10.06841   79.38154   61.9122   7.48266   9.92506   -11.74289
 12870     10.16696   79.35698   65.66788   8.03252   9.05005   -12.28452
 12870.5     10.19361   79.33242   69.72587   8.58237   8.54232   -13.03586
 12871     10.22026   78.59855   72.0104   8.86246   9.02339   -13.78721
 12871.5     10.24691   79.06988   68.7543   8.86298   9.83552   -14.51489
 12872     10.26153   80.61271   65.4982   8.86349   14.49572   -14.74512
 12872.5     10.26159   82.10232   60.12933   8.74484   19.56788   -14.97535
 12873     10.26165   80.05319   49.73128   8.47752   21.2713   -15.20558
 12873.5     10.26171   74.956   40.32849   9.15149   19.14243   -14.85304
 12874     10.26178   71.67812   35.82857   9.90448   14.92583   -14.47201
 12874.5     10.26184   70.0354   37.93115   10.59844   10.70923   -14.09098
 12875     10.26815   71.97086   44.34783   10.05239   11.06217   -13.71203
 12875.5     10.27562   76.6813   50.76451   9.50634   15.62991   -13.34413
 12876     10.28309   78.89702   55.88676   8.96028   19.69318   -12.97624
 12876.5     10.29055   74.18713   54.56186   9.06473   19.75255   -12.60834
 12877     10.29802   69.06353   50.52108   9.30201   16.60499   -12.24044
 12877.5     10.30548   69.5289   48.3775   9.53929   13.45744   -11.87255
 12878     10.31295   73.66132   51.06943   9.55293   11.10015   -11.50465
 12878.5     10.32041   75.11378   53.71063   9.28879   9.1762   -11.27754
 12879     10.31296   68.22412   51.84422   9.02465   9.40003   -11.41323
 12879.5     10.27511   61.88699   49.9778   8.76052   10.04586   -11.54893
 12880     10.23726   61.1736   49.80695   8.49638   11.54556   -11.76026
 12880.5     10.19917   60.90761   51.00813   8.50226   12.72084   -12.0101
 12881     10.12569   60.99616   53.81455   8.55137   13.02587   -12.25994
 12881.5     10.0522   61.08472   56.62096   8.60955   13.33089   -12.50978
 12882     10.09667   61.10381   57.75549   8.66773   13.22155   -12.66404
 12882.5     10.18665   61.02403   54.84162   8.72591   11.86981   -12.66212
 12883     10.17536   60.94426   51.35822   8.78409   10.51807   -12.66021
 12883.5     10.13116   60.82204   52.11644   8.84227   9.69793   -12.6583
 12884     10.06379   60.6382   57.33419   8.83219   10.74033   -12.6564
 12884.5     9.99642   60.45436   64.13785   8.73213   12.18638   -13.0284
 12885     10.02076   60.41751   61.53122   8.63207   13.63243   -13.55907
 12885.5     10.05645   60.4173   51.71782   8.53201   14.04594   -14.49749
 12886     10.14075   60.41709   42.86614   8.96567   12.65806   -15.43592
 12886.5     10.27534   60.37007   45.95992   10.30867   11.27019   -16.37434
 12887     10.42322   60.02679   53.54739   11.65167   11.92828   -16.8954
 12887.5     10.55208   59.68351   58.53346   12.99467   13.5662   -16.72604
 12888     10.49144   59.65826   53.39235   13.355   39.23209   -16.42441
 12888.5     10.43081   60.65971   41.71088   13.17975   64.92673   -15.70352
 12889     10.37017   65.37582   35.22323   12.84525   81.17027   -14.98263
