#--------------------------------------------------#
#-------------------ENVERUS, INC.------------------#
#------------------WWW.ENVERUS.COM-----------------#
#------------------COPYRIGHT 2020------------------#
#--------------------------------------------------#
#THIS FILE MAY BE USED ONLY IN ACCORDANCE WITH A CURRENT SUBSCRIPTION AGREEMENT BETWEEN
#THE USER AND ENVERUS, INC. NO PART OF THIS FILE MAY BE REPRODUCED, USED, COPIED,
#MODIFIED, PROPAGATED, OR DISTRIBUTED EXCEPT IN ACCORDANCE WITH THE SUBSCRIPTION
#AGREEMENT. UNAUTHORIZED USE OR DISTRIBUTION OF ALL OR ANY PART OF THIS FILE MAY VIOLATE
#COPYRIGHT, TRADEMARK, AND/OR OTHER LAWS AND IS SUBJECT TO CIVIL AS WELL AS CRIMINAL
#SANCTIONS.
#--------------------------------------------------#
#THIS FILE IS PROVIDED "AS-IS" AND ALL WARRANTIES ARE EXPRESSLY DISCLAIMED, WHETHER
#EXPRESS, ORAL, IMPLIED, STATUTORY OR OTHERWISE, INCLUDING ANY IMPLIED WARRANTY OF FITNESS
#FOR A PARTICULAR PURPOSE, MERCHANTABILITY, TITLE OR NON-INFRINGEMENT, AND ANY WARRANTIES
#ARISING BY VIRTUE OF CUSTOM OF TRADE OR COURSE OF DEALING.  FURTHER, ENVERUS, INC.
#AND ITS LICENSORS DO NOT REPRESENT OR WARRANT THAT THIS FILE WILL MEET USER'S
#REQUIREMENTS OR ARE SUITABLE FOR USER'S NEEDS OR THAT THE DATA OR RESULTS PROVIDED IN
#CONJUNCTION THEREWITH ARE CORRECT, ACCURATE, TIMELY OR RELIABLE. THESE DISCLAIMERS SHALL
#APPLY REGARDLESS OF ANY FAILURE OF ESSENTIAL PURPOSE OF ANY LIMITED REMEDY.  SOME
#JURISDICTIONS DO NOT ALLOW THE EXCLUSION OF CERTAIN WARRANTIES SO SOME OF THE ABOVE
#EXCLUSIONS MAY NOT APPLY. IN NO EVENT SHALL ENVERUS, INC. OR ANY OF ITS AFFILIATES
#BE LIABLE UNDER ANY LEGAL THEORY, WHETHER IN TORT (INCLUDING WITHOUT LIMITATION
#NEGLIGENCE), CONTRACT, STRICT LIABILITY, STATUTORY OR OTHERWISE, FOR ANY SPECIAL,
#INCIDENTAL, CONSEQUENTIAL, EXEMPLARY, PUNITIVE OR INDIRECT DAMAGE OF ANY KIND, INCLUDING
#WITHOUT LIMITATION LOSS OF REVENUE, PROFITS, GOODWILL, USE, AND/OR DATA OR THE COST OF
#PROCUREMENT OF SUBSTITUTE GOODS OR SERVICES, EVEN IF APPRISED OF THE POSSIBILITY OF SUCH
#DAMAGES IN ADVANCE.
#--------------------------------------------------#

~VERSION INFORMATION
VERS. 2.0 : CWLS LOG ASCII STANDARD - VERSION 2.0
WRAP.  NO : ONE LINE PER DEPTH STEP
~WELL INFORMATION
#MNEMONIC     .UNIT              VALUE :DESCRIPTION
STRT       .FT                10841 :START DEPTH
STOP       .FT                18209 :STOP DEPTH
STEP       .FT                   0.500 :STEP
NULL       .                  -999.99 :NULL
UWI        .                42371326180000 :UNIQUE WELL ID
API        .                42371326180000 :API NUMBER
COMP       .         :COMPANY
WELL       .        :WELL
DATE       .                 :LOG DATE
FLD       .                 :FIELD NAME
LOC       .                  UNK :LOCATION
CNTY       .                 UNK :COUNTY
STAT       .                 UNK :STATE
CTRY       .                 UNK :COUNTY
SRVC       .                 UNK :SERVICE COMPANY
~CURVE INFORMATION
#MNEMONIC     .UNIT      API CODE :CURVE DESCRIPTION
DEPTH       .FT                      :MEASURED DEPTH
CAL.IN        UNKNOWN   :CAL
DT.MSEC/FT        UNKNOWN   :DT
GR.API        UNKNOWN   :GR
ILD.OHM        UNKNOWN   :ILD
ILS.OHM        UNKNOWN   :ILS
SP.MV        UNKNOWN   :SP
~A    DEPTH    CAL    DT    GR    ILD    ILS    SP
# ...
 11383     10.20851   69.92758   38.93751   9.94399   10.38657   -20.46834
 11383.5     10.34916   70.52786   37.5153   9.61069   11.08442   -20.25651
 11384     10.49236   70.80703   37.69768   9.2774   11.5556   -20.04468
 11384.5     10.59316   71.07261   38.96271   9.89511   11.52138   -19.83285
 11385     10.70302   71.2702   40.22774   10.7542   11.48716   -19.53594
 11385.5     10.82712   71.46779   38.39421   10.8992   15.00176   -18.71955
 11386     10.95122   72.37836   36.52043   11.04421   19.45754   -17.90315
 11386.5     10.94752   73.73462   34.75058   10.78959   22.61894   -17.06501
 11387     10.88418   76.85406   36.52985   10.45624   18.47531   -15.80236
 11387.5     10.82083   79.24686   42.14531   10.06389   14.23737   -14.53971
 11388     10.84444   79.49041   49.66431   9.21775   10.37302   -13.4116
 11388.5     11.02073   79.17354   56.63209   8.37161   7.56855   -12.8414
 11389     11.19702   80.7726   58.57963   7.52547   6.72569   -12.38406
 11389.5     11.30831   84.94564   60.52717   6.67934   5.88282   -12.19946
 11390     11.40918   86.85666   62.9879   5.8332   5.20041   -12.01487
 11390.5     11.51005   88.55108   66.99523   5.14272   4.96844   -11.83027
 11391     11.58027   89.0464   67.76631   4.91153   4.9178   -11.64567
 11391.5     11.58652   88.57702   66.62395   4.68034   4.93022   -11.46108
 11392     11.59277   87.81825   63.80218   4.44914   4.94264   -11.17725
 11392.5     11.59901   90.04227   61.2526   4.21795   4.80589   -10.70873
 11393     11.59896   91.55805   60.33239   4.23352   4.54878   -10.2402
 11393.5     11.59891   92.05584   61.59682   4.25137   4.29166   -10.0873
 11394     11.59618   93.34947   64.06739   4.26922   4.23576   -10.84061
 11394.5     11.56723   93.40291   67.20573   4.28708   4.27739   -11.59391
 11395     11.53828   91.99278   70.35836   4.30493   4.31902   -11.90229
 11395.5     11.49756   91.42338   68.94541   4.33432   4.36065   -11.56348
 11396     11.40544   90.87371   64.73149   4.39933   4.40228   -11.22468
 11396.5     11.31331   88.99467   62.00362   4.46434   4.5917   -10.88587
 11397     11.29306   87.30744   64.67579   4.52734   4.81457   -10.62235
 11397.5     11.28037   88.70447   68.06343   4.54186   5.03744   -10.87018
 11398     11.26768   88.7917   70.48049   4.55639   5.17823   -11.39741
 11398.5     11.29178   88.40703   69.05922   4.57091   5.14235   -12.0633
 11399     11.34224   87.0111   66.52311   4.58544   5.13199   -13.21322
 11399.5     11.3927   85.09182   63.987   4.59996   5.2873   -14.36313
 11400     11.38882   85.03497   62.20426   4.75375   5.25765   -15.51304
 11400.5     11.3584   87.43041   60.94163   4.91202   4.7892   -16.66295
 11401     11.30689   90.79736   58.59755   5.12864   4.54799   -17.75276
 11401.5     11.24105   93.41284   55.61309   5.8245   4.6189   -17.74958
 11402     11.17521   90.37592   49.17799   6.52036   7.06587   -17.2982
 11402.5     11.10937   85.25259   42.74289   7.21621   9.73525   -16.57905
 11403     11.04632   78.61866   36.00782   7.91207   14.59301   -15.8599
 11403.5     10.98671   72.32716   33.63161   8.58522   17.57545   -15.14075
 11404     10.92711   69.84625   36.33815   9.09366   16.24476   -14.53493
 11404.5     10.86751   70.42816   42.48509   9.60211   13.93327   -14.8675
 11405     10.84196   72.89551   48.63204   9.79222   11.62179   -15.20008
 11405.5     10.81658   79.78716   52.35476   9.5765   9.5965   -15.74496
 11406     10.73697   84.82496   51.8306   9.36077   9.22123   -16.29664
 11406.5     10.65736   89.52146   50.01918   9.14505   9.30181   -16.84832
 11407     10.57754   92.96007   47.2809   9.00845   9.49883   -17.39999
 11407.5     10.49646   91.97211   44.54262   9.00945   14.07668   -17.95167
 11408     10.41653   87.02919   41.83133   9.01044   18.85187   -18.50335
 11408.5     10.3514   80.3906   39.13578   9.01144   20.38427   -19.05503
 11409     10.28627   73.19295   37.97926   9.01243   16.65605   -19.23441
 11409.5     10.21696   73.90705   37.59147   8.97273   12.41748   -19.34313
 11410     10.12684   82.02419   39.71944   8.64266   8.0828   -19.45184
 11410.5     10.12462   93.2055   41.8474   8.31204   8.23205   -19.56055
 11411     10.35199   95.82175   43.70624   7.97525   8.38131   -19.66927
 11411.5     10.65362   92.48207   45.51068   7.63846   8.47443   -19.77798
 11412     10.65216   84.74383   46.38445   7.9761   8.47537   -20.10599
 11412.5     10.57339   78.00595   44.54781   8.92028   8.4763   -20.73281
 11413     10.37916   73.46487   41.33404   9.86446   10.91584   -21.35963
 11413.5     10.37046   74.10246   36.88162   10.78503   14.96023   -22.34741
 11414     10.57431   74.6759   32.27623   11.66492   31.00995   -23.6054
 11414.5     10.89027   72.56057   29.98991   12.57021   37.94673   -24.8634
 11415     10.99577   70.12432   32.06733   14.32601   31.44145   -26.12139
 11415.5     10.78094   69.86545   37.3121   16.08181   22.56378   -27.37939
 11416     10.4699   69.78874   41.44685   17.83761   13.48199   -28.63738
 11416.5     10.27367   69.80498   39.55184   18.62919   13.6638   -29.12595
 11417     10.07743   69.8111   34.68964   17.81935   21.80372   -29.50026
 11417.5     9.91753   69.79738   29.75062   17.00951   28.35805   -29.50896
 11418     9.92528   69.78365   28.28706   16.61981   31.91327   -29.50576
 11418.5     9.93303   70.11497   28.97066   16.68597   29.31724   -29.50255
 11419     9.98526   71.05119   29.65426   16.75213   26.2208   -29.49935
 11419.5     10.08609   72.88926   30.51023   16.8183   22.55864   -29.49614
 11420     10.12184   73.87225   33.14483   16.28511   18.89649   -29.2691
 11420.5     9.87633   76.77493   34.15846   14.93426   15.28177   -28.96349
 11421     9.63082   78.84638   34.04047   13.5834   14.9394   -28.65789
 11421.5     9.89503   79.14861   33.69211   12.23255   14.20319   -28.05379
 11422     10.40596   78.49974   35.72331   10.8817   12.6631   -26.03593
 11422.5     10.92214   78.17382   38.99478   9.53084   11.123   -24.01806
 11423     11.36025   80.34902   42.86958   8.37607   9.5829   -22.00019
 11423.5     11.32648   88.83082   43.7511   7.28963   8.1036   -19.98233
 11424     11.32295   96.29805   43.50123   6.20319   6.8533   -17.96446
 11424.5     11.32291   101.01239   47.84964   5.69117   5.7344   -15.94659
 11425     11.32287   100.28287   55.55285   5.30364   5.45658   -13.99164
 11425.5     11.32282   97.934   64.8029   5.22865   5.44523   -13.65277
 11426     11.33051   92.66369   69.87832   5.15366   5.76794   -13.31391
 11426.5     11.34491   89.86843   70.03208   5.08095   6.09066   -13.12525
 11427     11.35931   88.90257   69.27517   5.07085   6.41337   -12.95366
 11427.5     11.37372   88.07116   70.02577   5.06075   6.30482   -12.4875
 11428     11.37748   87.3587   72.43486   5.05065   5.92894   -11.92766
 11428.5     11.32948   87.21801   72.49965   5.00121   5.69073   -11.36782
 11429     11.28147   87.60117   69.76192   4.86547   5.87913   -10.80797
 11429.5     11.23346   89.70598   66.92519   4.72972   6.06754   -10.45835
 11430     11.23585   89.18113   64.52245   4.59397   5.87245   -10.77008
 11430.5     11.40997   87.15155   64.36714   4.7155   5.39158   -11.08181
 11431     11.58409   83.64196   65.69856   4.92471   4.91071   -11.39354
 11431.5     11.6164   78.90726   68.02903   5.13393   5.33869   -11.70528
 11432     11.61757   76.8631   67.821   5.34315   5.92776   -12.01701
 11432.5     11.31259   77.45823   64.35223   5.55236   6.62247   -12.15945
 11433     11.21494   79.41635   61.39266   5.74316   7.71892   -12.15622
 11433.5     11.16132   79.80581   58.2535   5.86058   8.81537   -12.15299
 11434     11.1077   79.79715   54.75868   5.978   9.91182   -11.91727
 11434.5     11.0999   79.78849   51.26385   6.09542   9.77188   -11.66229
 11435     11.20081   79.77984   51.33541   6.21284   9.17661   -11.42518
 11435.5     11.30171   79.79601   59.59084   6.33026   7.6675   -11.42195
 11436     11.35654   79.83775   64.28655   6.66934   6.47759   -11.41871
