#--------------------------------------------------#
#-------------------ENVERUS, INC.------------------#
#------------------WWW.ENVERUS.COM-----------------#
#------------------COPYRIGHT 2020------------------#
#--------------------------------------------------#
#THIS FILE MAY BE USED ONLY IN ACCORDANCE WITH A CURRENT SUBSCRIPTION AGREEMENT BETWEEN
#THE USER AND ENVERUS, INC. NO PART OF THIS FILE MAY BE REPRODUCED, USED, COPIED,
#MODIFIED, PROPAGATED, OR DISTRIBUTED EXCEPT IN ACCORDANCE WITH THE SUBSCRIPTION
#AGREEMENT. UNAUTHORIZED USE OR DISTRIBUTION OF ALL OR ANY PART OF THIS FILE MAY VIOLATE
#COPYRIGHT, TRADEMARK, AND/OR OTHER LAWS AND IS SUBJECT TO CIVIL AS WELL AS CRIMINAL
#SANCTIONS.
#--------------------------------------------------#
#THIS FILE IS PROVIDED "AS-IS" AND ALL WARRANTIES ARE EXPRESSLY DISCLAIMED, WHETHER
#EXPRESS, ORAL, IMPLIED, STATUTORY OR OTHERWISE, INCLUDING ANY IMPLIED WARRANTY OF FITNESS
#FOR A PARTICULAR PURPOSE, MERCHANTABILITY, TITLE OR NON-INFRINGEMENT, AND ANY WARRANTIES
#ARISING BY VIRTUE OF CUSTOM OF TRADE OR COURSE OF DEALING.  FURTHER, ENVERUS, INC.
#AND ITS LICENSORS DO NOT REPRESENT OR WARRANT THAT THIS FILE WILL MEET USER'S
#REQUIREMENTS OR ARE SUITABLE FOR USER'S NEEDS OR THAT THE DATA OR RESULTS PROVIDED IN
#CONJUNCTION THEREWITH ARE CORRECT, ACCURATE, TIMELY OR RELIABLE. THESE DISCLAIMERS SHALL
#APPLY REGARDLESS OF ANY FAILURE OF ESSENTIAL PURPOSE OF ANY LIMITED REMEDY.  SOME
#JURISDICTIONS DO NOT ALLOW THE EXCLUSION OF CERTAIN WARRANTIES SO SOME OF THE ABOVE
#EXCLUSIONS MAY NOT APPLY. IN NO EVENT SHALL ENVERUS, INC. OR ANY OF ITS AFFILIATES
#BE LIABLE UNDER ANY LEGAL THEORY, WHETHER IN TORT (INCLUDING WITHOUT LIMITATION
#NEGLIGENCE), CONTRACT, STRICT LIABILITY, STATUTORY OR OTHERWISE, FOR ANY SPECIAL,
#INCIDENTAL, CONSEQUENTIAL, EXEMPLARY, PUNITIVE OR INDIRECT DAMAGE OF ANY KIND, INCLUDING
#WITHOUT LIMITATION LOSS OF REVENUE, PROFITS, GOODWILL, USE, AND/OR DATA OR THE COST OF
#PROCUREMENT OF SUBSTITUTE GOODS OR SERVICES, EVEN IF APPRISED OF THE POSSIBILITY OF SUCH
#DAMAGES IN ADVANCE.
#--------------------------------------------------#

# EXPORTED FROM DI TRANSFORM
# DI TRANSFORM - A PRODUCT OF DRILLINGINFO, INC. - WWW.DRILLINGINFO.COM
#
~VERSION INFORMATION
 VERS.        2.0 : LAS ASCII STANDARD - VERSION 2.0
 WRAP.         NO : ONE LINE PER DEPTH STEP

~WELL INFORMATION
#MNEM.UNIT       DATA TYPE       INFORMATION
#---------       ---------       -----------
 STRT.FT           190 : START DEPTH
 STOP.FT         12010 : STOP DEPTH
 STEP.FT           0.5 : STEP LENGTH
 NULL.         -999.25 : NULL VALUE
 UWI.   42389335580000 : UNIQUE WELL ID
 API.   42389335580000 : WELL IDENTIFIER
 COMP.                 : COMPANY
 WELL.          DRD_55 : WELL NAME
 FLD.                  : FIELD NAME
 LOC.                  : WELL LOCATION
 CNTY.                 : COUNTY
 STAT.                 : STATE OR PROVINCE
 CTRY.                 : COUNTRY
 SRVC.                 : SERVICE COMPANY
 DATE.                 : DATE

~CURVE INFORMATION
#MNEM.UNIT       API CODE       CURVE DESCRIPTION
#---------       --------       -----------------
 DEPT.FT          : <MEASURED DEPTH>
 CAL.IN           : CALIPER
 DPHI.%           : DENSITY POROSITY
 DT.US/FT         : SONIC
 GR.GAPI          : GAMMA RAY
 NPHI.%           : NEUTRON POROSITY
 RHOB.G/CM3       : DENSITY

~PARAMETER INFORMATION
#MNEM.UNIT       VALUE       DESCRIPTION
#---------       -----       -----------
 EKB.FT      2793 : ELEVATION ABOVE MSL

~A      DEPT         CAL        DPHI          DT          GR        NPHI        RHOB
# ...
     10497.5      9.1984     13.0157     82.7257    102.5297     21.5691       2.493
       10498      9.1984     13.0076     81.2972    107.2241     21.7485      2.4918
     10498.5      9.1984     12.9458     79.6578    106.1362      23.047      2.4905
       10499      9.1984      13.961     77.8179     99.6978     25.2443      2.5008
     10499.5      9.1984     13.1596     76.8811     98.8359     23.4722      2.5219
       10500      9.1984      11.931     76.6599     94.1793     22.5468      2.5316
     10500.5      9.1984     11.0854      77.144     85.1597     21.9176      2.5327
       10501      9.1984     11.3034      77.613     81.3323     20.4289      2.5299
     10501.5      9.1984     10.2984     77.9339     83.5045     21.0265      2.5237
       10502      9.1984     10.8482     78.1244      84.413      21.607      2.5181
     10502.5      9.1984     11.7792     78.5036     87.5684     21.6627       2.514
       10503      9.1984     11.7069     79.3185     87.7815     21.8198      2.5099
     10503.5      9.1984     12.2343      80.121     86.8928      21.173       2.507
       10504      9.1984     12.9692      80.475     93.2254      17.988      2.5043
     10504.5      9.1984     12.1845     80.5703     94.7735     20.6332      2.4999
       10505      9.1984     12.8158     80.5289     94.5032     19.8279      2.4951
     10505.5      9.1984     13.3048     80.3384     89.0325     19.1081      2.4988
       10506      9.1984       13.48       80.12     87.5369     25.1042      2.5073
     10506.5      9.1984     12.7019     79.6499     93.1524     22.8418      2.5136
       10507      9.1984     11.8745     78.9634     92.3958     23.6953       2.518
     10507.5      9.1984     12.2362     78.5987     91.1202     20.7142      2.5216
       10508      9.1984     11.0803     78.6198     98.1705     22.9075      2.5211
     10508.5      9.1984     11.7492     79.2418     89.9892     22.8538       2.519
       10509      9.1984     10.9565     80.1953     87.4494     22.8735      2.5133
     10509.5      9.1984     12.2208     80.6991     88.6591     24.0892      2.5063
       10510      9.1984     13.0137     80.9369      94.135     22.2024      2.5172
     10510.5      9.1984     11.4334     80.7551    100.0683     23.5512      2.5116
       10511      9.1612      11.892     80.2562     93.1837     21.7313      2.5051
     10511.5      9.1174     12.9789     79.7132     99.0267     22.9383      2.5011
       10512      9.1174     12.5407     79.0126    100.8296     22.1308      2.5136
     10512.5      9.1174     11.9215     78.6489     98.8792     22.2938       2.523
       10513      9.1174     11.7517     78.3361    103.7286     24.3268      2.5286
     10513.5      9.1174     11.3036     78.2485     92.0219     21.3725      2.5437
       10514      9.1174     11.0365     78.3707     88.5762     23.2635       2.561
     10514.5      9.1174      8.7683      78.014      79.689     19.7552      2.5505
       10515      9.1174      9.4255     77.0491     85.2482     18.1017      2.5375
     10515.5      9.1174     10.5085     75.7899     88.4806     19.7889      2.5318
       10516      9.1174     11.0896     73.5271     87.6772     19.1347      2.5432
     10516.5      9.1174     10.1591     71.4453     85.1798     19.6804      2.5539
       10517      9.1174      9.5992     69.2475     79.4049      17.136       2.567
     10517.5      9.1174       9.142     67.4065     83.7589     18.0835       2.585
       10518      9.1174      6.4644     65.9609     71.0769     17.4546      2.6064
     10518.5      9.1174      7.5728     65.3417     62.3881      14.555      2.6281
       10519      9.1174      4.9257     65.9639     57.6026     12.7325      2.6498
     10519.5      9.1174      2.6722     67.4364     52.4146     13.8746      2.6624
       10520      9.1174      4.1548     69.5229     50.0328     13.8411      2.6003
     10520.5      9.1174      5.6783     71.1002     54.9227     12.3499       2.583
       10521      9.0972      7.4638     72.3575     63.1502     16.0111      2.5605
     10521.5      9.0769      8.4242     73.5611     69.2139     17.6527      2.5429
       10522      9.0769     10.2961     75.8566     74.2429     17.1249      2.5387
     10522.5      9.0769     10.9749     79.1454     74.0291     16.1324      2.5311
       10523      9.0769      9.9432     83.2829     76.4711     17.5347      2.5075
     10523.5      9.0769     11.8123     86.3241     83.2008     19.1762      2.4858
       10524      9.0769      13.191     86.5677     93.5859     15.9087      2.4636
     10524.5      9.0769     13.5843      83.414    116.3144     21.2843      2.4162
       10525      9.0769     17.1015     77.6359    126.9588     26.3906      2.3929
     10525.5      9.0769     20.1557     70.9598    133.0799      26.071      2.4796
       10526      9.0769     18.2341     64.8005    116.8404     24.4592         2.6
     10526.5      9.0769     11.5352     60.8042     89.5602     25.8563      2.6603
       10527      9.0769      5.1913     58.5615     54.9623     14.7198      2.6378
     10527.5      9.0769      2.9986      57.477     25.3616     11.2754      2.6294
       10528      9.0769      3.8672     56.3556     28.8625      7.6079      2.6258
     10528.5      9.0769      4.8999     55.3801     36.1859      7.7917      2.6529
       10529      9.0364      4.2202     54.2454     34.7292      9.7746      2.6692
     10529.5      9.0364       2.171     53.7194     26.5892      8.1839      2.6738
       10530      9.0364      1.5191     53.7899     19.9946      7.2927      2.6759
     10530.5      9.0364      2.2094     55.2147     14.5178      5.8953       2.679
       10531      9.0364      2.0998     59.0515     16.1657      5.2877      2.6861
     10531.5      9.0364      1.7116     64.7761      17.981      5.5597      2.6829
       10532      9.0364      0.6586     72.2063      20.888      6.6193      2.6368
     10532.5      9.0364      4.0424     78.8489     42.1074      9.0323      2.5622
       10533      9.0364      6.2486     83.3494     87.2769      10.506       2.495
     10533.5      9.0364     13.4569     85.2145    128.8432     14.2697      2.4677
       10534      9.0364     14.9281      85.732    130.2487     23.6293      2.4661
     10534.5      9.0364     14.8671      85.119    129.6586     27.3571      2.4753
       10535      9.0364     14.1412     83.5775    138.3389     26.5356      2.4789
     10535.5      9.0364     14.4191     81.8461    135.7021      25.668      2.4776
       10536      9.0364     13.7631     80.4495    135.7135     21.8933      2.4771
     10536.5      9.0364     14.8585     79.8914    139.5987     22.0978      2.4832
       10537      9.0364     14.2539     79.5927    123.2008     23.6267      2.4995
     10537.5      9.0364      13.071     79.1215    135.4564     22.4119      2.5048
       10538      9.0364     11.7285     78.1209    143.2581     23.8197      2.5073
     10538.5      9.0364     13.7041     76.3371    138.9568     20.9901      2.5147
       10539      9.0364     11.9682     73.9134    116.2485     21.5631      2.5292
     10539.5      9.0364     10.9889     71.4332    108.6375     19.6104      2.5428
       10540      9.0364      9.6017     68.9848    108.7303     20.3969      2.5625
     10540.5      9.0364     10.4258     67.7934    101.3772     18.6675      2.5977
       10541      9.0364      6.3594     68.7694     76.1612     19.8299      2.6322
     10541.5      9.0364      4.1302     71.3292     66.9634     16.4361      2.6314
       10542      9.0364      4.4362       75.47     70.1511       13.69      2.6024
     10542.5      9.0364      6.9412     79.1968     76.3541     13.7323      2.5741
       10543      9.0364      8.2136     82.1681      93.582      17.125      2.5427
     10543.5      9.0364     10.3195     83.7125    121.6714     19.5744      2.5122
       10544      9.0364     12.6735     84.5918    133.4425      21.743      2.4896
     10544.5      9.0364     13.9153     85.1525    128.4184     21.0569       2.479
