#--------------------------------------------------#
#-------------------ENVERUS, INC.------------------#
#------------------WWW.ENVERUS.COM-----------------#
#------------------COPYRIGHT 2020------------------#
#--------------------------------------------------#
#THIS FILE MAY BE USED ONLY IN ACCORDANCE WITH A CURRENT SUBSCRIPTION AGREEMENT BETWEEN
#THE USER AND ENVERUS, INC. NO PART OF THIS FILE MAY BE REPRODUCED, USED, COPIED,
#MODIFIED, PROPAGATED, OR DISTRIBUTED EXCEPT IN ACCORDANCE WITH THE SUBSCRIPTION
#AGREEMENT. UNAUTHORIZED USE OR DISTRIBUTION OF ALL OR ANY PART OF THIS FILE MAY VIOLATE
#COPYRIGHT, TRADEMARK, AND/OR OTHER LAWS AND IS SUBJECT TO CIVIL AS WELL AS CRIMINAL
#SANCTIONS.
#--------------------------------------------------#
#THIS FILE IS PROVIDED "AS-IS" AND ALL WARRANTIES ARE EXPRESSLY DISCLAIMED, WHETHER
#EXPRESS, ORAL, IMPLIED, STATUTORY OR OTHERWISE, INCLUDING ANY IMPLIED WARRANTY OF FITNESS
#FOR A PARTICULAR PURPOSE, MERCHANTABILITY, TITLE OR NON-INFRINGEMENT, AND ANY WARRANTIES
#ARISING BY VIRTUE OF CUSTOM OF TRADE OR COURSE OF DEALING.  FURTHER, ENVERUS, INC.
#AND ITS LICENSORS DO NOT REPRESENT OR WARRANT THAT THIS FILE WILL MEET USER'S
#REQUIREMENTS OR ARE SUITABLE FOR USER'S NEEDS OR THAT THE DATA OR RESULTS PROVIDED IN
#CONJUNCTION THEREWITH ARE CORRECT, ACCURATE, TIMELY OR RELIABLE. THESE DISCLAIMERS SHALL
#APPLY REGARDLESS OF ANY FAILURE OF ESSENTIAL PURPOSE OF ANY LIMITED REMEDY.  SOME
#JURISDICTIONS DO NOT ALLOW THE EXCLUSION OF CERTAIN WARRANTIES SO SOME OF THE ABOVE
#EXCLUSIONS MAY NOT APPLY. IN NO EVENT SHALL ENVERUS, INC. OR ANY OF ITS AFFILIATES
#BE LIABLE UNDER ANY LEGAL THEORY, WHETHER IN TORT (INCLUDING WITHOUT LIMITATION
#NEGLIGENCE), CONTRACT, STRICT LIABILITY, STATUTORY OR OTHERWISE, FOR ANY SPECIAL,
#INCIDENTAL, CONSEQUENTIAL, EXEMPLARY, PUNITIVE OR INDIRECT DAMAGE OF ANY KIND, INCLUDING
#WITHOUT LIMITATION LOSS OF REVENUE, PROFITS, GOODWILL, USE, AND/OR DATA OR THE COST OF
#PROCUREMENT OF SUBSTITUTE GOODS OR SERVICES, EVEN IF APPRISED OF THE POSSIBILITY OF SUCH
#DAMAGES IN ADVANCE.
#--------------------------------------------------#

# EXPORTED FROM DI TRANSFORM
# DI TRANSFORM - A PRODUCT OF DRILLINGINFO, INC. - WWW.DRILLINGINFO.COM
#
~VERSION INFORMATION
 VERS.        2.0 : LAS ASCII STANDARD - VERSION 2.0
 WRAP.         NO : ONE LINE PER DEPTH STEP

~WELL INFORMATION
#MNEM.UNIT       DATA TYPE       INFORMATION
#---------       ---------       -----------
 STRT.FT           190 : START DEPTH
 STOP.FT         12010 : STOP DEPTH
 STEP.FT           0.5 : STEP LENGTH
 NULL.         -999.25 : NULL VALUE
 UWI.   42389335580000 : UNIQUE WELL ID
 API.   42389335580000 : WELL IDENTIFIER
 COMP.                 : COMPANY
 WELL.          DRD_55 : WELL NAME
 FLD.                  : FIELD NAME
 LOC.                  : WELL LOCATION
 CNTY.                 : COUNTY
 STAT.                 : STATE OR PROVINCE
 CTRY.                 : COUNTRY
 SRVC.                 : SERVICE COMPANY
 DATE.                 : DATE

~CURVE INFORMATION
#MNEM.UNIT       API CODE       CURVE DESCRIPTION
#---------       --------       -----------------
 DEPT.FT          : <MEASURED DEPTH>
 CAL.IN           : CALIPER
 DPHI.%           : DENSITY POROSITY
 DT.US/FT         : SONIC
 GR.GAPI          : GAMMA RAY
 NPHI.%           : NEUTRON POROSITY
 RHOB.G/CM3       : DENSITY

~PARAMETER INFORMATION
#MNEM.UNIT       VALUE       DESCRIPTION
#---------       -----       -----------
 EKB.FT      2793 : ELEVATION ABOVE MSL

~A      DEPT         CAL        DPHI          DT          GR        NPHI        RHOB
# ...
        6460      8.9012     29.4515     -999.25     38.8953     15.9979      2.0777
      6460.5      8.9036     46.1401     -999.25     34.8188     16.3215      2.0431
        6461      8.9061      45.089     -999.25     33.7889     15.3635      2.1663
      6461.5      8.9085     34.2845     -999.25     35.7815     13.7552      2.1132
        6462       8.911     31.0136     -999.25     38.8941      12.884      2.0697
      6462.5      8.9135     35.5428     -999.25     41.8739     12.9224      2.0262
        6463      8.9159     44.6358     -999.25     45.4042     13.1293      2.0274
      6463.5      8.9184     43.9437     -999.25     49.3182     13.4705      2.0798
        6464      8.9208     38.0273     -999.25     52.1133     13.7066      2.1185
      6464.5      8.9233     37.1866     -999.25     53.6492     14.0093      2.1315
        6465      8.9257     37.9286     -999.25     55.4497     14.4674      2.1552
      6465.5      8.9282     35.9293     -999.25     57.3282     15.1372      2.1886
        6466      8.9306     35.9152     -999.25     57.6923     15.9541      2.2202
      6466.5      8.9331     32.5629     -999.25     58.5781     16.3957      2.2497
        6467      8.9355     31.2745     -999.25     60.1139     17.2187      2.2683
      6467.5       8.938     28.8287     -999.25     59.2004     16.7035      2.2755
        6468      8.9404     27.7059     -999.25     57.6646     15.4451      2.2891
      6468.5      8.9429     27.2936     -999.25      57.085     13.8201      2.3043
        6469      8.9453     25.5022     -999.25     58.3626      13.264      2.3045
      6469.5      8.9478     25.3245     -999.25     59.8985      13.974      2.2956
        6470      8.9502     26.4008     -999.25     61.4343     14.5453      2.2879
      6470.5      8.9506     26.7057     -999.25     62.5506     15.1154      2.2749
        6471      8.9501     25.5984     -999.25     63.2387     15.4667      2.2755
      6471.5      8.9495     25.5804     -999.25     63.1579     15.7463      2.2862
        6472      8.9489     27.7279     -999.25     62.3817     15.8378      2.2939
      6472.5      8.9483     26.2802     -999.25     60.1107     14.8139      2.3021
        6473      8.9477      25.198     -999.25     56.4752     13.0383      2.2687
      6473.5      8.9471     25.7354     -999.25      53.605     11.7674      2.2566
        6474      8.9465      27.782     -999.25     51.9873     11.5133      2.2788
      6474.5       8.946     29.0091     -999.25     50.4514     11.7084      2.2884
        6475      8.9454      26.543     -999.25     49.5229     12.2339      2.3066
      6475.5      8.9448     25.6722     -999.25      47.987     12.9001      2.3253
        6476      8.9442     25.2539     -999.25     49.5003     13.1867      2.3119
      6476.5      8.9436     22.1148     -999.25     49.7976     12.0697      2.2847
        6477       8.943     26.0963     -999.25     50.1428     11.6936      2.2944
      6477.5      8.9424     26.2492     -999.25     52.7378     13.4196      2.3125
        6478      8.9418     24.3329     -999.25     58.1133     15.4176      2.3228
      6478.5      8.9413     24.6512     -999.25     62.0379     14.4916      2.3316
        6479      8.9407     24.0371     -999.25     62.7421     12.8025      2.3212
      6479.5      8.9401     22.0536     -999.25     63.0281     13.4877      2.2993
        6480      8.9395     24.2249     -999.25      63.609     17.1364      2.2655
      6480.5      8.9389      26.296     -999.25     65.4994     18.8268      2.2305
        6481      8.9383     28.5039     -999.25     63.0961     17.4665      2.2119
      6481.5      8.9377     29.9579     -999.25     57.0943     14.1612      2.2257
        6482      8.9372     31.5532     -999.25     53.5697     11.5342      2.2386
      6482.5      8.9366     28.4096     -999.25     52.4624       9.646      2.2431
        6483       8.936     28.6026     -999.25     54.5552      8.9845      2.2569
      6483.5      8.9354     28.8363     -999.25     60.1261      9.6143       2.276
        6484      8.9348     26.7267     -999.25     64.0387     10.8815      2.2845
      6484.5      8.9342     26.5651     -999.25     65.8933     12.5592      2.2873
        6485      8.9336     26.6408     -999.25     65.2531     13.2243      2.2918
      6485.5       8.933     25.8718     -999.25     63.4237     12.6892       2.297
        6486      8.9325     24.9434     -999.25     62.0101     12.4206      2.2997
      6486.5      8.9319     25.7589     -999.25     61.9433     12.6274      2.2806
        6487      8.9313     26.5621     -999.25     60.2436     12.6463      2.2362
      6487.5      8.9307     27.9331     -999.25     56.9658     12.4394      2.1712
        6488      8.9301     30.1983     -999.25     53.5559     12.0928      2.1128
      6488.5      8.9295     33.6571     -999.25      52.834     11.5284      2.0829
        6489      8.9295     36.1938     -999.25     52.6727     10.7311      2.0923
      6489.5      8.9295     38.7544     -999.25     51.7441     10.4088      2.0939
        6490      8.9295     37.2364     -999.25     50.2083     11.2102      2.0937
      6490.5      8.9295     37.8636     -999.25     50.4049     11.7755      2.0892
        6491      8.9295      38.258     -999.25     51.8513     12.3276      2.0783
      6491.5      8.9295      38.857     -999.25     52.2267     12.9565        2.07
        6492      8.9295     39.1975     -999.25     51.6194     14.4478      2.0908
      6492.5      8.9295     39.9643     -999.25     51.6194      14.219      2.1411
        6493      8.9295     38.0598     -999.25     53.1365     12.5372      2.2047
      6493.5      8.9295     33.0082     -999.25      54.065     11.1419      2.2376
        6494      8.9295     29.3045     -999.25     54.0486     10.9242      2.2372
      6494.5      8.9295       28.78     -999.25     53.3896     10.7783      2.2372
        6495      8.9295     28.8361     -999.25     53.4413     10.7147      2.2362
      6495.5      8.9295     30.0704     -999.25     54.0486     10.1403      2.1925
        6496      8.9295      31.282     -999.25      53.033     10.4915      2.1863
      6496.5      8.9295     32.5236     -999.25     53.6247      10.597      2.2491
        6497      8.9295     32.5266     -999.25     56.4539     10.3194      2.2848
      6497.5      8.9295     24.7225     -999.25     61.2014     10.1606      2.2863
        6498      8.9295      26.964     -999.25      64.355     11.3536      2.2999
      6498.5      8.9295     28.2504     -999.25     64.0832     12.3774      2.3778
        6499      8.9295     20.0463     -999.25     62.0365     13.0487      2.3929
      6499.5      9.0063     10.3038     -999.25     60.5006     13.2736      2.0116
        6500      9.0589      4.2084     -999.25      43.859     23.7754      2.0441
      6500.5      9.2366     16.2083     -999.25     46.6389     23.7482      2.3014
        6501     10.4893      2.1386     -999.25     54.2135      24.177      2.4179
      6501.5      10.898     14.4837     -999.25     60.2017     24.1326      2.3037
        6502     10.9806     27.7918     -999.25     60.9366     19.6574      2.4064
      6502.5     11.0607     24.6692     -999.25     66.1206     18.0239      2.4911
        6503     11.0202     15.7927     -999.25     68.6453      17.512      2.4883
      6503.5     11.0449     14.3978     -999.25     69.6705     19.3969      2.4522
        6504     11.1841     15.9631     -999.25     69.9912     18.7987      2.4423
      6504.5       11.56     16.5535     -999.25     69.0704     20.7816      2.4579
        6505     11.9183     16.2198     -999.25     65.7599     19.4907      2.4641
      6505.5     12.1893     16.6865     -999.25     63.6519     18.4106       2.487
        6506     12.1799     13.8518     -999.25     67.8796     21.2887       2.528
      6506.5     12.1546      9.4218     -999.25     63.0295     20.1398       2.548
        6507     12.1538     10.7408     -999.25     59.3108     19.7697      2.5402
