#--------------------------------------------------#
#-------------------ENVERUS, INC.------------------#
#------------------WWW.ENVERUS.COM-----------------#
#------------------COPYRIGHT 2020------------------#
#--------------------------------------------------#
#THIS FILE MAY BE USED ONLY IN ACCORDANCE WITH A CURRENT SUBSCRIPTION AGREEMENT BETWEEN
#THE USER AND ENVERUS, INC. NO PART OF THIS FILE MAY BE REPRODUCED, USED, COPIED,
#MODIFIED, PROPAGATED, OR DISTRIBUTED EXCEPT IN ACCORDANCE WITH THE SUBSCRIPTION
#AGREEMENT. UNAUTHORIZED USE OR DISTRIBUTION OF ALL OR ANY PART OF THIS FILE MAY VIOLATE
#COPYRIGHT, TRADEMARK, AND/OR OTHER LAWS AND IS SUBJECT TO CIVIL AS WELL AS CRIMINAL
#SANCTIONS.
#--------------------------------------------------#
#THIS FILE IS PROVIDED "AS-IS" AND ALL WARRANTIES ARE EXPRESSLY DISCLAIMED, WHETHER
#EXPRESS, ORAL, IMPLIED, STATUTORY OR OTHERWISE, INCLUDING ANY IMPLIED WARRANTY OF FITNESS
#FOR A PARTICULAR PURPOSE, MERCHANTABILITY, TITLE OR NON-INFRINGEMENT, AND ANY WARRANTIES
#ARISING BY VIRTUE OF CUSTOM OF TRADE OR COURSE OF DEALING.  FURTHER, ENVERUS, INC.
#AND ITS LICENSORS DO NOT REPRESENT OR WARRANT THAT THIS FILE WILL MEET USER'S
#REQUIREMENTS OR ARE SUITABLE FOR USER'S NEEDS OR THAT THE DATA OR RESULTS PROVIDED IN
#CONJUNCTION THEREWITH ARE CORRECT, ACCURATE, TIMELY OR RELIABLE. THESE DISCLAIMERS SHALL
#APPLY REGARDLESS OF ANY FAILURE OF ESSENTIAL PURPOSE OF ANY LIMITED REMEDY.  SOME
#JURISDICTIONS DO NOT ALLOW THE EXCLUSION OF CERTAIN WARRANTIES SO SOME OF THE ABOVE
#EXCLUSIONS MAY NOT APPLY. IN NO EVENT SHALL ENVERUS, INC. OR ANY OF ITS AFFILIATES
#BE LIABLE UNDER ANY LEGAL THEORY, WHETHER IN TORT (INCLUDING WITHOUT LIMITATION
#NEGLIGENCE), CONTRACT, STRICT LIABILITY, STATUTORY OR OTHERWISE, FOR ANY SPECIAL,
#INCIDENTAL, CONSEQUENTIAL, EXEMPLARY, PUNITIVE OR INDIRECT DAMAGE OF ANY KIND, INCLUDING
#WITHOUT LIMITATION LOSS OF REVENUE, PROFITS, GOODWILL, USE, AND/OR DATA OR THE COST OF
#PROCUREMENT OF SUBSTITUTE GOODS OR SERVICES, EVEN IF APPRISED OF THE POSSIBILITY OF SUCH
#DAMAGES IN ADVANCE.
#--------------------------------------------------#

# EXPORTED FROM DI TRANSFORM
# DI TRANSFORM - A PRODUCT OF DRILLINGINFO, INC. - WWW.DRILLINGINFO.COM
#
~VERSION INFORMATION
 VERS.        2.0 : LAS ASCII STANDARD - VERSION 2.0
 WRAP.         NO : ONE LINE PER DEPTH STEP

~WELL INFORMATION
#MNEM.UNIT       DATA TYPE       INFORMATION
#---------       ---------       -----------
 STRT.FT           190 : START DEPTH
 STOP.FT         12010 : STOP DEPTH
 STEP.FT           0.5 : STEP LENGTH
 NULL.         -999.25 : NULL VALUE
 UWI.   42389335580000 : UNIQUE WELL ID
 API.   42389335580000 : WELL IDENTIFIER
 COMP.                 : COMPANY
 WELL.          DRD_55 : WELL NAME
 FLD.                  : FIELD NAME
 LOC.                  : WELL LOCATION
 CNTY.                 : COUNTY
 STAT.                 : STATE OR PROVINCE
 CTRY.                 : COUNTRY
 SRVC.                 : SERVICE COMPANY
 DATE.                 : DATE

~CURVE INFORMATION
#MNEM.UNIT       API CODE       CURVE DESCRIPTION
#---------       --------       -----------------
 DEPT.FT          : <MEASURED DEPTH>
 CAL.IN           : CALIPER
 DPHI.%           : DENSITY POROSITY
 DT.US/FT         : SONIC
 GR.GAPI          : GAMMA RAY
 NPHI.%           : NEUTRON POROSITY
 RHOB.G/CM3       : DENSITY

~PARAMETER INFORMATION
#MNEM.UNIT       VALUE       DESCRIPTION
#---------       -----       -----------
 EKB.FT      2793 : ELEVATION ABOVE MSL

~A      DEPT         CAL        DPHI          DT          GR        NPHI        RHOB
# ...
      7172.5       8.834      9.6616     -999.25     62.5506     10.8656       2.547
        7173       8.834      9.3041     -999.25     62.5496     10.3267      2.5299
      7173.5       8.834      9.8882     -999.25     63.8467     10.2931      2.5156
        7174       8.834     12.1008     -999.25     71.9013     11.9687      2.5052
      7174.5       8.834     11.6039     -999.25     65.7305     13.6813       2.495
        7175       8.834     12.8338     -999.25     68.4629     13.6978      2.4925
      7175.5       8.834      13.118     -999.25     70.9621     12.3725       2.506
        7176       8.834     13.3299     -999.25     63.6781     13.5787      2.5348
      7176.5       8.834     11.1271     -999.25     56.6808     13.3906      2.5578
        7177       8.834      9.5553     -999.25     62.4212       9.722       2.555
      7177.5       8.834      9.1185     -999.25     70.0295      9.6943      2.5327
        7178       8.834     10.6585     -999.25     81.0864     10.8557       2.511
      7178.5       8.834     12.8301     -999.25      85.511     13.5593      2.5307
        7179       8.834      10.691     -999.25     79.7059     13.7933      2.5671
      7179.5       8.834      8.3239     -999.25     72.1733     12.5802      2.5958
        7180       8.834      7.0944     -999.25     59.9724     11.1275      2.6009
      7180.5       8.834      6.2292     -999.25      54.732      8.8806      2.5899
        7181       8.834      6.7961     -999.25     56.0032      8.2413       2.573
      7181.5       8.834      8.2788     -999.25     61.9405      8.3227        2.54
        7182       8.834      9.0888     -999.25      64.691     10.9977      2.5059
      7182.5       8.834     10.6529     -999.25       64.34     11.1905      2.4947
        7183       8.834     12.4774     -999.25     59.9209     11.7786      2.4924
      7183.5       8.834     12.9948     -999.25      63.227     13.6867      2.4934
        7184       8.834     13.2688     -999.25     65.5031     13.3426      2.4993
      7184.5       8.834     13.1354     -999.25     61.2162     14.2204      2.5073
        7185       8.834     12.5161     -999.25     63.0956      14.498       2.518
      7185.5       8.834     11.8219     -999.25     70.6985     13.6121      2.5375
        7186       8.834     10.7715     -999.25     81.1767     13.3328      2.5632
      7186.5       8.834      9.5734     -999.25     71.7457     13.7818      2.5808
        7187       8.834      8.6442     -999.25      61.617     12.8493      2.5726
      7187.5       8.834       8.295     -999.25     60.6049     11.6933      2.5532
        7188       8.834      7.7716     -999.25     59.7368      9.5328        2.53
      7188.5       8.834      10.476     -999.25     67.6594       10.81      2.5177
        7189       8.834     12.1579     -999.25     74.2254     10.9731      2.5115
      7189.5       8.834     12.0834     -999.25     77.9639     13.3089       2.532
        7190       8.834     10.5388     -999.25     81.6703     13.6013      2.5444
      7190.5       8.834     10.3257     -999.25     81.0618     13.3217       2.514
        7191       8.834     11.9181     -999.25     81.4196     14.3239      2.5234
      7191.5       8.834     11.1171     -999.25     78.8802     14.0962      2.5273
        7192       8.834     11.4902     -999.25     78.4872     13.9104      2.5333
      7192.5       8.834     11.3097     -999.25     77.7621     14.8679      2.5395
        7193       8.834     10.0895     -999.25      79.417     14.2477      2.5437
      7193.5       8.834     11.3393     -999.25     79.0844     13.4701      2.5477
        7194       8.834      9.5406     -999.25     80.2658     14.2063      2.5372
      7194.5       8.834     10.8441     -999.25     86.8204     13.2756      2.5449
        7195       8.834      9.9811     -999.25     80.2725     14.8171       2.547
      7195.5       8.834     10.0758     -999.25     79.5815     12.5696      2.5501
        7196       8.834      9.9304     -999.25     82.5303     12.0456      2.5554
      7196.5      8.8242      9.2529     -999.25     77.6718     12.5412      2.5646
        7197       8.834       9.113     -999.25     75.9503      11.417      2.5686
      7197.5       8.834      8.1144     -999.25     82.6667     11.5506      2.5352
        7198       8.834     10.4792     -999.25     88.2744     12.1117       2.529
      7198.5       8.834     11.0225     -999.25     84.8838     13.1021      2.5453
        7199       8.834     10.7722     -999.25     86.5458     14.2225      2.5498
      7199.5       8.834       9.298     -999.25     88.1191     15.2453      2.5581
        7200       8.834      8.7153     -999.25     92.6086     15.7266      2.5614
      7200.5       8.834      8.5476     -999.25     99.4071     12.6168      2.5336
        7201       8.834     10.8306     -999.25    119.6671     15.8634      2.5174
      7201.5       8.834     11.9002     -999.25    142.3063     15.6577      2.4962
        7202       8.834     13.4557     -999.25    166.4863     19.5017      2.4741
      7202.5       8.834     15.3735     -999.25    173.0162     21.2009      2.4645
        7203       8.834     14.8075     -999.25    179.3932     20.4038      2.4785
      7203.5       8.834     15.0322     -999.25     164.591     18.9644      2.4998
        7204       8.834      12.763     -999.25    137.8466     18.5965      2.5219
      7204.5       8.834     11.5148     -999.25     127.804     16.8038      2.5377
        7205       8.834     10.3681     -999.25    127.1207     16.6851      2.5556
      7205.5       8.834     10.5657     -999.25    114.9856     16.8409      2.5958
        7206       8.834       7.668     -999.25     73.5582     14.5322      2.6545
      7206.5      8.8521      3.5085     -999.25     55.8524     12.2672      2.6751
        7207       8.915      1.6364     -999.25     58.7375     10.4565      2.6376
      7207.5       8.915      3.5065     -999.25     82.0655      10.057       2.591
        7208      8.9136      7.4152     -999.25     113.923     11.6794      2.5562
      7208.5       8.834     10.1401     -999.25    124.9236     14.6716      2.5598
        7209      8.7935     10.0504     -999.25    100.6973     18.3941      2.5827
      7209.5      8.7935      7.1576     -999.25     77.2068     14.6075      2.5738
        7210      8.7996      8.8408     -999.25     68.3941     11.5827      2.5686
      7210.5       8.834      8.7435     -999.25     65.7813     10.8456      2.5604
        7211       8.834      9.0459     -999.25     66.6746     11.3203      2.5447
      7211.5       8.834      9.6103     -999.25      67.333     10.0187      2.5267
        7212       8.834     11.5546     -999.25     70.9759     10.2592      2.5145
      7212.5       8.834     12.7794     -999.25     71.3847     12.4646      2.5073
        7213       8.834     12.3228     -999.25     70.4526     14.2088         2.5
      7213.5       8.834      12.921     -999.25     67.3863     16.1267       2.495
        7214       8.834     13.2625     -999.25      72.475     16.1513      2.4939
      7214.5       8.834     13.2382     -999.25     75.8578     14.5766       2.492
        7215       8.834     12.9857     -999.25     75.8311     14.9128      2.4881
      7215.5       8.834     13.8662     -999.25     72.5976     14.3029      2.5066
        7216       8.834     12.9247     -999.25      67.713     13.1353      2.5386
      7216.5       8.834     10.8472     -999.25      65.266     14.5081       2.534
        7217       8.834     10.9402     -999.25     70.2819     14.0027      2.5147
      7217.5       8.834     12.2424     -999.25     75.2635     13.3449      2.5076
        7218       8.834     12.0355     -999.25     83.6204      14.603      2.5216
      7218.5       8.834     11.0154     -999.25     90.1865     14.7373       2.539
        7219       8.834     10.4586     -999.25     90.8974     13.4383      2.5326
      7219.5       8.834     10.6716     -999.25     85.1961     16.2568      2.5191
