~VERSION INFORMATION
VERS.           1.2   :CWLS Log ASCII Standard - VERSION 1.2
WRAP.           NO    :One Line per depth step
PROD.  Schlumberger   :LAS Producer
PROG.  DLIS to ASCII 17C0-152                          :LAS Program name and version
CREA.        2014/05/28 16:07                          :LAS Creation date {YYYY/MM/DD hh:mm}
DLIS_CREA.  2014-May-27 22:17                          :DLIS Creation date and time {YYYY-MMM-DD hh:mm}
SOURCE.     db5fefe1-f67d-4e3f-8816-ab53d5f8be46       :DLIS File Name
#--------------------------------------------------
~WELL INFORMATION
#MNEM.UNIT      DATA             DESCRIPTION
#---- ------ --------------   -----------------------------
# Enverus has updated the API/UWI.  The previous names are renamed to  PREV_API / PREV_UWI
API.  API (14 Digits with Dashes) : 42-389-34023-90-00
UWI.              UNIQUE WELL ID : 42389340239000

STRT .F      9586.5000       :START DEPTH     
STOP .F      10811.5000      :STOP DEPTH     
STEP .F       0.5000         :STEP       
NULL .          -999.25      :NULL VALUE
COMP .                 COMPANY:  J. Cleo Thompson                   
WELL .                    WELL:  Okapi State Unit B35 #2H           
FLD  .                   FIELD:  Wolfbone (Trend Area)              
LOC  .                LOCATION:  260' FNL & 500' FEL                
CNTY .                  COUNTY:  Reeves                             
STAT .                   STATE:  Texas                              
CTRY .                 COUNTRY:                                     
SRVC .         SERVICE COMPANY:  Schlumberger                       
LATI .DEG             LATITUDE:  31.112200 degrees                  
LONG .DEG            LONGITUDE:  -103.28900 degrees                 
PREV_API  .              API NUMBER:  42-389-34023                       
DATE .                LOG DATE:  27-May-2014
PREV_UWI  .          UNIQUE WELL ID:                                     
#-----------------------------------------------------------------------------
~PARAMETER INFORMATION
#MNEM.UNIT    VALUE                      DESCRIPTION
#---- -----   --------------------       ------------------------
CN   .        J. Cleo Thompson           :Company Name
WN   .        Okapi State Unit B35 #2H   :Well Name
FN   .        Wolfbone (Trend Area)      :Field Name
FL   .        260' FNL & 500' FEL        :Field Location
FL1  .        Section  35  Block  50 T8S  Abstract 4369 :Field Location, Line 1
COUN .        Reeves                     :County or Parish
STAT .        Texas                      :State or Province
NATI .                                   :Nation
DATE .        27-May-2014                :Tools Above Rotary Table Date
APIN .        42-389-34023               :API Well Number
SECT .        35                         :Section
TOWN .        50 T8S                     :Township
RANG .        4369                       :Range
DMF  .        KB                         :Drilling Measured From (Name of Drilling Elevation Reference)
LMF  .        KB                         :Logging Measured From (Name of Logging Elevation Reference)
PDAT .        GL                         :Permanent Datum
ENGI .        AJ Massis                  :Engineer s Name
WITN .        Bennie McNett              :Witness s Name
LATI .        31.112200 degrees          :Latitude
LONG .        -103.28900 degrees         :Longitude
LUL  .        Midland                    :Logging Unit Location
LUN  .        9105                       :Logging Unit Number
RUN  .        1B                         :Run Number
SON  .                                   :Service Order Number
BHT  .DEGF     162.00000                 :Bottom Hole Temperature
BS   .IN         8.50000                 :Bit Size
MDEN .G/C3       2.71000                 :Matrix Density for Density Porosity
DFD  .LB/G      10.70000                 :Drilling Fluid Density
DFV  .S         46.00000                 :Drilling Fluid Viscosity
DFL  .C3        10.00000                 :Drilling Fluid Loss
RMFS .OHMM       0.30000                 :Resistivity of Mud Filtrate Sample
EKB  .F       2829.00000                 :Elevation of Kelly Bushing
EGL  .F       2807.00000                 :Elevation of Ground Level
BLI  .F       11012.00000                :Bottom Log Interval
BSAL .PPM     132000.00000               :Borehole Salinity
FLEV .F          8.00000                 :Depth of Drilling Fluid Level to LMF (Log Measured From)
MCST .DEGF      68.00000                 :Mudcake Sample Temperature
MFST .DEGF      80.20000                 :Mud Filtrate Sample Temperature
MRT  .DEGF     162.00000                 :Maximum Recorded Temperature
MST  .DEGF      80.20000                 :Mud Sample Temperature
RMCS .OHMM    -999.25000                 :Resistivity of Mud Cake Sample
RMS  .OHMM       0.30000                 :Resistivity of Mud Sample
RW   .OHMM       1.00000                 :Connate Water Resistivity
TDD  .F       11012.00000                :Driller Total Depth
TDL  .F       11012.00000                :Logger Total Depth
TLI  .F       9676.00000                 :Top Log Interval
HIDE .        Wolfbone (Trend Area)      :Header Identifier
MATR .        LIME                       :Rock Matrix for Neutron Porosity Corrections
FNUM .           1.00000                 :F-Numerator for Formation Factor Formula
FEXP .           2.00000                 :Exponent "m" for Formation Factor Formula
DFT  .        Salt Brine                 :Drilling Fluid Type
DFPH .           9.00000                 :Drilling Fluid pH
MCSS .                                   :Mudcake Sample Source
MFSS .                                   :Mud Filtrate Sample Source
FD   .G/C3       1.10000                 :Fluid Density
MSS  .        Active Tank                :Mud Sample Source
OS1  .                                   :Other Services Line 1
OS2  .                                   :Other Services Line 2
OS3  .                                   :Other Services Line 3
OS4  .                                   :Other Services Line 4
OS5  .                                   :Other Services Line 5
R1   .        Tools run as per toolsketch :Remarks Line 1
R2   .        Logs performed on a Limestone matrix (2.71

g/cc  47.6 us/ft ). Mud Properties  MW =

10.7 g/cc  FD = 1.1 g/cc. :Remarks Line 2
R3   .        Max recorded temperature from downhole

thermometer = 162 degF. :Remarks Line 3
R4   .        Logs run from TD to casing. GR & Neutron

logged from casing to 200ft as per client

request. :Remarks Line 4
R5   .        Tools got stuck near TD and calipers had to be closed in order to get free. :Remarks Line 5
R6   .        Well was washed out for many intervals. :Remarks Line 6
R7   .        Repeat done at casing due to getting stuck at TD :Remarks Line 7
R8   .                                   :Remarks Line 8
TCS  .        18 00 00                   :Time Circulation Stopped
TLAB .        16 19 01                   :Time Logger At Bottom
EPD  .C3         2807.000000             :Elevation of Permanent Datum above Mean Sea Level
APD  .F          22.000000               :Elevation of Depth Reference (LMF) above Permanent Datum
#-----------------------------------------------------------------------------
~CURVE INFORMATION
#MNEM.UNIT   API CODE                                  DESCRIPTION
#---- -----  --------                                  -----------------------
DEPT .F                                                :DEPTH (BOREHOLE) {F12.4}
CDF  .LBF                                              :Calibrated Downhole Force {F11.4}
CTEM .DEGF                                             :Cartridge Temperature {F11.4}
DCAL .IN                                               :Differential Caliper {F11.4}
DTCO .US/F                                             :Delta-T Compressional {F11.4}
DTSM .US/F                                             :Delta-T Shear {F11.4}
ED   .F                                                :East Departure {F11.4}
GR_EDTC.GAPI                                           :Gamma Ray {F11.4}
GTEM .DEGF                                             :Generalized Borehole Temperature {F11.4}
HAZI .DEG                                              :Hole Azimuth Relative to True North {F11.4}
HAZIM.DEG                                              :Memorized Hole Azimuth {F11.4}
ITT  .S                                                :Integrated Transit Time {F11.4}
ND   .F                                                :North Departure {F11.4}
P1AZ .DEG                                              :Pad 1 Azimuth in Horizontal Plane (0 = True North) {F11.4}
PR   .                                                 :Poisson s Ratio {F11.4}
RB   .DEG                                              :Relative Bearing {F11.4}
SDEV .DEG                                              :Sonde Deviation {F11.4}
SDEVM.DEG                                              :Memorized Sonde Deviation {F11.4}
SPHI .CFCF                                             :Sonic Porosity {F11.4}
STIT .F                                                :Stuck Tool Indicator, Total {F11.4}
TENS .LBF                                              :Cable Tension {F11.4}
#-----------------------------------------------------------------------------
# 
#      DEPT        CDF        CTEM       DCAL       DTCO       DTSM        ED      GR_EDTC      GTEM       HAZI      HAZIM       ITT         ND        P1AZ        PR         RB        SDEV      SDEVM       SPHI       STIT       TENS
#
~A  
# ...
  10234.0000  1246.4230   165.5529     0.2354    85.9453   142.6256     0.0000   105.4972   155.3589   283.1089   286.6375     0.0418     0.0000   248.9477     0.2149   325.8499     1.6603     1.4843     0.2712     0.0000  4022.3335
  10234.5000  1247.3563   165.5529     0.2243    85.7590   142.3018     0.0000    95.5144   155.3632   283.2385   286.4312     0.0417     0.0000   246.3112     0.2148   323.0837     1.6256     1.4876     0.2699     0.0000  4026.3335
  10235.0000  1240.1530   165.5529     0.2243    85.6374   142.3477     0.0000    92.3038   155.3674   283.4330   285.4471     0.0417     0.0000   244.6575     0.2164   321.2350     1.5933     1.5064     0.2690     0.0000  4021.3337
  10235.5000  1231.3721   165.5529     0.2375    85.2126   141.2840     0.0000    89.9141   155.3717   283.6140   284.0184     0.0416     0.0000   243.0258     0.2141   319.4223     1.5723     1.5319     0.2660     0.0000  3998.6665
  10236.0000  1228.6082   165.5529     0.2486    84.5325   140.7450     0.0000    97.3198   155.3759   283.6873   282.6833     0.0416     0.0000   241.3716     0.2179   317.6948     1.5673     1.5539     0.2612     0.0000  4032.0002
  10236.5000  1224.8335   165.5529     0.2688    84.3891   140.3258     0.0000   100.3130   155.3802   283.5615   281.8773     0.0415     0.0000   238.1921     0.2167   314.6415     1.5811     1.5637     0.2602     0.0000  4011.5000
  10237.0000  1225.9800   165.5529     0.2597    84.3980   139.6492     0.0000   103.4238   155.3845   283.3200   281.9386     0.0415     0.0000   235.5424     0.2123   312.2335     1.6020     1.5575     0.2602     0.0000  4039.6665
  10237.5000  1224.8459   165.5529     0.2799    84.6021   139.0992     0.0000   103.0878   155.3887   283.0560   282.9803     0.0415     0.0000   232.8201     0.2064   309.7756     1.6217     1.5379     0.2617     0.0000  4025.6670
  10238.0000  1225.5240   165.5529     0.2799    84.5810   138.9915     0.0000   101.7169   155.3930   282.5292   284.8156     0.0414     0.0000   230.3450     0.2060   307.8275     1.6588     1.5130     0.2615     0.0000  4042.0002
  10238.5000  1232.8785   165.5529     0.2820    84.5291   139.5248     0.0000    97.9925   155.3973   282.9801   286.9550     0.0414     0.0000   227.2673     0.2101   304.2975     1.6270     1.4917     0.2612     0.0000  4043.3333
  10239.0000  1229.6381   165.5529     0.2820    84.7577   139.5176     0.0000    95.4243   155.4016   283.3571   289.0245     0.0413     0.0000   224.0934     0.2075   300.7459     1.6072     1.4773     0.2628     0.0000  4023.6665
  10239.5000  1231.3098   165.5529     0.2709    84.8200   138.9902     0.0000   101.8352   155.4058   284.0106   288.3784     0.0413     0.0000   221.2195     0.2033   297.2174     1.5777     1.4787     0.2632     0.0000  4035.0000
  10240.0000  1224.9146   165.5529     0.2597    84.9371   138.8602     0.0000   103.6211   155.4101   284.8790   288.0742     0.0413     0.0000   218.5077     0.2011   293.6361     1.5360     1.4751     0.2641     0.0000  4020.2500
  10240.5000  1223.7886   165.5529     0.2465    85.2691   139.4674     0.0000   103.9333   155.4144   286.0255   287.7244     0.0412     0.0000   215.8092     0.2015   289.7901     1.5008     1.4768     0.2664     0.0000  4033.3333
  10241.0000  1230.6591   165.5529     0.2375    85.3328   139.4297     0.0000   101.6189   155.4186   286.6375   286.0774     0.0412     0.0000   212.9830     0.2006   286.3508     1.4843     1.4739     0.2669     0.0000  4028.6667
  10241.5000  1228.2981   165.5529     0.2375    85.3816   139.4153     0.0000   106.8220   155.4229   286.4312   285.1450     0.0411     0.0000   209.9985     0.1999   283.5716     1.4876     1.4745     0.2672     0.0000  4035.3337
  10242.0000  1231.3610   165.5529     0.2375    84.4068   138.9375     0.0000   108.2799   155.4272   285.4471   284.7659     0.0411     0.0000   207.1476     0.2075   281.7048     1.5064     1.4751     0.2603     0.0000  4045.3333
  10242.5000  1233.0701   165.5529     0.2375    83.5978   138.1524     0.0000   104.4995   155.4314   284.0184   283.8425     0.0410     0.0000   204.2071     0.2112   280.1926     1.5319     1.4724     0.2546     0.0000  4049.6665
  10243.0000  1230.9351   165.5529     0.2375    68.3534   136.4220     0.0000   102.8410   155.4357   282.6833   286.2513     0.0410     0.0000   201.4602     0.3324   278.7798     1.5539     1.4814     0.1468     0.0000  4059.0000
  10243.5000  1225.9371   165.5529     0.2354    67.7890   133.0933     0.0000    97.6488   155.4400   281.8773   287.6248     0.0410     0.0000   198.9249     0.3249   277.0500     1.5637     1.4836     0.1428     0.0000  4025.7502
  10244.0000  1225.9371   165.5529     0.2354    78.0296   130.9039     0.0000    88.8677   155.4442   281.9386   289.3840     0.0409     0.0000   196.3821     0.2244   274.4450     1.5575     1.4997     0.2152     0.0000  4075.6667
  10244.5000  1225.8734   165.5529     0.2354    77.0033   129.5744     0.0000    76.6240   155.4485   282.9803   291.6303     0.0409     0.0000   193.6662     0.2270   270.6862     1.5379     1.5169     0.2079     0.0000  4055.9998
  10245.0000  1229.3370   165.5529     0.2375    76.2213   128.1999     0.0000    68.1465   155.4528   284.8156   291.2438     0.0409     0.0000   190.7550     0.2266   265.9380     1.5130     1.5111     0.2024     0.0000  4045.3333
  10245.5000  1223.0190   165.5529     0.2354    75.7546   126.9735     0.0000    66.7901   155.4570   286.9550   292.1034     0.0408     0.0000   187.9408     0.2237   260.9832     1.4917     1.5215     0.1991     0.0000  4060.0000
  10246.0000  1223.4177   165.5529     0.2354    75.4253   126.0340     0.0000    67.8044   155.4613   287.7762   291.0244     0.0408     0.0000   185.2796     0.2210   257.4990     1.4873     1.5038     0.1968     0.0000  4059.3333
  10246.5000  1222.0891   165.5529     0.2375    75.4718   125.7756     0.0000    79.3472   155.4656   288.3542   289.5877     0.0407     0.0000   182.5584     0.2187   254.1989     1.4798     1.4789     0.1971     0.0000  4069.0002
  10247.0000  1217.3715   165.5529     0.2264    75.4476   125.7498     0.0000    86.0173   155.4698   288.1912   288.3342     0.0407     0.0000   179.8566     0.2188   251.6595     1.4757     1.4545     0.1969     0.0000  4061.3335
  10247.5000  1219.5339   165.5529     0.2375    75.8137   126.1962     0.0000    86.4626   155.4741   287.4064   287.7688     0.0407     0.0000   177.0556     0.2176   249.6432     1.4741     1.4398     0.1995     0.0000  4061.6667
  10248.0000  1220.2671   165.5529     0.2264    77.1304   127.1516     0.0000    79.8045   155.4784   286.2998   288.1424     0.0406     0.0000   174.1223     0.2089   247.8156     1.4739     1.4411     0.2088     0.0000  4072.6670
  10248.5000  1215.4365   165.5529     0.2264    78.4617   128.8822     0.0000    74.3807   155.4827   285.1450   289.3222     0.0406     0.0000   170.7769     0.2056   245.6249     1.4745     1.4611     0.2183     0.0000  4058.3335
  10249.0000  1219.1356   165.5529     0.2153    79.2082   130.0214     0.0000    74.9651   155.4869   284.7659   290.8810     0.0405     0.0000   167.9914     0.2049   243.2179     1.4751     1.4957     0.2235     0.0000  4063.2500
  10249.5000  1217.3386   165.5529     0.2264    80.0052   132.0173     0.0000    79.4732   155.4912   283.8425   292.3042     0.0405     0.0000   165.1877     0.2098   241.3372     1.4724     1.5351     0.2292     0.0000  4051.0000
  10250.0000  1219.0365   165.5529     0.2376    80.5376   133.8613     0.0000    92.1644   155.4954   286.2513   293.2418     0.0405     0.0000   162.0860     0.2163   235.8258     1.4814     1.5662     0.2329     0.0000  4065.5002
  10250.5000  1217.2006   165.5529     0.2375    81.4650   135.1777     0.0000   104.4736   155.4997   287.6248   293.5450     0.0404     0.0000   159.1696     0.2148   231.5356     1.4836     1.5776     0.2395     0.0000  4077.0002
  10251.0000  1220.1084   165.5529     0.2487    81.8325   136.2794     0.0000   106.7457   155.5040   289.3840   293.2585     0.0404     0.0000   155.9716     0.2181   226.5777     1.4997     1.5653     0.2421     0.0000  4074.3337
