~Version Information Block
 VERS.                2.00:     CWLS LOG ASCII STANDARD - VERSION 2.000000
 WRAP.                  NO:     One Line Per Depth Step
#
~Well Information Block
#MNEM.UNIT                     Data                         Information
#----------   ------------------------------------------   ----------------
 STRT.FT                                     1000.0000:     START DEPTH
 STOP.FT                                    15733.0000:     STOP DEPTH
 STEP.FT                                        0.5000:     STEP
 NULL.                                       -999.0000:     NULL VALUE
 COMP.                                 MOBIL PRODUCING:     COMPANY
 WELL.                                    IB-WEATHERBY:     WELL
 FLD .                                   ROJO CABALLOS:     FIELD
 LOC .                                         UNKNOWN:     LOCATION
 LONG.                                 -103.1458890000:     LONGITUDE
 LATI.                                   31.1330510000:     LATITUDE
 CNTY.                                           PECOS:     COUNTY
 STAT.                                           TEXAS:     STATE
 CTRY.                                           U.S.A:     COUNTRY
 SRVC.                                         UNKNOWN:     SERVICE COMPANY
 DATE.                                         UNKNOWN:     DATE
 API .                                  42371057360000:     API NUMBER
 UWI .                                  42371057360000:     UWI NUMBER
 SLAT.                                       31.133051:     Surface latitude
 SLON.                                     -103.145889:     surface longitude
 TVD .                                              NO:     TVD flag
 WSTA.                                             LOC:     Well status
#
~Curve Information Block
#MNEM.UNIT       API CODE      Curve Description
#----------    -------------   -------------------
 DEPT.FT                   :   Depth in Feet
 DT  .UNKNOWN          UNKNOWN:   DT-Load
 DTedit.ft/s          UNKNOWN:   DT-Load
 GR  .UNKNOWN          UNKNOWN:   GR-Load
 GR_org.UNKNOWN          UNKNOWN:   GR_org-Load
#
~Parameter Information Block
#MNEM.UNIT            Value               Description
#----------    --------------------    -------------------
 RUN .                         ONE:    Run Number
 PDAT.                          GL:    Permanent Datum
 EPD .FT                          :    Elevation Of Perm. Datum
 LMF .               KELLY BUSHING:    Log Measured From
 EKB .FT                          :    Elevation Of Kelly Bushing
 DF .FT                           :    Elevation Of Derrick Floor
 GL .FT                           :    Elevation Of Ground Level
 TD  .FT                          :    Total Depth
 CSGD.FT                          :    Casing Bottom (Driller) 1
 CSGL.FT                          :    Casing Bottom (Logger) 1
 MUD .                            :    Drilling Fluid Type
 MUDV .CP                         :    Drilling Fluid Viscosity
 MUDD .LB/USG                     :    Drilling Fluid Density
 FL .ML/30MIN                     :    Drilling Fluid Loss
 PH.                              :    Drilling Fluid Ph
 MUDS .                           :    Mud Sample Source
 RM .OHMM                         :    Resistivity Of Mud Sample
 RMT .DEGF                        :    Mud Sample Temperature
 RMF .OHMM                        :    Mud Filtrate Resistivity
 RMFT.DEGF                        :    Mud Filtrate Sample Temperature
 RMC .OHMM                        :    Mud Cake Resistivity
 RMCT.DEGF                        :    Mud Cake Sample Temperature
 RMB .OHMM                        :    Mud Resistivity At Bht
 TMAX .DEGF                       :    Bottom Hole Temperature
#
~Other Information Block
<DescLogPlotStart>   NEURALOG PLOT DEFINITION
PLOTDEFVERSION: 3
LASFILE: E:\Nair Innovations\42_TEXAS\371_Pecos\Mobil_IB-Weatherby 1 Pecos_1.la
DEPTHSCALE: 239.999996
RESOLUTION: 200
DEPTHLABELFREQ: 100.000000
HEAVYGRIDFREQ: 50.000000
MEDIUMGRIDFREQ: 50.000000
LIGHTGRIDFREQ: 10.000000
#
#   TRACK 1
#
STARTTRACK: 
 LEFTX: 0.500000 inch
 RIGHTX: 3.000000 inch
 SCALETYPE: Linear
 NUMCHARTDIVISIONS: 10
CURVE: GR    0.000000   150.000000 (255,0,0)      Short_Dash        4     N    
CURVE: DTedit 6637.927700 24453.046900 (0,131,131)    Solid             2     N
CURVE: GR_org -999.990000 109.000000 (255,0,255)    Solid             2     N  
ENDTRACK: 
#
#   TRACK 2
#
STARTTRACK: 
 LEFTX: 3.750000 inch
 RIGHTX: 6.250000 inch
 SCALETYPE: Linear
 NUMCHARTDIVISIONS: 10
ENDTRACK: 
#
#   TRACK 3
#
STARTTRACK: 
 LEFTX: 6.250000 inch
 RIGHTX: 8.750000 inch
 SCALETYPE: Linear
 NUMCHARTDIVISIONS: 10
CURVE: DT    190.000000 50.000000  (255,0,131)    Solid             2     N    
ENDTRACK: 
<DescLogPlotEnd>
<DepthTrack type='Reference' track='1' Label='0' color='0' hor='0' />
<Reference font='144,0,-900,0,500,0,16777216,Arial' />
~A DEPTH     DT               DTedit             GR               GR_org            
# ...
    1049.500 85.95840000      6941.13670000    -999.00000000    -999.00000000   
    1050.000 82.40830000      6938.01070000    -999.00000000    -999.00000000   
    1050.500 82.40830000      6934.88480000    -999.00000000    -999.00000000   
    1051.000 97.19230000      6931.75880000    -999.00000000    -999.00000000   
    1051.500 97.19230000      6928.63330000    -999.00000000    -999.00000000   
    1052.000 99.88620000      6925.50730000    -999.00000000    -999.00000000   
    1052.500 99.88620000      6922.38130000    -999.00000000    -999.00000000   
    1053.000 109.13890000     6919.25540000    -999.00000000    -999.00000000   
    1053.500 109.13890000     6916.12990000    -999.00000000    -999.00000000   
    1054.000 99.87010000      6913.00390000    -999.00000000    -999.00000000   
    1054.500 99.87010000      6909.87790000    -999.00000000    -999.00000000   
    1055.000 99.28670000      6906.75150000    -999.00000000    -999.00000000   
    1055.500 99.28670000      6903.62650000    -999.00000000    -999.00000000   
    1056.000 89.43300000      6900.50050000    -999.00000000    -999.00000000   
    1056.500 89.43300000      6897.37450000    -999.00000000    -999.00000000   
    1057.000 89.87180000      6894.24800000    -999.00000000    -999.00000000   
    1057.500 89.87180000      6891.12300000    -999.00000000    -999.00000000   
    1058.000 98.96000000      6887.99710000    -999.00000000    -999.00000000   
    1058.500 98.96000000      6884.87110000    -999.00000000    -999.00000000   
    1059.000 102.16740000     6881.74460000    -999.00000000    -999.00000000   
    1059.500 102.16740000     6878.61870000    -999.00000000    -999.00000000   
    1060.000 93.25780000      6875.49370000    -999.00000000    -999.00000000   
    1060.500 93.25780000      6872.36720000    -999.00000000    -999.00000000   
    1061.000 82.60900000      6869.24120000    -999.00000000    -999.00000000   
    1061.500 82.60900000      6866.11520000    -999.00000000    -999.00000000   
    1062.000 75.06150000      6862.99020000    -999.00000000    -999.00000000   
    1062.500 75.06150000      6859.86380000    -999.00000000    -999.00000000   
    1063.000 62.57730000      6856.73780000    -999.00000000    -999.00000000   
    1063.500 62.57730000      6853.61180000    -999.00000000    -999.00000000   
    1064.000 65.57400000      6850.48680000    -999.00000000    -999.00000000   
    1064.500 65.57400000      6847.36040000    -999.00000000    -999.00000000   
    1065.000 54.90590000      6844.23440000    -999.00000000    -999.00000000   
    1065.500 54.90590000      6841.10840000    -999.00000000    -999.00000000   
    1066.000 53.92340000      6837.98340000    -999.00000000    -999.00000000   
    1066.500 53.92340000      6834.85690000    -999.00000000    -999.00000000   
    1067.000 53.88900000      6831.73100000    -999.00000000    -999.00000000   
    1067.500 53.88900000      6828.60500000    -999.00000000    -999.00000000   
    1068.000 54.74820000      6825.47900000    -999.00000000    -999.00000000   
    1068.500 54.74820000      6822.35350000    -999.00000000    -999.00000000   
    1069.000 55.00600000      6819.22750000    -999.00000000    -999.00000000   
    1069.500 55.00600000      6816.10160000    -999.00000000    -999.00000000   
    1070.000 55.99040000      6812.97560000    -999.00000000    -999.00000000   
    1070.500 55.99040000      6809.85010000    -999.00000000    -999.00000000   
    1071.000 56.25160000      6806.72410000    -999.00000000    -999.00000000   
    1071.500 56.25160000      6803.59810000    -999.00000000    -999.00000000   
    1072.000 56.51280000      6800.47220000    -999.00000000    -999.00000000   
    1072.500 56.51280000      6797.34670000    -999.00000000    -999.00000000   
    1073.000 56.37390000      6794.22070000    -999.00000000    -999.00000000   
    1073.500 56.37390000      6791.09470000    -999.00000000    -999.00000000   
    1074.000 55.90830000      6787.96880000    -999.00000000    -999.00000000   
    1074.500 55.90830000      6784.84330000    -999.00000000    -999.00000000   
    1075.000 57.17820000      6781.71730000    -999.00000000    -999.00000000   
    1075.500 57.17820000      6778.59130000    -999.00000000    -999.00000000   
    1076.000 56.43900000      6775.46530000    -999.00000000    -999.00000000   
    1076.500 56.43900000      6772.33940000    -999.00000000    -999.00000000   
    1077.000 57.22540000      6769.21390000    -999.00000000    -999.00000000   
    1077.500 57.22540000      6766.08790000    -999.00000000    -999.00000000   
    1078.000 58.28680000      6762.96190000    -999.00000000    -999.00000000   
    1078.500 58.28680000      6759.83590000    -999.00000000    -999.00000000   
    1079.000 58.09330000      6756.71040000    -999.00000000    -999.00000000   
    1079.500 58.09330000      6753.58450000    -999.00000000    -999.00000000   
    1080.000 55.53610000      6750.45850000    -999.00000000    -999.00000000   
    1080.500 55.53610000      6747.33250000    -999.00000000    -999.00000000   
    1081.000 56.00650000      6744.20700000    -999.00000000    -999.00000000   
    1081.500 56.00650000      6741.08110000    -999.00000000    -999.00000000   
    1082.000 59.58500000      6737.95510000    -999.00000000    -999.00000000   
    1082.500 59.58500000      6734.82910000    -999.00000000    -999.00000000   
    1083.000 72.03640000      6731.70360000    -999.00000000    -999.00000000   
    1083.500 72.03640000      6728.57760000    -999.00000000    -999.00000000   
    1084.000 64.03300000      6725.45170000    -999.00000000    -999.00000000   
    1084.500 64.03300000      6722.32570000    -999.00000000    -999.00000000   
    1085.000 100.00990000     6719.20020000    -999.00000000    -999.00000000   
    1085.500 100.00990000     6716.07420000    -999.00000000    -999.00000000   
    1086.000 100.10180000     6712.94820000    -999.00000000    -999.00000000   
    1086.500 100.10180000     6709.82230000    -999.00000000    -999.00000000   
    1087.000 99.96360000      6706.69630000    -999.00000000    -999.00000000   
    1087.500 99.96360000      6703.57080000    -999.00000000    -999.00000000   
    1088.000 56.86580000      6700.44480000    -999.00000000    -999.00000000   
    1088.500 56.86580000      6697.31880000    -999.00000000    -999.00000000   
    1089.000 55.05460000      6694.19290000    -999.00000000    -999.00000000   
    1089.500 55.05460000      6691.06740000    -999.00000000    -999.00000000   
    1090.000 53.77500000      6687.94140000    -999.00000000    -999.00000000   
    1090.500 53.77500000      6684.81540000    -999.00000000    -999.00000000   
    1091.000 52.08320000      6681.68950000    -999.00000000    -999.00000000   
    1091.500 52.08320000      6678.56400000    -999.00000000    -999.00000000   
    1092.000 50.67180000      6675.43800000    -999.00000000    -999.00000000   
    1092.500 50.67180000      6672.31200000    -999.00000000    -999.00000000   
    1093.000 52.01400000      6669.18550000    -999.00000000    -999.00000000   
    1093.500 52.01400000      6666.06050000    -999.00000000    -999.00000000   
    1094.000 53.01360000      6662.93460000    -999.00000000    -999.00000000   
    1094.500 53.01360000      6659.80860000    -999.00000000    -999.00000000   
    1095.000 53.86810000      6656.68210000    -999.00000000    -999.00000000   
    1095.500 53.86810000      6653.55620000    -999.00000000    -999.00000000   
    1096.000 54.51790000      6650.43120000    -999.00000000    -999.00000000   
    1096.500 54.51790000      6647.30470000    -999.00000000    -999.00000000   
    1097.000 57.08170000      6644.17870000    -999.00000000    -999.00000000   
    1097.500 57.08170000      6641.05270000    -999.00000000    -999.00000000   
    1098.000 61.38850000      6637.92770000    -999.00000000    -999.00000000   
    1098.500 61.38850000      16289.69630000   -999.00000000    -999.00000000   
