~Version Information Block
 VERS.                2.00:     CWLS LOG ASCII STANDARD - VERSION 2.000000
 WRAP.                  NO:     One Line Per Depth Step
#
~Well Information Block
#MNEM.UNIT                     Data                         Information
#----------   ------------------------------------------   ----------------
# Enverus has updated the API/UWI.  The previous names are renamed to  PREV_API / PREV_UWI
API.                             42-371-39483-90-00 : API (14 Digits with Dashes)
UWI.                                 42371394839000 : UNIQUE WELL ID

 STRT.FT                                    10010.0000:     START DEPTH
 STOP.FT                                    11812.0000:     STOP DEPTH
 STEP.FT                                        0.5000:     STEP
 NULL.                                       -999.2500:     NULL VALUE
 COMP.                           PATRIOT RESOURCES INC:     COMPANY
 WELL.                        ROOSTERFISH UNIT 22NE 1H:     WELL
 FLD .                             WOLFBONE TREND AREA:     FIELD
 LOC .                                                :     LOCATION
 SEC .                                              22:     SECTION
 CNTY.                                          PEACOS:     COUNTY
 STAT.                                           TEXAS:     STATE
 CTRY.                                           U.S.A:     COUNTRY
 SRVC.                                    SCHLUMBERGER:     SERVICE COMPANY
 DATE.                                      03/18/2017:     DATE
PREV_APII .                                  42371394830000:     API NUMBER
 PREV_UWI .                                  42371394830000:     UWI NUMBER
 TVD .                                              NO:     TVD flag
 WSTA.                                             LOC:     Well status
#
~Curve Information Block
#MNEM.UNIT       API CODE      Curve Description
#----------    -------------   -------------------
 DEPT.FT                   :   Depth in Feet
 ECGR.GAPI     35 310 01 01:   Environmentally Corrected Gamma Ray
 CALI.IN       70 280 01 01:   Caliper
 TENS.LBS                  :   Tension
 SPHI_476.V/V  61 890 01 01:   Sonic Porosity 47.6 Matrix
 DT  .US/F     60 520 08 01:   Delta-T
 DTSM.US/F                 :   Delta-T Shear Measurement
 STIT.FT/H                 :   STIT
#
~Parameter Information Block
#MNEM.UNIT            Value               Description
#----------    --------------------    -------------------
 RUN .                         ONE:    Run Number
 PDAT.                          GL:    Permanent Datum
 EPD .FT                        25:    Elevation Of Perm. Datum
 LMF .               KELLY BUSHING:    Log Measured From
 EKB .FT                          :    Elevation Of Kelly Bushing
 DF .FT                           :    Elevation Of Derrick Floor
 GL .FT                         25:    Elevation Of Ground Level
 TD  .FT                     18979:    Total Depth
 CSGD.FT                      5100:    Casing Bottom (Driller) 1
 CSGL.FT                     18979:    Casing Bottom (Logger) 1
 MUD .                   OIL BASED:    Drilling Fluid Type
 MUDV .CP                      102:    Drilling Fluid Viscosity
 MUDD .LB/USG                 13.0:    Drilling Fluid Density
 FL .ML/30MIN                     :    Drilling Fluid Loss
 PH.                           8.8:    Drilling Fluid Ph
 MUDS .                           :    Mud Sample Source
 RM .OHMM                         :    Resistivity Of Mud Sample
 RMT .DEGF                        :    Mud Sample Temperature
 RMF .OHMM                        :    Mud Filtrate Resistivity
 RMFT.DEGF                        :    Mud Filtrate Sample Temperature
 RMC .OHMM                        :    Mud Cake Resistivity
 RMCT.DEGF                        :    Mud Cake Sample Temperature
 RMB .OHMM                        :    Mud Resistivity At Bht
 TMAX .DEGF                    152:    Bottom Hole Temperature
#
~Other Information Block
<DescLogPlotStart>   NEURALOG PLOT DEFINITION
PLOTDEFVERSION: 3
LASFILE: D:\nds\projects\poojawells\December data\PoojaWells Digitizing_Cassidy
DEPTHSCALE: 240.000000
RESOLUTION: 144
DEPTHLABELFREQ: 100.000000
HEAVYGRIDFREQ: 100.000000
MEDIUMGRIDFREQ: 50.000000
LIGHTGRIDFREQ: 10.000000
#
#   TRACK 1
#
STARTTRACK: 
 LEFTX: 0.500000 inch
 RIGHTX: 3.000000 inch
 SCALETYPE: Linear
 NUMCHARTDIVISIONS: 10
CURVE: ECGR  0.000000   150.000000 (0,0,255)      Solid             2     Y    
BACKUP: 150.000000 300.000000 (0,0,255)      Solid             2    
CURVE: CALI  6.000000   16.000000  (0,131,131)    Dot               2     Y    
BACKUP: -4.000000  6.000000   (0,131,131)    Dot               2    
CURVE: TENS  10000.000000 0.000000   (255,0,255)    Short_Dash        2     N  
ENDTRACK: 
#
#   TRACK 2
#
STARTTRACK: 
 LEFTX: 3.500000 inch
 RIGHTX: 8.500000 inch
 SCALETYPE: Linear
 NUMCHARTDIVISIONS: 10
CURVE: SPHI_476 0.300000   -0.100000  (255,0,0)      Solid             2     N 
CURVE: DT    140.000000 40.000000  (255,131,0)    Dot               2     N    
CURVE: DTSM  240.000000 40.000000  (255,255,0)    Short_Dash        2     N    
ENDTRACK: 
#
#   TRACK 3
#
STARTTRACK: 
 LEFTX: 8.500000 inch
 RIGHTX: 9.256944 inch
 SCALETYPE: Linear
 NUMCHARTDIVISIONS: 10
CURVE: STIT  0.000000   50.000000  (0,0,255)      Solid             2     N    
ENDTRACK: 
<DescLogPlotEnd>
~A DEPTH     ECGR             CALI             TENS             SPHI_476             DT               DTSM             STIT            
# ...
   11291.000 106.73130256     8.45630382       4637.91899441    0.29860724       89.64028431      161.63440796     0.68807339      
   11291.500 103.89282427     8.45239443       4625.34916201    0.29750418       89.60570550      161.73646800     0.68807339      
   11292.000 105.05174230     8.44861455       4634.47725459    0.29693593       89.57112669      161.83184592     0.68807339      
   11292.500 103.20659190     8.44485574       4650.83798883    0.29693593       89.53654788      161.03324069     0.68807339      
   11293.000 100.52612215     8.44110574       4641.21663563    0.29693593       89.54171641      161.69733514     0.68807339      
   11293.500 99.64819521      8.43735401       4630.04345127    0.29731476       89.63721979      162.48220365     0.68807339      
   11294.000 100.33203927     8.43359720       4622.90502793    0.29805014       89.73272317      162.98050139     0.68807339      
   11294.500 106.92331686     8.42969171       4622.95280305    0.29890967       89.82822656      162.98050139     0.68807339      
   11295.000 109.71981278     8.42272168       4622.87247495    0.29948269       89.92372994      164.09470752     0.68807339      
   11295.500 111.01124678     8.41551363       4622.94789890    0.29972145       90.01923332      163.81615599     0.68807339      
   11296.000 107.53444434     8.40829793       4622.67237817    0.29972145       90.58179487      165.04958755     0.68807339      
   11296.500 106.36456585     8.40107692       4623.25748983    0.29972145       91.09328071      166.33011172     0.68807339      
   11297.000 105.83406922     8.39385435       4609.40409683    0.29972145       91.31441322      166.87798141     0.68807339      
   11297.500 106.99223842     8.38665809       4594.97206704    0.29972145       91.32823342      166.80289316     0.68807339      
   11298.000 106.55944225     8.37957477       4637.91899441    0.29972145       91.18381065      166.55713970     0.68807339      
   11298.500 108.44868626     8.37333771       4678.77094972    0.29972145       91.45601140      166.39349935     0.68807339      
   11299.000 111.12715081     8.37355741       4694.13407821    0.29972145       92.30379475      159.78619870     0.68807339      
   11299.500 112.76110100     8.37347326       4697.27653631    0.29972145       93.02501534      152.51294645     0.68807339      
   11300.000 102.80777776     8.36693872       4659.56703911    0.29972145       93.57174568      151.70139678     0.68807339      
   11300.500 89.21412155      8.34851695       4622.90502793    0.29972145       93.72573725      150.43706749     0.68807339      
   11301.000 82.75976715      8.33050668       4622.90502793    0.29972145       93.39832869      148.49766023     0.68807339      
   11301.500 89.82662259      8.31249413       4631.98324022    0.29972145       93.32670115      147.36901230     0.68807339      
   11302.000 101.58574509     8.29416245       4657.12290503    0.29972145       91.36768802      148.87113488     0.68807339      
   11302.500 105.97948515     8.29595524       4678.77094972    0.24958217       82.68802228      150.72560539     0.68807339      
   11303.000 104.72602931     8.30493409       4678.77094972    0.26253482       84.69359331      152.54317196     0.68807339      
   11303.500 102.81594616     8.31410173       4675.97765363    0.27494429       86.58774373      154.06685237     0.68807339      
   11304.000 101.29720150     8.32453707       4661.61213089    0.28199164       87.32311978      154.06685237     0.68807339      
   11304.500 101.80158155     8.33572190       4650.83798883    0.28523677       87.70194986      156.89415042     0.68807339      
   11305.000 101.02972901     8.34535299       4650.83798883    0.28300836       87.42339833      157.82729805     0.68807339      
   11305.500 107.85451569     8.34546654       4650.83798883    0.28189415       87.39255869      157.62674095     0.68807339      
   11306.000 111.32571821     8.34549718       4650.83798883    0.28211699       87.35674493      157.40299860     0.68807339      
   11306.500 112.13563235     8.34556901       4650.83798883    0.28167131       87.32093116      157.26018462     0.68807339      
   11307.000 102.31739939     8.34567455       4640.71229050    0.28158774       87.28412256      157.31276400     0.68807339      
   11307.500 96.62175020      8.34621232       4628.12539875    0.28245125       87.44080780      157.96951822     0.68807339      
   11308.000 99.02607971      8.35714456       4622.82640210    0.28542061       87.81685237      157.95967173     0.68807339      
   11308.500 103.21749818     8.36716867       4622.95970057    0.28802786       88.21030641      158.80253634     0.68807339      
   11309.000 107.09018103     8.37386181       4633.20432439    0.29099721       88.67588540      159.59013132     0.68807339      
   11309.500 109.58753193     8.37365142       4661.87979850    0.29470752       89.14146439      160.47353760     0.68807339      
   11310.000 113.35844451     8.37359440       4671.78770950    0.29782730       89.60704337      162.22841226     0.68807339      
   11310.500 117.27419314     8.37358085       4655.02793296    0.29887187       89.85376045      162.42339833     0.68807339      
   11311.000 114.22115833     8.37358366       4661.61213089    0.29738957       89.57056639      162.59517177     0.68807339      
   11311.500 110.09287506     8.37359556       4675.97765363    0.29475578       89.15209558      162.76230269     0.68807339      
   11312.000 107.72388523     8.37361797       4667.19872306    0.29349825       88.89046660      162.92943361     0.68807339      
   11312.500 107.47754689     8.37370260       4650.83798883    0.29318919       88.81817957      163.09656453     0.68807339      
   11313.000 107.20608628     8.36995970       4640.01396648    0.29353996       88.92453745      163.25905292     0.68807339      
   11313.500 105.47965592     8.36373540       4627.44413408    0.29524918       89.24140562      163.77437326     0.68807339      
   11314.000 101.88039635     8.35768672       4622.90502793    0.29365599       89.05601981      163.81018703     0.68807339      
   11314.500 104.48038634     8.35196240       4622.90502793    0.29190111       88.77746828      163.02228412     0.68807339      
   11315.000 104.96232113     8.35002352       4636.87150838    0.29136490       88.53760446      162.23438122     0.68807339      
   11315.500 113.17054832     8.41667751       4670.39106145    0.29025070       88.53760446      161.44647831     0.68807339      
   11316.000 110.22251202     8.41445572       4662.01117318    0.29067781       88.53760446      161.42525534     0.68807339      
   11316.500 106.92647429     8.39468600       4639.66480447    0.28952646       88.53675465      162.28350135     0.68807339      
   11317.000 100.78455346     8.37527031       4622.90502793    0.28746518       88.13828706      161.01680258     0.68807339      
   11317.500 99.61653039      8.40118962       4622.90502793    0.28356546       87.52132369      161.04138978     0.68807339      
   11318.000 96.01717685      8.42578471       4625.86389828    0.27585655       86.63426817      160.10517154     0.68807339      
   11318.500 96.34512502      8.38323451       4635.98083168    0.26852368       85.52357677      158.50782007     0.68807339      
   11319.000 98.43738146      8.33791712       4646.21709038    0.26685237       85.19498607      156.94291714     0.68807339      
   11319.500 97.27560170      8.32041775       4650.67557584    0.26629526       85.19498607      155.71447371     0.68807339      
   11320.000 97.85062544      8.30370174       4651.07385330    0.26743479       85.29944290      155.75136881     0.68807339      
   11320.500 94.30272365      8.28941721       4650.83798883    0.27016966       85.62674095      156.28743494     0.68807339      
   11321.000 92.54505084      8.29641521       4633.61266294    0.27290453       86.16991643      156.44194439     0.68807339      
