###############################################
##         ENVERUS                           ##
##         ESS - Open Hole                   ##
##         PERMIAN / DELAWARE                ##
##         Nov 04 2023  V4.0                 ##
##         42-371-32680-00-00                ##
###############################################
## Copyright 2017-2023  ENVERUS.  All Rights Reserved. 
## Confidential - Property of ENVERUS, use governed by terms and 
## conditions found within the existing Information Services Subscription Agreement 
## (as may be amended, the “ISSA”) between Customer and ENVERUS. 
## 
~VERSION INFORMATION
# MNEM.UNIT                               DATA : DESCRIPTION OF MNEMONIC
#-----.-----     ----------------------------- : -----------------------------
VERS.                                     2.00 : CWLS LOG ASCII STANDARD - VERSION 2.00
WRAP.                                       NO : MULTIPLE LINES PER DEPTH STEP
VEND.                                  ENVERUS : VENDOR
TYPE.                          ESS - OPEN HOLE : ENVERUS ESSENTIAL CURVES – ACCESSIBLE THROUGH ENVERUS PRISM(TM)
DOC.                                  31991434 : ENVERUS HEADER RAW DOCUMENT ID
#___________________________________________________________________________________________________ 
~WELL INFORMATION 
# uAv5E/S3ZwrMaovXfwZJbnQ+z8RwnTA5GIEFL0LfM7mdkMX/8iXP+LiYgCnT3sJm4ejuYgXNUZeSPI/Yhcow4w== 
# MNEM.UNIT                                              DATA : DESCRIPTION OF MNEMONIC 
#-----.-----                    ----------------------------- : ----------------------------- 
CNTY.                                                   PECOS : COUNTY 
STATE.                                                  TEXAS : STATE 
CNTRY.                                                    USA : COUNTRY 
API.                                             42-371-32680 : API (10 Digit) 
API_14.                                    42-371-32680-00-00 : API (14 Digits) 
API_14_std.                                 42-371-32680-0000 : API (14 Digits Standard) 
UWI.                                           42371326800000 : UNIQUE WELL ID 
WELL.                                     MARALO - STEWART  1 : WELL NAME
STRT.FT                                                  21.0 : START DEPTH
STOP.FT                                               21630.0 : STOP DEPTH
STEP.FT                                                   0.5 : STEP BETWEEN DEPTHS
NULL.                                                 -999.25 : NULL VALUE
COMP.                                            MARALO, INC. : COMPANY 
DATE.                                             11-DEC-1978 : LOG DATE
#___________________________________________________________________________________________________ 
~CURVE INFORMATION 
# MNEM.UNIT           : CURVE DESCRIPTION 
#-----.-----          : ----------------------------- 
 DEPT.FT               : MEASURED DEPTH 
 GR__D.API             : GAMMA RAY (GR) 
 DT__D.US/FT           : SONIC DELTA TRANSIT TIME (DT) 
 RESD__D.OHMM          : DEEP INDUCTION RESISTIVITY (ILD - ILD) 
 #___________________________________________________________________________________________________ 
~A         DEPT          GR__D          DT__D        RESD__D
# ...
        16059.0         68.232         90.760          2.611
        16059.5         75.145         89.853          2.599
        16060.0         79.255         92.655          2.607
        16060.5         74.493         95.859          2.614
        16061.0         73.697         99.062          2.622
        16061.5         75.593        101.552          2.630
        16062.0         77.489        103.936          2.650
        16062.5         79.385        103.316          2.720
        16063.0         81.281        102.623          2.790
        16063.5         83.177        101.733          2.860
        16064.0         85.073        100.843          2.930
        16064.5         86.969         99.953          3.001
        16065.0         84.500         99.064          3.071
        16065.5         80.982         98.174          3.141
        16066.0         77.464         97.284          3.211
        16066.5         73.945         96.650          3.227
        16067.0         73.722         97.495          3.155
        16067.5         75.168         98.341          3.083
        16068.0         76.614         99.186          3.011
        16068.5         77.349        100.022          2.939
        16069.0         75.449        100.809          3.081
        16069.5         77.543        101.596          3.255
        16070.0         79.831        102.383          3.429
        16070.5         82.119        100.490          3.890
        16071.0         76.326         95.969          4.423
        16071.5         69.798         91.448          4.956
        16072.0         63.271         86.927          5.481
        16072.5         56.743         81.489          5.341
        16073.0         50.215         75.862          5.201
        16073.5         52.411         75.291          4.816
        16074.0         59.226         79.416          4.302
        16074.5         66.041         83.540          3.788
        16075.0         72.857         87.665          3.294
        16075.5         79.672         91.790          3.135
        16076.0         86.487         95.915          2.976
        16076.5         93.303        100.040          2.880
        16077.0         86.804        100.376          2.942
        16077.5         78.733        100.676          3.003
        16078.0         70.661        100.977          3.065
        16078.5         67.795        101.026          3.127
        16079.0         67.280        100.670          3.131
        16079.5         66.765        100.315          3.039
        16080.0         68.105         99.959          2.947
        16080.5         73.839         99.603          2.855
        16081.0         79.573         99.399          2.762
        16081.5         85.307         99.247          2.670
        16082.0         88.591         99.096          2.578
        16082.5         85.575         99.758          2.486
        16083.0         82.559        100.534          2.406
        16083.5         79.543        101.310          2.516
        16084.0         76.527        101.161          2.625
        16084.5         73.512         98.120          2.735
        16085.0         75.021         95.898          2.865
        16085.5         77.203         97.243          3.004
        16086.0         79.385         98.588          3.143
        16086.5         81.567         99.933          3.282
        16087.0         83.748        100.382          3.422
        16087.5         85.930         95.899          3.507
        16088.0         84.602         91.417          3.564
        16088.5         82.396         87.977          3.622
        16089.0         80.189         91.320          3.680
        16089.5         77.982         94.664          3.737
        16090.0         75.775         94.969          3.795
        16090.5         82.524         94.789          3.912
        16091.0         91.899         94.610          4.034
        16091.5        101.040         94.431          4.156
        16092.0         95.109         94.252          3.955
        16092.5         89.178         94.072          3.739
        16093.0         83.247         93.893          3.524
        16093.5         79.330         96.399          3.308
        16094.0         79.157        100.577          3.092
        16094.5         78.985        101.696          2.877
        16095.0         82.412        102.815          2.661
        16095.5         86.760        103.934          2.445
        16096.0         91.107        105.053          2.372
        16096.5         95.455        106.171          2.379
        16097.0         99.802        106.332          2.386
        16097.5         92.910        104.474          2.393
        16098.0         85.426        102.615          2.401
        16098.5         77.943        100.757          2.408
        16099.0         75.780         98.899          2.415
        16099.5         75.625         97.214          2.422
        16100.0         75.469         97.369          2.429
        16100.5         75.314         97.524          2.437
        16101.0         81.497         97.679          2.444
        16101.5         93.838         97.834          2.451
        16102.0         87.725         97.939          2.458
        16102.5         81.612         97.026          2.465
        16103.0         75.499         96.113          2.472
        16103.5         71.766         95.200          2.435
        16104.0         71.824         95.441          2.396
        16104.5         71.882         95.869          2.357
        16105.0         71.940         96.298          2.318
        16105.5         71.998         96.727          2.279
        16106.0         72.057         97.156          2.240
        16106.5         72.115         95.444          2.201
        16107.0         72.392         93.198          2.163
        16107.5         74.045         94.083          2.124
        16108.0         75.699         96.233          2.115
        16108.5         76.858         98.382          2.143
        16109.0         74.314        100.049          2.171
        16109.5         71.770        100.928          2.200
        16110.0         69.226        101.808          2.228
        16110.5         68.602        102.687          2.256
        16111.0         71.445        102.925          2.284
        16111.5         74.288        102.118          2.313
        16112.0         77.131        102.039          2.480
        16112.5         79.968        102.438          2.653
        16113.0         80.698        102.836          2.826
        16113.5         81.428        103.235          2.971
        16114.0         82.159        103.633          2.992
        16114.5         83.149        104.032          3.013
        16115.0         85.651         98.620          3.034
        16115.5         88.152         98.704          3.055
        16116.0         89.840         97.980          3.076
        16116.5         84.869         95.989          3.097
        16117.0         79.898         93.999          3.022
        16117.5         74.926         92.008          2.937
        16118.0         69.955         93.122          2.841
        16118.5         72.977         94.584          2.746
        16119.0         76.007         96.045          2.650
        16119.5         79.036         97.507          2.555
        16120.0         82.065         98.968          2.467
        16120.5         85.094        100.142          2.523
        16121.0         85.759        100.890          2.580
        16121.5         85.706        100.791          2.637
        16122.0         85.652        100.649          2.694
        16122.5         85.599        100.165          2.750
        16123.0         83.528         99.595          2.807
        16123.5         79.517         97.602          2.864
        16124.0         75.507         94.886          2.896
        16124.5         72.925         94.649          2.886
