#--------------------------------------------------#
#-------------------ENVERUS, INC.------------------#
#------------------WWW.ENVERUS.COM-----------------#
#------------------COPYRIGHT 2020------------------#
#--------------------------------------------------#
#THIS FILE MAY BE USED ONLY IN ACCORDANCE WITH A CURRENT SUBSCRIPTION AGREEMENT BETWEEN
#THE USER AND ENVERUS, INC. NO PART OF THIS FILE MAY BE REPRODUCED, USED, COPIED,
#MODIFIED, PROPAGATED, OR DISTRIBUTED EXCEPT IN ACCORDANCE WITH THE SUBSCRIPTION
#AGREEMENT. UNAUTHORIZED USE OR DISTRIBUTION OF ALL OR ANY PART OF THIS FILE MAY VIOLATE
#COPYRIGHT, TRADEMARK, AND/OR OTHER LAWS AND IS SUBJECT TO CIVIL AS WELL AS CRIMINAL
#SANCTIONS.
#--------------------------------------------------#
#THIS FILE IS PROVIDED "AS-IS" AND ALL WARRANTIES ARE EXPRESSLY DISCLAIMED, WHETHER
#EXPRESS, ORAL, IMPLIED, STATUTORY OR OTHERWISE, INCLUDING ANY IMPLIED WARRANTY OF FITNESS
#FOR A PARTICULAR PURPOSE, MERCHANTABILITY, TITLE OR NON-INFRINGEMENT, AND ANY WARRANTIES
#ARISING BY VIRTUE OF CUSTOM OF TRADE OR COURSE OF DEALING.  FURTHER, ENVERUS, INC.
#AND ITS LICENSORS DO NOT REPRESENT OR WARRANT THAT THIS FILE WILL MEET USER'S
#REQUIREMENTS OR ARE SUITABLE FOR USER'S NEEDS OR THAT THE DATA OR RESULTS PROVIDED IN
#CONJUNCTION THEREWITH ARE CORRECT, ACCURATE, TIMELY OR RELIABLE. THESE DISCLAIMERS SHALL
#APPLY REGARDLESS OF ANY FAILURE OF ESSENTIAL PURPOSE OF ANY LIMITED REMEDY.  SOME
#JURISDICTIONS DO NOT ALLOW THE EXCLUSION OF CERTAIN WARRANTIES SO SOME OF THE ABOVE
#EXCLUSIONS MAY NOT APPLY. IN NO EVENT SHALL ENVERUS, INC. OR ANY OF ITS AFFILIATES
#BE LIABLE UNDER ANY LEGAL THEORY, WHETHER IN TORT (INCLUDING WITHOUT LIMITATION
#NEGLIGENCE), CONTRACT, STRICT LIABILITY, STATUTORY OR OTHERWISE, FOR ANY SPECIAL,
#INCIDENTAL, CONSEQUENTIAL, EXEMPLARY, PUNITIVE OR INDIRECT DAMAGE OF ANY KIND, INCLUDING
#WITHOUT LIMITATION LOSS OF REVENUE, PROFITS, GOODWILL, USE, AND/OR DATA OR THE COST OF
#PROCUREMENT OF SUBSTITUTE GOODS OR SERVICES, EVEN IF APPRISED OF THE POSSIBILITY OF SUCH
#DAMAGES IN ADVANCE.
#--------------------------------------------------#

# EXPORTED FROM DI TRANSFORM
# DI TRANSFORM - A PRODUCT OF DRILLINGINFO, INC. - WWW.DRILLINGINFO.COM
#
~VERSION INFORMATION
 VERS.        2.0 : LAS ASCII STANDARD - VERSION 2.0
 WRAP.         NO : ONE LINE PER DEPTH STEP

~WELL INFORMATION
#MNEM.UNIT       DATA TYPE       INFORMATION
#---------       ---------       -----------
 STRT.FT           100 : START DEPTH
 STOP.FT         18040 : STOP DEPTH
 STEP.FT           0.5 : STEP LENGTH
 NULL.         -999.25 : NULL VALUE
 UWI.   42371302980000 : UNIQUE WELL ID
 API.   42371302980000 : WELL IDENTIFIER
 COMP.                 : COMPANY
 WELL.          DRD_55 : WELL NAME
 FLD.                  : FIELD NAME
 LOC.                  : WELL LOCATION
 CNTY.                 : COUNTY
 STAT.                 : STATE OR PROVINCE
 CTRY.                 : COUNTRY
 SRVC.                 : SERVICE COMPANY
 DATE.                 : DATE

~CURVE INFORMATION
#MNEM.UNIT       API CODE       CURVE DESCRIPTION
#---------       --------       -----------------
 DEPT.FT        : <MEASURED DEPTH>
 CAL.IN         : CALIPER
 DT.US/FT       : SONIC
 GR.GAPI        : GAMMA RAY

~PARAMETER INFORMATION
#MNEM.UNIT       VALUE       DESCRIPTION
#---------       -----       -----------

~A       DEPT         CAL          DT          GR
# ...
         6420     15.7553      63.697      58.413
       6420.5     15.7551      62.597      66.232
         6421     15.7548     62.0691      68.893
       6421.5     15.7546     61.8658     68.7565
         6422     15.7543      61.785     66.8872
       6422.5     15.7541     61.6082     65.1822
         6423     15.7539     60.5645     64.3632
       6423.5     15.7536     59.8901     61.7712
         6424     15.7534      59.657     58.3517
       6424.5     15.7531     60.3892     60.7537
         6425     15.7529     61.2802     62.0428
       6425.5     15.7526     62.8222      62.753
         6426     15.7524     64.3183      64.482
       6426.5     15.7521     65.3466     66.7699
         6427     15.7519     66.0982     67.8057
       6427.5     15.7517     67.1003     68.4211
         6428     15.7514     67.6268     69.1466
       6428.5     15.7512     67.7485     71.2551
         6429     15.7509     67.6615     70.5609
       6429.5     15.7507      67.909     67.5374
         6430     15.7504     69.1878     63.3303
       6430.5     15.7502     70.7169     59.8499
         6431     15.7499     72.1502     58.1282
       6431.5     15.7497     73.7437     57.6953
         6432     15.7495     74.4583     58.2996
       6432.5     15.7492     75.0202     58.7045
         6433      15.749     75.4878     58.2996
       6433.5     15.7487     75.5375     58.2996
         6434     15.7485     75.3793     57.7123
       6434.5     15.7482     75.0679     55.2035
         6435      15.748     74.9798     53.8462
       6435.5     15.7478     75.4709      54.251
         6436     15.7475      77.445     52.4953
       6436.5     15.7473     78.7147     50.5129
         6437      15.747     80.7996     48.3191
       6437.5     15.7468     95.6009     47.7733
         6438     15.7465      95.805     48.4895
       6438.5     15.7463     91.3186     52.2232
         6439      15.746     80.9726     55.2812
       6439.5     15.7458     83.2393     60.9094
         6440     15.7456     92.9495      61.942
       6440.5     15.7453    108.3281     59.6414
         6441     15.7451    109.6519     58.2508
       6441.5     15.7448     93.4109     56.7376
         6442     15.7446     86.2071     53.1045
       6442.5     15.7443     84.4614      50.731
         6443     15.7441      85.688     48.1781
       6443.5     15.7439     89.2326     48.1781
         6444      15.738     83.1211     49.4656
       6444.5     15.7166     79.3582      51.417
         6445     15.7166     80.0264     51.8219
       6445.5     15.7166     80.4935     50.9523
         6446     15.7166     80.6061     50.6073
       6446.5     15.7166     80.1586     50.9049
         6447     15.7166     79.6969     50.6787
       6447.5     15.7166     78.6321     48.8513
         6448     15.7166     77.7571     46.4043
       6448.5     15.7166     76.5421     45.2428
         6449     15.7166     76.7616     45.3441
       6449.5     15.6916     77.4431     45.3441
         6450     15.6761     78.2363     46.0678
       6450.5     15.6761     78.5477     49.6897
         6451     15.6761     77.1956     51.5694
       6451.5     15.6761      76.651     54.3326
         6452     15.6761     76.3951     56.0362
       6452.5     15.6761     77.7676     56.6802
         6453     15.6356     78.3367     56.6802
       6453.5     15.6356     78.2047      57.085
         6454     15.6356      78.215     56.8244
       6454.5     15.6356     78.1904     55.7886
         6455     15.6356     77.7864     55.0607
       6455.5     15.6356     76.9008      54.057
         6456     15.6356     75.6043     52.3008
       6456.5     15.6356     74.7885     52.2267
         6457     15.6356     75.2324     53.4374
       6457.5     15.6356     76.5841     55.8019
         6458     15.6356     77.7077     57.3557
       6458.5     15.6356     76.6898     58.1664
         6459     15.6356     74.4911     58.2996
       6459.5     15.6356     71.1763     58.2996
         6460     15.6497     69.0637     60.6127
       6460.5     15.6761     68.6119     63.8525
         6461     15.6761      68.357     66.6492
       6461.5     15.6761     68.2353      71.885
         6462     15.6761      68.357     74.2395
       6462.5     15.6761     68.6004     75.5908
         6463     15.6761     68.6004      77.286
       6463.5     15.6252     68.4318     78.5425
         6464     15.5951     67.7934     79.3677
       6464.5     15.5547     66.6076     82.2866
         6465     15.5547     66.2395     85.5182
       6465.5     15.4943     65.9229     87.6482
         6466     15.4737     66.0507     86.9943
       6466.5     15.4737     66.4599     84.5277
         6467     15.4737     67.3023      83.907
       6467.5     15.4737     68.1852     86.6554
         6468     15.4332     68.0445     91.2081
       6468.5     15.4332     67.2262      90.752
         6469     15.4332     66.5314     89.0676
       6469.5     15.4332     66.5314     86.0894
         6470     15.4332     66.8153     76.7291
       6470.5     15.4332     67.7578     69.5889
         6471     15.4332     67.8702     69.0643
       6471.5     15.4332     67.6032     70.8502
         6472     15.3927     66.8652     70.5455
       6472.5     15.3927     66.4138     69.2442
         6473     15.3927     66.0605      70.516
       6473.5     15.3927     66.0446     72.9033
         6474     15.3927     66.2865     74.4887
       6474.5     15.3927     66.7638     73.4633
         6475     15.3927     66.6531     72.9167
       6475.5     15.3927     66.3496     74.0867
         6476     15.3522     66.0446     75.4381
       6476.5     15.3522     65.9497     77.5546
         6477     15.3522     65.9641     78.6796
       6477.5     15.3522     66.3301     80.4835
         6478     15.3522     66.5314     82.0401
       6478.5     15.3522     66.5332     86.2723
         6479     15.3522     66.6531     91.6434
       6479.5     15.3927     66.6531     95.1949
         6480     15.3648     66.5692     95.8259
       6480.5     15.3522     66.5314     97.6669
         6481     15.3117     66.4332     103.395
       6481.5     15.2713      66.288    100.4742
         6482     15.2713     66.1663     95.6538
       6482.5     15.1903     66.1076     90.7367
         6483     15.1498     65.9153      87.593
       6483.5     15.1093      65.217     83.1173
         6484     15.1093     63.8917      79.468
       6484.5     15.1093     62.0443     75.5019
         6485     15.1093     60.5113     69.2728
       6485.5     15.1093     60.3455     56.9108
         6486     15.1498     61.4026      46.146
       6486.5     15.1498     62.7351     40.1594
         6487     15.1498     64.2861     41.7086
       6487.5     15.1498      64.901     44.9949
         6488     15.1498      65.071     46.1538
       6488.5     15.1498     64.7936     46.2291
         6489     15.1498     63.8411      47.265
       6489.5     15.2026     63.8614      47.896
         6490     15.2308     64.8548     48.1781
       6490.5     15.2308      65.295     49.4983
         6491     15.2308     65.9191     52.4077
       6491.5     15.2308     65.8012     56.7256
         6492     15.1903     65.8012     62.6008
       6492.5     15.1903     65.8012     71.3509
         6493     15.1498     65.9618     79.4785
       6493.5     15.1498      66.382     85.2117
         6494     15.1498     66.5314     88.3928
       6494.5     15.1498     66.6396     90.3284
         6495     15.1498     66.6531     88.3922
       6495.5     15.1498     66.5314     84.4006
         6496     15.1498     66.3067     79.2475
       6496.5     15.1498     65.9079     77.6579
         6497     15.1774     65.7625     76.1778
       6497.5     15.2308     66.2711     76.6156
         6498     15.2308     67.0176     77.3279
       6498.5     15.2308     68.1789     76.3734
         6499     15.2713     68.5902     76.1134
       6499.5     15.3117     68.6582     75.5163
