#--------------------------------------------------#
#-------------------ENVERUS, INC.------------------#
#------------------WWW.ENVERUS.COM-----------------#
#------------------COPYRIGHT 2020------------------#
#--------------------------------------------------#
#THIS FILE MAY BE USED ONLY IN ACCORDANCE WITH A CURRENT SUBSCRIPTION AGREEMENT BETWEEN
#THE USER AND ENVERUS, INC. NO PART OF THIS FILE MAY BE REPRODUCED, USED, COPIED,
#MODIFIED, PROPAGATED, OR DISTRIBUTED EXCEPT IN ACCORDANCE WITH THE SUBSCRIPTION
#AGREEMENT. UNAUTHORIZED USE OR DISTRIBUTION OF ALL OR ANY PART OF THIS FILE MAY VIOLATE
#COPYRIGHT, TRADEMARK, AND/OR OTHER LAWS AND IS SUBJECT TO CIVIL AS WELL AS CRIMINAL
#SANCTIONS.
#--------------------------------------------------#
#THIS FILE IS PROVIDED "AS-IS" AND ALL WARRANTIES ARE EXPRESSLY DISCLAIMED, WHETHER
#EXPRESS, ORAL, IMPLIED, STATUTORY OR OTHERWISE, INCLUDING ANY IMPLIED WARRANTY OF FITNESS
#FOR A PARTICULAR PURPOSE, MERCHANTABILITY, TITLE OR NON-INFRINGEMENT, AND ANY WARRANTIES
#ARISING BY VIRTUE OF CUSTOM OF TRADE OR COURSE OF DEALING.  FURTHER, ENVERUS, INC.
#AND ITS LICENSORS DO NOT REPRESENT OR WARRANT THAT THIS FILE WILL MEET USER'S
#REQUIREMENTS OR ARE SUITABLE FOR USER'S NEEDS OR THAT THE DATA OR RESULTS PROVIDED IN
#CONJUNCTION THEREWITH ARE CORRECT, ACCURATE, TIMELY OR RELIABLE. THESE DISCLAIMERS SHALL
#APPLY REGARDLESS OF ANY FAILURE OF ESSENTIAL PURPOSE OF ANY LIMITED REMEDY.  SOME
#JURISDICTIONS DO NOT ALLOW THE EXCLUSION OF CERTAIN WARRANTIES SO SOME OF THE ABOVE
#EXCLUSIONS MAY NOT APPLY. IN NO EVENT SHALL ENVERUS, INC. OR ANY OF ITS AFFILIATES
#BE LIABLE UNDER ANY LEGAL THEORY, WHETHER IN TORT (INCLUDING WITHOUT LIMITATION
#NEGLIGENCE), CONTRACT, STRICT LIABILITY, STATUTORY OR OTHERWISE, FOR ANY SPECIAL,
#INCIDENTAL, CONSEQUENTIAL, EXEMPLARY, PUNITIVE OR INDIRECT DAMAGE OF ANY KIND, INCLUDING
#WITHOUT LIMITATION LOSS OF REVENUE, PROFITS, GOODWILL, USE, AND/OR DATA OR THE COST OF
#PROCUREMENT OF SUBSTITUTE GOODS OR SERVICES, EVEN IF APPRISED OF THE POSSIBILITY OF SUCH
#DAMAGES IN ADVANCE.
#--------------------------------------------------#

~VERSION INFORMATION
VERS. 2.0 : CWLS LOG ASCII STANDARD - VERSION 2.0
WRAP.  NO : ONE LINE PER DEPTH STEP
~WELL INFORMATION
#MNEMONIC     .UNIT              VALUE :DESCRIPTION
STRT       .FT                2 :START DEPTH
STOP       .FT                6341 :STOP DEPTH
STEP       .FT                   0.500 :STEP
NULL       .                  -999.990 :NULL
UWI        .              42389104050000 :UNIQUE WELL ID
API        .              42389104050000 :API NUMBER
COMP       .         ENDEAVOR ENERGY RESOURCES L.P. :COMPANY
WELL       .        TXL REEVES STATE UNIT  2 :WELL
DATE       .                            :LOG DATE
~CURVE INFORMATION
#MNEMONIC     .UNIT      API CODE :CURVE DESCRIPTION
DEPTH       .FT                      :MEASURED DEPTH
GR.API        UNKNOWN   :GR
DT.US/FT        UNKNOWN   :DT
~A    DEPTH    GR    DT
# ...
 3836     4.162   66.436
 3836.5     3.99   66.417
 3837     3.819   66.399
 3837.5     3.647   66.38
 3838     3.476   66.362
 3838.5     3.305   66.343
 3839     3.133   66.324
 3839.5     3.074   66.306
 3840     3.354   66.287
 3840.5     3.634   66.269
 3841     3.914   66.25
 3841.5     4.194   66.231
 3842     4.473   66.213
 3842.5     4.7   66.194
 3843     4.558   66.176
 3843.5     4.416   66.157
 3844     4.274   66.138
 3844.5     4.132   66.12
 3845     3.99   66.101
 3845.5     3.848   66.083
 3846     3.705   66.064
 3846.5     3.563   66.045
 3847     3.421   66.027
 3847.5     3.279   66.008
 3848     3.137   65.99
 3848.5     2.995   65.971
 3849     2.997   65.953
 3849.5     3.278   65.934
 3850     3.559   65.915
 3850.5     3.84   65.897
 3851     4.122   65.878
 3851.5     4.403   65.86
 3852     4.684   65.586
 3852.5     4.965   65.055
 3853     5.246   64.525
 3853.5     5.334   63.994
 3854     5.253   63.464
 3854.5     5.173   62.933
 3855     5.093   62.402
 3855.5     5.012   61.065
 3856     4.932   57.047
 3856.5     4.851   53.029
 3857     4.771   50.475
 3857.5     4.69   49.953
 3858     4.61   49.903
 3858.5     4.529   49.852
 3859     4.449   49.802
 3859.5     4.369   49.752
 3860     4.288   49.469
 3860.5     4.31   49.097
 3861     4.7   48.726
 3861.5     5.09   48.355
 3862     5.48   48.266
 3862.5     5.87   48.436
 3863     6.26   48.605
 3863.5     6.65   48.775
 3864     6.961   48.944
 3864.5     6.754   49.114
 3865     6.548   49.084
 3865.5     6.341   49.014
 3866     6.135   48.945
 3866.5     5.929   48.875
 3867     5.722   48.805
 3867.5     5.693   48.735
 3868     5.761   48.666
 3868.5     5.828   48.658
 3869     5.896   48.691
 3869.5     6.361   48.725
 3870     7.329   48.758
 3870.5     8.296   48.791
 3871     9.263   48.825
 3871.5     10.23   48.858
 3872     11.197   48.891
 3872.5     12.164   48.925
 3873     13.132   48.958
 3873.5     12.229   48.991
 3874     10.716   48.779
 3874.5     9.203   48.384
 3875     8.426   47.99
 3875.5     7.924   48.158
 3876     7.423   48.389
 3876.5     6.921   48.62
 3877     6.419   48.851
 3877.5     5.918   49.624
 3878     5.416   50.6
 3878.5     4.915   51.576
 3879     4.413   52.552
 3879.5     3.911   55.925
 3880     3.444   59.387
 3880.5     3.443   62.825
 3881     3.443   62.917
 3881.5     3.442   63.009
 3882     3.442   63.101
 3882.5     3.441   63.192
 3883     3.717   63.284
 3883.5     4.239   63.376
 3884     4.761   63.468
 3884.5     5.283   63.56
 3885     5.007   63.651
 3885.5     4.38   64.294
 3886     3.753   65.491
 3886.5     3.126   66.689
 3887     3.068   66.826
 3887.5     3.08   66.779
 3888     3.093   66.732
 3888.5     3.106   66.685
 3889     3.119   66.638
 3889.5     3.131   66.592
 3890     3.144   66.545
 3890.5     3.715   63.457
 3891     4.612   60.364
 3891.5     5.509   57.271
 3892     6.406   54.178
 3892.5     7.303   51.085
 3893     7.51   49.331
 3893.5     7.325   48.998
 3894     7.139   49.044
 3894.5     6.953   49.09
 3895     6.768   49.136
 3895.5     6.819   49.182
 3896     7.121   49.228
 3896.5     7.423   49.274
 3897     7.726   49.32
 3897.5     8.028   49.366
 3898     8.202   49.412
 3898.5     7.499   49.458
 3899     6.796   49.504
 3899.5     6.093   49.551
 3900     5.744   49.597
 3900.5     6.131   49.643
 3901     6.518   49.689
 3901.5     6.905   49.536
 3902     7.292   49.335
 3902.5     7.563   49.134
 3903     7.205   48.934
 3903.5     6.848   48.733
 3904     6.49   48.532
 3904.5     6.232   48.332
 3905     6.531   48.131
 3905.5     6.829   48.13
 3906     7.128   48.179
 3906.5     7.427   48.227
 3907     7.725   48.275
 3907.5     8.024   48.324
 3908     8.153   48.372
 3908.5     8.081   48.42
 3909     8.01   48.537
 3909.5     7.938   48.931
 3910     7.866   49.324
 3910.5     7.794   49.661
 3911     7.722   49.712
 3911.5     7.504   49.762
 3912     7.242   49.812
 3912.5     6.981   49.863
 3913     6.719   49.733
 3913.5     6.54   49.483
 3914     6.491   49.233
 3914.5     6.442   48.983
 3915     6.392   48.733
 3915.5     6.343   48.736
 3916     6.294   48.878
 3916.5     6.244   49.021
 3917     6.195   49.164
 3917.5     6.346   49.307
 3918     6.654   49.45
 3918.5     6.962   49.593
 3919     7.27   49.735
 3919.5     7.126   49.756
 3920     6.599   49.467
 3920.5     6.072   49.178
 3921     5.546   48.889
 3921.5     5.363   48.777
 3922     5.303   48.863
 3922.5     5.244   48.949
 3923     5.501   49.036
 3923.5     6.089   49.122
 3924     6.386   49.171
 3924.5     6.212   49.007
 3925     6.037   48.843
 3925.5     5.863   48.679
 3926     5.688   48.515
 3926.5     5.759   48.654
 3927     5.831   48.808
 3927.5     5.904   48.962
 3928     5.976   49.116
 3928.5     6.048   49.04
 3929     6.12   48.898
 3929.5     6.193   48.755
 3930     6.265   48.613
 3930.5     6.337   48.646
 3931     6.413   48.805
 3931.5     6.489   48.963
 3932     6.565   49.121
 3932.5     6.642   49.28
 3933     6.718   49.438
 3933.5     6.503   49.596
 3934     6.239   49.755
 3934.5     5.974   49.913
 3935     5.71   50.071
 3935.5     5.445   50.23
 3936     5.18   50.052
 3936.5     4.916   49.611
 3937     5.651   49.17
 3937.5     6.396   48.793
 3938     7.142   48.859
 3938.5     7.5   48.925
 3939     7.523   48.99
 3939.5     7.546   49.056
 3940     7.569   49.813
 3940.5     7.592   50.577
 3941     7.616   50.613
 3941.5     7.639   50.65
 3942     7.662   50.686
 3942.5     7.239   51.408
 3943     6.396   54.272
 3943.5     5.553   57.136
 3944     4.71   60
 3944.5     3.867   59.142
 3945     3.264   57.234
 3945.5     3.662   55.326
 3946     4.06   53.418
 3946.5     4.458   51.51
 3947     4.856   49.756
 3947.5     5.254   49.359
 3948     5.652   48.962
 3948.5     6.05   48.565
 3949     6.449   48.433
 3949.5     6.351   48.962
 3950     5.896   49.492
 3950.5     5.44   49.772
 3951     4.984   49.306
 3951.5     5.147   48.84
 3952     6.279   48.468
 3952.5     7.41   48.483
 3953     8.542   48.497
 3953.5     9.673   48.512
 3954     9.434   48.526
 3954.5     8.232   48.541
 3955     7.03   48.556
 3955.5     5.827   48.57
 3956     4.995   48.585
 3956.5     5.463   48.599
 3957     5.932   48.728
 3957.5     6.401   48.909
 3958     6.331   49.09
 3958.5     6.244   49.271
 3959     6.157   49.452
 3959.5     6.07   49.633
 3960     5.983   49.814
 3960.5     5.896   49.325
 3961     5.809   48.704
 3961.5     5.722   49.941
 3962     5.635   52.729
 3962.5     5.548   55.517
 3963     5.461   58.305
 3963.5     5.374   58.999
 3964     5.287   56.486
 3964.5     5.2   53.973
 3965     5.113   51.46
 3965.5     5.621   49.334
 3966     6.707   49.039
 3966.5     7.793   48.743
 3967     8.184   48.448
 3967.5     7.666   48.152
 3968     7.148   48.295
 3968.5     6.63   48.446
 3969     6.113   48.597
 3969.5     5.595   48.615
 3970     5.646   48.624
 3970.5     6.203   48.634
 3971     6.759   48.643
 3971.5     7.316   48.652
 3972     7.872   48.799
 3972.5     8.428   48.948
 3973     8.961   49.097
 3973.5     8.366   49.245
 3974     7.772   49.365
 3974.5     7.177   48.844
 3975     6.583   48.323
 3975.5     5.988   48.34
 3976     6.464   48.535
 3976.5     7.086   48.73
 3977     7.707   48.925
 3977.5     7.606   49.121
 3978     7.341   48.9
 3978.5     7.075   48.579
 3979     6.81   48.258
 3979.5     6.545   48.156
 3980     6.279   48.422
 3980.5     6.014   48.688
 3981     5.748   48.953
 3981.5     5.483   49.056
 3982     5.243   49.037
 3982.5     5.262   49.018
 3983     5.281   48.999
 3983.5     5.301   48.98
 3984     5.32   48.96
 3984.5     5.481   48.941
 3985     5.951   48.922
 3985.5     6.42   48.903
 3986     6.89   48.894
 3986.5     7.36   49.081
 3987     7.829   49.267
 3987.5     8.299   49.454
 3988     8.769   49.64
 3988.5     9.238   49.489
 3989     9.708   49.286
 3989.5     9.836   49.082
 3990     8.325   48.878
 3990.5     6.815   48.674
 3991     5.305   48.805
