~VERSION INFORMATION
 VERS.                2.0:   CWLS LOG ASCII STANDARD - VERSION 2.0
 WRAP.                 NO:   ONE LINE PER DEPTH STEP
~WELL INFORMATION
#MNEM.UNIT      DATA TYPE    INFORMATION
#----------   ------------   ------------------------------
 STRT.FT           0.0000:   START DEPTH
 STOP.FT        7147.0000:   STOP DEPTH
 STEP.FT           0.5000:   STEP LENGTH
 NULL.          -999.2500:   NULL VALUE
 COMP. MOBIL PRODUCING TEXAS & NEW MEEXICO INC:   COMPANY
 WELL. SCHLOSER FRED ESTATE B #2:   WELL
 FLD .      ROJO CABALLOS:   FIELD
 LOC .                   :   LOCATION
 CNTY.              PECOS:   COUNTY
 STAT.              TEXAS:   STATE
 CTRY. UNITED STATES OF AMERICA:   COUNTRY
 SRVC.       Schlumberger:   SERVICE COMPANY
 DATE.        10-Jun-1980:   LOGDATE
 API .     42371330900000:   API NUMBER
~CURVE INFORMATION
#MNEM.UNIT       API CODE    CURVE DESCRIPTION
#----------   ------------   ------------------------------
 DEPT.F                  :   
 GRD .GAPI   45 310 01 00:   GAMMA RAY FROM DENSITY LOG
 GRR .GAPI   11 310 01 00:   GAMMA RAY FROM RESISTIVITY LOG
 GRS .GAPI   60 310 01 00:   GAMMA RAY FROM SONIC LOG
 DT  .US/F   60 500 00 00:   DELTA-T (INTERVAL TRANSIT TIME)
 CALD.IN     45 280 60 00:   CALIPER FROM DENSITY LOG
 CORR.G/C3   45 356 01 00:   DENSITY CORRECTION
 RHOB.G/C3   45 350 01 00:   BULK DENSITY
 NPHI_LS.DEC 42 890 01 00:   NEUTRON POROSITY LIMESTONE
 DPHI_LS.DEC 45 890 10 00:   DENSITY POROSITY LIMESTONE
 LLD .OHMM   11 220 10 00:   LATEROLOG DEEP RESISTIVITY
 LLS .OHMM   11 220 09 00:   LATEROLOG SHALLOW RESISTIVITY
~PARAMETER INFORMATION
#MNEM.UNIT          VALUE    DESCRIPTION
#----------   ------------   ------------------------------
 PD  .                 GL:   PERMANENT DATUM
 EPD .FT             2752:   ELEVATION PERMANENT DATUM
 LMF .                 KB:   LOG MEASURED FROM
 DAPD.FT               13:   FEET ABOVE PERMANENT DATUM
 DMF .                 KB:   DRILLING MEASURED FROM
 EKB .FT             2765:   KELLY BUSHING
 EDF .FT             2764:   DRILLING FLOOR
 EGL .FT             2752:   GROUND LEVEL
 DATE.           06/10/80:   RUN DATE
 RUN .                  1:   RUN NUMBER
 DD  .FT             7150:   DEPTH DRILLER
 DL  .FT             7150:   DEPTH LOGGER
 BLI .FT             7147:   BOTTOM LOG INTERVAL
 TLI .FT             5000:   TOP LOG INTERVAL
 CS  .IN            8.625:   CASING SIZE
 CBD .FT             1919:   CASING BOTTOM DRILLER
 CBL .FT             1904:   CASING BOTTOM LOGGER
 BS  .IN            7.875:   BIT SIZE
 BSD .FT             7150:   BIT SIZE AT DEPTH
 DFT .              BRINE:   DRILLING FLUID TYPE
 DFD .                 10:   DRILLING FLUID DENSITY
 DFV .                 35:   DRILLING FLUID VISCOSITY
 DFPH.                9.5:   DRILLING FLUID PH
 DFL .                 20:   DRILLING FLUID LOSS
 MSS .               CIRC:   MUD SAMPLE SOURCE
 RMS .OHMM           .055:   RESISTIVITY MUD SAMPLE
 MST .DEGF             73:   MUD SAMPLE TEMPERATURE
 RMF .OHMM           .055:   RESISTIVITY MUD FILTRATE SAMPLE
 MFST.DEGF             73:   MUD FILTRATE SAMPLE TEMPERATURE
 MFSS.                  M:   MUD FILTRATE SAMPLE SOURCE
 RMB .OHMM            .03:   RESISTIVITY MUD AT BHT
 BHT .DEGF            107:   BOTTOM HOLE TEMPERATURE
 TCS .HRS            1615:   TIME CIRCULATED STOPPED
 TLAB.HRS            0300:   TIME LOGGER AT BOTTOM
 MRT .DEGF            107:   MAXIMUM RECORDED TEMPERATURE
 LUN .               8024:   LOGGING UNIT NUMBER
 LUL .               MONA:   LOGGING UNIT LOCATION
 ENGI.           MC BRIDE:   RECORDING ENGINEER
 CLNT.            :   CLIENT CODE
 ORIG.      1" 2.5" PRINT:   ORIGIN OF DATA
 UWI .     42371330900000:   UNIQUE WELL ID
 
~OTHER INFORMATION
~A    DEPT     GRD        GRR         GRS        DT       CALD       CORR       RHOB      NPHI_LS    DPHI_LS      LLD        LLS   
# ...
 6374.5000    52.0492    52.0591    49.1529    59.8348     9.6683     0.0006     2.6599     0.0978     0.0369    39.3540    36.7654
 6375.0000    55.8466    55.4581    51.2955    60.8511     9.6518     0.0008     2.6403     0.1053     0.0436    35.5929    35.3605
 6375.5000    58.7967    59.2574    55.7183    61.7081     9.6404     0.0013     2.6314     0.1220     0.0493    32.1913    32.5755
 6376.0000    60.7531    63.0568    58.9647    62.4305     9.6479     0.0056     2.6228     0.1372     0.0569    27.6848    28.1803
 6376.5000    63.1323    65.3313    62.1372    63.1529     9.6570     0.0141     2.6105     0.1419     0.0612    23.6262    24.0486
 6377.0000    65.0207    66.8642    65.4261    63.9541     9.6785     0.0183     2.5994     0.1395     0.0724    20.1627    20.5227
 6377.5000    66.2827    66.4296    65.9622    64.9625     9.7045     0.0224     2.5884     0.1325     0.0788    16.6526    16.9653
 6378.0000    66.0454    63.8137    64.0984    66.5686     9.7117     0.0241     2.5783     0.1328     0.0849    13.2922    12.9232
 6378.5000    64.2817    61.9480    61.2327    69.1457     9.7068     0.0247     2.5660     0.1395     0.0981    10.5947    10.3530
 6379.0000    61.7823    60.0823    61.4005    70.3774     9.7155     0.0225     2.5433     0.1527     0.1122     8.4446     8.2568
 6379.5000    60.1639    58.2166    61.8191    71.0460     9.7070     0.0152     2.5173     0.1632     0.1203     6.7308     6.5850
 6380.0000    60.0507    57.0972    60.6869    71.5828     9.7016     0.0071     2.5056     0.1644     0.1271     5.3649     5.2517
 6380.5000    59.5805    57.9978    59.4375    72.1444     9.7080    -0.0011     2.4939     0.1649     0.1342     4.9024     4.7794
 6381.0000    57.1235    59.4516    58.9503    72.5542     9.7134    -0.0032     2.4793     0.1670     0.1419     4.6932     4.4503
 6381.5000    53.5613    60.2950    59.2625    73.1312     9.7060    -0.0016     2.4696     0.1734     0.1481     4.4930     4.3039
 6382.0000    49.9991    57.4998    58.7431    74.0112     9.7034     0.0029     2.4615     0.1747     0.1534     4.2456     4.0176
 6382.5000    47.1493    50.5118    55.6752    74.6011     9.7019     0.0073     2.4519     0.1682     0.1660     3.7409     3.5069
 6383.0000    47.1493    45.6753    50.7002    74.8937     9.7004     0.0132     2.4489     0.1702     0.1688     3.2962     3.0611
 6383.5000    47.1493    44.0608    46.9239    75.4520     9.6989     0.0197     2.4453     0.1745     0.1645     3.0855     2.8190
 6384.0000    46.6087    43.4138    44.1138    76.2361     9.6974     0.0235     2.4411     0.1784     0.1657     2.9968     2.6196
 6384.5000    43.9060    44.0450    42.0867    77.1157     9.6959     0.0223     2.4356     0.1902     0.1780     2.9106     2.5303
 6385.0000    42.1233    45.8773    40.9193    77.7643     9.6944     0.0154     2.4198     0.2032     0.1908     2.7914     2.5094
 6385.5000    42.6715    47.7097    40.8909    77.8009     9.6921     0.0086     2.4090     0.2151     0.1929     2.5874     2.3418
 6386.0000    45.0967    48.4908    43.3060    77.4802     9.6755     0.0017     2.4052     0.2134     0.1926     2.4881     2.2142
 6386.5000    49.2051    49.9316    48.2659    77.1747     9.6590    -0.0002     2.4028     0.1948     0.1910     2.4729     2.1621
 6387.0000    53.3136    51.5175    53.0627    77.2018     9.6444     0.0044     2.4028     0.1954     0.1909     2.4853     2.1607
 6387.5000    56.0360    52.4785    54.6125    77.3385     9.6417     0.0097     2.4046     0.2144     0.1906     2.5679     2.1838
 6388.0000    56.4221    52.9774    54.8044    77.5294     9.6411     0.0149     2.4073     0.2313     0.1831     2.6185     2.2250
 6388.5000    52.5772    51.8392    54.0992    78.0755     9.6429     0.0202     2.4146     0.2424     0.1732     2.6252     2.1864
 6389.0000    48.7324    49.5052    52.6709    78.8314     9.6465     0.0213     2.4219     0.2413     0.1794     2.5863     2.1330
 6389.5000    45.3529    46.6465    50.0048    79.5192     9.6453     0.0201     2.4292     0.2414     0.1919     2.4210     2.0348
 6390.0000    43.5374    42.8298    48.0390    79.4131     9.6442     0.0091     2.4365     0.2403     0.2006     2.1835     1.8842
 6390.5000    42.2916    41.5391    45.4864    77.9892     9.6430     0.0091     2.4438     0.2298     0.1938     1.9948     1.8256
 6391.0000    43.1372    43.0291    45.6881    76.5536     9.6418     0.0093     2.4511     0.2157     0.1763     2.1037     1.8602
 6391.5000    47.4380    45.9877    46.3493    75.5558     9.6407     0.0105     2.4561     0.2025     0.1630     2.5051     1.9802
 6392.0000    51.7388    50.4193    47.4435    74.8253     9.6395     0.0095     2.4520     0.2063     0.1575     3.0092     2.3880
 6392.5000    55.5223    54.8081    50.8378    74.5726     9.6384     0.0069     2.4474     0.2140     0.1610     3.5916     2.8735
 6393.0000    57.0515    59.2336    55.0843    74.3018     9.6315     0.0035     2.4486     0.2176     0.1642     3.8183     2.9779
 6393.5000    56.3603    61.8578    58.3672    73.4789     9.6183     0.0001     2.4521     0.2168     0.1642     3.8857     3.0681
 6394.0000    54.2253    58.1308    59.9388    71.9396     9.6167    -0.0026     2.4555     0.2062     0.1590     3.9555     3.2418
 6394.5000    52.3626    53.4329    58.8798    70.4180     9.6216    -0.0032     2.4892     0.1911     0.1462     4.5207     3.6513
 6395.0000    53.0553    49.7078    55.8439    69.9429     9.6241    -0.0022     2.4991     0.1812     0.1331     4.9005     3.9706
 6395.5000    55.2683    51.2456    52.9185    70.6021     9.6193     0.0014     2.4770     0.1799     0.1404     5.0558     4.0697
 6396.0000    57.8114    59.0674    54.7083    72.1836     9.6145     0.0049     2.4492     0.2026     0.1560     4.6926     4.0715
 6396.5000    59.8857    62.3252    57.4189    73.2698     9.6096     0.0083     2.4306     0.2364     0.1747     4.1588     3.6830
 6397.0000    60.6580    63.4256    58.6981    73.5382     9.6071     0.0070     2.4372     0.2449     0.1725     3.7019     3.2491
 6397.5000    60.5456    63.0950    59.3359    73.9630     9.6065    -0.0003     2.4424     0.2399     0.1684     3.5418     3.0562
 6398.0000    60.1166    62.2969    61.0546    74.6333     9.6041    -0.0037     2.4380     0.2281     0.1682     3.4859     3.0470
 6398.5000    59.7058    61.5202    63.2891    75.4931     9.5898     0.0014     2.4335     0.2118     0.1752     3.4369     3.0482
 6399.0000    59.2950    61.2456    62.3507    75.6317     9.5949     0.0075     2.4291     0.2152     0.1767     3.4384     3.0559
 6399.5000    59.3481    60.9346    60.9057    75.3298     9.5967     0.0040     2.4247     0.2221     0.1751     3.4400     3.0976
 6400.0000    59.7883    59.4095    59.2199    74.0659     9.5793    -0.0025     2.4316     0.2235     0.1669     3.4814     3.2988
 6400.5000    60.2462    59.4156    58.4751    72.0300     9.5619    -0.0025     2.4584     0.2151     0.1546     3.5987     3.5612
 6401.0000    60.5640    59.2994    58.8359    70.4241     9.5445    -0.0012     2.4852     0.1958     0.1472     3.9462     3.8962
 6401.5000    61.8318    57.0043    60.7020    69.3503     9.5364     0.0019     2.5005     0.1812     0.1371     4.3473     4.3896
 6402.0000    64.7514    56.1749    61.0263    69.0933     9.5298     0.0049     2.5138     0.1740     0.1260     4.7891     4.9454
 6402.5000    67.6126    59.4463    68.9774    68.9490     9.5232     0.0080     2.5269     0.1797     0.1149     5.2758     5.5717
 6403.0000    69.1005    63.2392    70.3501    68.6767     9.5062     0.0114     2.5399     0.1896     0.1069     5.9964     6.1387
 6403.5000    68.0808    67.0029    70.0999    68.0796     9.4878     0.0133     2.5587     0.1874     0.0967     6.9789     7.1003
 6404.0000    67.8130    71.0295    66.9141    67.3594     9.4695     0.0110     2.5654     0.1786     0.0893     8.1224     8.2622
 6404.5000    69.4329    74.2336    64.8920    67.0041     9.4512     0.0074     2.5686     0.1689     0.0887     9.4533     9.6142
