~VERSION INFORMATION
 VERS.                2.0:   CWLS LOG ASCII STANDARD - VERSION 2.0
 WRAP.                 NO:   ONE LINE PER DEPTH STEP
~WELL INFORMATION
#MNEM.UNIT      DATA TYPE    INFORMATION
#----------   ------------   ------------------------------
 STRT.FT           0.0000:   START DEPTH
 STOP.FT        7147.0000:   STOP DEPTH
 STEP.FT           0.5000:   STEP LENGTH
 NULL.          -999.2500:   NULL VALUE
 COMP. MOBIL PRODUCING TEXAS & NEW MEEXICO INC:   COMPANY
 WELL. SCHLOSER FRED ESTATE B #2:   WELL
 FLD .      ROJO CABALLOS:   FIELD
 LOC .                   :   LOCATION
 CNTY.              PECOS:   COUNTY
 STAT.              TEXAS:   STATE
 CTRY. UNITED STATES OF AMERICA:   COUNTRY
 SRVC.       Schlumberger:   SERVICE COMPANY
 DATE.        10-Jun-1980:   LOGDATE
 API .     42371330900000:   API NUMBER
~CURVE INFORMATION
#MNEM.UNIT       API CODE    CURVE DESCRIPTION
#----------   ------------   ------------------------------
 DEPT.F                  :   
 GRD .GAPI   45 310 01 00:   GAMMA RAY FROM DENSITY LOG
 GRR .GAPI   11 310 01 00:   GAMMA RAY FROM RESISTIVITY LOG
 GRS .GAPI   60 310 01 00:   GAMMA RAY FROM SONIC LOG
 DT  .US/F   60 500 00 00:   DELTA-T (INTERVAL TRANSIT TIME)
 CALD.IN     45 280 60 00:   CALIPER FROM DENSITY LOG
 CORR.G/C3   45 356 01 00:   DENSITY CORRECTION
 RHOB.G/C3   45 350 01 00:   BULK DENSITY
 NPHI_LS.DEC 42 890 01 00:   NEUTRON POROSITY LIMESTONE
 DPHI_LS.DEC 45 890 10 00:   DENSITY POROSITY LIMESTONE
 LLD .OHMM   11 220 10 00:   LATEROLOG DEEP RESISTIVITY
 LLS .OHMM   11 220 09 00:   LATEROLOG SHALLOW RESISTIVITY
~PARAMETER INFORMATION
#MNEM.UNIT          VALUE    DESCRIPTION
#----------   ------------   ------------------------------
 PD  .                 GL:   PERMANENT DATUM
 EPD .FT             2752:   ELEVATION PERMANENT DATUM
 LMF .                 KB:   LOG MEASURED FROM
 DAPD.FT               13:   FEET ABOVE PERMANENT DATUM
 DMF .                 KB:   DRILLING MEASURED FROM
 EKB .FT             2765:   KELLY BUSHING
 EDF .FT             2764:   DRILLING FLOOR
 EGL .FT             2752:   GROUND LEVEL
 DATE.           06/10/80:   RUN DATE
 RUN .                  1:   RUN NUMBER
 DD  .FT             7150:   DEPTH DRILLER
 DL  .FT             7150:   DEPTH LOGGER
 BLI .FT             7147:   BOTTOM LOG INTERVAL
 TLI .FT             5000:   TOP LOG INTERVAL
 CS  .IN            8.625:   CASING SIZE
 CBD .FT             1919:   CASING BOTTOM DRILLER
 CBL .FT             1904:   CASING BOTTOM LOGGER
 BS  .IN            7.875:   BIT SIZE
 BSD .FT             7150:   BIT SIZE AT DEPTH
 DFT .              BRINE:   DRILLING FLUID TYPE
 DFD .                 10:   DRILLING FLUID DENSITY
 DFV .                 35:   DRILLING FLUID VISCOSITY
 DFPH.                9.5:   DRILLING FLUID PH
 DFL .                 20:   DRILLING FLUID LOSS
 MSS .               CIRC:   MUD SAMPLE SOURCE
 RMS .OHMM           .055:   RESISTIVITY MUD SAMPLE
 MST .DEGF             73:   MUD SAMPLE TEMPERATURE
 RMF .OHMM           .055:   RESISTIVITY MUD FILTRATE SAMPLE
 MFST.DEGF             73:   MUD FILTRATE SAMPLE TEMPERATURE
 MFSS.                  M:   MUD FILTRATE SAMPLE SOURCE
 RMB .OHMM            .03:   RESISTIVITY MUD AT BHT
 BHT .DEGF            107:   BOTTOM HOLE TEMPERATURE
 TCS .HRS            1615:   TIME CIRCULATED STOPPED
 TLAB.HRS            0300:   TIME LOGGER AT BOTTOM
 MRT .DEGF            107:   MAXIMUM RECORDED TEMPERATURE
 LUN .               8024:   LOGGING UNIT NUMBER
 LUL .               MONA:   LOGGING UNIT LOCATION
 ENGI.           MC BRIDE:   RECORDING ENGINEER
 CLNT.            :   CLIENT CODE
 ORIG.      1" 2.5" PRINT:   ORIGIN OF DATA
 UWI .     42371330900000:   UNIQUE WELL ID
 
~OTHER INFORMATION
~A    DEPT     GRD        GRR         GRS        DT       CALD       CORR       RHOB      NPHI_LS    DPHI_LS      LLD        LLS   
# ...
 5215.5000    67.5598    64.7012    64.6718    64.4274     9.3072     0.0110     2.5827     0.1214     0.0812    13.7078    15.2667
 5216.0000    73.1416    68.2177    67.3156    65.5889     9.3274     0.0168     2.5938     0.1261     0.0747    13.8187    15.0511
 5216.5000    78.6368    70.7337    73.3118    67.1589     9.3476     0.0296     2.6050     0.1366     0.0656    13.8422    14.8422
 5217.0000    86.4083    76.0512    79.9877    68.2377     9.3562     0.0266     2.6130     0.1471     0.0629    13.7100    14.6362
 5217.5000    94.4646    83.1171    87.2643    69.4235     9.3702     0.0223     2.6050     0.1621     0.0650    13.8440    14.6306
 5218.0000   104.5868    91.0342    94.9863    70.9572     9.3884     0.0180     2.5946     0.1810     0.0715    15.3494    15.8330
 5218.5000   113.0411    99.1195   102.0540    71.8454     9.4074     0.0138     2.5843     0.1957     0.0803    17.0617    17.1593
 5219.0000   116.2595   107.2887   107.6693    72.5463     9.4340     0.0095     2.5694     0.2123     0.0879    18.2967    17.8587
 5219.5000   109.2404   105.3033   108.2474    71.6125     9.4605     0.0084     2.5505     0.2147     0.1001    17.8423    16.2884
 5220.0000    96.4744    93.7190    96.0707    70.2929     9.4900     0.0089     2.5316     0.2045     0.1148    14.5990    14.4554
 5220.5000    81.6284    80.5652    81.5777    69.7870     9.5200     0.0162     2.5127     0.1621     0.1298    11.8985    11.9734
 5221.0000    68.5771    73.2213    70.8261    70.3811     9.5231     0.0235     2.5066     0.1415     0.1307    10.0619    10.1030
 5221.5000    62.1413    67.8681    62.6730    71.5604     9.5376     0.0309     2.4969     0.1225     0.1344     8.8564     8.9805
 5222.0000    59.4924    64.6506    59.7631    73.3538     9.5580     0.0308     2.4528     0.1232     0.1492     7.9650     8.0771
 5222.5000    58.7050    63.8494    59.4423    75.1338     9.5857     0.0224     2.4167     0.1461     0.1746     7.2394     7.2645
 5223.0000    58.3829    63.0482    59.4423    75.8615     9.6197     0.0139     2.4106     0.1648     0.1851     6.5799     6.5336
 5223.5000    59.0657    61.1642    59.4423    76.0110     9.6571     0.0097     2.4106     0.1701     0.1883     5.9804     5.8763
 5224.0000    60.4165    58.3889    59.3020    75.9808     9.6938     0.0136     2.4106     0.1690     0.1880     5.4974     5.3097
 5224.5000    60.2711    58.3889    58.8537    74.8772     9.7212     0.0163     2.4171     0.1608     0.1867     5.3462     5.1831
 5225.0000    58.2402    59.1856    58.2228    72.9890     9.7338     0.0046     2.4290     0.1583     0.1832     5.4065     5.1845
 5225.5000    56.2137    59.9821    57.5504    72.2004     9.7437     0.0019     2.4409     0.1585     0.1713     6.1402     5.4460
 5226.0000    56.7765    58.4686    57.7173    73.0594     9.7536     0.0042     2.4528     0.1504     0.1632     6.8945     5.8293
 5226.5000    59.5447    56.4771    58.5477    74.6788     9.7635     0.0096     2.4417     0.1235     0.1645     7.0488     5.9300
 5227.0000    61.9563    57.1144    59.7033    76.3887     9.7734     0.0103     2.4154     0.1260     0.1794     6.8887     5.7842
 5227.5000    63.4738    58.7075    61.4233    76.6451     9.7787     0.0103     2.4042     0.1370     0.1909     6.1929     5.1860
 5228.0000    62.4111    60.3007    63.1932    76.0467     9.7883     0.0103     2.4073     0.1534     0.1891     5.6150     4.7006
 5228.5000    61.5231    60.9379    64.8507    75.4055     9.8101     0.0103     2.4137     0.1643     0.1819     5.5617     4.5519
 5229.0000    61.3798    60.9379    64.3535    74.9312     9.8199     0.0118     2.4201     0.1595     0.1784     5.7715     4.6187
 5229.5000    60.9436    58.6207    61.4695    74.8484     9.8311     0.0163     2.4265     0.1529     0.1731     6.1920     4.7954
 5230.0000    60.8731    56.3033    56.7849    74.9329     9.8471     0.0247     2.4329     0.1400     0.1691     6.5484     4.9293
 5230.5000    61.0542    55.8398    54.9450    75.5002     9.8672     0.0279     2.4393     0.1453     0.1738     6.5907     5.0000
 5231.0000    62.1349    57.6321    55.1499    76.0676     9.9039     0.0274     2.4266     0.1530     0.1814     6.5262     5.0000
 5231.5000    62.6104    59.4244    55.8088    76.8627     9.9313     0.0259     2.4126     0.1603     0.1885     6.3117     4.7894
 5232.0000    62.1670    61.2167    55.0838    77.6757     9.9290     0.0244     2.4029     0.1641     0.1942     5.9814     4.4581
 5232.5000    61.2940    60.8743    54.9845    77.8927     9.9991     0.0230     2.4029     0.1719     0.1945     5.8200     4.2175
 5233.0000    60.2964    60.2370    57.4645    77.9186    10.0181     0.0221     2.4039     0.1812     0.1916     5.6615     4.1104
 5233.5000    59.0288    59.5997    60.3145    77.8936    10.0181     0.0211     2.4121     0.1833     0.1906     5.5635     4.0562
 5234.0000    58.6416    59.3448    61.8609    77.8687    10.0198     0.0207     2.4203     0.1776     0.1906     5.5364     4.0323
 5234.5000    59.9201    60.3987    62.0193    77.8437    10.0243     0.0215     2.4246     0.1782     0.1824     5.5760     4.0130
 5235.0000    62.0167    61.6242    61.9111    77.8566    10.0580     0.0223     2.4213     0.1747     0.1820     5.6520     3.9938
 5235.5000    63.7389    62.8498    63.7172    78.0550    10.0882     0.0242     2.4180     0.1685     0.1827     5.7282     3.9747
 5236.0000    63.2445    61.0575    66.0236    78.6501    10.1041     0.0293     2.4147     0.1678     0.1855     5.7282     3.9741
 5236.5000    60.2700    58.0703    63.9197    80.0073    10.1407     0.0344     2.4114     0.1777     0.1888     5.4535     3.7987
 5237.0000    56.5903    57.4330    58.3644    82.1352    10.2077     0.0370     2.4081     0.1877     0.1930     4.8915     3.5831
 5237.5000    53.2949    56.0496    52.1864    83.3137    10.2611     0.0360     2.3985     0.1899     0.2017     4.3223     3.2903
 5238.0000    50.3192    53.3876    46.3427    83.8276    10.3144     0.0310     2.3885     0.1855     0.2087     3.7949     2.8555
 5238.5000    48.6651    50.7257    43.4894    83.5469    10.3678     0.0260     2.3786     0.1716     0.2020     3.5224     2.5622
 5239.0000    47.5837    48.0639    43.4799    82.7600    10.3917     0.0215     2.3758     0.1665     0.1944     3.5307     2.5296
 5239.5000    47.0387    46.0861    43.9400    82.2721    10.3948     0.0146     2.3743     0.1752     0.1990     3.6132     2.5818
 5240.0000    46.5523    43.4446    43.6976    82.2421    10.3978     0.0020     2.3690     0.1913     0.2006     3.8360     2.7039
 5240.5000    45.8685    41.4939    43.0466    81.5391    10.4008    -0.0020     2.3610     0.2066     0.2286     3.9106     2.7622
 5241.0000    45.6063    41.0776    42.7776    80.2156    10.3964    -0.0026     2.3531     0.2220     0.2310     3.8295     2.7247
 5241.5000    45.6929    40.6894    42.4938    78.7600    10.3851    -0.0029     2.3577     0.2258     0.2288     3.7260     2.6317
 5242.0000    46.1254    40.2607    42.1121    77.3431    10.3737    -0.0007     2.3823     0.2193     0.1997     3.7640     2.6533
 5242.5000    48.7061    39.8725    42.2416    77.3431    10.3578     0.0233     2.4154     0.2088     0.1732     3.9400     2.8505
 5243.0000    52.0132    39.9699    44.3983    78.0529    10.3324     0.0350     2.4535     0.2027     0.1560     4.1243     2.9291
 5243.5000    55.9007    44.0049    47.6148    78.8779    10.3070     0.0301     2.4436     0.2011     0.1697     4.2961     2.9983
 5244.0000    59.7884    48.0805    50.7474    79.1143    10.2816     0.0233     2.4024     0.2086     0.1948     4.3638     3.0805
 5244.5000    59.6108    52.1071    54.9895    79.1139    10.2475     0.0174     2.3934     0.2117     0.2045     4.3860     3.0591
 5245.0000    58.0192    54.9922    57.3426    78.7121    10.2246     0.0174     2.3876     0.2126     0.1995     4.4074     3.0670
 5245.5000    56.8537    55.9837    58.8589    78.2721    10.2239     0.0193     2.3948     0.2131     0.1925     4.4090     3.0748
