#--------------------------------------------------#
#-------------------ENVERUS, INC.------------------#
#------------------WWW.ENVERUS.COM-----------------#
#------------------COPYRIGHT 2020------------------#
#--------------------------------------------------#
#THIS FILE MAY BE USED ONLY IN ACCORDANCE WITH A CURRENT SUBSCRIPTION AGREEMENT BETWEEN
#THE USER AND ENVERUS, INC. NO PART OF THIS FILE MAY BE REPRODUCED, USED, COPIED,
#MODIFIED, PROPAGATED, OR DISTRIBUTED EXCEPT IN ACCORDANCE WITH THE SUBSCRIPTION
#AGREEMENT. UNAUTHORIZED USE OR DISTRIBUTION OF ALL OR ANY PART OF THIS FILE MAY VIOLATE
#COPYRIGHT, TRADEMARK, AND/OR OTHER LAWS AND IS SUBJECT TO CIVIL AS WELL AS CRIMINAL
#SANCTIONS.
#--------------------------------------------------#
#THIS FILE IS PROVIDED "AS-IS" AND ALL WARRANTIES ARE EXPRESSLY DISCLAIMED, WHETHER
#EXPRESS, ORAL, IMPLIED, STATUTORY OR OTHERWISE, INCLUDING ANY IMPLIED WARRANTY OF FITNESS
#FOR A PARTICULAR PURPOSE, MERCHANTABILITY, TITLE OR NON-INFRINGEMENT, AND ANY WARRANTIES
#ARISING BY VIRTUE OF CUSTOM OF TRADE OR COURSE OF DEALING.  FURTHER, ENVERUS, INC.
#AND ITS LICENSORS DO NOT REPRESENT OR WARRANT THAT THIS FILE WILL MEET USER'S
#REQUIREMENTS OR ARE SUITABLE FOR USER'S NEEDS OR THAT THE DATA OR RESULTS PROVIDED IN
#CONJUNCTION THEREWITH ARE CORRECT, ACCURATE, TIMELY OR RELIABLE. THESE DISCLAIMERS SHALL
#APPLY REGARDLESS OF ANY FAILURE OF ESSENTIAL PURPOSE OF ANY LIMITED REMEDY.  SOME
#JURISDICTIONS DO NOT ALLOW THE EXCLUSION OF CERTAIN WARRANTIES SO SOME OF THE ABOVE
#EXCLUSIONS MAY NOT APPLY. IN NO EVENT SHALL ENVERUS, INC. OR ANY OF ITS AFFILIATES
#BE LIABLE UNDER ANY LEGAL THEORY, WHETHER IN TORT (INCLUDING WITHOUT LIMITATION
#NEGLIGENCE), CONTRACT, STRICT LIABILITY, STATUTORY OR OTHERWISE, FOR ANY SPECIAL,
#INCIDENTAL, CONSEQUENTIAL, EXEMPLARY, PUNITIVE OR INDIRECT DAMAGE OF ANY KIND, INCLUDING
#WITHOUT LIMITATION LOSS OF REVENUE, PROFITS, GOODWILL, USE, AND/OR DATA OR THE COST OF
#PROCUREMENT OF SUBSTITUTE GOODS OR SERVICES, EVEN IF APPRISED OF THE POSSIBILITY OF SUCH
#DAMAGES IN ADVANCE.
#--------------------------------------------------#

~VERSION INFORMATION
VERS. 2.0 : CWLS LOG ASCII STANDARD - VERSION 2.0
WRAP.  NO : ONE LINE PER DEPTH STEP
~WELL INFORMATION
#MNEMONIC     .UNIT              VALUE :DESCRIPTION
STRT       .FT                101 :START DEPTH
STOP       .FT                5444 :STOP DEPTH
STEP       .FT                   0.500 :STEP
NULL       .                  -999.99 :NULL
UWI        .                42389004350000 :UNIQUE WELL ID
API        .                42389004350000 :API NUMBER
COMP       .         :COMPANY
WELL       .        :WELL
DATE       .                 :LOG DATE
FLD       .                 :FIELD NAME
LOC       .                  UNK :LOCATION
CNTY       .                 UNK :COUNTY
STAT       .                 UNK :STATE
CTRY       .                 UNK :COUNTY
SRVC       .                 UNK :SERVICE COMPANY
~CURVE INFORMATION
#MNEMONIC     .UNIT      API CODE :CURVE DESCRIPTION
DEPTH       .FT                      :MEASURED DEPTH
DT.MSEC/FT        UNKNOWN   :DT
GR.API        UNKNOWN   :GR
~A    DEPTH    DT    GR
# ...
 2270.5     63.05844   1.12113
 2271     63.59117   1.63225
 2271.5     64.12389   2.14338
 2272     64.65662   2.6545
 2272.5     65.06419   3.16562
 2273     65.30381   3.58098
 2273.5     65.54342   3.63049
 2274     65.78304   3.68001
 2274.5     66.02265   3.70964
 2275     68.13443   3.41007
 2275.5     68.9412   3.1105
 2276     68.76986   2.81092
 2276.5     67.201   2.51135
 2277     66.70495   2.21178
 2277.5     67.65776   2.94102
 2278     68.61057   6.69405
 2278.5     69.56339   10.44708
 2279     70.5162   14.20011
 2279.5     71.46901   17.95314
 2280     71.6554   21.70617
 2280.5     70.76558   20.30715
 2281     69.87577   17.16975
 2281.5     68.98595   14.03236
 2282     68.69439   10.89497
 2282.5     69.55188   7.75757
 2283     69.14964   5.35144
 2283.5     68.4542   4.96674
 2284     68.74129   4.58203
 2284.5     69.02838   4.19732
 2285     69.31547   3.69204
 2285.5     69.60255   3.09562
 2286     69.88964   2.4992
 2286.5     69.06489   1.90278
 2287     68.06244   2.27653
 2287.5     68.53904   2.8052
 2288     69.31363   3.33387
 2288.5     69.96036   3.86254
 2289     69.686   4.39121
 2289.5     69.41164   4.91989
 2290     69.13728   5.44856
 2290.5     68.86292   5.97723
 2291     69.26518   6.03514
 2291.5     69.70124   5.64796
 2292     70.13731   5.26078
 2292.5     70.57338   4.87359
 2293     70.82057   4.48641
 2293.5     69.87403   4.09922
 2294     68.92748   3.71204
 2294.5     67.98094   3.32486
 2295     68.13054   2.93767
 2295.5     69.08644   2.84733
 2296     70.04234   3.01402
 2296.5     69.52109   3.18071
 2297     68.73416   3.3474
 2297.5     67.94723   3.51409
 2298     68.6068   3.93229
 2298.5     69.68095   4.40663
 2299     69.87947   4.88098
 2299.5     69.45918   5.25364
 2300     69.0389   5.10322
 2300.5     68.61862   4.95281
 2301     69.07293   4.8024
 2301.5     69.56748   4.65198
 2302     70.06204   4.50157
 2302.5     69.95605   4.35115
 2303     69.63857   4.20074
 2303.5     69.43457   4.05033
 2304     69.94304   3.89991
 2304.5     70.45151   4.05947
 2305     70.95998   4.3604
 2305.5     70.9296   4.66132
 2306     70.03186   4.96225
 2306.5     69.13413   5.26317
 2307     69.39039   5.5641
 2307.5     69.87729   5.86503
 2308     70.36419   6.16595
 2308.5     70.85109   6.46688
 2309     71.33798   6.7678
 2309.5     68.26005   7.43455
 2310     61.2477   9.40548
 2310.5     61.13861   11.37641
 2311     62.88035   11.12891
 2311.5     64.62209   9.72771
 2312     66.36383   8.32652
 2312.5     68.10557   6.92532
 2313     69.84731   5.973
 2313.5     69.59233   5.76277
 2314     68.0987   5.55254
 2314.5     66.60508   5.34231
 2315     65.11145   5.13208
 2315.5     62.04666   4.92185
 2316     58.00007   4.71162
 2316.5     56.0254   4.50139
 2317     58.7586   4.29116
 2317.5     61.49179   4.08093
 2318     64.22499   3.8707
 2318.5     66.95818   3.7107
 2319     69.69137   3.56024
 2319.5     72.42457   3.40978
 2320     69.51661   3.25931
 2320.5     66.15465   3.10885
 2321     67.01895   2.95839
 2321.5     67.88325   2.80793
 2322     68.74755   2.65747
 2322.5     69.61185   2.507
 2323     69.76609   2.35654
 2323.5     69.59621   2.489
 2324     69.19408   3.24673
 2324.5     65.69571   4.00446
 2325     62.19733   4.7622
 2325.5     58.69896   5.51993
 2326     55.20059   6.15643
 2326.5     51.70221   5.7999
 2327     48.31812   5.44337
 2327.5     49.13006   5.08684
 2328     50.19008   4.73031
 2328.5     51.25009   4.37378
 2329     52.31011   4.01725
 2329.5     53.37012   3.66072
 2330     54.43014   3.30419
 2330.5     53.73677   2.94766
 2331     52.92282   2.59113
 2331.5     52.10886   2.26236
 2332     51.81137   3.02897
 2332.5     52.49973   3.79559
 2333     53.18809   4.5622
 2333.5     53.70547   5.32881
 2334     52.83702   6.09542
 2334.5     54.44926   6.86203
 2335     57.91041   7.62864
 2335.5     60.73374   8.39525
 2336     63.38849   8.8184
 2336.5     66.04324   7.67088
 2337     68.69799   6.52335
 2337.5     71.35274   5.37583
 2338     70.61969   4.22831
 2338.5     68.25541   3.13638
 2339     69.5649   2.04969
 2339.5     69.00171   .96301
 2340     66.62546   1.15787
 2340.5     64.24921   1.85815
 2341     61.87296   2.55842
 2341.5     59.49671   3.2587
 2342     57.12046   3.95898
 2342.5     54.74421   4.65926
 2343     52.68465   5.35954
 2343.5     52.09498   6.05982
 2344     51.50531   6.22451
 2344.5     53.31983   5.53678
 2345     53.3603   4.84906
 2345.5     53.40076   4.16133
 2346     53.44123   3.47361
 2346.5     53.4817   2.78588
 2347     52.81517   2.09816
 2347.5     51.94757   1.78052
 2348     51.31149   1.84007
 2348.5     51.52155   1.89962
 2349     51.73162   2.64695
 2349.5     51.94169   3.49652
 2350     52.15175   4.34609
 2350.5     67.77284   5.19566
 2351     66.60361   6.04523
 2351.5     69.28439   6.18862
 2352     67.7037   5.98823
 2352.5     64.77394   5.78785
 2353     61.84418   5.58746
 2353.5     58.91442   5.38708
 2354     55.98466   5.18669
 2354.5     53.05491   4.98631
 2355     50.10994   4.78592
 2355.5     48.87584   4.58554
 2356     49.60987   4.38515
 2356.5     50.34391   4.18477
 2357     51.07794   4.34144
 2357.5     51.81197   4.72507
 2358     52.22569   5.1087
 2358.5     52.49949   5.49233
 2359     52.77328   5.87596
 2359.5     53.04708   6.25958
 2360     52.29957   5.49954
 2360.5     51.52807   5.84371
 2361     51.69859   6.18787
 2361.5     51.95331   6.3381
 2362     52.20802   5.63035
 2362.5     52.46273   4.92259
 2363     52.447   4.21484
 2363.5     52.29815   3.50709
 2364     52.1493   3.59573
 2364.5     52.00044   3.73189
 2365     51.85159   3.86805
 2365.5     51.70274   4.00421
 2366     51.55388   4.14037
 2366.5     51.97425   4.36906
 2367     52.4942   5.0349
 2367.5     53.01415   5.70074
 2368     53.5341   6.36658
 2368.5     53.64968   7.03242
 2369     53.45929   7.69827
 2369.5     53.26891   7.03231
 2370     53.07853   6.31708
 2370.5     56.02214   6.1743
 2371     59.30645   7.28325
 2371.5     62.59077   8.39221
 2372     64.56334   9.50116
 2372.5     66.50753   10.61011
 2373     68.45173   11.71907
 2373.5     70.39592   12.82802
 2374     72.34012   13.72788
 2374.5     67.56658   11.30003
 2375     67.80663   8.87219
 2375.5     68.04667   6.44435
 2376     68.28672   5.54298
 2376.5     67.31707   5.00513
 2377     63.83049   4.46728
 2377.5     60.3439   3.92943
 2378     56.85731   3.39158
 2378.5     53.37073   3.39914
 2379     50.26839   3.91255
 2379.5     51.98767   4.42596
 2380     52.77154   4.93937
 2380.5     52.20788   5.45277
 2381     51.64423   5.57613
 2381.5     51.91446   4.78218
 2382     52.37114   3.98822
 2382.5     52.82782   3.19427
 2383     52.67045   2.40032
 2383.5     52.12619   1.60636
 2384     51.58193   .81241
 2384.5     51.03768   1.17882
 2385     50.49342   1.63143
 2385.5     50.68181   2.08405
 2386     50.91325   2.53666
 2386.5     51.1447   2.98927
 2387     51.37615   3.44189
 2387.5     51.60759   3.8945
 2388     51.83904   4.34712
 2388.5     52.07048   4.9074
 2389     52.63966   5.54807
 2389.5     53.52209   6.18873
 2390     54.40452   6.8294
 2390.5     54.9696   7.47007
 2391     54.70246   8.11073
 2391.5     54.43532   8.7514
 2392     54.51507   9.39206
 2392.5     54.77204   10.03273
 2393     55.029   10.21718
 2393.5     55.28596   10.21654
 2394     54.41448   10.2159
 2394.5     53.47938   10.19485
 2395     52.54428   9.5977
 2395.5     51.60918   9.00055
 2396     51.09748   8.4034
 2396.5     51.46175   7.80625
 2397     51.82602   7.2091
 2397.5     52.19029   6.61195
 2398     52.55456   6.0148
 2398.5     52.91884   5.41765
 2399     53.28311   4.8205
 2399.5     53.64738   4.73634
 2400     54.01165   5.15095
 2400.5     54.37592   5.56556
 2401     54.74019   5.98016
 2401.5     54.97814   6.02743
 2402     54.48943   5.3119
 2402.5     54.00072   4.59636
 2403     53.51201   3.88082
 2403.5     53.0233   3.16528
 2404     52.77809   2.4983
 2404.5     52.80855   3.71702
