###############################################
##         ENVERUS                           ##
##         ESS - Open Hole                   ##
##         PERMIAN / DELAWARE                ##
##         Nov 04 2023  V4.0                 ##
##         42-389-30075-00-00                ##
###############################################
## Copyright 2017-2023  ENVERUS.  All Rights Reserved. 
## Confidential - Property of ENVERUS, use governed by terms and 
## conditions found within the existing Information Services Subscription Agreement 
## (as may be amended, the “ISSA”) between Customer and ENVERUS. 
## 
~VERSION INFORMATION
# MNEM.UNIT                               DATA : DESCRIPTION OF MNEMONIC
#-----.-----     ----------------------------- : -----------------------------
VERS.                                     2.00 : CWLS LOG ASCII STANDARD - VERSION 2.00
WRAP.                                       NO : MULTIPLE LINES PER DEPTH STEP
VEND.                                  ENVERUS : VENDOR
TYPE.                          ESS - OPEN HOLE : ENVERUS ESSENTIAL CURVES – ACCESSIBLE THROUGH ENVERUS PRISM(TM)
DOC.                                  32306518 : ENVERUS HEADER RAW DOCUMENT ID
#___________________________________________________________________________________________________ 
~WELL INFORMATION 
# kPY+8M9YT4rQMtoZY4hkcKqQFbcx8dAfbukAxGfLCr0mY2TilAra5+x7Ygngqds2nYZXTdz9AGmqNniTAH+qTQ== 
# MNEM.UNIT                                              DATA : DESCRIPTION OF MNEMONIC 
#-----.-----                    ----------------------------- : ----------------------------- 
CNTY.                                                  REEVES : COUNTY 
STATE.                                                  TEXAS : STATE 
CNTRY.                                                    USA : COUNTRY 
API.                                             42-389-30075 : API (10 Digit) 
API_14.                                    42-389-30075-00-00 : API (14 Digits) 
API_14_std.                                 42-389-30075-0000 : API (14 Digits Standard) 
UWI.                                           42389300750000 : UNIQUE WELL ID 
WELL.                                        CAMPBELL STATE 1 : WELL NAME
STRT.FT                                                   5.0 : START DEPTH
STOP.FT                                               20980.0 : STOP DEPTH
STEP.FT                                                   0.5 : STEP BETWEEN DEPTHS
NULL.                                                 -999.25 : NULL VALUE
#___________________________________________________________________________________________________ 
~CURVE INFORMATION 
# MNEM.UNIT           : CURVE DESCRIPTION 
#-----.-----          : ----------------------------- 
 DEPT.FT               : MEASURED DEPTH 
 CALI.IN               : CALIPER (CAL - CAL) 
 GR.API                : GAMMA RAY (GR) 
 DT.US/FT              : SONIC DELTA TRANSIT TIME (DT) 
 NPHI.V/V              : NEUTRON POROSITY (NPHI) 
 #___________________________________________________________________________________________________ 
~A         DEPT           CALI             GR             DT           NPHI
# ...
         5411.0         14.668         48.198         67.740     -999.25000
         5411.5         14.674         48.269         68.596     -999.25000
         5412.0         14.680         47.525         70.232     -999.25000
         5412.5         14.687         46.781         73.843     -999.25000
         5413.0         14.693         46.037         73.268     -999.25000
         5413.5         14.678         45.294         72.694     -999.25000
         5414.0         14.663         44.550         69.403     -999.25000
         5414.5         14.648         43.806         67.067     -999.25000
         5415.0         14.632         43.258         67.355     -999.25000
         5415.5         14.617         43.173         67.644     -999.25000
         5416.0         14.601         43.087         67.933     -999.25000
         5416.5         14.586         43.001         68.222     -999.25000
         5417.0         14.570         42.915         68.413     -999.25000
         5417.5         14.555         42.830         68.268     -999.25000
         5418.0         14.539         42.744         68.123     -999.25000
         5418.5         14.524         42.658         67.979     -999.25000
         5419.0         14.508         42.573         67.834     -999.25000
         5419.5         14.493         42.487         69.863     -999.25000
         5420.0         14.482         40.997         72.640     -999.25000
         5420.5         14.479         37.908         74.547     -999.25000
         5421.0         14.477         34.083         73.791     -999.25000
         5421.5         14.474         29.783         73.034     -999.25000
         5422.0         14.472         27.433         72.277     -999.25000
         5422.5         14.469         25.752         71.520     -999.25000
         5423.0         14.466         24.071         74.679     -999.25000
         5423.5         14.464         22.390         75.132     -999.25000
         5424.0         14.461         20.837         75.585     -999.25000
         5424.5         14.459         20.693         75.658     -999.25000
         5425.0         14.456         20.985         75.517     -999.25000
         5425.5         14.453         21.276         74.158     -999.25000
         5426.0         14.451         21.568         72.688     -999.25000
         5426.5         14.448         22.672         71.219     -999.25000
         5427.0         14.445         23.956         71.039     -999.25000
         5427.5         14.443         25.240         72.043     -999.25000
         5428.0         14.440         26.523         73.048     -999.25000
         5428.5         14.438         28.951         74.052     -999.25000
         5429.0         14.435         32.375         75.056     -999.25000
         5429.5         14.434         34.909         74.717     -999.25000
         5430.0         14.436         36.129         73.599     -999.25000
         5430.5         14.438         37.349         72.480     -999.25000
         5431.0         14.440         36.810         71.547     -999.25000
         5431.5         14.441         36.187         71.257     -999.25000
         5432.0         14.443         35.564         70.967     -999.25000
         5432.5         14.445         29.686         70.677     -999.25000
         5433.0         14.447         26.359         70.387     -999.25000
         5433.5         14.449         24.968         71.097     -999.25000
         5434.0         14.448         23.576         73.061     -999.25000
         5434.5         14.448         22.185         76.715     -999.25000
         5435.0         14.447         23.054         78.373     -999.25000
         5435.5         14.446         24.095         78.420     -999.25000
         5436.0         14.446         24.852         79.171     -999.25000
         5436.5         14.445         24.250         80.069     -999.25000
         5437.0         14.444         23.648         81.875     -999.25000
         5437.5         14.443         23.046         85.120     -999.25000
         5438.0         14.443         24.013         86.008     -999.25000
         5438.5         14.442         25.398         85.314     -999.25000
         5439.0         14.441         26.784         84.620     -999.25000
         5439.5         14.441         27.567         83.926     -999.25000
         5440.0         14.440         27.531         83.233     -999.25000
         5440.5         14.439         27.495         83.349     -999.25000
         5441.0         14.438         27.523         83.664     -999.25000
         5441.5         14.438         28.890         83.980     -999.25000
         5442.0         14.437         30.258         84.296     -999.25000
         5442.5         14.436         31.625         83.280     -999.25000
         5443.0         14.435         32.192         78.993     -999.25000
         5443.5         14.435         31.413         74.605     -999.25000
         5444.0         14.434         29.505         72.662     -999.25000
         5444.5         14.433         27.373         71.975     -999.25000
         5445.0         14.433         25.242         73.739     -999.25000
         5445.5         14.432         24.330         75.639     -999.25000
         5446.0         14.431         23.832         77.231     -999.25000
         5446.5         14.430         23.334         76.739     -999.25000
         5447.0         14.429         22.836         76.247     -999.25000
         5447.5         14.428         22.338         75.755     -999.25000
         5448.0         14.426         21.963         75.267     -999.25000
         5448.5         14.425         22.049         75.320     -999.25000
         5449.0         14.424         22.135         75.374     -999.25000
         5449.5         14.423         22.884         75.427     -999.25000
         5450.0         14.422         24.447         75.651     -999.25000
         5450.5         14.421         26.011         76.518     -999.25000
         5451.0         14.419         27.575         77.386     -999.25000
         5451.5         14.418         28.861         78.284     -999.25000
         5452.0         14.417         29.836         79.572     -999.25000
         5452.5         14.416         30.812         80.860     -999.25000
         5453.0         14.415         31.310         82.148     -999.25000
         5453.5         14.409         31.178         83.108     -999.25000
         5454.0         14.393         31.342         83.828     -999.25000
         5454.5         14.376         31.506         83.702     -999.25000
         5455.0         14.359         31.670         82.698     -999.25000
         5455.5         14.342         31.834         81.694     -999.25000
         5456.0         14.325         31.998         80.690     -999.25000
         5456.5         14.326         32.162         80.140     -999.25000
         5457.0         14.344         32.326         79.757     -999.25000
         5457.5         14.362         32.447         79.373     -999.25000
         5458.0         14.380         32.390         79.378     -999.25000
         5458.5         14.398         32.283         79.390     -999.25000
         5459.0         14.413         31.149         79.402     -999.25000
         5459.5         14.413         30.015         79.167     -999.25000
         5460.0         14.413         28.881         78.713     -999.25000
         5460.5         14.413         27.796         78.258     -999.25000
         5461.0         14.413         26.801         77.804     -999.25000
         5461.5         14.412         25.807         77.424     -999.25000
         5462.0         14.412         25.497         78.114     -999.25000
         5462.5         14.412         25.680         78.804     -999.25000
         5463.0         14.412         25.864         79.494     -999.25000
         5463.5         14.412         26.048         80.024     -999.25000
