#--------------------------------------------------#
#-------------------ENVERUS, INC.------------------#
#------------------WWW.ENVERUS.COM-----------------#
#------------------COPYRIGHT 2020------------------#
#--------------------------------------------------#
#THIS FILE MAY BE USED ONLY IN ACCORDANCE WITH A CURRENT SUBSCRIPTION AGREEMENT BETWEEN
#THE USER AND ENVERUS, INC. NO PART OF THIS FILE MAY BE REPRODUCED, USED, COPIED,
#MODIFIED, PROPAGATED, OR DISTRIBUTED EXCEPT IN ACCORDANCE WITH THE SUBSCRIPTION
#AGREEMENT. UNAUTHORIZED USE OR DISTRIBUTION OF ALL OR ANY PART OF THIS FILE MAY VIOLATE
#COPYRIGHT, TRADEMARK, AND/OR OTHER LAWS AND IS SUBJECT TO CIVIL AS WELL AS CRIMINAL
#SANCTIONS.
#--------------------------------------------------#
#THIS FILE IS PROVIDED "AS-IS" AND ALL WARRANTIES ARE EXPRESSLY DISCLAIMED, WHETHER
#EXPRESS, ORAL, IMPLIED, STATUTORY OR OTHERWISE, INCLUDING ANY IMPLIED WARRANTY OF FITNESS
#FOR A PARTICULAR PURPOSE, MERCHANTABILITY, TITLE OR NON-INFRINGEMENT, AND ANY WARRANTIES
#ARISING BY VIRTUE OF CUSTOM OF TRADE OR COURSE OF DEALING.  FURTHER, ENVERUS, INC.
#AND ITS LICENSORS DO NOT REPRESENT OR WARRANT THAT THIS FILE WILL MEET USER'S
#REQUIREMENTS OR ARE SUITABLE FOR USER'S NEEDS OR THAT THE DATA OR RESULTS PROVIDED IN
#CONJUNCTION THEREWITH ARE CORRECT, ACCURATE, TIMELY OR RELIABLE. THESE DISCLAIMERS SHALL
#APPLY REGARDLESS OF ANY FAILURE OF ESSENTIAL PURPOSE OF ANY LIMITED REMEDY.  SOME
#JURISDICTIONS DO NOT ALLOW THE EXCLUSION OF CERTAIN WARRANTIES SO SOME OF THE ABOVE
#EXCLUSIONS MAY NOT APPLY. IN NO EVENT SHALL ENVERUS, INC. OR ANY OF ITS AFFILIATES
#BE LIABLE UNDER ANY LEGAL THEORY, WHETHER IN TORT (INCLUDING WITHOUT LIMITATION
#NEGLIGENCE), CONTRACT, STRICT LIABILITY, STATUTORY OR OTHERWISE, FOR ANY SPECIAL,
#INCIDENTAL, CONSEQUENTIAL, EXEMPLARY, PUNITIVE OR INDIRECT DAMAGE OF ANY KIND, INCLUDING
#WITHOUT LIMITATION LOSS OF REVENUE, PROFITS, GOODWILL, USE, AND/OR DATA OR THE COST OF
#PROCUREMENT OF SUBSTITUTE GOODS OR SERVICES, EVEN IF APPRISED OF THE POSSIBILITY OF SUCH
#DAMAGES IN ADVANCE.
#--------------------------------------------------#

~VERSION INFORMATION
VERS. 2.0 : CWLS LOG ASCII STANDARD - VERSION 2.0
WRAP. NO : ONE LINE PER DEPTH STEP
~WELL INFORMATION
#MNEMONIC     .UNIT              VALUE :DESCRIPTION
STRT       .FT                101.00000 :START DEPTH
STOP       .FT                5802.00000 :STOP DEPTH
STEP       .FT                0.50000 :STEP
NULL       .                -999.25000 :NULL VALUE
UWI       .                42389010150000 :UNIQUE WELL ID
API       .                42389010150000 :API NUMBER
COMP       .                 :COMPANY
WELL       .                 :WELL
FLD       .                 :FIELD
LOC       .                 :LOCATION
CNTY       .                 :COUNTY
STAT       .                 :STATE
CTRY       .                 :COUNTRY
SRVC       .                 :SERVICE COMPANY
DATE       .                 :DATE
~CURVE INFORMATION
#MNEMONIC     .UNIT      API CODE :CURVE DESCRIPTION
DEPTH       .FT                      :MEASURED DEPTH
DT       .US/FT        UNKNOWN   :DT
GR       .GAPI        UNKNOWN   :GR
~A    DEPTH    DT    GR
# ...
1552.00000    53.79709    4.66382
1552.50000    53.53734    4.97588
1553.00000    53.27759    4.41969
1553.50000    53.01784    3.09414
1554.00000    52.75809    1.76858
1554.50000    52.49834    1.29335
1555.00000    52.23859    1.43446
1555.50000    51.97884    1.57558
1556.00000    51.71909    1.71670
1556.50000    51.45934    1.85781
1557.00000    51.19959    1.99893
1557.50000    50.93984    2.08221
1558.00000    50.68009    1.94347
1558.50000    50.78240    1.80472
1559.00000    50.89268    1.66597
1559.50000    51.00297    1.52723
1560.00000    51.11325    1.38848
1560.50000    51.22353    1.62836
1561.00000    51.33381    2.05946
1561.50000    51.39203    2.49056
1562.00000    51.28883    2.92165
1562.50000    51.18563    3.07949
1563.00000    51.08243    3.15798
1563.50000    50.97922    3.23648
1564.00000    50.87602    3.31497
1564.50000    56.49223    3.39347
1565.00000    63.08213    3.82317
1565.50000    61.21302    4.48874
1566.00000    59.34391    5.15431
1566.50000    57.47479    5.81987
1567.00000    55.60568    6.48544
1567.50000    53.73657    7.15101
1568.00000    51.86746    6.10389
1568.50000    55.54032    4.26552
1569.00000    54.69243    3.62211
1569.50000    53.84454    3.59119
1570.00000    52.99666    3.56028
1570.50000    52.57850    3.52936
1571.00000    52.89422    3.49844
1571.50000    53.20994    3.46752
1572.00000    53.52567    3.48506
1572.50000    53.84139    3.51154
1573.00000    54.15711    3.53802
1573.50000    53.64257    3.56450
1574.00000    53.11595    3.59098
1574.50000    52.58933    3.61746
1575.00000    53.72733    3.64394
1575.50000    62.31250    3.67042
1576.00000    66.43168    3.98555
1576.50000    65.77318    4.49245
1577.00000    65.11468    4.99934
1577.50000    64.45619    5.50623
1578.00000    63.79769    6.63735
1578.50000    63.13919    11.95533
1579.00000    62.48069    17.27330
1579.50000    61.82220    20.69475
1580.00000    61.16370    22.01694
1580.50000    64.12732    21.34455
1581.00000    67.38751    18.41453
1581.50000    70.48489    15.48452
1582.00000    72.49701    12.55450
1582.50000    74.50912    10.68421
1583.00000    76.52124    9.76927
1583.50000    78.53336    10.72164
1584.00000    80.54548    12.89919
1584.50000    102.96566    15.07674
1585.00000    108.68774    17.25429
1585.50000    114.40982    19.43184
1586.00000    120.13190    16.26133
1586.50000    125.85398    13.72685
1587.00000    131.26750    11.19236
1587.50000    113.19169    8.65787
1588.00000    90.25942    6.12338
1588.50000    56.49168    4.19632
1589.00000    55.93914    4.02569
1589.50000    55.38660    3.85505
1590.00000    54.83405    3.68442
1590.50000    54.28151    3.16960
1591.00000    53.72897    2.60094
1591.50000    53.17643    2.85220
1592.00000    55.74446    3.12252
1592.50000    58.53652    3.39283
1593.00000    61.32858    3.66315
1593.50000    63.86818    3.93347
1594.00000    64.20234    3.91142
1594.50000    67.55535    3.83744
1595.00000    75.05204    3.76347
1595.50000    82.54872    3.68949
1596.00000    90.04541    3.61551
1596.50000    97.54209    3.54153
1597.00000    105.03878    3.46755
1597.50000    74.79842    3.45382
1598.00000    75.24304    3.71625
1598.50000    75.68767    3.97868
1599.00000    67.74069    4.08572
1599.50000    49.48068    3.38522
1600.00000    42.89457    2.68471
1600.50000    44.31343    1.98420
1601.00000    45.73229    2.09965
1601.50000    47.15114    2.60501
1602.00000    48.57000    3.11038
1602.50000    49.98886    3.61574
1603.00000    51.40772    4.12111
1603.50000    52.82657    4.54611
1604.00000    54.24543    4.91901
1604.50000    57.97767    5.29190
1605.00000    62.83324    5.66480
1605.50000    67.68880    5.96010
1606.00000    72.54436    5.59544
1606.50000    77.39993    5.23079
1607.00000    82.25549    4.86613
1607.50000    53.51763    4.50148
1608.00000    55.39024    4.13682
1608.50000    57.26285    3.67006
1609.00000    59.13546    3.10125
1609.50000    61.00807    2.53245
1610.00000    62.88067    1.96365
1610.50000    64.75329    1.39485
1611.00000    67.23837    0.82605
1611.50000    68.89345    1.76884
1612.00000    70.54853    3.00170
1612.50000    72.20361    4.23455
1613.00000    73.85869    5.33841
1613.50000    75.51377    5.19121
1614.00000    77.16885    5.04401
1614.50000    78.82394    4.89682
1615.00000    75.20029    4.74962
1615.50000    71.55022    4.60242
1616.00000    67.90014    4.03308
1616.50000    69.66381    3.39385
1617.00000    71.60903    2.75462
1617.50000    73.55425    2.11538
1618.00000    75.49947    1.60160
1618.50000    77.44469    1.97734
1619.00000    79.38992    2.36229
1619.50000    81.33514    3.14876
1620.00000    83.28036    3.93522
1620.50000    85.22558    4.72169
1621.00000    87.17080    5.50816
1621.50000    89.11602    6.27472
1622.00000    91.06124    6.02395
1622.50000    48.64095    5.77318
1623.00000    43.27523    5.52241
1623.50000    46.29590    5.27165
1624.00000    49.31656    5.02088
1624.50000    52.33722    4.77011
1625.00000    55.35789    4.51934
1625.50000    58.37855    4.26857
1626.00000    61.39921    4.01780
1626.50000    64.41988    3.83609
1627.00000    62.97585    3.67958
1627.50000    60.27699    3.52308
1628.00000    57.57812    3.36657
1628.50000    54.87926    3.21006
1629.00000    52.18039    3.05356
1629.50000    49.48153    3.41966
1630.00000    47.81871    4.17874
1630.50000    51.14311    4.93783
1631.00000    54.46751    5.36018
1631.50000    57.79190    5.09904
1632.00000    61.11630    4.83790
1632.50000    64.44070    4.57676
1633.00000    68.00656    4.42822
1633.50000    72.10651    4.35092
1634.00000    76.20646    4.27361
1634.50000    80.30641    4.19631
1635.00000    79.13640    4.11900
1635.50000    77.15975    3.61826
1636.00000    75.18310    3.01140
1636.50000    73.20645    2.92999
1637.00000    71.60049    2.84858
1637.50000    70.66876    2.76717
1638.00000    69.73704    2.68576
1638.50000    68.80532    2.60435
1639.00000    67.87360    2.47235
1639.50000    68.09371    2.21576
1640.00000    70.41013    1.95916
1640.50000    72.72654    1.70257
1641.00000    75.04296    2.32093
1641.50000    77.35937    2.73424
1642.00000    79.67579    2.68349
1642.50000    77.95042    2.63274
1643.00000    72.67463    2.58198
1643.50000    67.39884    2.53124
1644.00000    66.12098    2.48048
1644.50000    69.70199    2.51825
1645.00000    73.28300    2.56674
1645.50000    74.64982    2.61522
1646.00000    72.21133    2.66370
1646.50000    69.77285    2.71219
1647.00000    67.33436    2.76067
1647.50000    64.89587    3.11873
1648.00000    67.07401    3.80377
1648.50000    73.09232    4.48882
1649.00000    79.11064    5.17386
1649.50000    85.12895    5.85891
1650.00000    77.12946    5.70614
1650.50000    64.33005    4.55728
1651.00000    65.27930    4.24027
1651.50000    66.48003    4.08372
1652.00000    67.68076    3.92717
1652.50000    68.88149    3.77061
1653.00000    70.08223    3.61406
1653.50000    71.28296    3.45750
1654.00000    72.48369    3.30578
1654.50000    72.02803    3.22841
1655.00000    71.37049    3.15104
1655.50000    70.71294    3.07366
1656.00000    70.05539    2.99629
1656.50000    69.39784    2.92408
1657.00000    68.74029    2.88088
1657.50000    68.08275    2.83767
1658.00000    67.42520    2.79447
1658.50000    66.76765    2.75127
1659.00000    66.69486    2.70806
1659.50000    69.61960    2.66486
1660.00000    72.54433    2.62166
1660.50000    75.46907    2.57845
1661.00000    78.39381    2.63356
1661.50000    75.70893    2.76237
1662.00000    69.38521    2.89118
1662.50000    63.06149    3.01998
1663.00000    56.73777    3.14879
1663.50000    50.41406    3.27760
1664.00000    48.08930    3.40641
1664.50000    65.60333    3.34114
1665.00000    83.11737    3.13722
1665.50000    90.26540    2.93331
1666.00000    88.17383    2.72939
1666.50000    86.08225    2.52547
1667.00000    83.99067    2.32156
1667.50000    81.89910    2.36021
1668.00000    80.11649    2.75197
1668.50000    83.39109    3.14373
1669.00000    86.66568    3.53549
