###############################################
##         ENVERUS                           ##
##         ESS - Open Hole                   ##
##         PERMIAN / DELAWARE                ##
##         Nov 04 2023  V4.0                 ##
##         42-389-00802-00-00                ##
###############################################
## Copyright 2017-2023  ENVERUS.  All Rights Reserved. 
## Confidential - Property of ENVERUS, use governed by terms and 
## conditions found within the existing Information Services Subscription Agreement 
## (as may be amended, the “ISSA”) between Customer and ENVERUS. 
## 
~VERSION INFORMATION
# MNEM.UNIT                               DATA : DESCRIPTION OF MNEMONIC
#-----.-----     ----------------------------- : -----------------------------
VERS.                                     2.00 : CWLS LOG ASCII STANDARD - VERSION 2.00
WRAP.                                       NO : MULTIPLE LINES PER DEPTH STEP
VEND.                                  ENVERUS : VENDOR
TYPE.                          ESS - OPEN HOLE : ENVERUS ESSENTIAL CURVES – ACCESSIBLE THROUGH ENVERUS PRISM(TM)
DOC.                                  31817456 : ENVERUS HEADER RAW DOCUMENT ID
#___________________________________________________________________________________________________ 
~WELL INFORMATION 
# RyAIq6UWQPnCIzV1aSVljU5sZzU8mzXCuHzh8Tf3VVfaeSb2oya67RMqigcBPLsftsjdPp3J13KbDcbgGgUr7w== 
# MNEM.UNIT                                              DATA : DESCRIPTION OF MNEMONIC 
#-----.-----                    ----------------------------- : ----------------------------- 
CNTY.                                                  REEVES : COUNTY 
STATE.                                                  TEXAS : STATE 
CNTRY.                                                    USA : COUNTRY 
API.                                             42-389-00802 : API (10 Digit) 
API_14.                                    42-389-00802-00-00 : API (14 Digits) 
API_14_std.                                 42-389-00802-0000 : API (14 Digits Standard) 
UWI.                                           42389008020000 : UNIQUE WELL ID 
WELL.                                                      1, : WELL NAME
STRT.FT                                                 103.0 : START DEPTH
STOP.FT                                                5419.0 : STOP DEPTH
STEP.FT                                                   0.5 : STEP BETWEEN DEPTHS
NULL.                                                 -999.25 : NULL VALUE
#___________________________________________________________________________________________________ 
~CURVE INFORMATION 
# MNEM.UNIT           : CURVE DESCRIPTION 
#-----.-----          : ----------------------------- 
 DEPT.FT               : MEASURED DEPTH 
 GR.API                : GAMMA RAY (GR) 
 DT.US/FT              : SONIC DELTA TRANSIT TIME (DT) 
 #___________________________________________________________________________________________________ 
~A         DEPT             GR             DT
# ...
         1147.0         49.594       -999.250
         1147.5         47.310       -999.250
         1148.0         48.171       -999.250
         1148.5         49.032       -999.250
         1149.0         49.894       -999.250
         1149.5         50.755       -999.250
         1150.0         51.616       -999.250
         1150.5         52.478       -999.250
         1151.0         53.339       -999.250
         1151.5         50.592       -999.250
         1152.0         46.641       -999.250
         1152.5         42.691       -999.250
         1153.0         38.741       -999.250
         1153.5         34.791       -999.250
         1154.0         30.840       -999.250
         1154.5         26.890       -999.250
         1155.0         22.940       -999.250
         1155.5         18.989       -999.250
         1156.0         17.026       -999.250
         1156.5         17.830       -999.250
         1157.0         18.633       -999.250
         1157.5         19.437       -999.250
         1158.0         20.240       -999.250
         1158.5         21.044       -999.250
         1159.0         21.847       -999.250
         1159.5         21.798       -999.250
         1160.0         21.451       -999.250
         1160.5         21.104       -999.250
         1161.0         20.757       -999.250
         1161.5         20.410       -999.250
         1162.0         20.063       -999.250
         1162.5         19.716       -999.250
         1163.0         25.111       -999.250
         1163.5         29.115       -999.250
         1164.0         30.871       -999.250
         1164.5         32.628       -999.250
         1165.0         34.384       -999.250
         1165.5         36.140       -999.250
         1166.0         35.653       -999.250
         1166.5         32.188       -999.250
         1167.0         28.722       -999.250
         1167.5         25.256       -999.250
         1168.0         21.791       -999.250
         1168.5         22.550       -999.250
         1169.0         24.444       -999.250
         1169.5         26.337       -999.250
         1170.0         28.231       -999.250
         1170.5         30.125       -999.250
         1171.0         28.924       -999.250
         1171.5         27.098       -999.250
         1172.0         25.272       -999.250
         1172.5         23.445       -999.250
         1173.0         21.619       -999.250
         1173.5         22.061       -999.250
         1174.0         23.501       -999.250
         1174.5         24.940       -999.250
         1175.0         26.380       -999.250
         1175.5         27.819       -999.250
         1176.0         29.259       -999.250
         1176.5         30.698       -999.250
         1177.0         32.137       -999.250
         1177.5         33.577       -999.250
         1178.0         33.585       -999.250
         1178.5         33.329       -999.250
         1179.0         33.074       -999.250
         1179.5         32.819       -999.250
         1180.0         43.084       -999.250
         1180.5         45.924       -999.250
         1181.0         48.763       -999.250
         1181.5         51.603       -999.250
         1182.0         53.941       -999.250
         1182.5         49.478       -999.250
         1183.0         45.016       -999.250
         1183.5         40.553       -999.250
         1184.0         36.090       -999.250
         1184.5         31.627       -999.250
         1185.0         28.414       -999.250
         1185.5         29.853       -999.250
         1186.0         31.292       -999.250
         1186.5         32.732       -999.250
         1187.0         34.171       -999.250
         1187.5         34.351       -999.250
         1188.0         34.189       -999.250
         1188.5         34.027       -999.250
         1189.0         33.864       -999.250
         1189.5         33.702       -999.250
         1190.0         33.539       -999.250
         1190.5         34.886       -999.250
         1191.0         37.207       -999.250
         1191.5         39.529       -999.250
         1192.0         41.851       -999.250
         1192.5         44.172       -999.250
         1193.0         46.494       -999.250
         1193.5         48.816       -999.250
         1194.0         51.137       -999.250
         1194.5         51.334       -999.250
         1195.0         48.026       -999.250
         1195.5         44.719       -999.250
         1196.0         41.411       -999.250
         1196.5         39.714       -999.250
         1197.0         41.362       -999.250
         1197.5         43.010       -999.250
         1198.0         44.657       -999.250
         1198.5         45.299       -999.250
         1199.0         44.754       -999.250
         1199.5         44.209       -999.250
         1200.0         43.665       -999.250
         1200.5         43.120       -999.250
         1201.0         42.576       -999.250
         1201.5         42.031       -999.250
         1202.0         42.584       -999.250
         1202.5         43.619       -999.250
         1203.0         44.654       -999.250
         1203.5         45.689       -999.250
         1204.0         45.171       -999.250
         1204.5         44.282       -999.250
         1205.0         43.394       -999.250
         1205.5         43.695       -999.250
         1206.0         45.673       -999.250
         1206.5         47.128       -999.250
         1207.0         46.642       -999.250
         1207.5         46.156       -999.250
         1208.0         45.670       -999.250
         1208.5         45.184       -999.250
         1209.0         44.697       -999.250
         1209.5         44.334       -999.250
         1210.0         52.194       -999.250
         1210.5         60.054       -999.250
         1211.0         56.118       -999.250
         1211.5         51.230       -999.250
         1212.0         46.343       -999.250
         1212.5         41.455       -999.250
         1213.0         40.839       -999.250
         1213.5         41.215       -999.250
         1214.0         41.590       -999.250
         1214.5         41.965       -999.250
         1215.0         42.341       -999.250
         1215.5         42.716       -999.250
         1216.0         43.091       -999.250
         1216.5         43.467       -999.250
         1217.0         43.842       -999.250
         1217.5         42.724       -999.250
         1218.0         41.383       -999.250
         1218.5         40.042       -999.250
         1219.0         38.701       -999.250
         1219.5         37.360       -999.250
         1220.0         36.020       -999.250
         1220.5         36.750       -999.250
         1221.0         38.729       -999.250
         1221.5         40.707       -999.250
         1222.0         42.685       -999.250
         1222.5         44.166       -999.250
         1223.0         43.869       -999.250
         1223.5         43.571       -999.250
         1224.0         43.274       -999.250
         1224.5         42.976       -999.250
         1225.0         44.484       -999.250
         1225.5         46.695       -999.250
         1226.0         48.906       -999.250
         1226.5         51.117       -999.250
         1227.0         55.241       -999.250
         1227.5         63.375       -999.250
         1228.0         68.450       -999.250
         1228.5         72.544       -999.250
         1229.0         75.574       -999.250
         1229.5         65.437       -999.250
         1230.0         62.342       -999.250
         1230.5         59.246       -999.250
         1231.0         56.151       -999.250
         1231.5         53.056       -999.250
         1232.0         50.708       -999.250
         1232.5         51.189       -999.250
         1233.0         51.670       -999.250
         1233.5         51.538       -999.250
