#--------------------------------------------------#
#-------------------ENVERUS, INC.------------------#
#------------------WWW.ENVERUS.COM-----------------#
#------------------COPYRIGHT 2020------------------#
#--------------------------------------------------#
#THIS FILE MAY BE USED ONLY IN ACCORDANCE WITH A CURRENT SUBSCRIPTION AGREEMENT BETWEEN
#THE USER AND ENVERUS, INC. NO PART OF THIS FILE MAY BE REPRODUCED, USED, COPIED,
#MODIFIED, PROPAGATED, OR DISTRIBUTED EXCEPT IN ACCORDANCE WITH THE SUBSCRIPTION
#AGREEMENT. UNAUTHORIZED USE OR DISTRIBUTION OF ALL OR ANY PART OF THIS FILE MAY VIOLATE
#COPYRIGHT, TRADEMARK, AND/OR OTHER LAWS AND IS SUBJECT TO CIVIL AS WELL AS CRIMINAL
#SANCTIONS.
#--------------------------------------------------#
#THIS FILE IS PROVIDED "AS-IS" AND ALL WARRANTIES ARE EXPRESSLY DISCLAIMED, WHETHER
#EXPRESS, ORAL, IMPLIED, STATUTORY OR OTHERWISE, INCLUDING ANY IMPLIED WARRANTY OF FITNESS
#FOR A PARTICULAR PURPOSE, MERCHANTABILITY, TITLE OR NON-INFRINGEMENT, AND ANY WARRANTIES
#ARISING BY VIRTUE OF CUSTOM OF TRADE OR COURSE OF DEALING.  FURTHER, ENVERUS, INC.
#AND ITS LICENSORS DO NOT REPRESENT OR WARRANT THAT THIS FILE WILL MEET USER'S
#REQUIREMENTS OR ARE SUITABLE FOR USER'S NEEDS OR THAT THE DATA OR RESULTS PROVIDED IN
#CONJUNCTION THEREWITH ARE CORRECT, ACCURATE, TIMELY OR RELIABLE. THESE DISCLAIMERS SHALL
#APPLY REGARDLESS OF ANY FAILURE OF ESSENTIAL PURPOSE OF ANY LIMITED REMEDY.  SOME
#JURISDICTIONS DO NOT ALLOW THE EXCLUSION OF CERTAIN WARRANTIES SO SOME OF THE ABOVE
#EXCLUSIONS MAY NOT APPLY. IN NO EVENT SHALL ENVERUS, INC. OR ANY OF ITS AFFILIATES
#BE LIABLE UNDER ANY LEGAL THEORY, WHETHER IN TORT (INCLUDING WITHOUT LIMITATION
#NEGLIGENCE), CONTRACT, STRICT LIABILITY, STATUTORY OR OTHERWISE, FOR ANY SPECIAL,
#INCIDENTAL, CONSEQUENTIAL, EXEMPLARY, PUNITIVE OR INDIRECT DAMAGE OF ANY KIND, INCLUDING
#WITHOUT LIMITATION LOSS OF REVENUE, PROFITS, GOODWILL, USE, AND/OR DATA OR THE COST OF
#PROCUREMENT OF SUBSTITUTE GOODS OR SERVICES, EVEN IF APPRISED OF THE POSSIBILITY OF SUCH
#DAMAGES IN ADVANCE.
#--------------------------------------------------#

~VERSION INFORMATION
VERS. 2.0 : CWLS LOG ASCII STANDARD - VERSION 2.0
WRAP.  NO : ONE LINE PER DEPTH STEP
~WELL INFORMATION
#MNEMONIC     .UNIT              VALUE :DESCRIPTION
STRT       .FT                75 :START DEPTH
STOP       .FT                5648 :STOP DEPTH
STEP       .FT                   0.500 :STEP
NULL       .                  -999.990 :NULL
UWI        .              42371363570000 :UNIQUE WELL ID
API        .              42371363570000 :API NUMBER
COMP       .         APACHE CORPORATION :COMPANY
WELL       .        SCHLOSSER, FRED ESTATE -B-  13 :WELL
DATE       .                16-MAY-1992 :LOG DATE
~CURVE INFORMATION
#MNEMONIC     .UNIT      API CODE :CURVE DESCRIPTION
DEPTH       .FT                      :MEASURED DEPTH
DT.US/FT        UNKNOWN   :DT
GR.API        UNKNOWN   :GR
~A    DEPTH    DT    GR
# ...
 794     -999.990   59.49
 794.5     -999.990   50.816
 795     -999.990   50.074
 795.5     -999.990   48.275
 796     -999.990   46.475
 796.5     -999.990   45.461
 797     -999.990   44.545
 797.5     -999.990   44.798
 798     -999.990   46.138
 798.5     -999.990   47.477
 799     -999.990   48.015
 799.5     -999.990   48.31
 800     -999.990   46.284
 800.5     -999.990   38.15
 801     -999.990   38.227
 801.5     -999.990   38.304
 802     -999.990   39.479
 802.5     -999.990   41.833
 803     -999.990   43.61
 803.5     -999.990   45.387
 804     -999.990   44.552
 804.5     -999.990   43.326
 805     -999.990   43.325
 805.5     -999.990   43.324
 806     -999.990   44.075
 806.5     -999.990   44.993
 807     -999.990   49.33
 807.5     -999.990   54.855
 808     -999.990   55.448
 808.5     -999.990   54.786
 809     -999.990   53.78
 809.5     -999.990   52.774
 810     -999.990   52.644
 810.5     -999.990   54.287
 811     -999.990   55.274
 811.5     -999.990   53.936
 812     -999.990   52.598
 812.5     -999.990   51.26
 813     -999.990   52.952
 813.5     -999.990   54.722
 814     -999.990   56.489
 814.5     -999.990   58.256
 815     -999.990   60.022
 815.5     -999.990   58.689
 816     -999.990   56.245
 816.5     -999.990   54.118
 817     -999.990   51.992
 817.5     -999.990   49.352
 818     -999.990   46.865
 818.5     -999.990   51.389
 819     -999.990   50.76
 819.5     -999.990   50.245
 820     -999.990   52.461
 820.5     -999.990   54.676
 821     -999.990   56.892
 821.5     -999.990   59.674
 822     -999.990   63.061
 822.5     -999.990   63.778
 823     -999.990   63.53
 823.5     -999.990   60.184
 824     -999.990   56.838
 824.5     -999.990   53.493
 825     -999.990   50.147
 825.5     -999.990   50.925
 826     -999.990   52.043
 826.5     -999.990   53.161
 827     -999.990   53.118
 827.5     -999.990   52.053
 828     -999.990   50.987
 828.5     -999.990   49.921
 829     -999.990   48.855
 829.5     -999.990   48.388
 830     -999.990   51.879
 830.5     -999.990   55.371
 831     -999.990   57.011
 831.5     -999.990   56.191
 832     -999.990   55.372
 832.5     -999.990   54.552
 833     -999.990   54.495
 833.5     -999.990   54.452
 834     -999.990   55.278
 834.5     -999.990   57.34
 835     -999.990   57.109
 835.5     -999.990   54.766
 836     -999.990   52.423
 836.5     -999.990   50.485
 837     -999.990   49.017
 837.5     -999.990   47.548
 838     -999.990   46.2
 838.5     -999.990   45.3
 839     -999.990   44.401
 839.5     -999.990   41.738
 840     -999.990   42.19
 840.5     -999.990   40.565
 841     -999.990   38.94
 841.5     -999.990   38.333
 842     -999.990   38.719
 842.5     -999.990   39.105
 843     -999.990   39.491
 843.5     -999.990   39.753
 844     -999.990   35.876
 844.5     -999.990   35.244
 845     -999.990   34.612
 845.5     -999.990   35.289
 846     -999.990   37.013
 846.5     -999.990   38.738
 847     -999.990   38.592
 847.5     -999.990   37.207
 848     -999.990   35.821
 848.5     -999.990   34.435
 849     -999.990   36.185
 849.5     -999.990   38.213
 850     -999.990   40.241
 850.5     -999.990   39.344
 851     -999.990   37.547
 851.5     -999.990   36.578
 852     -999.990   36.184
 852.5     -999.990   38.322
 853     -999.990   37.87
 853.5     -999.990   37.418
 854     -999.990   36.966
 854.5     -999.990   36.514
 855     -999.990   36.061
 855.5     -999.990   35.834
 856     -999.990   36.342
 856.5     -999.990   36.85
 857     -999.990   37.357
 857.5     -999.990   38.23
 858     -999.990   39.652
 858.5     -999.990   39.609
 859     -999.990   38.066
 859.5     -999.990   36.522
 860     -999.990   36.146
 860.5     -999.990   35.911
 861     -999.990   35.765
 861.5     -999.990   36.382
 862     -999.990   36.999
 862.5     -999.990   37.431
 863     -999.990   36.532
 863.5     -999.990   35.633
 864     -999.990   34.977
 864.5     -999.990   36.452
 865     -999.990   37.927
 865.5     -999.990   39.402
 866     -999.990   39.659
 866.5     -999.990   39.45
 867     -999.990   39.24
 867.5     -999.990   39.194
 868     -999.990   41.097
 868.5     -999.990   43.001
 869     -999.990   41.751
 869.5     -999.990   40.405
 870     -999.990   39.059
 870.5     -999.990   37.714
 871     -999.990   37.492
 871.5     -999.990   37.459
 872     -999.990   37.426
 872.5     -999.990   38.655
 873     -999.990   41.556
 873.5     -999.990   44.458
 874     -999.990   48.635
 874.5     -999.990   51.618
 875     -999.990   53.21
 875.5     -999.990   53.238
 876     -999.990   50.621
 876.5     -999.990   47.956
 877     -999.990   45.282
 877.5     -999.990   41.715
 878     -999.990   41.624
 878.5     -999.990   41.534
 879     -999.990   41.443
 879.5     -999.990   42.883
 880     -999.990   44.335
 880.5     -999.990   42.898
 881     -999.990   41.462
 881.5     -999.990   39.792
 882     -999.990   33.485
 882.5     -999.990   29.358
 883     -999.990   25.343
 883.5     -999.990   21.16
 884     -999.990   18.664
 884.5     -999.990   20.18
 885     -999.990   23.124
 885.5     -999.990   26.979
 886     -999.990   34.221
 886.5     -999.990   38.526
 887     -999.990   41.526
 887.5     -999.990   41.02
 888     -999.990   40.515
 888.5     -999.990   40.01
 889     -999.990   42.267
 889.5     -999.990   44.758
 890     -999.990   47.243
 890.5     -999.990   47.884
 891     -999.990   47.127
 891.5     -999.990   46.371
 892     -999.990   45.615
 892.5     -999.990   44.859
 893     -999.990   44.102
 893.5     -999.990   41.495
 894     -999.990   38.824
 894.5     -999.990   36.152
 895     -999.990   32.638
 895.5     -999.990   30.604
 896     -999.990   29.998
 896.5     -999.990   26.562
 897     -999.990   19.778
 897.5     -999.990   14.618
 898     -999.990   10.784
 898.5     -999.990   10.842
 899     -999.990   10.9
 899.5     -999.990   10.958
 900     -999.990   40.419
 900.5     -999.990   42.644
 901     -999.990   41.989
 901.5     -999.990   40.649
 902     -999.990   38.985
 902.5     -999.990   36.856
 903     -999.990   28.535
 903.5     -999.990   21.66
 904     -999.990   16.53
 904.5     -999.990   12.158
 905     -999.990   10.609
 905.5     -999.990   9.146
 906     -999.990   9.763
 906.5     -999.990   10.381
 907     -999.990   10.925
 907.5     -999.990   10.311
 908     -999.990   9.698
 908.5     -999.990   9.112
 909     -999.990   9.084
 909.5     -999.990   9.056
 910     -999.990   9.028
 910.5     -999.990   9
 911     -999.990   11.059
 911.5     -999.990   13.167
 912     -999.990   15.462
 912.5     -999.990   17.981
 913     -999.990   20.5
 913.5     -999.990   23.441
 914     -999.990   27.301
 914.5     -999.990   31.006
 915     -999.990   31.004
 915.5     -999.990   29.994
 916     -999.990   26.914
 916.5     -999.990   25.577
 917     -999.990   25.576
 917.5     -999.990   25.574
 918     -999.990   28.289
 918.5     -999.990   30.172
 919     -999.990   30.309
 919.5     -999.990   30.446
 920     -999.990   27.101
 920.5     -999.990   24.375
 921     -999.990   22.601
 921.5     -999.990   21.254
 922     -999.990   20.39
 922.5     -999.990   20.958
 923     -999.990   21.584
 923.5     -999.990   21.637
 924     -999.990   19.308
 924.5     -999.990   16.979
 925     -999.990   14.878
 925.5     -999.990   13.199
 926     -999.990   11.519
 926.5     -999.990   10.34
 927     50.205   9.182
 927.5     50.457   8.241
 928     51.081   8.55
 928.5     51.705   8.859
 929     52.33   9.168
 929.5     52.954   9.599
 930     53.129   10.303
 930.5     52.743   11.008
 931     52.356   11.339
 931.5     55.799   11.353
 932     55.278   11.367
 932.5     54.609   11.381
 933     55.462   11.395
 933.5     56.315   11.409
 934     55.744   11.423
 934.5     54.89   11.341
 935     54.255   11.154
 935.5     53.89   10.967
 936     53.79   10.779
 936.5     54.018   10.592
 937     54.765   10.405
 937.5     55.511   10.218
 938     52.184   10.031
 938.5     51.419   9.844
