~Version Information Block
 VERS.                2.00:     CWLS LOG ASCII STANDARD - VERSION 2.000000
 WRAP.                  NO:     One Line Per Depth Step
#
~Well Information Block
#MNEM.UNIT                     Data                         Information
#----------   ------------------------------------------   ----------------
# Enverus has updated the API/UWI.  The previous names are renamed to  PREV_API / PREV_UWI
API.                             42-371-39483-90-00 : API (14 Digits with Dashes)
UWI.                                 42371394839000 : UNIQUE WELL ID

 STRT.FT                                    10010.0000:     START DEPTH
 STOP.FT                                    11812.0000:     STOP DEPTH
 STEP.FT                                        0.5000:     STEP
 NULL.                                       -999.2500:     NULL VALUE
 COMP.                           PATRIOT RESOURCES INC:     COMPANY
 WELL.                        ROOSTERFISH UNIT 22NE 1H:     WELL
 FLD .                             WOLFBONE TREND AREA:     FIELD
 LOC .                                                :     LOCATION
 SEC .                                              22:     SECTION
 CNTY.                                          PEACOS:     COUNTY
 STAT.                                           TEXAS:     STATE
 CTRY.                                           U.S.A:     COUNTRY
 SRVC.                                    SCHLUMBERGER:     SERVICE COMPANY
 DATE.                                      03/18/2017:     DATE
PREV_APII .                                  42371394830000:     API NUMBER
 PREV_UWI .                                  42371394830000:     UWI NUMBER
 TVD .                                              NO:     TVD flag
 WSTA.                                             LOC:     Well status
#
~Curve Information Block
#MNEM.UNIT       API CODE      Curve Description
#----------    -------------   -------------------
 DEPT.FT                   :   Depth in Feet
 ECGR.GAPI     35 310 01 01:   Environmentally Corrected Gamma Ray
 CALI.IN       70 280 01 01:   Caliper
 TENS.LBS                  :   Tension
 SPHI_476.V/V  61 890 01 01:   Sonic Porosity 47.6 Matrix
 DT  .US/F     60 520 08 01:   Delta-T
 DTSM.US/F                 :   Delta-T Shear Measurement
 STIT.FT/H                 :   STIT
#
~Parameter Information Block
#MNEM.UNIT            Value               Description
#----------    --------------------    -------------------
 RUN .                         ONE:    Run Number
 PDAT.                          GL:    Permanent Datum
 EPD .FT                        25:    Elevation Of Perm. Datum
 LMF .               KELLY BUSHING:    Log Measured From
 EKB .FT                          :    Elevation Of Kelly Bushing
 DF .FT                           :    Elevation Of Derrick Floor
 GL .FT                         25:    Elevation Of Ground Level
 TD  .FT                     18979:    Total Depth
 CSGD.FT                      5100:    Casing Bottom (Driller) 1
 CSGL.FT                     18979:    Casing Bottom (Logger) 1
 MUD .                   OIL BASED:    Drilling Fluid Type
 MUDV .CP                      102:    Drilling Fluid Viscosity
 MUDD .LB/USG                 13.0:    Drilling Fluid Density
 FL .ML/30MIN                     :    Drilling Fluid Loss
 PH.                           8.8:    Drilling Fluid Ph
 MUDS .                           :    Mud Sample Source
 RM .OHMM                         :    Resistivity Of Mud Sample
 RMT .DEGF                        :    Mud Sample Temperature
 RMF .OHMM                        :    Mud Filtrate Resistivity
 RMFT.DEGF                        :    Mud Filtrate Sample Temperature
 RMC .OHMM                        :    Mud Cake Resistivity
 RMCT.DEGF                        :    Mud Cake Sample Temperature
 RMB .OHMM                        :    Mud Resistivity At Bht
 TMAX .DEGF                    152:    Bottom Hole Temperature
#
~Other Information Block
<DescLogPlotStart>   NEURALOG PLOT DEFINITION
PLOTDEFVERSION: 3
LASFILE: D:\nds\projects\poojawells\December data\PoojaWells Digitizing_Cassidy
DEPTHSCALE: 240.000000
RESOLUTION: 144
DEPTHLABELFREQ: 100.000000
HEAVYGRIDFREQ: 100.000000
MEDIUMGRIDFREQ: 50.000000
LIGHTGRIDFREQ: 10.000000
#
#   TRACK 1
#
STARTTRACK: 
 LEFTX: 0.500000 inch
 RIGHTX: 3.000000 inch
 SCALETYPE: Linear
 NUMCHARTDIVISIONS: 10
CURVE: ECGR  0.000000   150.000000 (0,0,255)      Solid             2     Y    
BACKUP: 150.000000 300.000000 (0,0,255)      Solid             2    
CURVE: CALI  6.000000   16.000000  (0,131,131)    Dot               2     Y    
BACKUP: -4.000000  6.000000   (0,131,131)    Dot               2    
CURVE: TENS  10000.000000 0.000000   (255,0,255)    Short_Dash        2     N  
ENDTRACK: 
#
#   TRACK 2
#
STARTTRACK: 
 LEFTX: 3.500000 inch
 RIGHTX: 8.500000 inch
 SCALETYPE: Linear
 NUMCHARTDIVISIONS: 10
CURVE: SPHI_476 0.300000   -0.100000  (255,0,0)      Solid             2     N 
CURVE: DT    140.000000 40.000000  (255,131,0)    Dot               2     N    
CURVE: DTSM  240.000000 40.000000  (255,255,0)    Short_Dash        2     N    
ENDTRACK: 
#
#   TRACK 3
#
STARTTRACK: 
 LEFTX: 8.500000 inch
 RIGHTX: 9.256944 inch
 SCALETYPE: Linear
 NUMCHARTDIVISIONS: 10
CURVE: STIT  0.000000   50.000000  (0,0,255)      Solid             2     N    
ENDTRACK: 
<DescLogPlotEnd>
~A DEPTH     ECGR             CALI             TENS             SPHI_476             DT               DTSM             STIT            
# ...
   10162.500 14.28573982      -999.25000000    -999.25000000    0.05762535       55.45961003      95.68245125      0.68807339      
   10163.000 14.05536263      -999.25000000    -999.25000000    0.05687326       55.38997214      95.06963788      0.68807339      
   10163.500 14.26292193      -999.25000000    -999.25000000    0.05673538       55.52924791      94.73537604      0.68807339      
   10164.000 14.47428739      -999.25000000    -999.25000000    0.05914206       55.71727019      94.73537604      0.68807339      
   10164.500 14.68330838      -999.25000000    -999.25000000    0.05823721       55.46657382      133.17548747     0.68807339      
   10165.000 14.85033434      -999.25000000    -999.25000000    0.05683588       55.38997214      119.80501393     0.68807339      
   10165.500 15.77040430      -999.25000000    -999.25000000    0.05685385       55.38997214      126.51810585     0.68807339      
   10166.000 16.81865407      -999.25000000    -999.25000000    0.05707434       55.38997214      126.60926817     0.68807339      
   10166.500 17.42018522      -999.25000000    -999.25000000    0.05711970       55.38997214      126.70043049     0.68807339      
   10167.000 18.74823987      -999.25000000    -999.25000000    0.05738162       55.71727019      127.85973620     0.68807339      
   10167.500 16.70031795      -999.25000000    -999.25000000    0.06629526       56.46935933      117.56174521     0.68807339      
   10168.000 15.71678138      -999.25000000    -999.25000000    0.06733148       56.94389176      110.78261107     0.68807339      
   10168.500 16.20001110      -999.25000000    -999.25000000    0.06784819       57.01551930      106.42523077     0.68807339      
   10169.000 17.35644545      -999.25000000    -999.25000000    0.06759749       57.06128134      106.55132144     0.68807339      
   10169.500 16.38017500      -999.25000000    -999.25000000    0.06776761       57.06128134      107.35377613     0.68807339      
   10170.000 15.03949220      -999.25000000    -999.25000000    0.06920016       57.14252553      109.99147365     0.68807339      
   10170.500 15.25409874      -999.25000000    -999.25000000    0.06896936       57.20055710      106.96004766     0.68807339      
   10171.000 15.91903270      -999.25000000    -999.25000000    0.06495822       56.58217270      103.89192334     0.68807339      
   10171.500 15.93362738      -999.25000000    -999.25000000    0.06350975       56.36490251      104.07348824     0.68807339      
   10172.000 15.77512368      -999.25000000    -999.25000000    0.06350975       56.36490251      104.12016387     0.68807339      
   10172.500 16.09923477      -999.25000000    -999.25000000    0.06239554       56.36490251      103.37410297     0.68807339      
   10173.000 14.09483327      -999.25000000    -999.25000000    0.05348189       54.83286908      97.99081200      0.68807339      
   10173.500 14.04789994      -999.25000000    -999.25000000    0.06610956       56.75951718      94.74430628      0.68807339      
   10174.000 14.32897185      -999.25000000    -999.25000000    0.06908078       57.06128134      94.80767095      0.68807339      
   10174.500 15.21935948      -999.25000000    -999.25000000    0.06824805       57.06128134      94.92757660      0.68807339      
   10175.000 14.65210604      -999.25000000    -999.25000000    0.06800018       57.06128134      95.01392758      0.68807339      
   10175.500 14.85472356      -999.25000000    -999.25000000    0.06912559       57.16341690      95.01392758      0.68807339      
   10176.000 15.55651665      -999.25000000    -999.25000000    0.06998008       57.33983287      94.51253482      0.68807339      
   10176.500 16.29603377      -999.25000000    -999.25000000    0.06915127       57.33983287      93.89972145      0.68807339      
   10177.000 15.64621399      -999.25000000    -999.25000000    0.06805149       57.33983287      96.96378830      0.68807339      
   10177.500 13.74417135      -999.25000000    -999.25000000    0.06135823       55.95608207      97.27292432      0.68807339      
   10178.000 13.92792075      -999.25000000    -999.25000000    0.06067045       55.94042063      97.09031382      0.68807339      
   10178.500 14.70713934      -999.25000000    -999.25000000    0.06109678       55.94929616      96.98028448      0.68807339      
   10179.000 16.33674239      -999.25000000    -999.25000000    0.06017659       55.94455879      96.84804612      0.68807339      
   10179.500 16.36839919      -999.25000000    -999.25000000    0.06069272       55.94957295      96.72952045      0.68807339      
   10180.000 15.86815047      -999.25000000    -999.25000000    0.05933148       55.87743733      96.08456878      0.68807339      
   10180.500 16.35652199      -999.25000000    -999.25000000    0.05905292       55.66852368      95.22860719      0.68807339      
   10181.000 16.83946474      -999.25000000    -999.25000000    0.05905292       55.66852368      95.00896173      0.68807339      
   10181.500 16.48709785      -999.25000000    -999.25000000    0.05905292       55.66852368      94.99034168      0.68807339      
   10182.000 15.73938647      -999.25000000    -999.25000000    0.05905292       55.66852368      95.01134968      0.68807339      
   10182.500 14.92333029      -999.25000000    -999.25000000    0.05905292       55.66016713      95.01392758      0.68807339      
   10183.000 15.27058174      -999.25000000    -999.25000000    0.05905292       55.64011142      95.01392758      0.68807339      
   10183.500 14.81215834      -999.25000000    -999.25000000    0.05905292       55.62005571      100.32729805     0.68807339      
   10184.000 14.35022050      -999.25000000    -999.25000000    0.05844011       55.60000000      125.37604457     0.68807339      
   10184.500 13.90620360      -999.25000000    -999.25000000    0.05793872       55.57994429      124.88857939     0.68807339      
   10185.000 14.21740608      -999.25000000    -999.25000000    0.05793872       55.55988858      122.59052925     0.68807339      
   10185.500 15.35773842      -999.25000000    -999.25000000    0.05793872       55.53983287      122.59052925     0.68807339      
   10186.000 16.12615303      -999.25000000    -999.25000000    0.05793872       55.52924791      122.59052925     0.68807339      
   10186.500 15.85833878      -999.25000000    -999.25000000    0.05793872       55.52924791      122.59052925     0.68807339      
   10187.000 14.50669204      -999.25000000    -999.25000000    0.05793872       55.52924791      122.59052925     0.68807339      
   10187.500 14.49379351      -999.25000000    -999.25000000    0.05793872       55.52923277      101.97771588     0.68807339      
   10188.000 13.79149424      -999.25000000    -999.25000000    0.05793872       55.52921477      116.46239554     0.68807339      
   10188.500 12.25281843      -999.25000000    -999.25000000    0.05793872       55.52916632      116.73723305     0.68807339      
   10189.000 9.92131049       -999.25000000    -999.25000000    0.05793872       55.52925864      117.00464253     0.68807339      
   10189.500 10.12960055      -999.25000000    -999.25000000    0.05793872       55.52882848      117.27205200     0.68807339      
   10190.000 12.95886068      -999.25000000    -999.25000000    0.05793872       55.52924791      117.58783041     0.68807339      
   10190.500 15.74495547      -999.25000000    -999.25000000    0.05793872       55.55478180      105.26636582     0.68807339      
   10191.000 18.97092821      -999.25000000    -999.25000000    0.05849582       55.63834726      99.57082535      0.68807339      
   10191.500 20.49357272      -999.25000000    -999.25000000    0.05849582       55.68632002      96.94549617      0.68807339      
   10192.000 21.32025774      -999.25000000    -999.25000000    0.05905292       55.71417518      96.77097801      0.68807339      
   10192.500 21.22053541      -999.25000000    -999.25000000    0.05905292       55.74203033      96.67582159      0.68807339      
