#--------------------------------------------------#
#-------------------ENVERUS, INC.------------------#
#------------------WWW.ENVERUS.COM-----------------#
#------------------COPYRIGHT 2020------------------#
#--------------------------------------------------#
#THIS FILE MAY BE USED ONLY IN ACCORDANCE WITH A CURRENT SUBSCRIPTION AGREEMENT BETWEEN
#THE USER AND ENVERUS, INC. NO PART OF THIS FILE MAY BE REPRODUCED, USED, COPIED,
#MODIFIED, PROPAGATED, OR DISTRIBUTED EXCEPT IN ACCORDANCE WITH THE SUBSCRIPTION
#AGREEMENT. UNAUTHORIZED USE OR DISTRIBUTION OF ALL OR ANY PART OF THIS FILE MAY VIOLATE
#COPYRIGHT, TRADEMARK, AND/OR OTHER LAWS AND IS SUBJECT TO CIVIL AS WELL AS CRIMINAL
#SANCTIONS.
#--------------------------------------------------#
#THIS FILE IS PROVIDED "AS-IS" AND ALL WARRANTIES ARE EXPRESSLY DISCLAIMED, WHETHER
#EXPRESS, ORAL, IMPLIED, STATUTORY OR OTHERWISE, INCLUDING ANY IMPLIED WARRANTY OF FITNESS
#FOR A PARTICULAR PURPOSE, MERCHANTABILITY, TITLE OR NON-INFRINGEMENT, AND ANY WARRANTIES
#ARISING BY VIRTUE OF CUSTOM OF TRADE OR COURSE OF DEALING.  FURTHER, ENVERUS, INC.
#AND ITS LICENSORS DO NOT REPRESENT OR WARRANT THAT THIS FILE WILL MEET USER'S
#REQUIREMENTS OR ARE SUITABLE FOR USER'S NEEDS OR THAT THE DATA OR RESULTS PROVIDED IN
#CONJUNCTION THEREWITH ARE CORRECT, ACCURATE, TIMELY OR RELIABLE. THESE DISCLAIMERS SHALL
#APPLY REGARDLESS OF ANY FAILURE OF ESSENTIAL PURPOSE OF ANY LIMITED REMEDY.  SOME
#JURISDICTIONS DO NOT ALLOW THE EXCLUSION OF CERTAIN WARRANTIES SO SOME OF THE ABOVE
#EXCLUSIONS MAY NOT APPLY. IN NO EVENT SHALL ENVERUS, INC. OR ANY OF ITS AFFILIATES
#BE LIABLE UNDER ANY LEGAL THEORY, WHETHER IN TORT (INCLUDING WITHOUT LIMITATION
#NEGLIGENCE), CONTRACT, STRICT LIABILITY, STATUTORY OR OTHERWISE, FOR ANY SPECIAL,
#INCIDENTAL, CONSEQUENTIAL, EXEMPLARY, PUNITIVE OR INDIRECT DAMAGE OF ANY KIND, INCLUDING
#WITHOUT LIMITATION LOSS OF REVENUE, PROFITS, GOODWILL, USE, AND/OR DATA OR THE COST OF
#PROCUREMENT OF SUBSTITUTE GOODS OR SERVICES, EVEN IF APPRISED OF THE POSSIBILITY OF SUCH
#DAMAGES IN ADVANCE.
#--------------------------------------------------#

~VERSION INFORMATION
VERS. 2.0 : CWLS LOG ASCII STANDARD - VERSION 2.0
WRAP. NO : ONE LINE PER DEPTH STEP
~WELL INFORMATION
#MNEMONIC     .UNIT              VALUE :DESCRIPTION
STRT       .FT                7.00000 :START DEPTH
STOP       .FT                16581.00000 :STOP DEPTH
STEP       .FT                0.50000 :STEP
NULL       .                -999.25000 :NULL VALUE
UWI       .                42389300260000 :UNIQUE WELL ID
API       .                42389300260000 :API NUMBER
COMP       .                 :COMPANY
WELL       .                 :WELL
FLD       .                 :FIELD
LOC       .                 :LOCATION
CNTY       .                 :COUNTY
STAT       .                 :STATE
CTRY       .                 :COUNTRY
SRVC       .                 :SERVICE COMPANY
DATE       .                 :DATE
~CURVE INFORMATION
#MNEMONIC     .UNIT      API CODE :CURVE DESCRIPTION
DEPTH       .FT                      :MEASURED DEPTH
CAL       .IN        UNKNOWN   :CAL
DT       .US/FT        UNKNOWN   :DT
GR       .GAPI        UNKNOWN   :GR
~A    DEPTH    CAL    DT    GR
# ...
14145.50000    9.74119    83.94737    116.57576
14146.00000    9.88870    85.42225    118.76886
14146.50000    10.03620    83.92480    120.96196
14147.00000    10.18370    82.42736    123.15506
14147.50000    10.28694    84.42630    122.95203
14148.00000    10.32353    85.37708    121.68067
14148.50000    10.36011    84.76256    120.40930
14149.00000    10.39670    84.14803    119.13793
14149.50000    10.29149    83.53351    117.86657
14150.00000    10.10344    82.91899    116.59520
14150.50000    9.91539    83.52366    118.27043
14151.00000    9.72734    85.68301    120.66086
14151.50000    9.75288    86.79449    123.05129
14152.00000    9.81055    85.63711    125.44172
14152.50000    9.86822    84.47972    125.63102
14153.00000    9.92588    83.32234    121.63309
14153.50000    9.84730    82.16495    117.63516
14154.00000    9.70587    81.00756    113.63723
14154.50000    9.56443    85.52736    110.54904
14155.00000    9.58340    84.94466    109.24263
14155.50000    9.65397    84.36196    107.93622
14156.00000    9.72453    83.77926    106.99474
14156.50000    9.79510    83.31137    111.36276
14157.00000    9.86567    85.09377    115.73078
14157.50000    9.93623    86.18926    120.09880
14158.00000    10.29865    84.56445    124.46682
14158.50000    10.21024    82.93963    123.82018
14159.00000    10.12183    82.14375    120.69066
14159.50000    10.18460    84.67422    117.56113
14160.00000    10.37383    86.53041    114.43161
14160.50000    10.04858    84.71552    111.30209
14161.00000    10.09797    82.90062    108.17256
14161.50000    10.14737    81.20401    108.92129
14162.00000    10.19676    81.92652    111.36269
14162.50000    10.24615    82.64903    113.80409
14163.00000    10.29555    83.37153    116.24549
14163.50000    10.34494    84.09404    118.68689
14164.00000    10.39433    84.81655    121.12829
14164.50000    10.44372    85.53906    123.56969
14165.00000    10.38910    86.26156    125.83006
14165.50000    10.28083    86.88884    124.89365
14166.00000    10.17256    86.27525    123.95723
14166.50000    10.12286    85.66167    123.02081
14167.00000    10.20174    85.04808    122.08439
14167.50000    10.28061    85.09631    122.81303
14168.00000    10.35949    85.73300    125.32416
14168.50000    10.43837    85.88354    127.83528
14169.00000    10.42078    85.32173    128.95183
14169.50000    10.16282    84.75993    126.78877
14170.00000    10.10462    84.19813    124.62572
14170.50000    10.17179    83.63632    122.46267
14171.00000    10.23895    85.89544    120.29962
14171.50000    10.30611    85.22964    118.13657
14172.00000    10.37327    84.56383    117.21754
14172.50000    10.44044    85.60555    118.41405
14173.00000    10.50760    87.16211    119.61056
14173.50000    10.57476    86.15949    120.80706
14174.00000    10.36226    85.11031    122.00357
14174.50000    10.15675    84.06113    123.20008
14175.00000    10.17543    83.01195    123.12382
14175.50000    10.19410    82.83692    122.14126
14176.00000    10.21278    83.58783    121.15871
14176.50000    10.23146    84.33875    121.31881
14177.00000    10.25014    85.08966    123.93674
14177.50000    10.26882    85.84058    126.55467
14178.00000    10.28750    86.59149    129.17261
14178.50000    10.30618    87.34241    131.79054
14179.00000    10.29064    87.06943    133.17660
14179.50000    10.13072    84.98944    130.35310
14180.00000    9.97080    82.90945    127.52961
14180.50000    9.81088    80.82946    124.70611
14181.00000    9.95040    85.27188    123.23699
14181.50000    10.14442    88.90914    125.74729
14182.00000    10.33844    86.77060    128.25759
14182.50000    10.23580    84.63206    130.51234
14183.00000    10.10459    82.49352    129.28646
14183.50000    9.97338    80.35498    128.06057
14184.00000    9.84216    79.90513    126.83469
14184.50000    9.77673    82.67408    125.72442
14185.00000    9.85906    85.44303    125.31175
14185.50000    9.94138    85.41561    124.89908
14186.00000    10.02371    84.01102    124.48641
14186.50000    10.10603    82.60643    124.07375
14187.00000    10.05240    81.20184    123.66108
14187.50000    9.94048    81.99573    125.49205
14188.00000    9.82857    83.94648    127.47153
14188.50000    9.94929    85.89724    129.45100
14189.00000    10.13977    86.67561    131.43048
14189.50000    10.33024    85.47334    133.40995
14190.00000    10.40266    84.27107    132.82025
14190.50000    10.31103    83.28499    131.67614
14191.00000    10.21941    86.41254    130.53204
14191.50000    10.12778    86.29910    131.73974
14192.00000    10.03616    85.12642    134.86182
14192.50000    9.94453    83.95375    137.98391
14193.00000    9.85290    82.78107    141.10600
14193.50000    9.76127    81.60840    143.53139
14194.00000    9.87946    81.85766    140.40258
14194.50000    10.02583    84.57953    137.27378
14195.00000    10.17219    84.37910    134.14497
14195.50000    10.28724    84.17868    131.01616
14196.00000    10.14982    83.97825    127.88735
14196.50000    10.01240    85.55576    125.20708
14197.00000    9.87499    85.83657    125.34148
14197.50000    9.84262    84.33482    125.47588
14198.00000    10.01253    82.83308    125.61029
14198.50000    10.18243    81.33133    126.15499
14199.00000    10.35234    79.82959    127.93738
14199.50000    10.06771    80.65033    129.71977
14200.00000    9.77912    81.64001    131.50216
14200.50000    9.99932    82.62969    133.28455
14201.00000    10.20257    83.61937    130.88534
14201.50000    10.14398    84.60905    127.19920
14202.00000    10.08539    85.59874    123.51305
14202.50000    10.02679    85.01969    121.87747
14203.00000    9.96820    84.08809    122.92965
14203.50000    9.90960    83.15648    123.98183
14204.00000    9.85101    82.22488    125.03401
14204.50000    9.79242    81.29328    126.08619
14205.00000    9.76726    81.77288    127.13837
14205.50000    9.83516    83.54319    128.19055
14206.00000    9.78803    85.31351    128.68351
14206.50000    9.74090    85.18385    128.13437
14207.00000    9.69377    83.40793    127.58523
14207.50000    9.64664    81.63200    127.03609
14208.00000    9.59951    81.12515    128.02326
14208.50000    9.58129    81.91964    130.96006
14209.00000    9.73681    82.71412    133.89685
14209.50000    9.89233    83.50861    136.83365
14210.00000    10.04786    84.88292    135.90426
14210.50000    10.13472    86.28934    132.68958
14211.00000    10.10559    87.66108    129.47489
14211.50000    10.07646    87.45065    126.26021
14212.00000    10.04733    87.24023    123.04552
14212.50000    10.01820    87.02980    119.83084
14213.00000    9.98907    86.21221    117.73974
14213.50000    9.95995    84.43437    116.25827
14214.00000    9.96458    82.65654    114.77681
14214.50000    10.07095    80.87871    113.29534
14215.00000    10.17732    79.10087    111.81387
14215.50000    10.28369    79.46818    110.33240
14216.00000    10.39005    84.77937    108.85093
14216.50000    10.02826    89.00930    109.31887
14217.00000    10.04692    86.32904    112.36341
14217.50000    10.06559    83.64878    115.40795
14218.00000    10.08426    80.96851    118.45248
14218.50000    10.10292    81.52361    121.49702
14219.00000    10.40080    84.80439    117.82300
14219.50000    10.37271    88.08518    118.54334
14220.00000    10.19971    87.19639    119.26368
14220.50000    10.23501    86.15655    119.98401
14221.00000    10.36800    85.11672    120.70435
14221.50000    10.50098    84.07688    120.93057
14222.00000    10.63396    84.86282    118.24259
14222.50000    10.76695    86.07486    116.29712
14223.00000    10.81616    84.87842    118.31038
14223.50000    10.58960    83.68199    120.32363
14224.00000    10.36304    84.14307    122.33689
14224.50000    10.36515    86.98192    124.35015
14225.00000    10.45664    89.82076    126.36340
14225.50000    10.54814    91.43528    128.37666
14226.00000    10.63963    90.96734    130.38992
14226.50000    10.54926    90.49940    129.26021
14227.00000    10.44922    90.03145    124.75329
14227.50000    10.35253    87.93674    122.54754
