#--------------------------------------------------#
#-------------------ENVERUS, INC.------------------#
#------------------WWW.ENVERUS.COM-----------------#
#------------------COPYRIGHT 2020------------------#
#--------------------------------------------------#
#THIS FILE MAY BE USED ONLY IN ACCORDANCE WITH A CURRENT SUBSCRIPTION AGREEMENT BETWEEN
#THE USER AND ENVERUS, INC. NO PART OF THIS FILE MAY BE REPRODUCED, USED, COPIED,
#MODIFIED, PROPAGATED, OR DISTRIBUTED EXCEPT IN ACCORDANCE WITH THE SUBSCRIPTION
#AGREEMENT. UNAUTHORIZED USE OR DISTRIBUTION OF ALL OR ANY PART OF THIS FILE MAY VIOLATE
#COPYRIGHT, TRADEMARK, AND/OR OTHER LAWS AND IS SUBJECT TO CIVIL AS WELL AS CRIMINAL
#SANCTIONS.
#--------------------------------------------------#
#THIS FILE IS PROVIDED "AS-IS" AND ALL WARRANTIES ARE EXPRESSLY DISCLAIMED, WHETHER
#EXPRESS, ORAL, IMPLIED, STATUTORY OR OTHERWISE, INCLUDING ANY IMPLIED WARRANTY OF FITNESS
#FOR A PARTICULAR PURPOSE, MERCHANTABILITY, TITLE OR NON-INFRINGEMENT, AND ANY WARRANTIES
#ARISING BY VIRTUE OF CUSTOM OF TRADE OR COURSE OF DEALING.  FURTHER, ENVERUS, INC.
#AND ITS LICENSORS DO NOT REPRESENT OR WARRANT THAT THIS FILE WILL MEET USER'S
#REQUIREMENTS OR ARE SUITABLE FOR USER'S NEEDS OR THAT THE DATA OR RESULTS PROVIDED IN
#CONJUNCTION THEREWITH ARE CORRECT, ACCURATE, TIMELY OR RELIABLE. THESE DISCLAIMERS SHALL
#APPLY REGARDLESS OF ANY FAILURE OF ESSENTIAL PURPOSE OF ANY LIMITED REMEDY.  SOME
#JURISDICTIONS DO NOT ALLOW THE EXCLUSION OF CERTAIN WARRANTIES SO SOME OF THE ABOVE
#EXCLUSIONS MAY NOT APPLY. IN NO EVENT SHALL ENVERUS, INC. OR ANY OF ITS AFFILIATES
#BE LIABLE UNDER ANY LEGAL THEORY, WHETHER IN TORT (INCLUDING WITHOUT LIMITATION
#NEGLIGENCE), CONTRACT, STRICT LIABILITY, STATUTORY OR OTHERWISE, FOR ANY SPECIAL,
#INCIDENTAL, CONSEQUENTIAL, EXEMPLARY, PUNITIVE OR INDIRECT DAMAGE OF ANY KIND, INCLUDING
#WITHOUT LIMITATION LOSS OF REVENUE, PROFITS, GOODWILL, USE, AND/OR DATA OR THE COST OF
#PROCUREMENT OF SUBSTITUTE GOODS OR SERVICES, EVEN IF APPRISED OF THE POSSIBILITY OF SUCH
#DAMAGES IN ADVANCE.
#--------------------------------------------------#

~VERSION INFORMATION
VERS. 2.0 : CWLS LOG ASCII STANDARD - VERSION 2.0
WRAP.  NO : ONE LINE PER DEPTH STEP
~WELL INFORMATION
#MNEMONIC     .UNIT              VALUE :DESCRIPTION
STRT       .FT                50 :START DEPTH
STOP       .FT                6118 :STOP DEPTH
STEP       .FT                   0.500 :STEP
NULL       .                  -999.990 :NULL
UWI        .              42389003090000 :UNIQUE WELL ID
API        .              42389003090000 :API NUMBER
COMP       .         :COMPANY
WELL       .         1, :WELL
DATE       .                            :LOG DATE
~CURVE INFORMATION
#MNEMONIC     .UNIT      API CODE :CURVE DESCRIPTION
DEPTH       .FT                      :MEASURED DEPTH
NEUT.API        UNKNOWN   :NEUT
GR.API        UNKNOWN   :GR
DT.US/FT        UNKNOWN   :DT
~A    DEPTH    NEUT    GR    DT
# ...
 2020     -999.990   16.368   33.594
 2020.5     -999.990   18.616   29.883
 2021     -999.990   25.802   26.171
 2021.5     -999.990   24.651   22.46
 2022     -999.990   23.501   18.748
 2022.5     -999.990   22.35   -3.718
 2023     -999.990   21.2   18.795
 2023.5     -999.990   20.049   27.951
 2024     -999.990   18.898   15.267
 2024.5     -999.990   17.748   13.084
 2025     -999.990   16.597   19.536
 2025.5     -999.990   15.447   25.988
 2026     -999.990   14.296   25.344
 2026.5     -999.990   13.145   20.343
 2027     -999.990   11.995   23.755
 2027.5     -999.990   12.821   16.881
 2028     -999.990   13.739   4.68
 2028.5     -999.990   14.656   4.35
 2029     -999.990   15.157   4.021
 2029.5     -999.990   13.783   20.317
 2030     -999.990   12.409   36.09
 2030.5     -999.990   11.035   38.539
 2031     -999.990   9.661   40.987
 2031.5     -999.990   17.83   43.436
 2032     -999.990   26.794   51.286
 2032.5     -999.990   39.399   60.528
 2033     -999.990   52.005   69.771
 2033.5     -999.990   64.611   67.673
 2034     -999.990   82.129   61.607
 2034.5     -999.990   97.369   55.552
 2035     -999.990   95.109   49.56
 2035.5     -999.990   79.711   45.209
 2036     -999.990   55.79   47.374
 2036.5     -999.990   31.869   49.54
 2037     -999.990   13.705   51.705
 2037.5     -999.990   12.266   52.392
 2038     -999.990   10.827   53.055
 2038.5     -999.990   10.779   53.718
 2039     -999.990   11.713   52.843
 2039.5     -999.990   12.647   51.802
 2040     -999.990   13.582   50.762
 2040.5     -999.990   14.435   51.827
 2041     -999.990   13.93   52.987
 2041.5     -999.990   13.425   54.147
 2042     -999.990   12.919   57.904
 2042.5     -999.990   12.861   42.634
 2043     -999.990   14.094   41.225
 2043.5     -999.990   15.326   32.879
 2044     -999.990   16.559   23.82
 2044.5     -999.990   17.792   12.618
 2045     -999.990   19.998   -1.241
 2045.5     -999.990   22.56   -8.81
 2046     -999.990   24.871   -8.243
 2046.5     -999.990   25.063   -7.676
 2047     -999.990   25.254   -10.403
 2047.5     -999.990   25.178   -3.374
 2048     -999.990   21.877   -3.155
 2048.5     -999.990   18.576   4.54
 2049     -999.990   15.276   1.706
 2049.5     -999.990   12.499   -1.127
 2050     -999.990   11.44   39.756
 2050.5     -999.990   10.38   53.861
 2051     -999.990   9.321   53.458
 2051.5     -999.990   9.028   52.984
 2052     -999.990   9.769   52.208
 2052.5     -999.990   10.509   51.431
 2053     -999.990   11.25   50.655
 2053.5     -999.990   11.539   62.699
 2054     -999.990   10.602   58.013
 2054.5     -999.990   9.664   53.327
 2055     -999.990   10.154   52.999
 2055.5     -999.990   11.571   47.129
 2056     -999.990   12.988   41.258
 2056.5     -999.990   14.226   32.727
 2057     -999.990   14.803   23.851
 2057.5     -999.990   15.379   11.914
 2058     -999.990   15.956   -0.023
 2058.5     -999.990   16.533   9.1
 2059     -999.990   17.11   12.093
 2059.5     -999.990   16.984   11.885
 2060     -999.990   16.262   3.315
 2060.5     -999.990   15.541   5.362
 2061     -999.990   14.819   16.12
 2061.5     -999.990   14.098   23.183
 2062     -999.990   13.376   10.29
 2062.5     -999.990   12.655   12.35
 2063     -999.990   11.933   25.756
 2063.5     -999.990   11.75   39.162
 2064     -999.990   11.993   96.413
 2064.5     -999.990   12.237   98.42
 2065     -999.990   12.48   100.427
 2065.5     -999.990   12.724   99.265
 2066     -999.990   12.967   89.411
 2066.5     -999.990   13.21   79.557
 2067     -999.990   13.454   69.221
 2067.5     -999.990   13.697   58.872
 2068     -999.990   13.007   51.51
 2068.5     -999.990   12.149   46.085
 2069     -999.990   11.291   40.66
 2069.5     -999.990   10.542   50.305
 2070     -999.990   12.22   68.722
 2070.5     -999.990   13.898   70.063
 2071     -999.990   14.771   70.519
 2071.5     -999.990   14.472   64.879
 2072     -999.990   14.173   63.355
 2072.5     -999.990   13.875   66.372
 2073     -999.990   13.576   72.555
 2073.5     -999.990   13.278   65.831
 2074     -999.990   12.979   59.106
 2074.5     -999.990   12.681   52.382
 2075     -999.990   12.478   63.497
 2075.5     -999.990   13.838   82.592
 2076     -999.990   15.199   84.524
 2076.5     -999.990   16.559   79.276
 2077     -999.990   17.92   74.028
 2077.5     -999.990   17.941   70.433
 2078     -999.990   16.794   70.878
 2078.5     -999.990   15.648   71.322
 2079     -999.990   14.501   63.687
 2079.5     -999.990   14.607   56.006
 2080     -999.990   17.081   48.326
 2080.5     -999.990   19.241   62.844
 2081     -999.990   18.303   63.676
 2081.5     -999.990   17.366   64.455
 2082     -999.990   16.428   67.111
 2082.5     -999.990   15.491   69.768
 2083     -999.990   14.553   61.186
 2083.5     -999.990   13.616   56.896
 2084     -999.990   12.678   44.686
 2084.5     -999.990   11.778   41.728
 2085     -999.990   11.21   45.767
 2085.5     -999.990   10.642   48.333
 2086     -999.990   10.073   49.811
 2086.5     -999.990   9.505   51.288
 2087     -999.990   8.937   52.765
 2087.5     -999.990   8.368   54.243
 2088     -999.990   7.8   54.5
 2088.5     -999.990   7.232   53.52
 2089     -999.990   6.663   52.54
 2089.5     -999.990   6.095   51.559
 2090     -999.990   5.527   50.933
 2090.5     -999.990   4.958   50.395
 2091     -999.990   5.693   50.295
 2091.5     -999.990   6.508   50.52
 2092     -999.990   7.323   50.273
 2092.5     -999.990   8.716   50.026
 2093     -999.990   13.061   49.78
 2093.5     -999.990   17.406   49.533
 2094     -999.990   21.751   49.286
 2094.5     -999.990   26.096   50.439
 2095     -999.990   30.44   52.002
 2095.5     -999.990   34.785   53.564
 2096     -999.990   38.446   53.085
 2096.5     -999.990   34.728   51.381
 2097     -999.990   31.01   52.148
 2097.5     -999.990   27.292   55.983
 2098     -999.990   23.574   55.996
 2098.5     -999.990   19.856   54.904
 2099     -999.990   16.138   53.813
 2099.5     -999.990   12.802   52.721
 2100     -999.990   11.492   52.929
 2100.5     -999.990   10.182   55.518
 2101     -999.990   8.872   55.064
 2101.5     -999.990   8.403   53.538
 2102     -999.990   9.518   52.805
 2102.5     -999.990   10.633   52.723
 2103     -999.990   11.747   52.641
 2103.5     -999.990   12.862   52.559
 2104     -999.990   13.977   52.497
 2104.5     -999.990   14.379   53.534
 2105     -999.990   13.187   54.571
 2105.5     -999.990   11.995   54.525
 2106     -999.990   10.803   53.993
 2106.5     -999.990   10.003   53.46
 2107     -999.990   12.095   52.928
 2107.5     -999.990   14.187   52.395
 2108     -999.990   16.279   52.394
 2108.5     -999.990   18.371   53.019
 2109     -999.990   16.878   53.643
 2109.5     -999.990   15.325   54.267
 2110     -999.990   13.772   54.892
 2110.5     -999.990   12.219   53.538
 2111     -999.990   11.71   51.837
 2111.5     -999.990   12.728   51.353
 2112     -999.990   13.747   51.476
 2112.5     -999.990   13.45   51.598
 2113     -999.990   12.743   51.72
 2113.5     -999.990   12.036   51.843
 2114     -999.990   11.328   51.883
 2114.5     -999.990   10.621   51.773
 2115     -999.990   10.108   51.664
 2115.5     -999.990   12.615   51.555
 2116     -999.990   15.122   51.445
 2116.5     -999.990   17.63   51.336
 2117     -999.990   20.137   51.226
 2117.5     -999.990   22.644   51.784
 2118     -999.990   25.151   52.898
 2118.5     -999.990   27.659   57.279
 2119     -999.990   24.783   54.395
 2119.5     -999.990   21.496   51.592
 2120     -999.990   18.21   54.821
 2120.5     -999.990   14.923   56.309
 2121     -999.990   11.636   54.889
 2121.5     -999.990   10.411   53.469
 2122     -999.990   10.874   52.05
 2122.5     -999.990   11.336   52.06
 2123     -999.990   11.799   52.644
 2123.5     -999.990   12.026   53.229
 2124     -999.990   11.882   53.814
 2124.5     -999.990   11.737   54.298
 2125     -999.990   11.593   53.968
 2125.5     -999.990   11.449   53.639
 2126     -999.990   11.352   53.981
