#--------------------------------------------------#
#-------------------ENVERUS, INC.------------------#
#------------------WWW.ENVERUS.COM-----------------#
#------------------COPYRIGHT 2020------------------#
#--------------------------------------------------#
#THIS FILE MAY BE USED ONLY IN ACCORDANCE WITH A CURRENT SUBSCRIPTION AGREEMENT BETWEEN
#THE USER AND ENVERUS, INC. NO PART OF THIS FILE MAY BE REPRODUCED, USED, COPIED,
#MODIFIED, PROPAGATED, OR DISTRIBUTED EXCEPT IN ACCORDANCE WITH THE SUBSCRIPTION
#AGREEMENT. UNAUTHORIZED USE OR DISTRIBUTION OF ALL OR ANY PART OF THIS FILE MAY VIOLATE
#COPYRIGHT, TRADEMARK, AND/OR OTHER LAWS AND IS SUBJECT TO CIVIL AS WELL AS CRIMINAL
#SANCTIONS.
#--------------------------------------------------#
#THIS FILE IS PROVIDED "AS-IS" AND ALL WARRANTIES ARE EXPRESSLY DISCLAIMED, WHETHER
#EXPRESS, ORAL, IMPLIED, STATUTORY OR OTHERWISE, INCLUDING ANY IMPLIED WARRANTY OF FITNESS
#FOR A PARTICULAR PURPOSE, MERCHANTABILITY, TITLE OR NON-INFRINGEMENT, AND ANY WARRANTIES
#ARISING BY VIRTUE OF CUSTOM OF TRADE OR COURSE OF DEALING.  FURTHER, ENVERUS, INC.
#AND ITS LICENSORS DO NOT REPRESENT OR WARRANT THAT THIS FILE WILL MEET USER'S
#REQUIREMENTS OR ARE SUITABLE FOR USER'S NEEDS OR THAT THE DATA OR RESULTS PROVIDED IN
#CONJUNCTION THEREWITH ARE CORRECT, ACCURATE, TIMELY OR RELIABLE. THESE DISCLAIMERS SHALL
#APPLY REGARDLESS OF ANY FAILURE OF ESSENTIAL PURPOSE OF ANY LIMITED REMEDY.  SOME
#JURISDICTIONS DO NOT ALLOW THE EXCLUSION OF CERTAIN WARRANTIES SO SOME OF THE ABOVE
#EXCLUSIONS MAY NOT APPLY. IN NO EVENT SHALL ENVERUS, INC. OR ANY OF ITS AFFILIATES
#BE LIABLE UNDER ANY LEGAL THEORY, WHETHER IN TORT (INCLUDING WITHOUT LIMITATION
#NEGLIGENCE), CONTRACT, STRICT LIABILITY, STATUTORY OR OTHERWISE, FOR ANY SPECIAL,
#INCIDENTAL, CONSEQUENTIAL, EXEMPLARY, PUNITIVE OR INDIRECT DAMAGE OF ANY KIND, INCLUDING
#WITHOUT LIMITATION LOSS OF REVENUE, PROFITS, GOODWILL, USE, AND/OR DATA OR THE COST OF
#PROCUREMENT OF SUBSTITUTE GOODS OR SERVICES, EVEN IF APPRISED OF THE POSSIBILITY OF SUCH
#DAMAGES IN ADVANCE.
#--------------------------------------------------#

~VERSION INFORMATION
VERS. 2.0 : CWLS LOG ASCII STANDARD - VERSION 2.0
WRAP.  NO : ONE LINE PER DEPTH STEP
~WELL INFORMATION
#MNEMONIC     .UNIT              VALUE :DESCRIPTION
STRT       .FT                10841 :START DEPTH
STOP       .FT                18209 :STOP DEPTH
STEP       .FT                   0.500 :STEP
NULL       .                  -999.99 :NULL
UWI        .                42371326180000 :UNIQUE WELL ID
API        .                42371326180000 :API NUMBER
COMP       .         :COMPANY
WELL       .        :WELL
DATE       .                 :LOG DATE
FLD       .                 :FIELD NAME
LOC       .                  UNK :LOCATION
CNTY       .                 UNK :COUNTY
STAT       .                 UNK :STATE
CTRY       .                 UNK :COUNTY
SRVC       .                 UNK :SERVICE COMPANY
~CURVE INFORMATION
#MNEMONIC     .UNIT      API CODE :CURVE DESCRIPTION
DEPTH       .FT                      :MEASURED DEPTH
CAL.IN        UNKNOWN   :CAL
DT.MSEC/FT        UNKNOWN   :DT
GR.API        UNKNOWN   :GR
ILD.OHM        UNKNOWN   :ILD
ILS.OHM        UNKNOWN   :ILS
SP.MV        UNKNOWN   :SP
~A    DEPTH    CAL    DT    GR    ILD    ILS    SP
# ...
 15212     10.93246   78.72964   70.49754   5.79051   5.83191   -10.24329
 15212.5     10.93935   78.66659   67.77415   5.78065   6.06714   -10.35789
 15213     10.94624   78.64374   64.68183   5.74884   6.51055   -10.08116
 15213.5     10.92933   78.85386   61.35194   5.71703   6.95395   -9.80442
 15214     10.91169   78.99868   58.02206   5.68523   7.13269   -9.52768
 15214.5     10.89404   78.97828   59.75763   5.65342   6.91968   -9.25094
 15215     10.8764   78.72914   63.21028   5.62161   6.70668   -9.02956
 15215.5     10.85288   78.51054   67.18495   5.60144   6.49368   -9.23049
 15216     10.80515   78.41668   69.8116   5.5855   6.34014   -9.43141
 15216.5     10.75742   78.3462   69.37233   5.56955   6.39679   -9.63234
 15217     10.70969   78.29927   69.33233   5.55361   6.45343   -9.6466
 15217.5     10.69588   78.0449   71.89559   5.53766   6.51008   -9.5074
 15218     10.6986   76.77452   73.17344   5.56937   6.44858   -9.3682
 15218.5     10.70131   76.38895   68.67298   5.7015   6.33473   -9.229
 15219     10.70403   76.42776   63.89129   5.83364   6.54773   -9.0898
 15219.5     10.70674   77.11537   61.69595   5.91187   7.06811   -9.08016
 15220     10.70946   78.01026   62.77582   5.84433   7.58849   -9.34208
 15220.5     10.71217   78.4522   65.35962   5.77679   7.62592   -9.604
 15221     10.71489   78.52999   67.59892   5.70924   7.11819   -9.86591
 15221.5     10.72969   78.49089   68.78323   5.6417   6.61047   -10.12783
 15222     10.74467   78.35183   66.92155   5.57416   6.10274   -10.38975
 15222.5     10.75965   78.35411   64.01091   5.50661   6.16172   -10.21245
 15223     10.77464   78.2466   61.36541   5.44295   6.23696   -9.95861
 15223.5     10.78962   77.9071   60.35625   5.38111   6.31221   -9.70476
 15224     10.76757   76.57157   60.11708   5.31926   6.35666   -9.45092
 15224.5     10.68287   76.13242   61.47932   5.25742   6.14159   -9.19708
 15225     10.59816   75.90351   64.10844   5.21464   5.92653   -9.02193
 15225.5     10.60675   76.50434   67.34614   5.18324   5.89635   -9.28763
 15226     10.62696   77.98322   68.95769   5.15185   6.38463   -9.55334
 15226.5     10.64717   79.73892   67.76523   5.12046   6.80791   -9.81905
 15227     10.66738   80.20185   65.91687   5.08907   6.27093   -10.02835
 15227.5     10.6876   80.05571   64.97932   5.05767   5.73395   -9.77461
 15228     10.7033   79.83104   66.04861   5.02628   5.19697   -9.52087
 15228.5     10.71698   79.7299   68.52518   4.99621   5.2528   -9.26714
 15229     10.73066   79.72135   70.69356   5.03367   5.5196   -9.0134
 15229.5     10.74434   79.71418   70.05021   5.07112   5.7864   -9.24441
 15230     10.75802   79.70702   67.02443   5.10858   6.05321   -9.57222
 15230.5     10.7717   79.69986   61.6092   5.14603   6.04506   -9.90003
 15231     10.78538   79.6927   61.23225   5.18349   5.99101   -10.22785
 15231.5     10.79906   79.80435   64.03921   5.22094   5.93696   -10.55566
 15232     10.81274   80.04255   66.67777   5.20488   5.88291   -10.64457
 15232.5     10.82642   80.37008   69.31632   5.15107   5.82887   -10.31367
 15233     10.8401   80.7362   71.58209   5.09727   5.77482   -9.98277
 15233.5     10.85378   80.87259   71.79115   5.04346   5.72077   -9.65188
 15234     10.86746   80.77071   70.98826   5.09803   5.66672   -9.32098
 15234.5     10.88114   80.61603   71.02404   5.16896   5.58572   -8.99008
 15235     10.89482   80.21617   72.84231   5.23989   5.47459   -9.27009
 15235.5     10.9085   78.7645   75.02215   5.31082   5.36345   -9.61773
 15236     10.92218   77.82039   75.03617   5.38176   5.66602   -9.96538
 15236.5     10.93586   77.14998   74.01978   5.45269   6.0769   -9.95023
 15237     10.94954   76.51513   71.59705   5.52362   6.48777   -9.8484
 15237.5     10.96322   76.50369   69.0613   5.59455   6.89865   -9.74657
 15238     10.96809   76.71371   66.52199   5.66549   6.89151   -9.62818
 15238.5     10.96974   77.35732   63.98269   5.689   6.73336   -9.45822
 15239     10.9714   78.3461   62.72136   5.63623   6.57521   -9.34784
 15239.5     10.97305   78.69578   62.83277   5.58346   6.41707   -9.74438
 15240     10.97471   78.79983   66.82926   5.53069   6.25892   -10.14092
 15240.5     10.97636   78.77962   71.61947   5.47792   6.10077   -10.53747
 15241     10.97802   78.77265   73.84707   5.42515   6.0525   -10.93401
 15241.5     10.97968   78.77272   72.74583   5.37238   6.18916   -10.95581
 15242     10.98133   78.55744   69.6626   5.31961   6.32581   -10.71237
 15242.5     10.98299   78.17786   62.62604   5.29888   6.46246   -10.46894
 15243     10.98464   77.82716   59.8372   5.36418   6.59911   -10.2255
 15243.5     10.9863   77.65556   62.51285   5.42947   6.66379   -9.98207
 15244     10.98724   77.65563   65.84785   5.49476   6.57964   -9.73863
 15244.5     10.97671   77.24479   67.32144   5.56005   6.49549   -9.69933
 15245     10.96619   76.60526   66.4534   5.62535   6.41134   -9.97264
 15245.5     10.95567   76.35357   66.45475   5.69064   6.37034   -10.24594
 15246     10.94515   76.4802   65.72665   5.75593   6.60534   -10.29367
 15246.5     10.93462   77.04524   64.57787   5.69253   6.84034   -10.16075
 15247     10.9241   78.07939   63.50325   5.62778   6.9378   -10.02783
 15247.5     10.91358   78.68573   64.3771   5.56303   6.66513   -9.89492
 15248     10.90305   78.60417   66.0017   5.49829   6.39246   -9.762
 15248.5     10.89253   78.20906   68.26265   5.43354   6.15508   -9.65775
 15249     10.88201   77.78573   69.93995   5.36879   6.25137   -9.83795
 15249.5     10.87149   77.48947   68.64956   5.30405   6.3402   -10.01815
 15250     10.86096   77.53712   65.45973   5.24451   6.34041   -10.19835
 15250.5     10.85044   77.69102   62.01168   5.28888   6.34061   -10.37855
 15251     10.83992   77.7305   60.43157   5.33325   6.34082   -10.55875
 15251.5     10.82939   77.50604   60.90739   5.37762   6.47666   -10.66292
 15252     10.81888   77.37747   63.18074   5.42199   6.72202   -10.32408
 15252.5     10.8084   77.68128   66.17882   5.46636   6.96737   -9.98536
 15253     10.79793   78.28305   68.35376   5.51073   7.21272   -9.65922
 15253.5     10.78746   78.40085   69.83713   5.55509   7.19921   -9.33308
 15254     10.77699   78.29176   69.23566   5.59946   7.0625   -9.00694
 15254.5     10.76652   78.21558   67.45907   5.64383   6.92579   -9.30247
 15255     10.75605   78.28504   65.63113   5.66958   6.78908   -9.88284
 15255.5     10.74558   78.55773   66.05388   5.66722   6.72809   -10.46321
 15256     10.73511   79.1379   68.80795   5.66486   6.82676   -10.50809
 15256.5     10.72464   79.50425   71.31322   5.6625   6.92543   -10.18194
 15257     10.71417   79.58866   69.7001   5.66015   6.93442   -9.85578
 15257.5     10.7037   79.05571   66.13761   5.65779   6.89123   -9.61632
 15258     10.69323   78.18788   62.35832   5.65543   6.84805   -9.61492
 15258.5     10.68276   77.43839   60.06864   5.65307   6.80487   -9.66384
 15259     10.67229   77.07256   60.41101   5.65071   7.2384   -9.79986
 15259.5     10.66181   77.54927   61.78305   5.64835   7.70132   -9.93588
 15260     10.65134   78.24206   63.15508   5.646   8.11194   -10.07189
 15260.5     10.64087   78.77535   64.78301   5.64364   7.82239   -10.20791
 15261     10.6304   79.09241   66.55842   5.64128   7.53284   -10.30078
 15261.5     10.61993   79.30414   68.1118   5.63892   7.2433   -10.1176
 15262     10.60946   79.26646   67.98256   5.63656   7.07479   -9.93442
 15262.5     10.59899   78.97142   67.30636   5.6342   7.32611   -9.75125
 15263     10.58852   78.90608   68.35828   5.63185   7.51289   -9.56807
 15263.5     10.57805   78.90489   69.64057   5.62595   7.44427   -9.38489
 15264     10.56758   79.16162   69.1398   5.59916   7.37564   -9.27692
 15264.5     10.53225   79.56425   67.87557   5.57237   7.25943   -9.47704
 15265     10.4965   79.57942   68.09539   5.54558   7.12157   -9.67716
 15265.5     10.46076   79.41377   69.68397   5.51879   6.98371   -9.87728
 15266     10.459   79.77554   71.27255   5.492   6.84585   -9.77175
