#--------------------------------------------------#
#-------------------ENVERUS, INC.------------------#
#------------------WWW.ENVERUS.COM-----------------#
#------------------COPYRIGHT 2020------------------#
#--------------------------------------------------#
#THIS FILE MAY BE USED ONLY IN ACCORDANCE WITH A CURRENT SUBSCRIPTION AGREEMENT BETWEEN
#THE USER AND ENVERUS, INC. NO PART OF THIS FILE MAY BE REPRODUCED, USED, COPIED,
#MODIFIED, PROPAGATED, OR DISTRIBUTED EXCEPT IN ACCORDANCE WITH THE SUBSCRIPTION
#AGREEMENT. UNAUTHORIZED USE OR DISTRIBUTION OF ALL OR ANY PART OF THIS FILE MAY VIOLATE
#COPYRIGHT, TRADEMARK, AND/OR OTHER LAWS AND IS SUBJECT TO CIVIL AS WELL AS CRIMINAL
#SANCTIONS.
#--------------------------------------------------#
#THIS FILE IS PROVIDED "AS-IS" AND ALL WARRANTIES ARE EXPRESSLY DISCLAIMED, WHETHER
#EXPRESS, ORAL, IMPLIED, STATUTORY OR OTHERWISE, INCLUDING ANY IMPLIED WARRANTY OF FITNESS
#FOR A PARTICULAR PURPOSE, MERCHANTABILITY, TITLE OR NON-INFRINGEMENT, AND ANY WARRANTIES
#ARISING BY VIRTUE OF CUSTOM OF TRADE OR COURSE OF DEALING.  FURTHER, ENVERUS, INC.
#AND ITS LICENSORS DO NOT REPRESENT OR WARRANT THAT THIS FILE WILL MEET USER'S
#REQUIREMENTS OR ARE SUITABLE FOR USER'S NEEDS OR THAT THE DATA OR RESULTS PROVIDED IN
#CONJUNCTION THEREWITH ARE CORRECT, ACCURATE, TIMELY OR RELIABLE. THESE DISCLAIMERS SHALL
#APPLY REGARDLESS OF ANY FAILURE OF ESSENTIAL PURPOSE OF ANY LIMITED REMEDY.  SOME
#JURISDICTIONS DO NOT ALLOW THE EXCLUSION OF CERTAIN WARRANTIES SO SOME OF THE ABOVE
#EXCLUSIONS MAY NOT APPLY. IN NO EVENT SHALL ENVERUS, INC. OR ANY OF ITS AFFILIATES
#BE LIABLE UNDER ANY LEGAL THEORY, WHETHER IN TORT (INCLUDING WITHOUT LIMITATION
#NEGLIGENCE), CONTRACT, STRICT LIABILITY, STATUTORY OR OTHERWISE, FOR ANY SPECIAL,
#INCIDENTAL, CONSEQUENTIAL, EXEMPLARY, PUNITIVE OR INDIRECT DAMAGE OF ANY KIND, INCLUDING
#WITHOUT LIMITATION LOSS OF REVENUE, PROFITS, GOODWILL, USE, AND/OR DATA OR THE COST OF
#PROCUREMENT OF SUBSTITUTE GOODS OR SERVICES, EVEN IF APPRISED OF THE POSSIBILITY OF SUCH
#DAMAGES IN ADVANCE.
#--------------------------------------------------#

~VERSION INFORMATION
VERS. 2.0 : CWLS LOG ASCII STANDARD - VERSION 2.0
WRAP.  NO : ONE LINE PER DEPTH STEP
~WELL INFORMATION
#MNEMONIC     .UNIT              VALUE :DESCRIPTION
STRT       .FT                86 :START DEPTH
STOP       .FT                5215 :STOP DEPTH
STEP       .FT                   0.500 :STEP
NULL       .                  -999.990 :NULL
UWI        .              42389101440000 :UNIQUE WELL ID
API        .              42389101440000 :API NUMBER
COMP       .         :COMPANY
WELL       .         1, :WELL
DATE       .                            :LOG DATE
~CURVE INFORMATION
#MNEMONIC     .UNIT      API CODE :CURVE DESCRIPTION
DEPTH       .FT                      :MEASURED DEPTH
DT.US/FT        UNKNOWN   :DT
GR.API        UNKNOWN   :GR
~A    DEPTH    DT    GR
# ...
 3962.5     48.972   13.826
 3963     48.481   14.783
 3963.5     41.568   13.766
 3964     42.847   12.75
 3964.5     48.334   11.734
 3965     53.821   10.894
 3965.5     58.44   12.195
 3966     58.236   13.495
 3966.5     58.033   13.137
 3967     59.304   12.183
 3967.5     59.711   11.228
 3968     50.218   10.273
 3968.5     48.439   9.318
 3969     53.513   11.408
 3969.5     67.357   13.617
 3970     76.444   12.342
 3970.5     79.037   9.762
 3971     76.368   10.301
 3971.5     73.699   10.84
 3972     64.336   10.872
 3972.5     53.95   9.962
 3973     49.554   9.053
 3973.5     49.398   8.158
 3974     49.241   8.736
 3974.5     49.085   9.313
 3975     49.085   9.891
 3975.5     49.195   10.473
 3976     49.383   11.057
 3976.5     49.572   11.641
 3977     49.461   12.225
 3977.5     48.886   12.24
 3978     49.149   11.617
 3978.5     49.413   10.994
 3979     57.229   10.371
 3979.5     46.037   9.748
 3980     45.946   9.125
 3980.5     46.439   8.502
 3981     48.527   7.879
 3981.5     50.615   8.988
 3982     53.079   10.389
 3982.5     55.668   11.789
 3983     58.258   13.189
 3983.5     61.47   13.079
 3984     65.009   12.134
 3984.5     66.982   11.189
 3985     67.43   10.244
 3985.5     67.879   10.643
 3986     68.327   11.324
 3986.5     68.776   12.005
 3987     69.224   12.686
 3987.5     68.943   13.368
 3988     66.588   14.049
 3988.5     67.579   14.73
 3989     68.752   15.411
 3989.5     69.924   16.092
 3990     71.097   14.908
 3990.5     71.14   13.471
 3991     70.102   12.034
 3991.5     69.064   10.737
 3992     68.591   12.263
 3992.5     69.347   13.426
 3993     70.104   12.908
 3993.5     70.86   12.39
 3994     70.128   11.871
 3994.5     69.255   11.353
 3995     70.335   11.291
 3995.5     70.771   11.857
 3996     69.931   12.423
 3996.5     70.197   12.989
 3997     70.455   13.555
 3997.5     69.851   13.123
 3998     69.248   12.283
 3998.5     68.644   11.442
 3999     68.283   10.602
 3999.5     69.527   10.45
 4000     69.814   11.259
 4000.5     69.107   12.069
 4001     69.815   12.878
 4001.5     70.522   13.355
 4002     70.652   12.361
 4002.5     69.737   11.366
 4003     71.358   11.006
 4003.5     71.43   11.99
 4004     69.734   12.974
 4004.5     69.27   13.879
 4005     69.366   12.452
 4005.5     69.022   11.025
 4006     67.716   10.999
 4006.5     68.273   11.771
 4007     68.917   12.544
 4007.5     69.56   13.316
 4008     70.204   14.089
 4008.5     70.012   14.222
 4009     69.268   13.608
 4009.5     68.524   12.995
 4010     68.464   12.381
 4010.5     69.561   11.768
 4011     70.658   11.155
 4011.5     71.755   10.907
 4012     70.717   11.626
 4012.5     69.772   12.345
 4013     70.793   13.064
 4013.5     71.356   13.721
 4014     69.377   12.793
 4014.5     67.398   11.864
 4015     67.949   10.936
 4015.5     71.1   10.007
 4016     74.251   9.079
 4016.5     72.814   8.735
 4017     70.523   9.68
 4017.5     68.233   10.625
 4018     62.503   10.843
 4018.5     52.863   10.311
 4019     56.054   9.779
 4019.5     60.64   9.247
 4020     64.562   9.297
 4020.5     64.562   11.494
 4021     64.562   13.692
 4021.5     58.522   15.89
 4022     53.506   16.543
 4022.5     56.305   15.601
 4023     54.063   14.659
 4023.5     51.728   13.716
 4024     51.808   12.774
 4024.5     51.888   11.832
 4025     51.532   10.89
 4025.5     50.74   9.947
 4026     50.27   9.005
 4026.5     49.801   8.665
 4027     49.789   9.143
 4027.5     49.838   9.62
 4028     49.888   10.098
 4028.5     49.937   10.575
 4029     49.986   10.705
 4029.5     50.036   9.711
 4030     50.085   9.173
 4030.5     50.135   9.577
 4031     50.01   9.981
 4031.5     49.848   10.384
 4032     49.686   10.788
 4032.5     49.524   11.192
 4033     49.362   11.596
 4033.5     49.279   12
 4034     49.587   12.404
 4034.5     49.895   11.157
 4035     50.202   9.573
 4035.5     50.092   9.902
 4036     49.895   10.416
 4036.5     49.697   10.93
 4037     49.526   11.444
 4037.5     49.765   11.959
 4038     50.005   11.58
 4038.5     50.245   10.863
 4039     50.135   10.146
 4039.5     49.891   9.429
 4040     49.647   8.712
 4040.5     49.404   9.218
 4041     49.362   9.774
 4041.5     49.328   10.329
 4042     49.295   10.691
 4042.5     49.261   10.225
 4043     49.227   9.76
 4043.5     49.193   9.295
 4044     49.159   8.829
 4044.5     49.125   8.364
 4045     49.262   8.303
 4045.5     49.609   8.671
 4046     49.956   9.038
 4046.5     50.303   9.405
 4047     50.649   9.772
 4047.5     50.608   10.139
 4048     50.375   10.506
 4048.5     50.142   10.873
 4049     49.908   11.241
 4049.5     49.675   11.608
 4050     49.471   11.891
 4050.5     50.488   11.412
 4051     51.505   10.933
 4051.5     52.339   10.455
 4052     51.52   9.976
 4052.5     50.701   9.791
 4053     49.883   10.161
 4053.5     49.679   10.531
 4054     50.412   10.901
 4054.5     51.146   11.271
 4055     50.288   11.641
 4055.5     49.397   11.459
 4056     49.283   11.015
 4056.5     49.554   10.572
 4057     49.826   10.129
 4057.5     50.097   10.306
 4058     50.369   11.407
 4058.5     50.64   12.507
 4059     50.912   13.31
 4059.5     50.651   11.856
 4060     49.887   10.402
 4060.5     49.247   9.438
 4061     49.125   10.003
 4061.5     49.004   10.569
 4062     48.882   11.134
 4062.5     48.994   11.7
 4063     49.432   12.265
 4063.5     49.869   12.831
 4064     50.307   13.138
 4064.5     50.675   12.183
 4065     50.463   11.228
 4065.5     50.316   11.913
 4066     50.402   13.048
 4066.5     50.488   13.305
 4067     50.573   12.437
 4067.5     50.348   11.568
 4068     50.087   10.7
 4068.5     49.826   9.831
 4069     49.565   9.18
 4069.5     49.304   9.442
 4070     49.043   9.703
 4070.5     48.937   9.965
 4071     49.166   10.226
 4071.5     49.395   10.487
 4072     49.623   10.749
 4072.5     49.852   11.01
 4073     50.036   11.122
 4073.5     49.645   10.439
 4074     49.254   9.756
 4074.5     49.465   9.073
 4075     49.899   9.312
 4075.5     50.333   9.747
 4076     50.767   10.182
 4076.5     51.201   10.616
 4077     51.248   11.051
 4077.5     50.84   11.486
 4078     50.433   11.346
 4078.5     50.657   10.947
 4079     51.222   10.548
 4079.5     49.405   10.149
 4080     48.018   9.75
 4080.5     48.634   10.08
 4081     49.249   10.456
 4081.5     49.865   10.833
 4082     50.48   11.21
 4082.5     51.01   11.587
 4083     50.803   11.964
 4083.5     50.597   12.34
 4084     50.39   12.053
 4084.5     50.183   11.654
 4085     50.188   11.255
 4085.5     50.517   10.856
 4086     50.579   10.457
 4086.5     50.356   10.058
 4087     50.133   9.659
 4087.5     49.91   9.26
 4088     49.687   8.861
 4088.5     49.465   8.807
 4089     49.564   9.38
 4089.5     49.729   9.952
 4090     49.894   10.524
 4090.5     50.051   11.096
 4091     49.883   11.668
 4091.5     49.714   11.529
 4092     49.546   11.08
 4092.5     49.378   10.631
 4093     49.21   10.182
 4093.5     49.042   10.424
 4094     49.115   10.747
 4094.5     49.217   11.07
 4095     49.32   11.393
 4095.5     49.422   11.716
 4096     49.524   12.039
 4096.5     49.626   12.362
 4097     49.728   11.994
 4097.5     49.83   11.462
 4098     49.932   10.931
 4098.5     50.078   10.399
 4099     50.29   9.867
 4099.5     50.502   9.335
 4100     50.714   8.804
 4100.5     50.927   9.021
 4101     51.139   9.598
 4101.5     51.245   10.174
 4102     50.941   10.751
 4102.5     50.636   11.328
 4103     50.332   11.905
 4103.5     50.028   12.415
 4104     49.723   12.083
 4104.5     49.651   11.75
 4105     49.758   11.418
 4105.5     49.866   11.085
 4106     49.973   10.753
 4106.5     50.081   10.659
 4107     50.188   10.962
 4107.5     50.296   11.265
 4108     50.403   11.568
 4108.5     50.511   11.87
 4109     50.459   12.173
 4109.5     50.271   8.046
 4110     50.084   8.817
 4110.5     49.896   9.589
 4111     49.709   10.361
 4111.5     49.671   11.132
 4112     49.91   11.876
 4112.5     50.15   11.26
 4113     50.183   10.644
