~VERSION INFORMATION
 VERS.                2.0:   CWLS LOG ASCII STANDARD - VERSION 2.0
 WRAP.                 NO:   ONE LINE PER DEPTH STEP
~WELL INFORMATION
#MNEM.UNIT      DATA TYPE    INFORMATION
#----------   ------------   ------------------------------
 STRT.FT           0.0000:   START DEPTH
 STOP.FT        7147.0000:   STOP DEPTH
 STEP.FT           0.5000:   STEP LENGTH
 NULL.          -999.2500:   NULL VALUE
 COMP. MOBIL PRODUCING TEXAS & NEW MEEXICO INC:   COMPANY
 WELL. SCHLOSER FRED ESTATE B #2:   WELL
 FLD .      ROJO CABALLOS:   FIELD
 LOC .                   :   LOCATION
 CNTY.              PECOS:   COUNTY
 STAT.              TEXAS:   STATE
 CTRY. UNITED STATES OF AMERICA:   COUNTRY
 SRVC.       Schlumberger:   SERVICE COMPANY
 DATE.        10-Jun-1980:   LOGDATE
 API .     42371330900000:   API NUMBER
~CURVE INFORMATION
#MNEM.UNIT       API CODE    CURVE DESCRIPTION
#----------   ------------   ------------------------------
 DEPT.F                  :   
 GRD .GAPI   45 310 01 00:   GAMMA RAY FROM DENSITY LOG
 GRR .GAPI   11 310 01 00:   GAMMA RAY FROM RESISTIVITY LOG
 GRS .GAPI   60 310 01 00:   GAMMA RAY FROM SONIC LOG
 DT  .US/F   60 500 00 00:   DELTA-T (INTERVAL TRANSIT TIME)
 CALD.IN     45 280 60 00:   CALIPER FROM DENSITY LOG
 CORR.G/C3   45 356 01 00:   DENSITY CORRECTION
 RHOB.G/C3   45 350 01 00:   BULK DENSITY
 NPHI_LS.DEC 42 890 01 00:   NEUTRON POROSITY LIMESTONE
 DPHI_LS.DEC 45 890 10 00:   DENSITY POROSITY LIMESTONE
 LLD .OHMM   11 220 10 00:   LATEROLOG DEEP RESISTIVITY
 LLS .OHMM   11 220 09 00:   LATEROLOG SHALLOW RESISTIVITY
~PARAMETER INFORMATION
#MNEM.UNIT          VALUE    DESCRIPTION
#----------   ------------   ------------------------------
 PD  .                 GL:   PERMANENT DATUM
 EPD .FT             2752:   ELEVATION PERMANENT DATUM
 LMF .                 KB:   LOG MEASURED FROM
 DAPD.FT               13:   FEET ABOVE PERMANENT DATUM
 DMF .                 KB:   DRILLING MEASURED FROM
 EKB .FT             2765:   KELLY BUSHING
 EDF .FT             2764:   DRILLING FLOOR
 EGL .FT             2752:   GROUND LEVEL
 DATE.           06/10/80:   RUN DATE
 RUN .                  1:   RUN NUMBER
 DD  .FT             7150:   DEPTH DRILLER
 DL  .FT             7150:   DEPTH LOGGER
 BLI .FT             7147:   BOTTOM LOG INTERVAL
 TLI .FT             5000:   TOP LOG INTERVAL
 CS  .IN            8.625:   CASING SIZE
 CBD .FT             1919:   CASING BOTTOM DRILLER
 CBL .FT             1904:   CASING BOTTOM LOGGER
 BS  .IN            7.875:   BIT SIZE
 BSD .FT             7150:   BIT SIZE AT DEPTH
 DFT .              BRINE:   DRILLING FLUID TYPE
 DFD .                 10:   DRILLING FLUID DENSITY
 DFV .                 35:   DRILLING FLUID VISCOSITY
 DFPH.                9.5:   DRILLING FLUID PH
 DFL .                 20:   DRILLING FLUID LOSS
 MSS .               CIRC:   MUD SAMPLE SOURCE
 RMS .OHMM           .055:   RESISTIVITY MUD SAMPLE
 MST .DEGF             73:   MUD SAMPLE TEMPERATURE
 RMF .OHMM           .055:   RESISTIVITY MUD FILTRATE SAMPLE
 MFST.DEGF             73:   MUD FILTRATE SAMPLE TEMPERATURE
 MFSS.                  M:   MUD FILTRATE SAMPLE SOURCE
 RMB .OHMM            .03:   RESISTIVITY MUD AT BHT
 BHT .DEGF            107:   BOTTOM HOLE TEMPERATURE
 TCS .HRS            1615:   TIME CIRCULATED STOPPED
 TLAB.HRS            0300:   TIME LOGGER AT BOTTOM
 MRT .DEGF            107:   MAXIMUM RECORDED TEMPERATURE
 LUN .               8024:   LOGGING UNIT NUMBER
 LUL .               MONA:   LOGGING UNIT LOCATION
 ENGI.           MC BRIDE:   RECORDING ENGINEER
 CLNT.            :   CLIENT CODE
 ORIG.      1" 2.5" PRINT:   ORIGIN OF DATA
 UWI .     42371330900000:   UNIQUE WELL ID
 
~OTHER INFORMATION
~A    DEPT     GRD        GRR         GRS        DT       CALD       CORR       RHOB      NPHI_LS    DPHI_LS      LLD        LLS   
# ...
 6100.0000    50.5291    44.0566    48.6251    72.2613    10.8469    -0.0039     2.4697     0.1658     0.1535     3.1733     2.9452
 6100.5000    52.6164    44.7160    52.1784    72.8624    10.9129    -0.0028     2.4605     0.1692     0.1543     3.0306     2.8051
 6101.0000    53.9940    46.3623    55.8182    73.1666    10.9784     0.0017     2.4553     0.1735     0.1561     2.9627     2.6827
 6101.5000    55.3703    48.0085    57.1866    73.3808    11.0372     0.0061     2.4538     0.1807     0.1596     2.9971     2.5764
 6102.0000    54.7180    49.7284    56.5189    73.4850    11.0613     0.0106     2.4591     0.1881     0.1606     3.0417     2.5264
 6102.5000    53.4856    51.7427    53.6490    73.4799    11.1475     0.0149     2.4655     0.1950     0.1565     3.0781     2.5217
 6103.0000    52.2532    52.9963    52.5197    73.6214    11.1556     0.0131     2.4709     0.1925     0.1508     3.1307     2.5306
 6103.5000    50.9819    53.5074    51.7124    73.9197    11.2405     0.0103     2.4626     0.1871     0.1503     3.1768     2.5286
 6104.0000    49.4806    51.1613    51.0321    74.3363    11.2772     0.0088     2.4543     0.1820     0.1559     3.1356     2.4811
 6104.5000    48.4124    46.6588    50.3714    74.6874    11.3285     0.0123     2.4460     0.1799     0.1651     2.9868     2.3540
 6105.0000    48.1989    45.3929    49.9287    74.4724    11.3687     0.0180     2.4519     0.1891     0.1625     2.9203     2.3102
 6105.5000    48.2252    46.6505    49.5997    74.2922    11.4146     0.0236     2.4604     0.1971     0.1568     2.9464     2.3198
 6106.0000    47.6717    48.5426    48.8139    74.7241    11.4843     0.0287     2.4688     0.2030     0.1531     2.9849     2.3466
 6106.5000    46.2824    50.0423    47.5693    75.6297    11.5471     0.0287     2.4625     0.2086     0.1549     2.9894     2.3395
 6107.0000    46.7626    48.6098    45.4956    76.1429    11.5987     0.0287     2.4563     0.2196     0.1575     2.9680     2.2672
 6107.5000    48.3958    46.7957    43.5970    76.2701    11.6403     0.0197     2.4500     0.2420     0.1601     2.8951     2.1547
 6108.0000    50.0096    44.6821    42.5193    76.1241    11.6810     0.0103     2.4431     0.2551     0.1656     2.7626     2.0090
 6108.5000    51.2802    43.1717    44.4653    75.2428    11.7197     0.0011     2.4361     0.2696     0.1725     2.7896     2.0435
 6109.0000    50.6542    45.4673    48.9474    74.8522    11.7583     0.0002     2.4305     0.2657     0.1734     2.8968     2.1415
 6109.5000    49.6809    48.6386    53.4851    74.7792    11.7642     0.0013     2.4451     0.2516     0.1699     3.0718     2.2897
 6110.0000    49.2885    48.9973    56.4076    74.7586    11.7651     0.0068     2.4530     0.2320     0.1628     3.3006     2.4984
 6110.5000    49.8206    47.3000    54.5272    74.7548    11.7660     0.0122     2.4474     0.2200     0.1588     3.5338     2.5338
 6111.0000    50.9767    48.1976    52.6418    74.7503    11.7721     0.0167     2.4418     0.2257     0.1626     3.4845     2.4976
 6111.5000    52.2060    50.4828    52.1999    74.5946    11.7803     0.0178     2.4418     0.2359     0.1682     3.3936     2.4243
 6112.0000    52.8785    53.0938    53.2064    74.0548    11.7819     0.0189     2.4491     0.2424     0.1694     3.3567     2.3588
 6112.5000    52.4409    55.5982    54.1844    73.2568    11.7709     0.0216     2.4602     0.2412     0.1568     3.3459     2.3945
 6113.0000    49.8630    55.3313    53.5907    73.2929    11.7735     0.0242     2.4811     0.2295     0.1487     3.4719     2.4537
 6113.5000    47.5417    53.1268    51.5281    73.7185    11.7762     0.0269     2.4844     0.2177     0.1423     3.5277     2.4728
 6114.0000    45.1227    48.9825    48.8351    74.3264    11.7782     0.0288     2.4783     0.2096     0.1428     3.3158     2.3928
 6114.5000    43.8026    44.8381    46.1421    74.9732    11.7802     0.0301     2.4633     0.2242     0.1529     2.9920     2.1459
 6115.0000    45.3188    43.1873    43.4492    75.0653    11.7822     0.0315     2.4507     0.2455     0.1640     2.8221     1.9612
 6115.5000    48.8787    45.7421    43.0670    74.7332    11.7832     0.0314     2.4348     0.2599     0.1717     2.6987     1.8686
 6116.0000    51.7306    48.7383    45.6937    73.9424    11.7842     0.0280     2.4565     0.2599     0.1661     2.7957     1.9270
 6116.5000    51.1736    51.6909    49.0016    73.6814    11.7851     0.0210     2.4904     0.2578     0.1473     3.0534     2.1157
 6117.0000    49.3132    49.7769    50.3428    74.2109    11.7867     0.0140     2.4855     0.2678     0.1407     3.2989     2.3000
 6117.5000    47.2624    46.4840    50.0199    74.9754    11.7883     0.0070     2.4641     0.2779     0.1448     3.4417     2.4261
 6118.0000    45.8714    42.0342    47.3885    75.8279    11.7894     0.0023     2.4435     0.2755     0.1594     3.4450     2.4244
 6118.5000    46.7791    40.5322    45.3887    76.3591    11.7910     0.0021     2.4272     0.2660     0.1758     3.3353     2.3328
 6119.0000    47.9361    41.7972    44.5186    76.2730    11.7862     0.0019     2.4167     0.2574     0.1809     3.2093     2.2674
 6119.5000    48.4863    43.8224    44.2939    76.0459    11.7689     0.0018     2.4204     0.2608     0.1843     3.0472     2.1958
 6120.0000    48.6514    47.2499    44.5528    75.4207    11.7517     0.0016     2.4279     0.2684     0.1826     3.0051     2.1748
 6120.5000    49.1176    49.2870    45.7317    73.9217    11.7344     0.0014     2.4355     0.2733     0.1751     3.2659     2.2786
 6121.0000    49.9000    50.0597    48.5100    73.3732    11.7172     0.0012     2.4431     0.2722     0.1708     3.4683     2.3766
 6121.5000    50.1103    50.1211    51.7648    73.1243    11.6997     0.0045     2.4478     0.2654     0.1660     3.7054     2.5137
 6122.0000    48.9372    49.6424    54.8022    73.5539    11.6802     0.0090     2.4488     0.2563     0.1628     3.9020     2.6244
 6122.5000    46.9953    48.8463    54.7602    74.3918    11.6650     0.0099     2.4453     0.2496     0.1644     3.8997     2.5691
 6123.0000    45.3049    45.6538    52.5315    75.1872    11.6580     0.0103     2.4352     0.2493     0.1698     3.5809     2.4425
 6123.5000    44.1616    42.4612    47.5642    75.9844    11.6522     0.0095     2.4245     0.2508     0.1750     3.2562     2.3070
 6124.0000    44.2256    39.2686    40.7030    76.5286    11.6464     0.0059     2.4137     0.2522     0.1818     3.0314     2.0469
 6124.5000    44.0032    38.6301    38.0447    77.0776    11.6398    -0.0027     2.4030     0.2587     0.1891     2.8083     1.8453
 6125.0000    43.7836    39.6463    39.5445    77.6196    11.6292    -0.0073     2.3923     0.2734     0.1954     2.6576     1.8156
 6125.5000    43.7100    42.1870    41.5122    77.9695    11.6186    -0.0073     2.3913     0.2926     0.2001     2.5856     1.7790
 6126.0000    44.3469    44.9855    43.4798    78.0763    11.5832    -0.0039     2.3930     0.2968     0.2005     2.6030     1.7798
 6126.5000    45.1388    46.4713    44.9751    78.0256    11.5477     0.0024     2.3980     0.2814     0.1980     2.6595     1.8248
 6127.0000    45.8571    47.3460    45.2100    77.6273    11.5260     0.0182     2.4032     0.2698     0.1941     2.7262     1.8749
 6127.5000    45.8683    45.2675    45.0281    77.3454    11.4837     0.0224     2.4079     0.2739     0.1899     2.7947     1.9077
 6128.0000    45.3364    42.8282    44.2712    77.3189    11.4620     0.0219     2.4116     0.2820     0.1871     2.8528     1.9219
 6128.5000    45.6570    43.5184    43.9160    77.6027    11.4362     0.0162     2.4153     0.2819     0.1850     2.8523     1.9338
 6129.0000    45.9266    45.8381    44.3093    78.0019    11.3749     0.0110     2.4128     0.2702     0.1853     2.8345     1.9406
 6129.5000    45.0756    48.8463    45.1965    78.2238    11.2733     0.0095     2.4099     0.2566     0.1874     2.8033     1.9446
 6130.0000    42.8063    48.4792    46.9525    78.1712    11.1619     0.0130     2.4097     0.2844     0.1898     2.7524     1.9428
