###############################################
##         ENVERUS                           ##
##         EPlus - Open Hole                 ##
##         PERMIAN / DELAWARE                ##
##         Copyright ©                       ##
##         Enverus Version - V4.0            ##
##         Nov 19 2023                       ##
##         42-371-10615-00-00                ##
###############################################
## Copyright 2017-2023  ENVERUS.  All Rights Reserved. 
## Confidential - Property of ENVERUS, use governed by terms and 
## conditions found within the existing Information Services Subscription Agreement 
## (as may be amended, the “ISSA”) between Customer and ENVERUS. 
## 
#___________________________________________________________________________________________________
~VERSION INFORMATION
# MNEM.UNIT                               DATA : DESCRIPTION OF MNEMONIC
#-----.-----     ----------------------------- : -----------------------------
VERS.                                     2.00 : CWLS LOG ASCII STANDARD - VERSION 2.00
WRAP.                                       NO : MULTIPLE LINES PER DEPTH STEP
VEND.                                  ENVERUS : VENDOR
ENV_TYPE.                    EPLUS - OPEN HOLE : Enverus Essential Plus Curves – Accessible through Enverus Core(TM)
ENV_VERS.                                 V4.0 : EPlus - Open Hole Version number 
ENV_DOC.                              32912129 : ENVERUS Header Document id
ENV_REF.                               PERMIAN : ENVERUS BASIN OR PLAY APPLIED REFERENCE LIMITS 
#___________________________________________________________________________________________________ 
~WELL INFORMATION 
# uyaQ8P8kQDJ9DXFS5hR1PxmExEOYaAUkY5f3/tnOS+scoPAUWgXA1zCIHGRbWCuSuUcwDzaESCjqjWQ81XhadA== 
# MNEM.UNIT                                              DATA : DESCRIPTION OF MNEMONIC 
#-----.-----                    ----------------------------- : ----------------------------- 
CNTY.                                                   PECOS : COUNTY 
STATE.                                                  TEXAS : STATE 
CNTRY.                                                    USA : COUNTRY 
API.                                             42-371-10615 : API (10 Digit) 
API_14.                                    42-371-10615-00-00 : API (14 Digits) 
API_14_std.                                 42-371-10615-0000 : API (14 Digits Standard) 
UWI.                                           42371106150000 : UNIQUE WELL ID
STRT.FT                                                    88 : START DEPTH
STOP.FT                                                  6434 : STOP DEPTH
STEP.FT                                                   0.5 : STEP DEPTH
NULL.                                               -999.2500 : NULL VALUE
WELL.                                               MCCARTY 1 : WELL NAME 
GR_ELEV.                                                 2761 : GROUND ELEVATION 
SLAT.                                                 31.1448 : SURFACE LATITUDE 
SLONG.                                              -103.1919 : SURFACE LONGITUDE
#___________________________________________________________________________________________________ 
~CURVE INFORMATION 
# MNEM.UNIT           : CURVE DESCRIPTION 
#-----.-----          : ----------------------------- 
DEPT.FT               : MEASURED DEPTH 
GR_E.API              : ENVERUS GAMMA RAY - CLEANED BLENDED AND LUMPED 
GR_F.                 : ENVERUS GAMMA RAY - OUTLIER INDICATOR - 0=(IN BOUNDS) 1=(OUT OF BOUNDS) 2=(REPEATING) 
GR_S.                 : ENVERUS GAMMA RAY - SOURCE INDICATOR 
GR_U.                 : ENVERUS GAMMA RAY - OPTION INDICATOR - 0=(NO OPTION) 1=(OTHER OPTIONS) 
DT_E.US/FT            : ENVERUS SONIC TRAVEL TIME - CLEANED BLENDED AND LUMPED 
DT_F.                 : ENVERUS SONIC TRAVEL TIME - OUTLIER INDICATOR - 0=(IN BOUNDS) 1=(OUT OF BOUNDS) 2=(REPEATING) 
DT_S.                 : ENVERUS SONIC TRAVEL TIME - SOURCE INDICATOR 
DT_U.                 : ENVERUS SONIC TRAVEL TIME - OPTION INDICATOR - 0=(NO OPTION) 1=(OTHER OPTIONS)
#___________________________________________________________________________________________________ 
~A         DEPT           GR_E           GR_F           GR_S           GR_U           DT_E           DT_F           DT_S           DT_U
# ...
         914.00         50.020           0.00           0.00           0.00     -999.25000        -999.25        -999.25        -999.25
         914.50         51.366           0.00           0.00           0.00     -999.25000        -999.25        -999.25        -999.25
         915.00         51.142           0.00           0.00           0.00     -999.25000        -999.25        -999.25        -999.25
         915.50         50.611           0.00           0.00           0.00     -999.25000        -999.25        -999.25        -999.25
         916.00         50.080           0.00           0.00           0.00     -999.25000        -999.25        -999.25        -999.25
         916.50         45.070           0.00           0.00           0.00     -999.25000        -999.25        -999.25        -999.25
         917.00         42.968           0.00           0.00           0.00     -999.25000        -999.25        -999.25        -999.25
         917.50         41.031           0.00           0.00           0.00     -999.25000        -999.25        -999.25        -999.25
         918.00         41.264           0.00           0.00           0.00     -999.25000        -999.25        -999.25        -999.25
         918.50         41.496           0.00           0.00           0.00     -999.25000        -999.25        -999.25        -999.25
         919.00         41.729           0.00           0.00           0.00     -999.25000        -999.25        -999.25        -999.25
         919.50         41.961           0.00           0.00           0.00     -999.25000        -999.25        -999.25        -999.25
         920.00         37.909           0.00           0.00           0.00     -999.25000        -999.25        -999.25        -999.25
         920.50         35.936           0.00           0.00           0.00     -999.25000        -999.25        -999.25        -999.25
         921.00         36.068           0.00           0.00           0.00     -999.25000        -999.25        -999.25        -999.25
         921.50         37.924           0.00           0.00           0.00     -999.25000        -999.25        -999.25        -999.25
         922.00         39.779           0.00           0.00           0.00     -999.25000        -999.25        -999.25        -999.25
         922.50         41.635           0.00           0.00           0.00     -999.25000        -999.25        -999.25        -999.25
         923.00         42.973           0.00           0.00           0.00     -999.25000        -999.25        -999.25        -999.25
         923.50         43.651           0.00           0.00           0.00     -999.25000        -999.25        -999.25        -999.25
         924.00         44.329           0.00           0.00           0.00     -999.25000        -999.25        -999.25        -999.25
         924.50         44.057           0.00           0.00           0.00     -999.25000        -999.25        -999.25        -999.25
         925.00         43.262           0.00           0.00           0.00     -999.25000        -999.25        -999.25        -999.25
         925.50         43.718           0.00           0.00           0.00     -999.25000        -999.25        -999.25        -999.25
         926.00         45.824           0.00           0.00           0.00     -999.25000        -999.25        -999.25        -999.25
         926.50         47.930           0.00           0.00           0.00     -999.25000        -999.25        -999.25        -999.25
         927.00         49.988           0.00           0.00           0.00     -999.25000        -999.25        -999.25        -999.25
         927.50         51.494           0.00           0.00           0.00     -999.25000        -999.25        -999.25        -999.25
         928.00         52.999           0.00           0.00           0.00     -999.25000        -999.25        -999.25        -999.25
         928.50         54.017           0.00           0.00           0.00     -999.25000        -999.25        -999.25        -999.25
         929.00         53.969           0.00           0.00           0.00     -999.25000        -999.25        -999.25        -999.25
         929.50         53.921           0.00           0.00           0.00     -999.25000        -999.25        -999.25        -999.25
         930.00         52.537           0.00           0.00           0.00     -999.25000        -999.25        -999.25        -999.25
         930.50         50.834           0.00           0.00           0.00     -999.25000        -999.25        -999.25        -999.25
         931.00         49.131           0.00           0.00           0.00     -999.25000        -999.25        -999.25        -999.25
         931.50         47.428           0.00           0.00           0.00     -999.25000        -999.25        -999.25        -999.25
         932.00         47.371           0.00           0.00           0.00     -999.25000        -999.25        -999.25        -999.25
         932.50         47.450           0.00           0.00           0.00     -999.25000        -999.25        -999.25        -999.25
         933.00         48.348           0.00           0.00           0.00     -999.25000        -999.25        -999.25        -999.25
         933.50         49.245           0.00           0.00           0.00     -999.25000        -999.25        -999.25        -999.25
         934.00         50.142           0.00           0.00           0.00     -999.25000        -999.25        -999.25        -999.25
         934.50         49.937           0.00           0.00           0.00     -999.25000        -999.25        -999.25        -999.25
         935.00         49.723           0.00           0.00           0.00     -999.25000        -999.25        -999.25        -999.25
         935.50         49.509           0.00           0.00           0.00     -999.25000        -999.25        -999.25        -999.25
         936.00         49.295           0.00           0.00           0.00     -999.25000        -999.25        -999.25        -999.25
         936.50         46.639           0.00           0.00           0.00     -999.25000        -999.25        -999.25        -999.25
         937.00         43.738           0.00           0.00           0.00     -999.25000        -999.25        -999.25        -999.25
         937.50         41.088           0.00           0.00           0.00     -999.25000        -999.25        -999.25        -999.25
         938.00         39.481           0.00           0.00           0.00     -999.25000        -999.25        -999.25        -999.25
         938.50         39.928           0.00           0.00           0.00     -999.25000        -999.25        -999.25        -999.25
         939.00         40.375           0.00           0.00           0.00     -999.25000        -999.25        -999.25        -999.25
         939.50         39.748           0.00           0.00           0.00     -999.25000        -999.25        -999.25        -999.25
         940.00         35.480           0.00           0.00           0.00     -999.25000        -999.25        -999.25        -999.25
         940.50         31.735           0.00           0.00           0.00     -999.25000        -999.25        -999.25        -999.25
         941.00         25.806           0.00           0.00           0.00     -999.25000        -999.25        -999.25        -999.25
         941.50         18.270           0.00           0.00           0.00     -999.25000        -999.25        -999.25        -999.25
         942.00         14.569           0.00           0.00           0.00     -999.25000        -999.25        -999.25        -999.25
         942.50         11.607           0.00           0.00           0.00     -999.25000        -999.25        -999.25        -999.25
         943.00          8.645           0.00           0.00           0.00     -999.25000        -999.25        -999.25        -999.25
