#--------------------------------------------------#
#-------------------ENVERUS, INC.------------------#
#------------------WWW.ENVERUS.COM-----------------#
#------------------COPYRIGHT 2020------------------#
#--------------------------------------------------#
#THIS FILE MAY BE USED ONLY IN ACCORDANCE WITH A CURRENT SUBSCRIPTION AGREEMENT BETWEEN
#THE USER AND ENVERUS, INC. NO PART OF THIS FILE MAY BE REPRODUCED, USED, COPIED,
#MODIFIED, PROPAGATED, OR DISTRIBUTED EXCEPT IN ACCORDANCE WITH THE SUBSCRIPTION
#AGREEMENT. UNAUTHORIZED USE OR DISTRIBUTION OF ALL OR ANY PART OF THIS FILE MAY VIOLATE
#COPYRIGHT, TRADEMARK, AND/OR OTHER LAWS AND IS SUBJECT TO CIVIL AS WELL AS CRIMINAL
#SANCTIONS.
#--------------------------------------------------#
#THIS FILE IS PROVIDED "AS-IS" AND ALL WARRANTIES ARE EXPRESSLY DISCLAIMED, WHETHER
#EXPRESS, ORAL, IMPLIED, STATUTORY OR OTHERWISE, INCLUDING ANY IMPLIED WARRANTY OF FITNESS
#FOR A PARTICULAR PURPOSE, MERCHANTABILITY, TITLE OR NON-INFRINGEMENT, AND ANY WARRANTIES
#ARISING BY VIRTUE OF CUSTOM OF TRADE OR COURSE OF DEALING.  FURTHER, ENVERUS, INC.
#AND ITS LICENSORS DO NOT REPRESENT OR WARRANT THAT THIS FILE WILL MEET USER'S
#REQUIREMENTS OR ARE SUITABLE FOR USER'S NEEDS OR THAT THE DATA OR RESULTS PROVIDED IN
#CONJUNCTION THEREWITH ARE CORRECT, ACCURATE, TIMELY OR RELIABLE. THESE DISCLAIMERS SHALL
#APPLY REGARDLESS OF ANY FAILURE OF ESSENTIAL PURPOSE OF ANY LIMITED REMEDY.  SOME
#JURISDICTIONS DO NOT ALLOW THE EXCLUSION OF CERTAIN WARRANTIES SO SOME OF THE ABOVE
#EXCLUSIONS MAY NOT APPLY. IN NO EVENT SHALL ENVERUS, INC. OR ANY OF ITS AFFILIATES
#BE LIABLE UNDER ANY LEGAL THEORY, WHETHER IN TORT (INCLUDING WITHOUT LIMITATION
#NEGLIGENCE), CONTRACT, STRICT LIABILITY, STATUTORY OR OTHERWISE, FOR ANY SPECIAL,
#INCIDENTAL, CONSEQUENTIAL, EXEMPLARY, PUNITIVE OR INDIRECT DAMAGE OF ANY KIND, INCLUDING
#WITHOUT LIMITATION LOSS OF REVENUE, PROFITS, GOODWILL, USE, AND/OR DATA OR THE COST OF
#PROCUREMENT OF SUBSTITUTE GOODS OR SERVICES, EVEN IF APPRISED OF THE POSSIBILITY OF SUCH
#DAMAGES IN ADVANCE.
#--------------------------------------------------#

# EXPORTED FROM DI TRANSFORM
# DI TRANSFORM - A PRODUCT OF DRILLINGINFO, INC. - WWW.DRILLINGINFO.COM
#
~VERSION INFORMATION
 VERS.        2.0 : LAS ASCII STANDARD - VERSION 2.0
 WRAP.         NO : ONE LINE PER DEPTH STEP

~WELL INFORMATION
#MNEM.UNIT       DATA TYPE       INFORMATION
#---------       ---------       -----------
 STRT.FT           100 : START DEPTH
 STOP.FT         18040 : STOP DEPTH
 STEP.FT           0.5 : STEP LENGTH
 NULL.         -999.25 : NULL VALUE
 UWI.   42371302980000 : UNIQUE WELL ID
 API.   42371302980000 : WELL IDENTIFIER
 COMP.                 : COMPANY
 WELL.          DRD_55 : WELL NAME
 FLD.                  : FIELD NAME
 LOC.                  : WELL LOCATION
 CNTY.                 : COUNTY
 STAT.                 : STATE OR PROVINCE
 CTRY.                 : COUNTRY
 SRVC.                 : SERVICE COMPANY
 DATE.                 : DATE

~CURVE INFORMATION
#MNEM.UNIT       API CODE       CURVE DESCRIPTION
#---------       --------       -----------------
 DEPT.FT        : <MEASURED DEPTH>
 CAL.IN         : CALIPER
 DT.US/FT       : SONIC
 GR.GAPI        : GAMMA RAY

~PARAMETER INFORMATION
#MNEM.UNIT       VALUE       DESCRIPTION
#---------       -----       -----------

~A       DEPT         CAL          DT          GR
# ...
        13700     10.7284     79.0255     73.7004
      13700.5     10.7284     79.5163     72.6711
        13701     10.7636     79.7305     72.0828
      13701.5     10.8622     78.5455     73.1121
        13702     10.9111     78.4242     73.2794
      13702.5     10.9353     78.5455     72.6026
        13703     10.9353     78.5455     71.7465
      13703.5     10.9353     78.5455     72.4696
        13704     10.9353     78.4242      71.944
      13704.5     10.9353     78.4242     68.8815
        13705     10.9353     77.9355      65.264
      13705.5     10.9234     75.7088     63.1125
        13706      9.8191     78.2385      70.317
      13706.5      8.6397     78.4254     78.5365
        13707      8.6811     78.4785     76.3642
      13707.5      8.7226     78.4357      73.646
        13708       8.764     78.6667     72.6167
      13708.5      8.8054     78.4242     71.6599
        13709      8.8468     78.4242     71.3679
      13709.5      8.8882     78.4242     70.7434
        13710      8.9296     78.4242     71.1765
      13710.5       8.971     78.4242     72.2763
        13711      9.0124     78.5322     74.2029
      13711.5       9.058     78.4242     74.8988
        13712      9.1238     78.4242     75.3036
      13712.5      9.2355     78.4242     75.5132
        13713      9.3603     78.4242     76.1134
      13713.5      9.4426     78.4242     75.4647
        13714      9.5162     78.4242     75.7085
      13714.5      9.6167     78.4242     76.3914
        13715      9.6975     78.4242     77.3279
      13715.5      9.7413     78.5455     77.3279
        13716      9.8051     78.5455     76.9231
      13716.5      9.8931     78.4242     76.5766
        13717      9.9626     78.4242     74.9812
      13717.5     10.0664     78.4242      72.125
        13718     10.1458     78.5455     69.7543
      13718.5     10.3161     78.5455     68.8361
        13719     10.4585     78.5455     71.1345
      13719.5     10.4955     78.5322      72.514
        13720     10.5169     78.4242     72.6105
      13720.5     10.5214     78.4478     71.5813
        13721     10.5309     78.5455     69.1458
      13721.5     10.5693     78.5455     68.3081
        13722      10.599     78.6667     68.0162
      13722.5      10.597     78.6667     68.1634
        13723     10.5949     78.6667     71.8932
      13723.5     10.5928      78.721      73.349
        13724     10.5907     79.0291     73.6881
      13724.5     10.5886     79.3373     73.0637
        13725     10.5864     79.3939     71.6296
      13725.5     10.5843     79.5152     70.6003
        13726     10.5822     79.6557     70.9148
      13726.5     10.5801     80.0489     71.5392
        13727     10.5779     79.5032     71.6599
      13727.5     10.5758     78.5455     71.3415
        13728     10.5737     78.5455     69.7077
      13728.5     10.5793     78.4399     68.0684
        13729     10.5877     77.8351     67.3252
      13729.5      10.596     76.6222     67.9983
        13730     10.6044     77.2418     70.0389
      13730.5     10.6128     77.9394     71.6599
        13731     10.6212     77.8182     71.6599
      13731.5     10.6295      77.697     69.6358
        13732     10.6379      77.697     67.3412
      13732.5     10.6463     77.7224     66.4816
        13733     10.6546     77.9093     67.5109
      13733.5      10.663     78.0606     69.2188
        13734     10.6714     78.0606       73.18
      13734.5     10.6797      78.303     75.8618
        13735     10.6881      78.303     76.1453
      13735.5     10.6965      78.303     74.6323
        13736     10.7049      78.303     72.4662
      13736.5     10.7132     78.2366     69.4665
        13737     10.7216      78.314     67.9797
      13737.5       10.73      80.518     67.6113
        13738     10.7383      80.526      68.087
      13738.5     10.7467     77.7815      69.842
        13739     10.7587     78.2155     72.1698
      13739.5     10.8026     78.7638     72.8745
        13740     10.8274     78.9886     72.3304
      13740.5     10.7983     78.7879      71.706
        13741     10.7801     78.7879     71.6599
      13741.5     10.7801     78.9056     72.4579
        13742     10.8125     79.2137     73.4871
      13742.5     10.8235     79.3939     74.5164
        13743     10.8318     79.5152     75.5457
      13743.5     10.8466     79.6364     76.6033
        13744     10.8795     79.6364     78.0091
      13744.5     10.9082     79.7576     78.9474
        13745     10.9364     79.7576     78.9474
      13745.5     10.9692     79.7576     78.4173
        13746     10.9871     79.7576      77.388
      13746.5     11.0284     79.8053     75.3098
        13747     11.0647     80.1625     72.3318
      13747.5     11.0905     81.0381      70.577
        13748     11.0905     79.8763     66.7679
      13748.5     11.1175     79.3292     61.6761
        13749     11.1423     78.7178     56.9783
      13749.5     11.1423     79.6364     54.8698
        13750       11.15     79.6364     53.7692
      13750.5     11.1664     79.5152     52.3893
        13751     11.1976     79.5152     51.8219
      13751.5     11.2199     79.5152     51.8219
        13752     11.2106     79.6364     52.2267
      13752.5      11.194     79.6364     52.5917
        13753     11.1567     79.6364     52.2267
      13753.5     11.1166     79.6364     51.8275
        13754     11.0373     79.8216     51.8219
      13754.5     10.9076     80.1947     52.8913
        13755     10.8419     80.3636     54.8257
      13755.5     10.7781     80.5037     56.2753
        13756     10.7362     80.4848     56.2753
      13756.5     10.7284     80.5195     55.7733
        13757     10.7486     79.8278     54.3833
      13757.5     10.7542     77.7689     52.9051
        13758     10.7735     73.2938     52.2267
      13758.5     10.7999     72.6348     53.2021
        13759      10.806     72.6348     53.8265
      13759.5      10.806     72.5184      54.251
        13760      10.806     72.4277     55.0753
      13760.5      10.806     72.0063     56.4558
        13761      10.806     71.9913     60.6168
      13761.5      10.806     72.1014     66.5218
        13762     10.7956     72.2673      71.743
      13762.5     10.7704     72.4848     73.4798
        13763     10.7626     72.4848     73.5669
      13763.5      10.779     72.4848     72.9425
        13764     10.7955     72.4848     72.7229
      13764.5      10.806     72.4848     72.0648
        13765     10.7941     72.4848     72.0648
      13765.5     10.7801     74.3673     72.4696
        13766     10.7542     79.4598     72.2496
      13766.5     10.7577      79.768       72.03
        13767      10.766     79.4981     70.6192
      13767.5     10.7742     80.6267     69.2308
        13768     10.7985     80.9349     70.3571
      13768.5     10.9064     79.6314     72.8786
        13769     10.9456     80.6298     73.7662
      13769.5     10.9876     81.1321     72.6682
        13770     11.0388     81.2121     68.8385
      13770.5     11.0388     81.2121     66.6911
        13771     11.0388     81.2121     64.7909
      13771.5     11.0388     81.2121     64.9834
        13772     11.0388     81.2121     66.0126
      13772.5     11.0129     81.2121     67.0419
        13773     10.9724     81.2121     67.6113
      13773.5     10.9178     81.2121     67.6113
        13774     10.8204     81.2121     67.6113
      13774.5     10.7542     81.2121     67.2065
        13775     10.7284     81.3333     67.2065
      13775.5     10.7291     81.3333     67.2065
        13776     10.7315     81.4545     68.5788
      13776.5     10.7338     81.4545     70.3626
        13777     10.7362     81.3333     71.6599
      13777.5     10.7385     81.3333     71.2384
        13778     10.7409     81.2656     69.0045
      13778.5     10.7432     81.3456     67.9753
        13779     10.7456     81.4545     67.6113
      13779.5     10.7479      81.432     67.1313
