###############################################
##         ENVERUS                           ##
##         ESS - Open Hole                   ##
##         PERMIAN / DELAWARE                ##
##         Nov 04 2023  V4.0                 ##
##         42-371-32680-00-00                ##
###############################################
## Copyright 2017-2023  ENVERUS.  All Rights Reserved. 
## Confidential - Property of ENVERUS, use governed by terms and 
## conditions found within the existing Information Services Subscription Agreement 
## (as may be amended, the “ISSA”) between Customer and ENVERUS. 
## 
~VERSION INFORMATION
# MNEM.UNIT                               DATA : DESCRIPTION OF MNEMONIC
#-----.-----     ----------------------------- : -----------------------------
VERS.                                     2.00 : CWLS LOG ASCII STANDARD - VERSION 2.00
WRAP.                                       NO : MULTIPLE LINES PER DEPTH STEP
VEND.                                  ENVERUS : VENDOR
TYPE.                          ESS - OPEN HOLE : ENVERUS ESSENTIAL CURVES – ACCESSIBLE THROUGH ENVERUS PRISM(TM)
DOC.                                  31991434 : ENVERUS HEADER RAW DOCUMENT ID
#___________________________________________________________________________________________________ 
~WELL INFORMATION 
# uAv5E/S3ZwrMaovXfwZJbnQ+z8RwnTA5GIEFL0LfM7mdkMX/8iXP+LiYgCnT3sJm4ejuYgXNUZeSPI/Yhcow4w== 
# MNEM.UNIT                                              DATA : DESCRIPTION OF MNEMONIC 
#-----.-----                    ----------------------------- : ----------------------------- 
CNTY.                                                   PECOS : COUNTY 
STATE.                                                  TEXAS : STATE 
CNTRY.                                                    USA : COUNTRY 
API.                                             42-371-32680 : API (10 Digit) 
API_14.                                    42-371-32680-00-00 : API (14 Digits) 
API_14_std.                                 42-371-32680-0000 : API (14 Digits Standard) 
UWI.                                           42371326800000 : UNIQUE WELL ID 
WELL.                                     MARALO - STEWART  1 : WELL NAME
STRT.FT                                                  21.0 : START DEPTH
STOP.FT                                               21630.0 : STOP DEPTH
STEP.FT                                                   0.5 : STEP BETWEEN DEPTHS
NULL.                                                 -999.25 : NULL VALUE
COMP.                                            MARALO, INC. : COMPANY 
DATE.                                             11-DEC-1978 : LOG DATE
#___________________________________________________________________________________________________ 
~CURVE INFORMATION 
# MNEM.UNIT           : CURVE DESCRIPTION 
#-----.-----          : ----------------------------- 
 DEPT.FT               : MEASURED DEPTH 
 GR__D.API             : GAMMA RAY (GR) 
 DT__D.US/FT           : SONIC DELTA TRANSIT TIME (DT) 
 RESD__D.OHMM          : DEEP INDUCTION RESISTIVITY (ILD - ILD) 
 #___________________________________________________________________________________________________ 
~A         DEPT          GR__D          DT__D        RESD__D
# ...
        18237.0         15.641         51.232        692.518
        18237.5         16.290         50.889        702.997
        18238.0         17.346         51.140        702.845
        18238.5         19.039         51.392        700.413
        18239.0         20.732         51.341        655.230
        18239.5         22.425         51.204        610.047
        18240.0         24.119         51.121        564.865
        18240.5         16.705         51.236        551.191
        18241.0         16.776         51.351        573.176
        18241.5         16.848         51.466        595.160
        18242.0         17.057         51.581        647.971
        18242.5         17.617         51.696        725.540
        18243.0         18.177         51.811        717.522
        18243.5         18.738         51.926        709.505
        18244.0         19.261         52.041        701.487
        18244.5         18.978         51.608        693.470
        18245.0         18.695         51.228        685.452
        18245.5         18.411         51.291        728.444
        18246.0         18.128         51.354        774.359
        18246.5         17.844         51.417        820.274
        18247.0         17.561         51.480        866.189
        18247.5         17.144         51.446        912.104
        18248.0         16.146         51.282        958.018
        18248.5         15.147         51.118       1003.933
        18249.0         14.149         50.954       1049.848
        18249.5         13.151         50.790       1095.763
        18250.0         12.152         50.626       1140.175
        18250.5         11.154         50.462       1183.620
        18251.0         10.155         50.445       1227.066
        18251.5         10.364         50.604       1270.512
        18252.0         10.826         50.762       1313.958
        18252.5         11.289         50.921       1357.404
        18253.0         11.752         51.080       1400.849
        18253.5         12.214         51.203       1404.454
        18254.0         12.677         51.012       1395.251
        18254.5         13.139         50.820       1386.049
        18255.0         13.602         50.629       1376.846
        18255.5         14.065         50.437       1367.644
        18256.0         14.527         50.246       1358.441
        18256.5         14.990         50.233       1349.239
        18257.0         15.452         50.350       1619.066
        18257.5         15.915         50.466       1640.436
        18258.0         16.378         50.583       1592.943
        18258.5         16.184         50.699       1475.453
        18259.0         15.849         50.655       1357.963
        18259.5         15.092         50.490       1389.743
        18260.0         13.052         50.326       1500.372
        18260.5         11.013         50.161       1572.589
        18261.0          9.494         49.996       1644.806
        18261.5         10.447         49.832       1642.064
        18262.0         11.399         49.898       1634.780
        18262.5         12.352         50.066       1602.680
        18263.0         13.304         50.233       1505.597
        18263.5         14.256         50.400       1408.515
        18264.0         14.563         50.461       1311.433
        18264.5         13.175         50.373       1214.350
        18265.0         11.786         50.285       1173.046
        18265.5         10.397         50.197       1153.554
        18266.0          9.009         50.109       1184.416
        18266.5          9.958         50.021       1204.870
        18267.0         11.114         50.196       1217.727
        18267.5         12.271         50.384       1230.584
        18268.0         13.427         50.573       1231.680
        18268.5         14.584         50.642       1216.290
        18269.0         13.903         50.529       1200.900
        18269.5         12.960         50.416       1185.510
        18270.0         12.016         50.303       1190.876
        18270.5         11.072         50.189       1201.962
        18271.0         12.246         50.076       1213.048
        18271.5         13.463         49.963       1224.133
        18272.0         14.680         49.855       1235.219
        18272.5         15.897         49.922       1246.305
        18273.0         16.383         50.105       1304.361
        18273.5         15.590         50.287       1382.098
        18274.0         14.797         50.470       1376.916
        18274.5         14.004         50.503       1370.224
        18275.0         13.211         50.354       1405.495
        18275.5         12.773         50.204       1474.151
        18276.0         13.930         50.054       1542.807
        18276.5         15.086         49.921       1611.463
        18277.0         16.242         50.120       1586.595
        18277.5         15.939         50.319       1548.763
        18278.0         15.311         50.518       1510.931
        18278.5         14.684         50.717       1473.099
        18279.0         14.057         50.717       1435.267
        18279.5         13.430         50.661       1513.359
        18280.0         12.803         50.606       1618.743
        18280.5         12.176         50.550       1492.037
        18281.0         14.437         50.495       1320.516
        18281.5         16.177         50.485       1184.825
        18282.0         15.972         50.569       1163.958
        18282.5         15.766         50.653       1143.092
        18283.0         15.560         50.736       1122.225
        18283.5         15.354         50.820       1101.358
        18284.0         15.148         50.904       1080.491
        18284.5         14.942         50.988       1059.625
        18285.0         14.736         51.071       1041.852
        18285.5         14.530         51.155       1027.581
        18286.0         14.324         51.081       1013.311
        18286.5         14.119         50.945        999.040
        18287.0         13.913         50.808       1013.004
        18287.5         14.655         50.672       1078.005
        18288.0         15.776         50.536       1148.831
        18288.5         16.897         50.400       1254.943
        18289.0         18.018         50.264       1341.440
        18289.5         18.960         50.128       1327.340
        18290.0         18.060         50.149       1313.240
        18290.5         17.160         50.252       1409.991
        18291.0         16.260         50.356       1508.562
        18291.5         15.360         50.459       1477.841
        18292.0         16.743         50.563       1327.204
        18292.5         18.828         50.666       1176.567
        18293.0         20.914         50.586       1025.931
        18293.5         22.999         50.368       1026.410
        18294.0         25.084         50.265       1031.496
        18294.5         25.234         50.377       1356.194
        18295.0         22.170         50.489       1769.179
        18295.5         19.106         50.487       2766.170
        18296.0         16.041         49.741       4540.790
        18296.5         14.507         48.995       6260.249
        18297.0         15.743         48.248       5688.502
        18297.5         16.979         47.502       5116.755
        18298.0         18.215         47.869       4545.008
        18298.5         19.143         48.418       3973.260
        18299.0         18.475         48.967       3479.756
        18299.5         13.841         49.516       4321.979
        18300.0          8.605         49.587       5164.203
        18300.5          6.405         49.479       6006.427
        18301.0          6.622         49.371       8815.808
        18301.5          6.839         49.279      12400.419
        18302.0          7.057         49.387      14653.139
        18302.5          7.274         49.494      16905.857
