###############################################
##         ENVERUS                           ##
##         ESS - Open Hole                   ##
##         PERMIAN / DELAWARE                ##
##         Nov 04 2023  V4.0                 ##
##         42-389-10119-00-00                ##
###############################################
## Copyright 2017-2023  ENVERUS.  All Rights Reserved. 
## Confidential - Property of ENVERUS, use governed by terms and 
## conditions found within the existing Information Services Subscription Agreement 
## (as may be amended, the “ISSA”) between Customer and ENVERUS. 
## 
~VERSION INFORMATION
# MNEM.UNIT                               DATA : DESCRIPTION OF MNEMONIC
#-----.-----     ----------------------------- : -----------------------------
VERS.                                     2.00 : CWLS LOG ASCII STANDARD - VERSION 2.00
WRAP.                                       NO : MULTIPLE LINES PER DEPTH STEP
VEND.                                  ENVERUS : VENDOR
TYPE.                          ESS - OPEN HOLE : ENVERUS ESSENTIAL CURVES – ACCESSIBLE THROUGH ENVERUS PRISM(TM)
DOC.                                  32008410 : ENVERUS HEADER RAW DOCUMENT ID
#___________________________________________________________________________________________________ 
~WELL INFORMATION 
# X8E3XgEZRMs+LiTqjMYqety/5rGXYLbzRNciiYBq17B6ClLelYcJjKNVvvPfWOVGxhvISow7q4Dbthq8gKP2Nw== 
# MNEM.UNIT                                              DATA : DESCRIPTION OF MNEMONIC 
#-----.-----                    ----------------------------- : ----------------------------- 
CNTY.                                                  REEVES : COUNTY 
STATE.                                                  TEXAS : STATE 
CNTRY.                                                    USA : COUNTRY 
API.                                             42-389-10119 : API (10 Digit) 
API_14.                                    42-389-10119-00-00 : API (14 Digits) 
API_14_std.                                 42-389-10119-0000 : API (14 Digits Standard) 
UWI.                                           42389101190000 : UNIQUE WELL ID 
WELL.                                                   1-40, : WELL NAME
STRT.FT                                                  58.0 : START DEPTH
STOP.FT                                                5338.0 : STOP DEPTH
STEP.FT                                                   0.5 : STEP BETWEEN DEPTHS
NULL.                                                 -999.25 : NULL VALUE
#___________________________________________________________________________________________________ 
~CURVE INFORMATION 
# MNEM.UNIT           : CURVE DESCRIPTION 
#-----.-----          : ----------------------------- 
 DEPT.FT               : MEASURED DEPTH 
 GR.API                : GAMMA RAY (GR) 
 DT.US/FT              : SONIC DELTA TRANSIT TIME (DT) 
 #___________________________________________________________________________________________________ 
~A         DEPT             GR             DT
# ...
         1102.0         23.013         60.794
         1102.5         23.012         60.457
         1103.0         23.012         60.081
         1103.5         23.011         59.704
         1104.0         23.010         60.413
         1104.5         22.974         62.256
         1105.0         22.204         62.859
         1105.5         21.434         61.736
         1106.0         20.664         60.588
         1106.5         19.895         59.408
         1107.0         20.132         58.228
         1107.5         21.277         57.012
         1108.0         22.421         54.182
         1108.5         23.565         55.067
         1109.0         24.710         54.788
         1109.5         25.854         54.509
         1110.0         26.960         54.230
         1110.5         26.218         54.096
         1111.0         25.476         56.259
         1111.5         24.733         58.423
         1112.0         23.991         60.586
         1112.5         23.248         62.749
         1113.0         22.506         64.006
         1113.5         23.804         65.158
         1114.0         25.115         66.310
         1114.5         26.427         67.462
         1115.0         27.738         66.902
         1115.5         29.049         65.934
         1116.0         30.361         64.966
         1116.5         31.672         63.774
         1117.0         30.433         63.570
         1117.5         29.170         63.570
         1118.0         27.907         66.805
         1118.5         26.644         67.566
         1119.0         25.854         67.566
         1119.5         26.777         67.210
         1120.0         29.066         65.995
         1120.5         31.354         62.283
         1121.0         32.520         62.500
         1121.5         33.647         62.718
         1122.0         34.774         62.574
         1122.5         35.902         61.802
         1123.0         37.029         61.030
         1123.5         35.649         61.001
         1124.0         31.353         61.061
         1124.5         28.354         61.121
         1125.0         27.013         59.384
         1125.5         27.150         57.415
         1126.0         27.287         56.906
         1126.5         27.424         56.477
         1127.0         27.560         56.049
         1127.5         27.697         56.096
         1128.0         27.834         56.685
         1128.5         27.971         56.558
         1129.0         28.108         56.492
         1129.5         27.626         57.567
         1130.0         26.244         58.643
         1130.5         24.861         59.718
         1131.0         28.273         60.793
         1131.5         30.397         61.868
         1132.0         29.717         62.943
         1132.5         29.036         64.018
         1133.0         28.356         63.886
         1133.5         27.675         63.458
         1134.0         26.994         63.030
         1134.5         26.314         63.894
         1135.0         25.633         67.482
         1135.5         26.361         71.069
         1136.0         29.553         74.657
         1136.5         32.746         67.959
         1137.0         32.568         69.895
         1137.5         32.957         71.831
         1138.0         35.147         73.767
         1138.5         37.337         75.703
         1139.0         37.860         77.638
         1139.5         38.143         73.501
         1140.0         38.425         77.044
         1140.5         33.358         76.340
         1141.0         31.741         71.820
         1141.5         32.435         72.131
         1142.0         32.720         73.768
         1142.5         32.225         66.536
         1143.0         31.729         66.729
         1143.5         31.234         68.758
         1144.0         30.739         70.788
         1144.5         30.243         73.334
         1145.0         29.748         79.802
         1145.5         30.802         93.898
         1146.0         35.247         93.768
         1146.5         39.691         84.234
         1147.0         44.136         84.293
         1147.5         46.441         86.542
         1148.0         44.714         91.941
         1148.5         42.988         97.002
         1149.0         42.346        101.381
         1149.5         43.962        105.761
         1150.0         43.688        110.141
         1150.5         39.523        114.521
         1151.0         35.359        119.178
         1151.5         31.195        119.320
         1152.0         27.425         89.506
         1152.5         24.721         89.407
         1153.0         22.017         91.060
         1153.5         20.524         96.593
         1154.0         22.891        102.838
         1154.5         25.259        109.295
         1155.0         27.626        109.453
         1155.5         29.866        106.784
         1156.0         31.733         94.988
         1156.5         32.563         94.964
         1157.0         30.409         99.836
         1157.5         28.255        102.663
         1158.0         26.101        105.491
         1158.5         24.972        108.432
         1159.0         27.466        115.750
         1159.5         28.676        119.360
         1160.0         25.570        117.084
         1160.5         30.978        146.577
         1161.0         39.868        146.656
         1161.5         40.106        146.736
         1162.0         37.525         89.688
         1162.5         34.943         89.648
         1163.0         32.362        100.356
         1163.5         18.153        104.136
         1164.0         20.773        107.916
         1164.5         23.393        114.038
         1165.0         26.012        119.540
         1165.5         28.312        119.896
         1166.0         29.233        114.506
         1166.5         30.155         86.843
         1167.0         31.076         85.722
         1167.5         28.606         84.601
         1168.0         24.594         83.480
         1168.5         20.865         79.991
         1169.0         18.757         75.014
         1169.5         16.649         68.674
         1170.0         14.541         62.335
         1170.5         14.508         55.996
         1171.0         15.786         68.564
         1171.5         17.064         64.150
         1172.0         18.135         59.736
         1172.5         17.640         61.791
         1173.0         17.145         69.315
         1173.5         16.650         69.223
         1174.0         16.155         69.130
         1174.5         16.044         69.037
         1175.0         19.677         68.639
         1175.5         22.929         64.374
         1176.0         23.127         60.110
         1176.5         23.324         58.640
         1177.0         21.918         58.160
         1177.5         19.462         57.680
         1178.0         17.196         57.447
         1178.5         17.274         57.920
         1179.0         17.351         56.857
         1179.5         17.429         57.485
         1180.0         17.506         58.113
         1180.5         17.584         57.956
         1181.0         17.661         58.149
         1181.5         17.739         60.300
         1182.0         17.816         61.585
         1182.5         17.894         58.496
         1183.0         19.781         64.244
         1183.5         23.163         73.145
         1184.0         26.545         82.045
         1184.5         29.926         90.106
         1185.0         34.223         95.068
         1185.5         39.177         99.961
         1186.0         44.131        105.376
         1186.5         49.084        110.791
         1187.0         54.038        116.206
         1187.5         58.991        121.573
         1188.0         59.662        126.827
         1188.5         58.183        132.082
