~Version Information Block
 VERS.                2.00:     CWLS LOG ASCII STANDARD - VERSION 2.000000
 WRAP.                  NO:     One Line Per Depth Step
#
~Well Information Block
#MNEM.UNIT                     Data                         Information
#----------   ------------------------------------------   ----------------
 STRT.FT                                     1000.0000:     START DEPTH
 STOP.FT                                    15733.0000:     STOP DEPTH
 STEP.FT                                        0.5000:     STEP
 NULL.                                       -999.0000:     NULL VALUE
 COMP.                                 MOBIL PRODUCING:     COMPANY
 WELL.                                    IB-WEATHERBY:     WELL
 FLD .                                   ROJO CABALLOS:     FIELD
 LOC .                                         UNKNOWN:     LOCATION
 LONG.                                 -103.1458890000:     LONGITUDE
 LATI.                                   31.1330510000:     LATITUDE
 CNTY.                                           PECOS:     COUNTY
 STAT.                                           TEXAS:     STATE
 CTRY.                                           U.S.A:     COUNTRY
 SRVC.                                         UNKNOWN:     SERVICE COMPANY
 DATE.                                         UNKNOWN:     DATE
 API .                                  42371057360000:     API NUMBER
 UWI .                                  42371057360000:     UWI NUMBER
 SLAT.                                       31.133051:     Surface latitude
 SLON.                                     -103.145889:     surface longitude
 TVD .                                              NO:     TVD flag
 WSTA.                                             LOC:     Well status
#
~Curve Information Block
#MNEM.UNIT       API CODE      Curve Description
#----------    -------------   -------------------
 DEPT.FT                   :   Depth in Feet
 DT  .UNKNOWN          UNKNOWN:   DT-Load
 DTedit.ft/s          UNKNOWN:   DT-Load
 GR  .UNKNOWN          UNKNOWN:   GR-Load
 GR_org.UNKNOWN          UNKNOWN:   GR_org-Load
#
~Parameter Information Block
#MNEM.UNIT            Value               Description
#----------    --------------------    -------------------
 RUN .                         ONE:    Run Number
 PDAT.                          GL:    Permanent Datum
 EPD .FT                          :    Elevation Of Perm. Datum
 LMF .               KELLY BUSHING:    Log Measured From
 EKB .FT                          :    Elevation Of Kelly Bushing
 DF .FT                           :    Elevation Of Derrick Floor
 GL .FT                           :    Elevation Of Ground Level
 TD  .FT                          :    Total Depth
 CSGD.FT                          :    Casing Bottom (Driller) 1
 CSGL.FT                          :    Casing Bottom (Logger) 1
 MUD .                            :    Drilling Fluid Type
 MUDV .CP                         :    Drilling Fluid Viscosity
 MUDD .LB/USG                     :    Drilling Fluid Density
 FL .ML/30MIN                     :    Drilling Fluid Loss
 PH.                              :    Drilling Fluid Ph
 MUDS .                           :    Mud Sample Source
 RM .OHMM                         :    Resistivity Of Mud Sample
 RMT .DEGF                        :    Mud Sample Temperature
 RMF .OHMM                        :    Mud Filtrate Resistivity
 RMFT.DEGF                        :    Mud Filtrate Sample Temperature
 RMC .OHMM                        :    Mud Cake Resistivity
 RMCT.DEGF                        :    Mud Cake Sample Temperature
 RMB .OHMM                        :    Mud Resistivity At Bht
 TMAX .DEGF                       :    Bottom Hole Temperature
#
~Other Information Block
<DescLogPlotStart>   NEURALOG PLOT DEFINITION
PLOTDEFVERSION: 3
LASFILE: E:\Nair Innovations\42_TEXAS\371_Pecos\Mobil_IB-Weatherby 1 Pecos_1.la
DEPTHSCALE: 239.999996
RESOLUTION: 200
DEPTHLABELFREQ: 100.000000
HEAVYGRIDFREQ: 50.000000
MEDIUMGRIDFREQ: 50.000000
LIGHTGRIDFREQ: 10.000000
#
#   TRACK 1
#
STARTTRACK: 
 LEFTX: 0.500000 inch
 RIGHTX: 3.000000 inch
 SCALETYPE: Linear
 NUMCHARTDIVISIONS: 10
CURVE: GR    0.000000   150.000000 (255,0,0)      Short_Dash        4     N    
CURVE: DTedit 6637.927700 24453.046900 (0,131,131)    Solid             2     N
CURVE: GR_org -999.990000 109.000000 (255,0,255)    Solid             2     N  
ENDTRACK: 
#
#   TRACK 2
#
STARTTRACK: 
 LEFTX: 3.750000 inch
 RIGHTX: 6.250000 inch
 SCALETYPE: Linear
 NUMCHARTDIVISIONS: 10
ENDTRACK: 
#
#   TRACK 3
#
STARTTRACK: 
 LEFTX: 6.250000 inch
 RIGHTX: 8.750000 inch
 SCALETYPE: Linear
 NUMCHARTDIVISIONS: 10
CURVE: DT    190.000000 50.000000  (255,0,131)    Solid             2     N    
ENDTRACK: 
<DescLogPlotEnd>
<DepthTrack type='Reference' track='1' Label='0' color='0' hor='0' />
<Reference font='144,0,-900,0,500,0,16777216,Arial' />
~A DEPTH     DT               DTedit             GR               GR_org            
# ...
   13573.000 -999.99000000    10698.09570000   24.14170000      24.14170000     
   13573.500 -999.99000000    10698.35840000   25.27020000      25.27020000     
   13574.000 -999.99000000    10698.62110000   25.73770000      25.73770000     
   13574.500 -999.99000000    10698.88380000   26.06810000      26.06810000     
   13575.000 -999.99000000    10699.14650000   26.37200000      26.37200000     
   13575.500 -999.99000000    10699.40920000   26.67580000      26.67580000     
   13576.000 -999.99000000    10699.67190000   26.31430000      26.31430000     
   13576.500 -999.99000000    10699.93360000   27.77260000      27.77260000     
   13577.000 -999.99000000    10700.19730000   29.32030000      29.32030000     
   13577.500 -999.99000000    10700.46000000   30.48590000      30.48590000     
   13578.000 -999.99000000    10700.72270000   32.02610000      32.02610000     
   13578.500 -999.99000000    10700.98540000   31.91940000      31.91940000     
   13579.000 -999.99000000    10701.24800000   30.17340000      30.17340000     
   13579.500 -999.99000000    10701.51070000   28.59600000      28.59600000     
   13580.000 -999.99000000    10701.77340000   27.01870000      27.01870000     
   13580.500 -999.99000000    10702.03520000   25.28750000      25.28750000     
   13581.000 -999.99000000    10702.29880000   23.17940000      23.17940000     
   13581.500 -999.99000000    10702.56150000   21.45320000      21.45320000     
   13582.000 -999.99000000    10702.82420000   20.23180000      20.23180000     
   13582.500 -999.99000000    10703.08690000   19.56710000      19.56710000     
   13583.000 -999.99000000    10703.34960000   19.17960000      19.17960000     
   13583.500 -999.99000000    10703.61230000   19.71710000      19.71710000     
   13584.000 -999.99000000    10703.87500000   21.84510000      21.84510000     
   13584.500 -999.99000000    10704.13670000   24.41450000      24.41450000     
   13585.000 -999.99000000    10704.40040000   26.70120000      26.70120000     
   13585.500 -999.99000000    10704.66310000   28.70520000      28.70520000     
   13586.000 -999.99000000    10704.92580000   30.04320000      30.04320000     
   13586.500 -999.99000000    10705.18750000   29.33640000      29.33640000     
   13587.000 -999.99000000    10705.45120000   28.27860000      28.27860000     
   13587.500 -999.99000000    10705.71390000   27.18730000      27.18730000     
   13588.000 -999.99000000    10705.97560000   28.34560000      28.34560000     
   13588.500 -999.99000000    10706.23830000   29.72200000      29.72200000     
   13589.000 -999.99000000    10706.50200000   29.63620000      29.63620000     
   13589.500 -999.99000000    10706.76460000   29.77540000      29.77540000     
   13590.000 -999.99000000    10707.02640000   30.24780000      30.24780000     
   13590.500 -999.99000000    10707.28910000   30.93610000      30.93610000     
   13591.000 -999.99000000    10707.55270000   30.46360000      30.46360000     
   13591.500 -999.99000000    10707.81450000   30.06520000      30.06520000     
   13592.000 -999.99000000    10708.07710000   29.87580000      29.87580000     
   13592.500 -999.99000000    10708.33980000   30.04570000      30.04570000     
   13593.000 -999.99000000    10708.60350000   30.58510000      30.58510000     
   13593.500 -999.99000000    10708.86520000   31.12700000      31.12700000     
   13594.000 -999.99000000    10709.12790000   31.61940000      31.61940000     
   13594.500 -999.99000000    10709.39060000   32.60640000      32.60640000     
   13595.000 -999.99000000    10709.65430000   33.84930000      33.84930000     
   13595.500 -999.99000000    10709.91600000   34.03470000      34.03470000     
   13596.000 -999.99000000    10710.17870000   33.39260000      33.39260000     
   13596.500 -999.99000000    10710.44140000   32.25920000      32.25920000     
   13597.000 -999.99000000    10710.70510000   30.91000000      30.91000000     
   13597.500 -999.99000000    10710.96680000   30.07170000      30.07170000     
   13598.000 -999.99000000    10711.22950000   29.93810000      29.93810000     
   13598.500 -999.99000000    10711.49220000   30.28630000      30.28630000     
   13599.000 -999.99000000    10711.75490000   31.01670000      31.01670000     
   13599.500 -999.99000000    10712.01760000   32.55930000      32.55930000     
   13600.000 -999.99000000    10712.28030000   33.14960000      33.14960000     
   13600.500 -999.99000000    10712.54300000   33.18550000      33.18550000     
   13601.000 -999.99000000    10712.80660000   32.75900000      32.75900000     
   13601.500 -999.99000000    10713.06840000   33.15830000      33.15830000     
   13602.000 -999.99000000    10713.33110000   33.54390000      33.54390000     
   13602.500 -999.99000000    10713.59380000   33.14710000      33.14710000     
   13603.000 -999.99000000    10713.85640000   32.50970000      32.50970000     
   13603.500 -999.99000000    10714.11910000   31.60450000      31.60450000     
   13604.000 -999.99000000    10714.38180000   31.00430000      31.00430000     
   13604.500 -999.99000000    10714.64450000   30.49950000      30.49950000     
   13605.000 -999.99000000    10714.90720000   29.99480000      29.99480000     
   13605.500 -999.99000000    10715.16990000   30.04940000      30.04940000     
   13606.000 -999.99000000    10715.43260000   30.26770000      30.26770000     
   13606.500 -999.99000000    10715.69530000   31.13070000      31.13070000     
   13607.000 -999.99000000    10715.95700000   31.88220000      31.88220000     
   13607.500 -999.99000000    10716.22070000   32.69320000      32.69320000     
   13608.000 -999.99000000    10716.48340000   34.09700000      34.09700000     
   13608.500 -999.99000000    10716.74610000   35.40900000      35.40900000     
   13609.000 -999.99000000    10717.00880000   35.21980000      35.21980000     
   13609.500 -999.99000000    10717.27150000   34.46410000      34.46410000     
   13610.000 -999.99000000    10717.53420000   33.26120000      33.26120000     
   13610.500 -999.99000000    10717.79690000   32.75480000      32.75480000     
   13611.000 -999.99000000    10718.05860000   32.96360000      32.96360000     
   13611.500 -999.99000000    10718.32230000   33.36660000      33.36660000     
   13612.000 -999.99000000    10718.58500000   33.42550000      33.42550000     
   13612.500 -999.99000000    10718.84770000   33.24130000      33.24130000     
   13613.000 -999.99000000    10719.10940000   32.90960000      32.90960000     
   13613.500 -999.99000000    10719.37300000   32.16000000      32.16000000     
   13614.000 -999.99000000    10719.63570000   30.87280000      30.87280000     
   13614.500 -999.99000000    10719.89840000   29.92790000      29.92790000     
   13615.000 -999.99000000    10720.16020000   29.93100000      29.93100000     
   13615.500 -999.99000000    10720.42380000   29.68230000      29.68230000     
   13616.000 -999.99000000    10720.68650000   28.41250000      28.41250000     
   13616.500 -999.99000000    10720.94920000   28.10870000      28.10870000     
   13617.000 -999.99000000    10721.21090000   29.21610000      29.21610000     
   13617.500 -999.99000000    10721.47460000   30.80580000      30.80580000     
   13618.000 -999.99000000    10721.73730000   31.72100000      31.72100000     
   13618.500 -999.99000000    10721.99900000   32.64860000      32.64860000     
   13619.000 -999.99000000    10722.26170000   33.59110000      33.59110000     
   13619.500 -999.99000000    10722.52540000   34.60050000      34.60050000     
   13620.000 -999.99000000    10722.78810000   35.58510000      35.58510000     
   13620.500 -999.99000000    10723.04980000   36.34890000      36.34890000     
   13621.000 -999.99000000    10723.31250000   36.52500000      36.52500000     
   13621.500 -999.99000000    10723.57520000   35.52560000      35.52560000     
   13622.000 -999.99000000    10723.83790000   34.89060000      34.89060000     
