#--------------------------------------------------#
#-------------------ENVERUS, INC.------------------#
#------------------WWW.ENVERUS.COM-----------------#
#------------------COPYRIGHT 2020------------------#
#--------------------------------------------------#
#THIS FILE MAY BE USED ONLY IN ACCORDANCE WITH A CURRENT SUBSCRIPTION AGREEMENT BETWEEN
#THE USER AND ENVERUS, INC. NO PART OF THIS FILE MAY BE REPRODUCED, USED, COPIED,
#MODIFIED, PROPAGATED, OR DISTRIBUTED EXCEPT IN ACCORDANCE WITH THE SUBSCRIPTION
#AGREEMENT. UNAUTHORIZED USE OR DISTRIBUTION OF ALL OR ANY PART OF THIS FILE MAY VIOLATE
#COPYRIGHT, TRADEMARK, AND/OR OTHER LAWS AND IS SUBJECT TO CIVIL AS WELL AS CRIMINAL
#SANCTIONS.
#--------------------------------------------------#
#THIS FILE IS PROVIDED "AS-IS" AND ALL WARRANTIES ARE EXPRESSLY DISCLAIMED, WHETHER
#EXPRESS, ORAL, IMPLIED, STATUTORY OR OTHERWISE, INCLUDING ANY IMPLIED WARRANTY OF FITNESS
#FOR A PARTICULAR PURPOSE, MERCHANTABILITY, TITLE OR NON-INFRINGEMENT, AND ANY WARRANTIES
#ARISING BY VIRTUE OF CUSTOM OF TRADE OR COURSE OF DEALING.  FURTHER, ENVERUS, INC.
#AND ITS LICENSORS DO NOT REPRESENT OR WARRANT THAT THIS FILE WILL MEET USER'S
#REQUIREMENTS OR ARE SUITABLE FOR USER'S NEEDS OR THAT THE DATA OR RESULTS PROVIDED IN
#CONJUNCTION THEREWITH ARE CORRECT, ACCURATE, TIMELY OR RELIABLE. THESE DISCLAIMERS SHALL
#APPLY REGARDLESS OF ANY FAILURE OF ESSENTIAL PURPOSE OF ANY LIMITED REMEDY.  SOME
#JURISDICTIONS DO NOT ALLOW THE EXCLUSION OF CERTAIN WARRANTIES SO SOME OF THE ABOVE
#EXCLUSIONS MAY NOT APPLY. IN NO EVENT SHALL ENVERUS, INC. OR ANY OF ITS AFFILIATES
#BE LIABLE UNDER ANY LEGAL THEORY, WHETHER IN TORT (INCLUDING WITHOUT LIMITATION
#NEGLIGENCE), CONTRACT, STRICT LIABILITY, STATUTORY OR OTHERWISE, FOR ANY SPECIAL,
#INCIDENTAL, CONSEQUENTIAL, EXEMPLARY, PUNITIVE OR INDIRECT DAMAGE OF ANY KIND, INCLUDING
#WITHOUT LIMITATION LOSS OF REVENUE, PROFITS, GOODWILL, USE, AND/OR DATA OR THE COST OF
#PROCUREMENT OF SUBSTITUTE GOODS OR SERVICES, EVEN IF APPRISED OF THE POSSIBILITY OF SUCH
#DAMAGES IN ADVANCE.
#--------------------------------------------------#

~VERSION INFORMATION
VERS. 2.0 : CWLS LOG ASCII STANDARD - VERSION 2.0
WRAP.  NO : ONE LINE PER DEPTH STEP
~WELL INFORMATION
#MNEMONIC     .UNIT              VALUE :DESCRIPTION
STRT       .FT                51 :START DEPTH
STOP       .FT                6194 :STOP DEPTH
STEP       .FT                   0.500 :STEP
NULL       .                  -999.990 :NULL
UWI        .              42389004340000 :UNIQUE WELL ID
API        .              42389004340000 :API NUMBER
COMP       .         :COMPANY
WELL       .         1, :WELL
DATE       .                            :LOG DATE
~CURVE INFORMATION
#MNEMONIC     .UNIT      API CODE :CURVE DESCRIPTION
DEPTH       .FT                      :MEASURED DEPTH
GR.API        UNKNOWN   :GR
DT.US/FT        UNKNOWN   :DT
~A    DEPTH    GR    DT
# ...
 6029.5     69.428   72.178
 6030     68.915   81.465
 6030.5     68.403   83.799
 6031     67.891   79.05
 6031.5     67.379   74.3
 6032     66.867   75.383
 6032.5     66.355   80.52
 6033     65.843   85.656
 6033.5     64.037   86.54
 6034     61.816   81.431
 6034.5     59.595   76.322
 6035     59.611   82.386
 6035.5     60.432   88.517
 6036     61.253   94.647
 6036.5     62.074   91.501
 6037     62.895   88.144
 6037.5     63.716   84.787
 6038     64.537   81.43
 6038.5     65.359   78.074
 6039     65.454   74.717
 6039.5     64.435   78.791
 6040     63.417   84.968
 6040.5     62.399   91.145
 6041     61.381   84.967
 6041.5     60.363   76.274
 6042     59.345   82.273
 6042.5     58.602   88.272
 6043     58.512   63.098
 6043.5     58.422   65.262
 6044     58.332   67.427
 6044.5     58.257   69.591
 6045     60.467   71.755
 6045.5     62.678   73.919
 6046     64.888   76.083
 6046.5     67.098   78.247
 6047     69.308   77.659
 6047.5     71.246   76.188
 6048     67.345   74.717
 6048.5     63.966   73.247
 6049     65.761   73.69
 6049.5     67.556   75.014
 6050     69.351   76.338
 6050.5     71.146   76.073
 6051     72.941   75.286
 6051.5     73.823   75.66
 6052     73.955   76.336
 6052.5     74.086   77.012
 6053     74.218   77.085
 6053.5     74.35   75.816
 6054     74.482   76.838
 6054.5     74.613   78.105
 6055     74.745   76.566
 6055.5     74.877   75.026
 6056     75.009   73.421
 6056.5     76.881   71.816
 6057     79.532   70.211
 6057.5     82.183   68.962
 6058     84.834   68.893
 6058.5     87.485   68.823
 6059     90.137   68.754
 6059.5     92.788   68.684
 6060     95.058   68.316
 6060.5     87.638   65.134
 6061     80.217   61.952
 6061.5     72.796   58.77
 6062     65.375   57.678
 6062.5     57.955   58.473
 6063     54.399   59.268
 6063.5     58.777   60.063
 6064     63.155   60.858
 6064.5     67.533   61.653
 6065     71.91   63.275
 6065.5     76.288   65.386
 6066     80.666   67.498
 6066.5     78.433   69.609
 6067     73.907   71.721
 6067.5     68.302   73.833
 6068     62.697   75.815
 6068.5     57.092   77.112
 6069     54.813   76.296
 6069.5     55.354   75.48
 6070     55.894   77.753
 6070.5     56.435   80.703
 6071     56.453   83.652
 6071.5     55.89   86.218
 6072     55.328   83.325
 6072.5     54.765   82.012
 6073     54.203   83.184
 6073.5     53.641   84.357
 6074     53.078   85.53
 6074.5     53.776   86.702
 6075     54.756   85.855
 6075.5     55.736   85.804
 6076     56.717   86.11
 6076.5     57.697   86.416
 6077     58.677   84.756
 6077.5     59.658   80.988
 6078     60.638   79.952
 6078.5     61.618   83.02
 6079     62.598   86.088
 6079.5     63.45   87.489
 6080     63.45   83.783
 6080.5     64.171   80.078
 6081     65.905   77.601
 6081.5     67.638   79.211
 6082     69.371   80.821
 6082.5     71.104   82.403
 6083     71.21   81.912
 6083.5     71.732   81.421
 6084     72.531   80.93
 6084.5     73.33   80.439
 6085     74.129   80.148
 6085.5     74.927   80.054
 6086     75.202   79.959
 6086.5     74.301   79.865
 6087     73.401   79.399
 6087.5     72.5   78.791
 6088     71.612   78.184
 6088.5     72.504   77.62
 6089     73.396   77.16
 6089.5     74.288   76.701
 6090     75.181   76.241
 6090.5     74.9   75.68
 6091     74.554   72.796
 6091.5     74.208   69.912
 6092     73.862   67.028
 6092.5     73.515   64.144
 6093     73.169   61.26
 6093.5     72.823   60.558
 6094     70.723   64.257
 6094.5     68.347   62.694
 6095     65.971   61.131
 6095.5     63.596   59.568
 6096     61.22   58.006
 6096.5     58.845   56.443
 6097     56.469   56.235
 6097.5     56.819   58.209
 6098     59.703   60.167
 6098.5     62.587   59.818
 6099     65.471   59.47
 6099.5     68.355   59.122
 6100     71.239   58.774
 6100.5     74.124   58.425
 6101     75.447   59.733
 6101.5     73.094   59.81
 6102     70.742   58.63
 6102.5     68.445   58.322
 6103     67.084   59.176
 6103.5     65.723   60.03
 6104     64.362   60.884
 6104.5     64.547   61.737
 6105     65.057   62.591
 6105.5     65.566   63.445
 6106     66.076   64.066
 6106.5     64.671   62.644
 6107     62.666   61.222
 6107.5     60.66   59.799
 6108     58.654   58.377
 6108.5     56.649   56.955
 6109     58.77   58.504
 6109.5     61.941   61.077
 6110     65.111   61.763
 6110.5     68.282   61.211
 6111     71.453   60.66
 6111.5     72.034   60.109
 6112     69.955   59.557
 6112.5     67.876   59.006
 6113     65.797   58.455
 6113.5     66.229   59.299
 6114     67.198   61.804
 6114.5     68.167   64.309
 6115     68.537   66.813
 6115.5     68.538   69.318
 6116     68.539   71.823
 6116.5     68.539   70.593
 6117     69.187   69.234
 6117.5     70.374   67.875
 6118     71.562   66.516
 6118.5     72.749   65.158
 6119     73.936   63.799
 6119.5     73.614   63.143
 6120     71.22   62.633
 6120.5     68.827   62.123
 6121     66.433   60.91
 6121.5     64.039   58.562
 6122     61.645   56.213
 6122.5     59.251   53.865
 6123     56.858   56.279
 6123.5     54.464   58.988
 6124     63.27   61.697
 6124.5     75.285   64.405
 6125     87.3   67.114
 6125.5     87.919   65.638
 6126     83.345   57.781
 6126.5     78.772   56.256
 6127     74.199   56.444
 6127.5     69.625   56.633
 6128     65.052   56.821
 6128.5     60.479   57.009
 6129     55.905   56.135
 6129.5     51.332   54.526
 6130     46.759   52.917
 6130.5     42.186   52.285
 6131     38.521   52.438
 6131.5     40.108   52.592
 6132     41.695   52.745
 6132.5     45.562   54.206
 6133     53.23   56.147
 6133.5     60.898   57.976
 6134     68.566   58.108
 6134.5     76.234   58.239
 6135     83.902   59.565
 6135.5     91.57   63.27
 6136     96.981   66.975
 6136.5     96.329   67.333
 6137     95.678   66.511
 6137.5     95.026   65.791
 6138     94.375   65.799
 6138.5     92.824   65.807
 6139     84.327   65.814
 6139.5     82.764   65.822
 6140     83.044   65.83
 6140.5     83.323   72.478
 6141     83.603   80.941
 6141.5     83.882   80.424
 6142     83.155   78.812
 6142.5     78.906   77.2
 6143     74.657   75.588
 6143.5     70.409   76.922
 6144     66.16   78.783
 6144.5     61.911   80.644
 6145     58.141   81.27
 6145.5     57.498   78.866
 6146     56.854   80.571
 6146.5     56.211   82.275
 6147     55.567   83.979
 6147.5     54.924   85.684
 6148     54.28   87.188
 6148.5     53.637   86.519
 6149     52.993   85.85
 6149.5     52.35   85.181
 6150     54.49   84.571
 6150.5     56.961   87.604
 6151     59.432   90.637
 6151.5     61.903   92.382
 6152     64.374   93.459
 6152.5     66.845   94.536
 6153     69.316   95.613
 6153.5     67.804   86.574
 6154     64.291   78.943
 6154.5     60.778   81.345
 6155     57.266   83.748
 6155.5     58.804   86.15
 6156     61.923   86.097
 6156.5     65.041   84.647
 6157     68.16   83.198
 6157.5     71.278   81.748
 6158     74.298   80.987
 6158.5     74.568   80.748
 6159     74.837   80.509
 6159.5     75.106   80.271
 6160     75.375   80.032
 6160.5     75.644   79.794
 6161     75.731   79.555
 6161.5     75.271   79.317
 6162     74.81   78.602
 6162.5     74.35   77.76
 6163     74.896   76.917
 6163.5     75.95   76.075
 6164     75.672   74.666
 6164.5     75.394   72.4
 6165     75.349   70.05
 6165.5     75.803   67.701
 6166     76.257   65.352
 6166.5     76.711   64.033
 6167     77.166   67.002
 6167.5     76.805   69.97
 6168     72.736   72.938
 6168.5     68.668   75.906
 6169     64.6   78.874
 6169.5     60.531   81.842
 6170     56.463   79.675
 6170.5     56.93   77.137
 6171     57.563   74.598
 6171.5     58.196   72.351
 6172     58.829   76.837
 6172.5     60.104   81.324
 6173     63.219   80.914
 6173.5     66.334   80.501
 6174     69.448   80.088
 6174.5     71.694   79.675
 6175     70.992   80.345
 6175.5     -999.990   81.349
 6176     -999.990   80.966
 6176.5     -999.990   80.583
 6177     -999.990   80.2
 6177.5     -999.990   79.865
 6178     -999.990   80.896
 6178.5     -999.990   81.928
