~VERSION INFORMATION
 VERS.                2.0:   CWLS LOG ASCII STANDARD - VERSION 2.0
 WRAP.                 NO:   ONE LINE PER DEPTH STEP
~WELL INFORMATION
#MNEM.UNIT      DATA TYPE    INFORMATION
#----------   ------------   ------------------------------
 STRT.FT          50.0000:   START DEPTH
 STOP.FT        5375.0000:   STOP DEPTH
 STEP.FT           0.5000:   STEP LENGTH
 NULL.          -999.2500:   NULL VALUE
 COMP.  A.N. NORWOOD, INC:   COMPANY
 WELL.        MCINTYRE #1:   WELL
 FLD .  ROJO CABALLOS, S.:   FIELD
 LOC .                   :   LOCATION
 CNTY.              PECOS:   COUNTY
 STAT.              TEXAS:   STATE
 CTRY. UNITED STATES OF AMERICA:   COUNTRY
 SRVC.              Welex:   SERVICE COMPANY
 DATE.        06-May-1983:   LOGDATE
 API .     42371342980000:   API NUMBER
~CURVE INFORMATION
#MNEM.UNIT       API CODE    CURVE DESCRIPTION
#----------   ------------   ------------------------------
 DEPT.F      0   1   0  0:   1 MEASURED DEPTH
 GRD .GAPI   45 310 01 00:   GAMMA RAY FROM DENSITY LOG
 NPOR_LS.DEC 42 890 01 00:   NEUTRON POROSITY LIMESTONE
 CALD.IN     45 280 60 00:   CALIPER FROM DENSITY LOG
 CORR.G/C3   45 356 01 00:   DENSITY CORRECTION
 RHOB.G/C3   45 350 01 00:   BULK DENSITY
 DPOR_LS.DEC 45 890 10 00:   DENSITY POROSITY LIMESTONE
 DT  .US/F   60 500 00 00:   DELTA-T (INTERVAL TRANSIT TIME)
 SPR .MV     07 010 01 00:   SPONTANEOUS POTENTIAL FROM RESISTIVITY LOG
 ILD .OHMM   07 120 46 00:   INDUCTION DEEP RESISTIVITY
 ILM .OHMM   07 120 44 00:   INDUCTION MEDIUM RESISTIVITY
~PARAMETER INFORMATION
#MNEM.UNIT          VALUE    DESCRIPTION
#----------   ------------   ------------------------------
 PD  .                 GL:   PERMANENT DATUM
 EPD .FT             2768:   ELEVATION PERMANENT DATUM
 LMF .                 KB:   LOG MEASURED FROM
 DAPD.FT               10:   FEET ABOVE PERMANENT DATUM
 DMF .                 KB:   DRILLING MEASURED FROM
 EKB .FT             2778:   KELLY BUSHING
 EDF .FT             2777:   DRILLING FLOOR
 EGL .FT             2768:   GROUND LEVEL
 DATE.           05/06/83:   RUN DATE
 RUN .                  1:   RUN NUMBER
 DD  .FT             5380:   DEPTH DRILLER
 DL  .FT             5377:   DEPTH LOGGER
 BLI .FT             5375:   BOTTOM LOG INTERVAL
 TLI .FT               50:   TOP LOG INTERVAL
 CS  .IN            8.625:   CASING SIZE
 CBD .FT             1596:   CASING BOTTOM DRILLER
 CBL .FT             1613:   CASING BOTTOM LOGGER
 BS  .IN             7.75:   BIT SIZE
 BSD .FT             5380:   BIT SIZE AT DEPTH
 DFT .           SALT GEL:   DRILLING FLUID TYPE
 DFD .               10.2:   DRILLING FLUID DENSITY
 DFV .                 33:   DRILLING FLUID VISCOSITY
 DFPH.                9.5:   DRILLING FLUID PH
 DFL .                 18:   DRILLING FLUID LOSS
 MSS .               CIRC:   MUD SAMPLE SOURCE
 RMS .OHMM           0.09:   RESISTIVITY MUD SAMPLE
 MST .DEGF             72:   MUD SAMPLE TEMPERATURE
 RMF .OHMM           0.08:   RESISTIVITY MUD FILTRATE SAMPLE
 MFST.DEGF             72:   MUD FILTRATE SAMPLE TEMPERATURE
 MFSS.               MEAS:   MUD FILTRATE SAMPLE SOURCE
 MCSS.               MEAS:   MUD CAKE SAMPLE SOURCE
 RMB .OHMM          0.059:   RESISTIVITY MUD AT BHT
 BHT .DEGF            112:   BOTTOM HOLE TEMPERATURE
 TCS .HRS               4:   TIME CIRCULATED STOPPED
 MRT .DEGF            112:   MAXIMUM RECORDED TEMPERATURE
 LUN .               3415:   LOGGING UNIT NUMBER
 LUL .             ODESSA:   LOGGING UNIT LOCATION
 ENGI.             LAWSON:   RECORDING ENGINEER
 WITN.            NORWOOD:   WITNESSED BY
 ORIG.      1" 2.5" PRINT:   ORIGIN OF DATA
 UWI .     42371342980000:   UNIQUE WELL ID
~OTHER INFORMATION
~A    DEPT        GRD      NPOR_LS      CALD        CORR        RHOB       DPOR_LS        DT         SPR         ILD         ILM    
# ...
  3405.0000      3.5008     -0.0229     17.2326      0.0128      2.0016      0.4189     65.6709     13.6926     15.5608      8.2614 
  3405.5000      3.5740     -0.0229     17.1697      0.0114      1.9931      0.4203     65.7604     13.7770     15.0186      7.8215 
  3406.0000      3.5809     -0.0229     16.9535      0.0063      1.9890      0.4169     65.7810     13.8549     14.9539      7.4049 
  3406.5000      3.4512     -0.0229     16.7455      0.0011      1.9881      0.4182     65.8064     13.9262     15.0976      7.1045 
  3407.0000      3.5118     -0.0230     16.6698     -0.0041      1.9892      0.4194     65.8742     13.9974     15.4061      6.9686 
  3407.5000      3.5724     -0.0234     16.6099     -0.0063      2.0027      0.4139     66.0151     14.0686     15.7928      6.9686 
  3408.0000      3.6330     -0.0238     16.6211     -0.0063      2.0102      0.4101     66.1580     13.9856     15.7748      7.1037 
  3408.5000      3.6936     -0.0241     16.9100     -0.0050      2.0126      0.4134     66.1963     13.8933     15.4752      7.5574 
  3409.0000      3.7542     -0.0245     17.1989     -0.0030      2.0129      0.4064     66.2057     13.8009     15.1791      7.6482 
  3409.5000      3.8148     -0.0248     17.3354     -0.0028      2.0086      0.4064     66.1557     13.6797     15.1576      7.6106 
  3410.0000      3.9275     -0.0248     17.3826     -0.0040      1.9987      0.4125     66.1009     13.5059     15.2411      7.4990 
  3410.5000      3.8827     -0.0248     17.4297     -0.0062      1.9966      0.4199     66.0677     13.3321     15.3251      7.5578 
  3411.0000      3.7076     -0.0248     17.9620     -0.0113      1.9944      0.4338     66.0659     13.2043     15.3150      7.6338 
  3411.5000      3.6510     -0.0248     17.2488     -0.0202      1.9786      0.4472     66.0546     13.2616     15.2746      7.7304 
  3412.0000      3.5457     -0.0248     16.5960     -0.0294      1.9638      0.4581     65.9731     13.1205     15.2375      7.8425 
  3412.5000      3.4827     -0.0248     16.5346     -0.0363      1.9407      0.4623     65.8158     13.0013     15.2942      8.1591 
  3413.0000      3.2812     -0.0248     16.5583     -0.0369      1.9280      0.4562     65.6717     13.0038     15.4199      8.4648 
  3413.5000      2.5949     -0.0243     16.7150     -0.0375      1.9260      0.4463     65.6526     12.9998     15.1611      8.7821 
  3414.0000      2.4583     -0.0237     17.0195     -0.0250      1.9350      0.4359     65.7521     12.9958     14.8545      8.9980 
  3414.5000      2.3927     -0.0231     17.0736     -0.0117      1.9614      0.4328     65.9166     13.0392     14.6568      9.0975 
  3415.0000      2.5197     -0.0229     16.8839     -0.0075      1.9699      0.4308     66.0859     13.0908     14.6081      9.0803 
  3415.5000      2.8455     -0.0229     16.8147     -0.0074      1.9725      0.4301     66.1195     13.0732     14.6375      9.0355 
  3416.0000      2.9493     -0.0229     16.8560     -0.0074      1.9730      0.4307     65.9368     13.0600     14.6669      8.9909 
  3416.5000      3.0458     -0.0229     16.9812     -0.0074      1.9731      0.4353     65.5915     13.0376     15.2165      8.9465 
  3417.0000      3.0192     -0.0229     17.1063     -0.0074      1.9714      0.4365     65.4211     12.8862     15.7653      8.8994 
  3417.5000      2.3665     -0.0229     17.2869     -0.0074      1.9698      0.4301     65.3705     12.4568     15.9693      8.6523 
  3418.0000      1.5981     -0.0228     17.3194     -0.0074      1.9698      0.4275     65.4339     12.4017     15.7351      8.4121 
  3418.5000      1.6011     -0.0228     17.4395     -0.0043      1.9720      0.4284     65.4153     12.4838     15.3215      8.1348 
  3419.0000      1.8825     -0.0228     17.7038     -0.0001      1.9812      0.4242     65.3034     12.7014     15.3568      7.7455 
  3419.5000      2.4205     -0.0228     17.7292      0.0046      1.9996      0.4081     65.1794     13.1199     15.4557      7.3760 
  3420.0000      2.9578     -0.0228     16.9682      0.0130      2.0136      0.4053     65.2757     13.4263     15.8054      7.1455 
  3420.5000      3.3093     -0.0228     15.2882      0.0200      2.0277      0.3956     65.4886     13.5733     16.2507      7.0873 
  3421.0000      3.6315     -0.0228     14.8800      0.0200      2.0321      0.3941     65.7037     13.4955     17.0518      7.0991 
  3421.5000      3.8700     -0.0228     15.4587      0.0117      2.0352      0.4036     65.9196     13.4563     17.3482      7.1493 
  3422.0000      3.8700     -0.0228     16.8781     -0.0229      2.0352      0.4200     66.0812     13.5326     17.6498      7.1999 
  3422.5000      3.8784     -0.0228     16.4594     -0.0460      2.0094      0.4298     66.1171     13.5448     17.9770      6.9716 
  3423.0000      3.9354     -0.0228     16.2189     -0.0501      1.9836      0.4363     65.8961     13.3967     18.8330      6.6896 
  3423.5000      3.9924     -0.0228     15.9785     -0.0542      1.9657      0.4374     65.6652     13.2486     19.5924      6.4190 
  3424.0000      3.9808     -0.0228     15.6550     -0.0532      1.9648      0.4353     65.6323     13.2181     19.7124      6.1452 
  3424.5000      3.8970     -0.0228     15.5782     -0.0508      1.9655      0.4303     65.6070     13.1933     19.1053      5.9899 
  3425.0000      3.8131     -0.0228     16.7069     -0.0371      1.9679      0.4303     65.6745     13.1197     18.2519      6.2310 
  3425.5000      3.4206     -0.0228     16.7734     -0.0320      1.9727      0.4353     65.8041     13.0295     18.0600      6.4087 
  3426.0000      3.0146     -0.0227     16.0160     -0.0306      1.9727      0.4407     65.8219     13.0138     17.7741      6.2535 
  3426.5000      3.0051     -0.0227     15.2356     -0.0474      1.9657      0.4561     65.7864     13.0354     17.2706      6.0963 
  3427.0000      3.0921     -0.0227     15.9773     -0.0604      1.9475      0.4565     65.6891     13.0491     17.0757      5.9926 
  3427.5000      3.3533     -0.0227     16.4034     -0.0574      1.9332      0.4485     65.6513     13.0343     16.9039      5.9932 
  3428.0000      3.5197     -0.0227     16.2014     -0.0411      1.9384      0.4352     65.6050     12.9654     16.9057      6.0873 
  3428.5000      3.6047     -0.0227     15.7363     -0.0247      1.9504      0.4308     65.5673     12.8943     17.5539      6.2589 
  3429.0000      3.7948     -0.0227     15.2712     -0.0231      1.9623      0.4267     65.6725     12.8232     18.3826      6.4098 
  3429.5000      3.8888     -0.0227     15.2773     -0.0225      1.9740      0.4235     65.8869     12.7521     19.2505      6.5840 
  3430.0000      3.8201     -0.0227     15.6761     -0.0230      1.9782      0.4263     66.0726     12.6809     19.6824      6.7300 
  3430.5000      3.7514     -0.0227     16.0060     -0.0259      1.9811      0.4343     66.2046     12.5583     19.4521      6.7288 
  3431.0000      3.6832     -0.0227     16.0160     -0.0289      1.9791      0.4416     66.2861     12.4250     18.2274      6.6159 
  3431.5000      3.6150     -0.0227     15.9030     -0.0303      1.9717      0.4412     66.3036     12.4196     18.0876      6.4131 
  3432.0000      3.5469     -0.0227     15.8275     -0.0316      1.9663      0.4372     66.2562     12.4326     19.0513      6.2037 
  3432.5000      3.3873     -0.0227     15.8561     -0.0290      1.9642      0.4345     66.0199     12.4455     19.9407      6.0566 
  3433.0000      3.1997     -0.0227     15.9609     -0.0264      1.9653      0.4323     65.6976     12.4585     20.1236      6.0417 
  3433.5000      3.1363     -0.0227     16.5726     -0.0237      1.9689      0.4296     65.6561     12.4715     19.4458      6.0268 
  3434.0000      3.1286     -0.0226     16.2705     -0.0196      1.9757      0.4111     65.7579     12.4845     18.3527      6.0120 
  3434.5000      3.1979     -0.0226     16.1071     -0.0129      1.9996      0.4125     65.8718     12.4934     17.6078      5.9972 
  3435.0000      3.4469     -0.0226     15.9437     -0.0044      2.0026      0.4164     66.0465     12.3670     17.0654      5.6655 
