#--------------------------------------------------#
#-------------------ENVERUS, INC.------------------#
#------------------WWW.ENVERUS.COM-----------------#
#------------------COPYRIGHT 2020------------------#
#--------------------------------------------------#
#THIS FILE MAY BE USED ONLY IN ACCORDANCE WITH A CURRENT SUBSCRIPTION AGREEMENT BETWEEN
#THE USER AND ENVERUS, INC. NO PART OF THIS FILE MAY BE REPRODUCED, USED, COPIED,
#MODIFIED, PROPAGATED, OR DISTRIBUTED EXCEPT IN ACCORDANCE WITH THE SUBSCRIPTION
#AGREEMENT. UNAUTHORIZED USE OR DISTRIBUTION OF ALL OR ANY PART OF THIS FILE MAY VIOLATE
#COPYRIGHT, TRADEMARK, AND/OR OTHER LAWS AND IS SUBJECT TO CIVIL AS WELL AS CRIMINAL
#SANCTIONS.
#--------------------------------------------------#
#THIS FILE IS PROVIDED "AS-IS" AND ALL WARRANTIES ARE EXPRESSLY DISCLAIMED, WHETHER
#EXPRESS, ORAL, IMPLIED, STATUTORY OR OTHERWISE, INCLUDING ANY IMPLIED WARRANTY OF FITNESS
#FOR A PARTICULAR PURPOSE, MERCHANTABILITY, TITLE OR NON-INFRINGEMENT, AND ANY WARRANTIES
#ARISING BY VIRTUE OF CUSTOM OF TRADE OR COURSE OF DEALING.  FURTHER, ENVERUS, INC.
#AND ITS LICENSORS DO NOT REPRESENT OR WARRANT THAT THIS FILE WILL MEET USER'S
#REQUIREMENTS OR ARE SUITABLE FOR USER'S NEEDS OR THAT THE DATA OR RESULTS PROVIDED IN
#CONJUNCTION THEREWITH ARE CORRECT, ACCURATE, TIMELY OR RELIABLE. THESE DISCLAIMERS SHALL
#APPLY REGARDLESS OF ANY FAILURE OF ESSENTIAL PURPOSE OF ANY LIMITED REMEDY.  SOME
#JURISDICTIONS DO NOT ALLOW THE EXCLUSION OF CERTAIN WARRANTIES SO SOME OF THE ABOVE
#EXCLUSIONS MAY NOT APPLY. IN NO EVENT SHALL ENVERUS, INC. OR ANY OF ITS AFFILIATES
#BE LIABLE UNDER ANY LEGAL THEORY, WHETHER IN TORT (INCLUDING WITHOUT LIMITATION
#NEGLIGENCE), CONTRACT, STRICT LIABILITY, STATUTORY OR OTHERWISE, FOR ANY SPECIAL,
#INCIDENTAL, CONSEQUENTIAL, EXEMPLARY, PUNITIVE OR INDIRECT DAMAGE OF ANY KIND, INCLUDING
#WITHOUT LIMITATION LOSS OF REVENUE, PROFITS, GOODWILL, USE, AND/OR DATA OR THE COST OF
#PROCUREMENT OF SUBSTITUTE GOODS OR SERVICES, EVEN IF APPRISED OF THE POSSIBILITY OF SUCH
#DAMAGES IN ADVANCE.
#--------------------------------------------------#

~VERSION INFORMATION
VERS. 2.0 : CWLS LOG ASCII STANDARD - VERSION 2.0
WRAP. NO : ONE LINE PER DEPTH STEP
~WELL INFORMATION
#MNEMONIC     .UNIT              VALUE :DESCRIPTION
STRT       .FT                5046.00000 :START DEPTH
STOP       .FT                5253.00000 :STOP DEPTH
STEP       .FT                0.50000 :STEP
NULL       .                -999.25000 :NULL VALUE
UWI       .                42389007260000 :UNIQUE WELL ID
API       .                42389007260000 :API NUMBER
COMP       .                 :COMPANY
WELL       .                 :WELL
FLD       .                 :FIELD
LOC       .                 :LOCATION
CNTY       .                 :COUNTY
STAT       .                 :STATE
CTRY       .                 :COUNTRY
SRVC       .                 :SERVICE COMPANY
DATE       .                 :DATE
~CURVE INFORMATION
#MNEMONIC     .UNIT      API CODE :CURVE DESCRIPTION
DEPTH       .FT                      :MEASURED DEPTH
DT       .US/FT        UNKNOWN   :DT
GR       .GAPI        UNKNOWN   :GR
~A    DEPTH    DT    GR
5046.00000    -999.25000    11.24502
5046.50000    -999.25000    11.39386
5047.00000    -999.25000    11.54271
5047.50000    -999.25000    11.69155
5048.00000    48.50272    12.03327
5048.50000    48.39727    12.47744
5049.00000    48.46596    12.93679
5049.50000    48.75352    12.84199
5050.00000    49.04108    11.51007
5050.50000    49.23018    10.17814
5051.00000    49.05259    10.01544
5051.50000    48.87500    10.45629
5052.00000    48.69741    11.07255
5052.50000    48.60589    11.68881
5053.00000    48.76156    12.30506
5053.50000    48.91722    12.38313
5054.00000    49.07288    12.33390
5054.50000    49.22854    12.28467
5055.00000    49.10419    12.23543
5055.50000    48.63788    12.18620
5056.00000    48.88267    12.13697
5056.50000    49.12746    12.44813
5057.00000    49.37225    12.96202
5057.50000    49.25384    13.47592
5058.00000    49.06445    13.98982
5058.50000    48.87505    14.22473
5059.00000    48.74622    13.40312
5059.50000    49.02111    12.58152
5060.00000    49.29600    11.75991
5060.50000    49.57088    10.93831
5061.00000    49.84577    10.11670
5061.50000    49.74175    9.29509
5062.00000    49.59815    8.47349
5062.50000    49.45455    7.65188
5063.00000    49.31095    6.83028
5063.50000    49.16735    7.26297
5064.00000    49.33262    8.00350
5064.50000    49.85099    8.74404
5065.00000    50.14106    9.48457
5065.50000    49.63539    10.22510
5066.00000    49.12972    10.96563
5066.50000    49.02695    11.70616
5067.00000    49.05024    12.44669
5067.50000    49.07353    13.18722
5068.00000    49.05292    13.92776
5068.50000    48.99504    13.51201
5069.00000    48.93717    12.64479
5069.50000    48.53885    11.77757
5070.00000    48.83449    10.91035
5070.50000    49.28407    10.04313
5071.00000    49.52888    9.17591
5071.50000    49.63244    8.35348
5072.00000    49.73599    8.75050
5072.50000    49.83954    9.14752
5073.00000    49.92037    8.67893
5073.50000    49.99786    7.56410
5074.00000    49.72621    9.41950
5074.50000    49.41063    11.84832
5075.00000    49.15758    14.27715
5075.50000    49.20151    14.62603
5076.00000    49.24544    14.76044
5076.50000    49.28936    14.89485
5077.00000    49.95680    15.02926
5077.50000    50.88609    15.16367
5078.00000    50.43828    14.42664
5078.50000    49.91914    13.66797
5079.00000    49.40000    12.91302
5079.50000    48.53288    12.70329
5080.00000    48.00309    12.49357
5080.50000    49.19464    12.28385
5081.00000    50.14133    12.07413
5081.50000    50.37663    11.86440
5082.00000    50.46974    11.65468
5082.50000    50.55054    11.44496
5083.00000    50.60193    11.23523
5083.50000    50.38014    11.02551
5084.00000    50.09330    10.81579
5084.50000    49.84576    10.64132
5085.00000    49.98718    11.06241
5085.50000    50.12861    11.48349
5086.00000    50.17713    11.90457
5086.50000    50.06211    12.95989
5087.00000    49.94710    14.09995
5087.50000    49.79018    15.22369
5088.00000    49.60979    15.88394
5088.50000    50.18580    16.16103
5089.00000    50.47966    16.01906
5089.50000    50.38329    15.87708
5090.00000    50.12038    15.73511
5090.50000    50.08272    15.59314
5091.00000    50.12661    15.45117
5091.50000    49.84841    16.29916
5092.00000    49.42001    17.74563
5092.50000    50.76203    19.19209
5093.00000    51.11804    18.41740
5093.50000    51.24793    17.41693
5094.00000    50.08962    16.41647
5094.50000    49.15043    16.40585
5095.00000    48.65528    17.32984
5095.50000    48.87778    18.25382
5096.00000    49.02956    19.17780
5096.50000    49.02866    20.10179
5097.00000    49.02777    21.02577
5097.50000    49.02688    21.97203
5098.00000    49.33159    23.51306
5098.50000    49.38368    25.05409
5099.00000    49.31148    24.75532
5099.50000    49.23928    23.70254
5100.00000    49.16707    22.64975
5100.50000    49.09487    22.72568
5101.00000    49.02267    22.99518
5101.50000    49.00781    23.49108
5102.00000    49.09465    23.28647
5102.50000    49.16087    21.67518
5103.00000    49.22709    20.06389
5103.50000    49.29331    18.54899
5104.00000    49.35953    18.45928
5104.50000    49.42575    18.33932
5105.00000    49.49197    18.12503
5105.50000    49.55819    16.79831
5106.00000    49.64072    14.95258
5106.50000    49.77676    13.29038
5107.00000    49.91281    12.38020
5107.50000    50.04885    9.85351
5108.00000    50.18490    9.14540
5108.50000    50.16867    9.89186
5109.00000    50.02124    10.63833
5109.50000    49.92391    10.76328
5110.00000    49.92299    10.47197
5110.50000    49.96292    10.18065
5111.00000    50.10288    9.88934
5111.50000    50.24283    10.05807
5112.00000    50.30354    10.57920
5112.50000    50.22005    11.10032
5113.00000    50.13655    11.62144
5113.50000    50.06664    12.26266
5114.00000    50.00690    13.20532
5114.50000    49.99629    14.14799
5115.00000    50.15188    14.56128
5115.50000    50.18044    14.56547
5116.00000    50.06389    13.69782
5116.50000    49.94734    11.90352
5117.00000    49.93676    10.10922
5117.50000    50.01658    9.78038
5118.00000    50.13609    9.96548
5118.50000    50.18284    10.15057
5119.00000    50.18190    10.33566
5119.50000    50.33965    9.20725
5120.00000    50.57354    8.04394
5120.50000    50.84915    8.73257
5121.00000    50.49180    11.29851
5121.50000    50.13444    14.85861
5122.00000    49.85863    20.69132
5122.50000    50.31466    25.34792
5123.00000    50.07408    26.66641
5123.50000    51.86640    27.45464
5124.00000    55.23159    28.81017
5124.50000    52.65436    35.01061
5125.00000    50.69184    43.51258
5125.50000    50.35342    52.01455
5126.00000    50.35247    60.50784
5126.50000    73.94753    69.00087
5127.00000    75.58420    77.49391
5127.50000    73.13064    84.17178
5128.00000    67.68824    89.33034
5128.50000    66.48829    94.48890
5129.00000    66.01381    99.64745
5129.50000    63.12812    104.80601
5130.00000    61.51002    114.18209
5130.50000    67.00830    121.16954
5131.00000    68.60043    122.66634
5131.50000    67.03622    119.60522
5132.00000    68.21010    114.16023
5132.50000    68.49496    108.09959
5133.00000    67.73339    102.12451
5133.50000    65.68372    101.01911
5134.00000    62.72126    99.91371
5134.50000    63.82425    99.42606
5135.00000    64.60714    99.84102
5135.50000    65.94240    100.25597
5136.00000    66.56276    98.42847
5136.50000    66.54745    96.44628
5137.00000    64.43044    95.06361
5137.50000    63.41811    94.96107
5138.00000    64.25599    95.65590
5138.50000    65.32833    96.65057
5139.00000    66.38679    98.86053
5139.50000    67.44525    101.07049
5140.00000    67.71831    102.13206
5140.50000    66.47214    101.04841
5141.00000    64.80778    100.81431
5141.50000    64.58352    102.13506
5142.00000    64.83905    105.89889
5142.50000    65.73695    108.68786
5143.00000    67.50275    108.96455
5143.50000    67.34143    107.58799
5144.00000    61.56274    109.60073
5144.50000    62.66481    120.08291
5145.00000    67.59163    129.09990
5145.50000    67.71878    140.11200
5146.00000    68.06382    145.50724
5146.50000    67.70664    148.54578
5147.00000    65.73293    150.47605
5147.50000    71.52385    148.54740
5148.00000    72.20665    132.43682
5148.50000    72.79714    116.41853
5149.00000    68.39882    100.46175
5149.50000    64.51414    108.93016
5150.00000    61.22232    121.58580
5150.50000    62.01839    135.63951
5151.00000    65.19406    150.31667
5151.50000    70.39307    164.99383
5152.00000    75.47395    159.78329
5152.50000    76.76830    138.05128
5153.00000    73.32729    107.96779
5153.50000    67.90927    94.13094
5154.00000    67.43849    92.83822
5154.50000    67.63075    91.60304
5155.00000    68.02723    87.45623
5155.50000    68.27891    78.67865
5156.00000    67.06213    70.86855
5156.50000    64.63937    69.20903
5157.00000    62.21661    70.22895
5157.50000    60.77378    71.24886
5158.00000    63.63467    73.29995
5158.50000    65.48990    75.67719
5159.00000    66.85964    82.73063
5159.50000    67.77815    91.93037
