#--------------------------------------------------#
#-------------------ENVERUS, INC.------------------#
#------------------WWW.ENVERUS.COM-----------------#
#------------------COPYRIGHT 2020------------------#
#--------------------------------------------------#
#THIS FILE MAY BE USED ONLY IN ACCORDANCE WITH A CURRENT SUBSCRIPTION AGREEMENT BETWEEN
#THE USER AND ENVERUS, INC. NO PART OF THIS FILE MAY BE REPRODUCED, USED, COPIED,
#MODIFIED, PROPAGATED, OR DISTRIBUTED EXCEPT IN ACCORDANCE WITH THE SUBSCRIPTION
#AGREEMENT. UNAUTHORIZED USE OR DISTRIBUTION OF ALL OR ANY PART OF THIS FILE MAY VIOLATE
#COPYRIGHT, TRADEMARK, AND/OR OTHER LAWS AND IS SUBJECT TO CIVIL AS WELL AS CRIMINAL
#SANCTIONS.
#--------------------------------------------------#
#THIS FILE IS PROVIDED "AS-IS" AND ALL WARRANTIES ARE EXPRESSLY DISCLAIMED, WHETHER
#EXPRESS, ORAL, IMPLIED, STATUTORY OR OTHERWISE, INCLUDING ANY IMPLIED WARRANTY OF FITNESS
#FOR A PARTICULAR PURPOSE, MERCHANTABILITY, TITLE OR NON-INFRINGEMENT, AND ANY WARRANTIES
#ARISING BY VIRTUE OF CUSTOM OF TRADE OR COURSE OF DEALING.  FURTHER, ENVERUS, INC.
#AND ITS LICENSORS DO NOT REPRESENT OR WARRANT THAT THIS FILE WILL MEET USER'S
#REQUIREMENTS OR ARE SUITABLE FOR USER'S NEEDS OR THAT THE DATA OR RESULTS PROVIDED IN
#CONJUNCTION THEREWITH ARE CORRECT, ACCURATE, TIMELY OR RELIABLE. THESE DISCLAIMERS SHALL
#APPLY REGARDLESS OF ANY FAILURE OF ESSENTIAL PURPOSE OF ANY LIMITED REMEDY.  SOME
#JURISDICTIONS DO NOT ALLOW THE EXCLUSION OF CERTAIN WARRANTIES SO SOME OF THE ABOVE
#EXCLUSIONS MAY NOT APPLY. IN NO EVENT SHALL ENVERUS, INC. OR ANY OF ITS AFFILIATES
#BE LIABLE UNDER ANY LEGAL THEORY, WHETHER IN TORT (INCLUDING WITHOUT LIMITATION
#NEGLIGENCE), CONTRACT, STRICT LIABILITY, STATUTORY OR OTHERWISE, FOR ANY SPECIAL,
#INCIDENTAL, CONSEQUENTIAL, EXEMPLARY, PUNITIVE OR INDIRECT DAMAGE OF ANY KIND, INCLUDING
#WITHOUT LIMITATION LOSS OF REVENUE, PROFITS, GOODWILL, USE, AND/OR DATA OR THE COST OF
#PROCUREMENT OF SUBSTITUTE GOODS OR SERVICES, EVEN IF APPRISED OF THE POSSIBILITY OF SUCH
#DAMAGES IN ADVANCE.
#--------------------------------------------------#

~VERSION INFORMATION
VERS. 2.0 : CWLS LOG ASCII STANDARD - VERSION 2.0
WRAP.  NO : ONE LINE PER DEPTH STEP
~WELL INFORMATION
#MNEMONIC     .UNIT              VALUE :DESCRIPTION
STRT       .FT                102 :START DEPTH
STOP       .FT                5463 :STOP DEPTH
STEP       .FT                   0.500 :STEP
NULL       .                  -999.990 :NULL
UWI        .              42371363560000 :UNIQUE WELL ID
API        .              42371363560000 :API NUMBER
COMP       .         APACHE CORPORATION :COMPANY
WELL       .        SCHLOSSER, FRED ESTATE -B-  11 :WELL
DATE       .                22-JUN-1992 :LOG DATE
~CURVE INFORMATION
#MNEMONIC     .UNIT      API CODE :CURVE DESCRIPTION
DEPTH       .FT                      :MEASURED DEPTH
DT.US/FT        UNKNOWN   :DT
GR.API        UNKNOWN   :GR
~A    DEPTH    DT    GR
# ...
 2443.5     51.598   7.826
 2444     51.872   7.31
 2444.5     52.146   6.795
 2445     52.009   6.297
 2445.5     51.741   6.581
 2446     51.472   7.066
 2446.5     51.204   7.55
 2447     50.936   8.035
 2447.5     50.865   13.67
 2448     51.072   18.142
 2448.5     51.279   21.882
 2449     51.486   24.692
 2449.5     52.362   25.477
 2450     52.247   25.158
 2450.5     52.133   24.134
 2451     52.018   21.365
 2451.5     51.904   17.317
 2452     51.789   11.892
 2452.5     51.675   8.064
 2453     51.561   7.879
 2453.5     52.929   7.694
 2454     55.39   7.51
 2454.5     58.013   8.053
 2455     59.405   10.431
 2455.5     53.631   12.868
 2456     52.71   15.887
 2456.5     52.383   15.821
 2457     52.752   14.531
 2457.5     53.12   12.216
 2458     53.359   7.761
 2458.5     53.518   5.227
 2459     53.676   5.165
 2459.5     53.835   5.102
 2460     54.156   5.04
 2460.5     54.684   4.977
 2461     55.182   4.661
 2461.5     54.883   3.918
 2462     54.585   3.313
 2462.5     53.992   3.18
 2463     53.331   3.046
 2463.5     52.67   3.053
 2464     51.875   5.282
 2464.5     52.308   5.622
 2465     53.294   7.58
 2465.5     53.711   9.93
 2466     54.025   11.184
 2466.5     53.339   12.185
 2467     53.108   13.186
 2467.5     52.586   11.374
 2468     52.022   8.51
 2468.5     51.458   6.103
 2469     53.884   4.228
 2469.5     55.12   3.247
 2470     56.355   3.248
 2470.5     52.34   6.31
 2471     52.459   8.185
 2471.5     52.404   8.92
 2472     51.897   9.655
 2472.5     51.39   8.093
 2473     51.554   5.714
 2473.5     52.052   3.84
 2474     52.55   3.276
 2474.5     51.021   2.712
 2475     51.937   2.185
 2475.5     54.497   2.13
 2476     57.057   2.249
 2476.5     61.829   3.192
 2477     67.791   4.135
 2477.5     67.911   5.077
 2478     68.331   5.368
 2478.5     69.29   5.342
 2479     70.494   5.316
 2479.5     72.162   5.29
 2480     73.399   6.045
 2480.5     72.437   7.188
 2481     71.475   8.33
 2481.5     70.658   8.758
 2482     70.299   8.695
 2482.5     69.939   7.524
 2483     69.58   6.237
 2483.5     69.544   4.951
 2484     69.639   3.665
 2484.5     69.642   3.146
 2485     69.509   2.855
 2485.5     69.375   2.671
 2486     69.242   2.858
 2486.5     69.108   3.046
 2487     69.256   3.233
 2487.5     69.754   3.35
 2488     70.252   3.242
 2488.5     70.752   3.135
 2489     71.255   3.338
 2489.5     71.757   4.324
 2490     72.26   5.31
 2490.5     72.518   6.297
 2491     72.684   7.283
 2491.5     71.823   6.64
 2492     70.938   5.937
 2492.5     70.816   5.235
 2493     70.694   4.533
 2493.5     70.571   3.83
 2494     70.449   3.799
 2494.5     70.07   3.916
 2495     69.58   3.999
 2495.5     69.09   3.713
 2496     68.35   3.427
 2496.5     67.632   3.141
 2497     68.229   2.855
 2497.5     68.617   2.844
 2498     68.781   2.994
 2498.5     68.946   3.144
 2499     69.11   3.265
 2499.5     69.275   2.957
 2500     69.439   2.649
 2500.5     66.222   2.341
 2501     60.653   2.033
 2501.5     62.47   1.725
 2502     64.287   2.221
 2502.5     65.63   3.391
 2503     66.866   4.562
 2503.5     68.102   5.543
 2504     69.338   6.008
 2504.5     69.088   6.474
 2505     68.097   5.452
 2505.5     68.423   4.4
 2506     68.75   3.347
 2506.5     69.164   2.223
 2507     69.625   2.139
 2507.5     70.086   2.056
 2508     70.734   1.973
 2508.5     71.437   2.301
 2509     72.345   3.687
 2509.5     73.3   5.074
 2510     74.255   6.46
 2510.5     73.505   8.003
 2511     71.514   8.77
 2511.5     70.941   8.67
 2512     70.09   8.57
 2512.5     70.672   7.996
 2513     71.254   6.829
 2513.5     71.837   5.661
 2514     72.419   5.227
 2514.5     72.385   5.241
 2515     72.154   5.255
 2515.5     71.922   5.27
 2516     71.453   5.284
 2516.5     69.929   5.298
 2517     69.209   5.312
 2517.5     69.136   5.327
 2518     69.063   4.577
 2518.5     68.99   3.67
 2519     68.961   2.764
 2519.5     69.621   1.857
 2520     70.28   0.95
 2520.5     71.046   0.831
 2521     71.978   1.737
 2521.5     72.566   2.643
 2522     73.154   3.607
 2522.5     73.136   4.572
 2523     72.857   5.537
 2523.5     72.041   6.502
 2524     71.178   7.018
 2524.5     71.051   6.973
 2525     71.095   6.787
 2525.5     71.139   5.598
 2526     71.182   5.213
 2526.5     71.226   5.359
 2527     71.001   5.505
 2527.5     70.695   5.658
 2528     70.389   5.815
 2528.5     70.083   5.971
 2529     69.778   5.454
 2529.5     69.472   4.892
 2530     69.864   4.33
 2530.5     70.256   3.768
 2531     70.648   3.216
 2531.5     70.917   3.178
 2532     70.708   3.14
 2532.5     70.499   3.386
 2533     70.289   4.364
 2533.5     70.08   4.864
 2534     69.904   4.727
 2534.5     69.74   4.591
 2535     69.577   4.454
 2535.5     69.414   4.317
 2536     68.706   4.123
 2536.5     70.35   3.912
 2537     71.993   3.701
 2537.5     73.528   3.49
 2538     73.916   4.28
 2538.5     71.535   5.395
 2539     70.904   6.509
 2539.5     70.904   6.633
 2540     70.904   6.634
 2540.5     70.904   6.277
 2541     71.087   5.294
 2541.5     71.465   4.951
 2542     70.846   5.507
 2542.5     69.68   6.063
 2543     68.894   5.248
 2543.5     69.153   4.321
 2544     69.412   3.395
 2544.5     69.671   2.74
 2545     69.93   2.889
 2545.5     62.493   3.037
 2546     59.499   3.186
 2546.5     56.909   3.334
 2547     60.65   3.64
 2547.5     64.39   4.511
 2548     68.684   5.382
 2548.5     69.145   6.253
 2549     69.607   6.659
 2549.5     70.068   6.01
 2550     69.694   5.361
 2550.5     69.031   4.402
 2551     68.62   3.154
 2551.5     69.47   2.711
 2552     66.635   2.899
 2552.5     62.081   3.088
 2553     57.596   3.276
 2553.5     53.996   3.464
 2554     54.712   3.653
 2554.5     55.428   11.275
 2555     56.144   28.416
 2555.5     56.608   77.705
 2556     56.298   106.264
 2556.5     56.416   128.832
 2557     57.013   140.901
 2557.5     53.531   136.839
 2558     53.356   124.097
 2558.5     53.373   116.199
 2559     54.24   80.837
 2559.5     55.107   54.486
 2560     56.132   29.106
 2560.5     57.804   16.245
 2561     53.238   16.102
 2561.5     53.278   16.408
 2562     53.318   16.714
 2562.5     53.886   17.021
 2563     54.537   7.733
 2563.5     55.114   5.697
 2564     55.685   5.437
 2564.5     55.802   5.177
 2565     55.47   4.916
 2565.5     55.139   4.656
 2566     53.304   4.94
 2566.5     52.962   5.681
 2567     52.619   6.423
 2567.5     52.278   7.164
 2568     52.563   7.906
 2568.5     52.848   8.647
 2569     53.133   9.389
 2569.5     55.044   10.237
 2570     57.602   11.092
 2570.5     60.306   11.947
 2571     63.347   12.801
 2571.5     66.389   13.23
 2572     60.981   12.01
 2572.5     58.306   9.591
 2573     57.879   7.036
 2573.5     56.877   6.762
 2574     55.359   7.328
 2574.5     54.03   8.004
 2575     53.437   8.68
 2575.5     54.184   8.54
 2576     54.931   7.588
 2576.5     55.196   6.636
 2577     55.248   5.718
 2577.5     56.029   5.627
 2578     55.958   5.536
 2578.5     55.074   5.089
 2579     55.413   4.501
 2579.5     56.005   3.912
 2580     56.052   3.324
 2580.5     55.31   2.736
 2581     54.567   2.147
 2581.5     53.825   2.028
 2582     54.316   1.939
 2582.5     54.814   1.851
 2583     55.313   2.68
 2583.5     55.811   5.238
 2584     59.187   7.629
 2584.5     63.849   9.281
 2585     66.064   9.882
 2585.5     68.279   9.7
 2586     70.317   8.791
 2586.5     70.357   5.632
 2587     70.397   4.17
 2587.5     70.437   3.714
 2588     70.477   3.411
 2588.5     70.479   5.095
 2589     70.056   5.054
 2589.5     69.632   5.012
 2590     69.209   4.726
 2590.5     69.326   4.228
 2591     69.853   3.731
 2591.5     68.979   3.234
 2592     69.253   2.832
 2592.5     69.528   2.441
 2593     69.791   2.05
 2593.5     69.397   2.315
 2594     69.004   2.636
 2594.5     68.611   2.957
 2595     69.34   3.278
 2595.5     70.147   3.599
 2596     69.59   3.92
 2596.5     68.969   4.241
 2597     68.349   4.039
 2597.5     69.061   3.514
 2598     69.865   2.99
