~Version Information Block
 VERS.                2.00:     CWLS LOG ASCII STANDARD - VERSION 2.000000
 WRAP.                  NO:     One Line Per Depth Step
#
~Well Information Block
#MNEM.UNIT                     Data                         Information
#----------   ------------------------------------------   ----------------
 STRT.FT                                     5200.0000:     START DEPTH
 STOP.FT                                    11550.0000:     STOP DEPTH
 STEP.FT                                        0.5000:     STEP
 NULL.                                       -999.2500:     NULL VALUE
 COMP.               AMERICAN QUASAR PETROLEUM COMPANY:     COMPANY
 WELL.                               MCCARTER # 1 - 31:     WELL
 FLD .                                         WILDCAT:     FIELD
 LOC .                                                :     LOCATION
 CNTY.                                          REEVES:     COUNTY
 STAT.                                           TEXAS:     STATE
 CTRY.                                             USA:     COUNTRY
 SRVC.                                                :     SERVICE COMPANY
 DATE.                                      08/07/2015:     DATE
 API .                                  42389311800000:     API NUMBER
 UWI .                                  42389311800000:     UWI NUMBER
 TVD .                                              NO:     TVD flag
 WSTA.                                             LOC:     Well status
#
~Curve Information Block
#MNEM.UNIT       API CODE      Curve Description
#----------    -------------   -------------------
 DEPT.FT                   :   Depth in Feet
 GR  .GAPI                 :   Gamma Ray
 LLD .OHMM                 :   Latero-Log Deep (Resistivity)
 CALI.IN                   :   Caliper
 DT  .US/F                 :   Delta-T
#
~Parameter Information Block
#MNEM.UNIT            Value               Description
#----------    --------------------    -------------------
 RUN .                         ONE:    Run Number
 PDAT.                          GL:    Permanent Datum
 EPD .FT                          :    Elevation Of Perm. Datum
 LMF .               KELLY BUSHING:    Log Measured From
 EKB .FT                          :    Elevation Of Kelly Bushing
 DF .FT                           :    Elevation Of Derrick Floor
 GL .FT                           :    Elevation Of Ground Level
 TD  .FT                          :    Total Depth
 CSGD.FT                          :    Casing Bottom (Driller) 1
 CSGL.FT                          :    Casing Bottom (Logger) 1
 MUD .                            :    Drilling Fluid Type
 MUDV .CP                         :    Drilling Fluid Viscosity
 MUDD .LB/USG                     :    Drilling Fluid Density
 FL .ML/30MIN                     :    Drilling Fluid Loss
 PH.                              :    Drilling Fluid Ph
 MUDS .                           :    Mud Sample Source
 RM .OHMM                         :    Resistivity Of Mud Sample
 RMT .DEGF                        :    Mud Sample Temperature
 RMF .OHMM                        :    Mud Filtrate Resistivity
 RMFT.DEGF                        :    Mud Filtrate Sample Temperature
 RMC .OHMM                        :    Mud Cake Resistivity
 RMCT.DEGF                        :    Mud Cake Sample Temperature
 RMB .OHMM                        :    Mud Resistivity At Bht
 TMAX .DEGF                       :    Bottom Hole Temperature    
#
~Other Information Block
<DescLogPlotStart>   NEURALOG PLOT DEFINITION
PLOTDEFVERSION: 3
LASFILE: E:\Nair Innovations\Texas - NII\Shivam\42389311800000\42389311800000_G
DEPTHSCALE: 239.999996
RESOLUTION: 200
DEPTHLABELFREQ: 100.000000
HEAVYGRIDFREQ: 100.000000
MEDIUMGRIDFREQ: 50.000000
LIGHTGRIDFREQ: 10.000000
#
#   TRACK 1
#
STARTTRACK: 
 LEFTX: 0.500000 inch
 RIGHTX: 3.000000 inch
 SCALETYPE: Linear
 NUMCHARTDIVISIONS: 10
CURVE: GR    0.000000   125.000000 (0,0,255)      Solid             2     Y    
BACKUP: 125.000000 250.000000 (0,0,255)      Solid             2    
CURVE: CALI  6.000000   16.000000  (0,0,255)      Solid             2     N    
ENDTRACK: 
#
#   TRACK 2
#
STARTTRACK: 
 LEFTX: 3.500000 inch
 RIGHTX: 8.500000 inch
 SCALETYPE: Log
 NUMCYCLES: 4
 STARTCYCLE: 2
CURVE: LLD   0.200000   2000.000000 (0,131,131)    Solid             2     Y   
BACKUP: 2000.000000 20000000.000000 (0,131,131)    Solid             2    
ENDTRACK: 
#
#   TRACK 3
#
STARTTRACK: 
 LEFTX: 3.500000 inch
 RIGHTX: 8.500000 inch
 SCALETYPE: Linear
 NUMCHARTDIVISIONS: 10
CURVE: DT    100.000000 40.000000  (0,131,131)    Solid             2     Y    
BACKUP: 160.000000 100.000000 (0,131,131)    Solid             2    
BACKUP: 40.000000  -20.000000 (0,131,131)    Solid             2    
ENDTRACK: 
<DescLogPlotEnd>
<DepthTrack type='Reference' track='1' Label='0' color='0' hor='0' />
<Reference font='144,0,-900,0,500,0,16777216,Arial' />
~A DEPTH     GR               LLD              CALI             DT              
# ...
    9803.500 78.11005264      41.59253380      12.71656687      86.00399600     
    9804.000 78.39305594      41.93499720      12.71656687      85.32281052     
    9804.500 77.13614945      42.28028036      12.71656687      85.05534466     
    9805.000 75.63616364      44.12143858      12.71656687      85.02673663     
    9805.500 75.73293358      42.24107373      12.71656687      84.86685893     
    9806.000 77.08111402      39.60809750      12.71656687      84.47250374     
    9806.500 78.49465886      36.40597299      12.71656687      83.67805991     
    9807.000 78.47698822      34.62179131      12.71656687      83.06739428     
    9807.500 78.20856848      38.66145132      12.71656687      82.81974214     
    9808.000 78.51730134      39.99296148      12.71656687      83.00318036     
    9808.500 76.74862566      40.89321333      12.71656687      83.54272394     
    9809.000 75.56187026      39.72886408      12.71656687      84.38561439     
    9809.500 75.54330655      36.95301703      12.71656687      83.60639361     
    9810.000 78.73250381      33.37912020      12.71656687      81.81894695     
    9810.500 81.91884577      37.53156976      12.71656687      81.70807223     
    9811.000 82.51065503      40.94419344      12.71656687      81.33644014     
    9811.500 75.20383185      41.65501260      12.71656687      81.26873127     
    9812.000 73.04179768      39.82798293      12.71656687      80.48046499     
    9812.500 72.34155433      37.62906498      12.71656687      80.01543911     
    9813.000 74.45680523      36.60623351      12.71656687      80.09270729     
    9813.500 76.71254898      37.62115575      12.71656687      81.16957328     
    9814.000 81.76744502      38.70719982      12.71656687      82.69556158     
    9814.500 87.81315915      39.77979630      12.71656687      84.21399907     
    9815.000 94.94074518      40.88211498      12.71656687      85.28825475     
    9815.500 95.32201097      43.52365774      12.71656687      85.46766711     
    9816.000 86.19020724      49.66693771      12.71656687      83.76783217     
    9816.500 76.81767263      55.98176307      12.71656687      80.95944056     
    9817.000 71.10961061      59.73495725      12.71656687      79.29070929     
    9817.500 74.24321903      59.70076490      12.71656687      78.69130869     
    9818.000 83.28742783      49.50034927      12.71658700      81.00715285     
    9818.500 86.08998655      44.18536966      12.71675127      85.15956044     
    9819.000 89.66364863      41.65501260      12.71527040      88.39080919     
    9819.500 94.69057130      41.65501260      12.73782341      89.84015984     
    9820.000 94.26010466      47.38919095      12.73637625      89.59549541     
    9820.500 87.93315342      55.97476172      12.73663209      89.23988739     
    9821.000 73.82212432      68.39118964      12.73591994      88.39920080     
    9821.500 59.78345534      88.07872332      12.72159849      83.12807193     
    9822.000 45.71542609      217.32122277     12.71042380      73.95064935     
    9822.500 33.97610664      217.32122277     12.70154029      68.80119880     
    9823.000 33.41348839      207.88520536     12.69489298      67.30269730     
    9823.500 38.85514275      190.52670088     12.70184624      62.98701299     
    9824.000 53.22294754      133.44753523     12.69632163      66.11588412     
    9824.500 70.17594521      76.76517852      12.69656572      72.13386613     
    9825.000 87.24967971      51.03212147      12.69659785      78.15184815     
    9825.500 92.68266162      41.24519898      12.69660679      84.23947571     
    9826.000 94.66187913      35.57064719      12.69660679      86.70206856     
    9826.500 92.97927727      30.11215386      12.69660679      87.86629525     
    9827.000 91.30863669      25.36563026      12.69660679      87.95504496     
    9827.500 92.33208626      23.50554235      12.69660679      86.83116883     
    9828.000 96.84186781      23.07566599      12.69660679      85.80412315     
    9828.500 101.56306300     25.38304325      12.69660679      85.41566377     
    9829.000 105.32263484     26.99544660      12.69660679      85.42195791     
    9829.500 106.54981943     29.87986927      12.69660679      86.56255400     
    9830.000 102.33393944     31.40667639      12.69660679      85.74875125     
    9830.500 98.14240708      33.67383044      12.69660679      84.67052947     
    9831.000 94.16182479      37.98281165      12.69660679      82.79648352     
    9831.500 90.82756841      43.02057795      12.69660679      82.94705295     
    9832.000 87.84568405      51.35157936      12.69660679      82.19607060     
    9832.500 75.95897042      61.29589206      12.69660679      82.46353646     
    9833.000 63.26226596      72.97316393      12.69660679      81.95048951     
    9833.500 50.72802968      85.43422852      12.69660679      79.15212787     
    9834.000 37.87791465      277.56429680     12.69660679      74.88721279     
    9834.500 33.64825895      269.23899741     12.69660679      63.56841034     
    9835.000 37.33490125      215.30755619     12.69660679      57.91562595     
    9835.500 48.91191588      157.10274794     12.69660679      56.93134653     
    9836.000 63.39306108      114.63263921     12.69660679      56.88036148     
    9836.500 77.43745445      83.64361633      12.69660679      75.75647631     
    9837.000 85.75794933      61.37675784      12.69660679      79.81829841     
    9837.500 88.19909849      57.56915793      12.69660679      83.95747110     
    9838.000 89.18756371      49.32887587      12.69660679      86.74645355     
    9838.500 88.50180508      46.50014752      12.69660679      87.54885115     
    9839.000 87.06167570      46.46522340      12.69660679      88.24295704     
    9839.500 86.58338292      50.09883084      12.69660679      88.76123876     
    9840.000 86.47988009      49.63860578      12.69660679      88.69830170     
    9840.500 84.69775179      49.79147283      12.69660679      88.54785215     
    9841.000 83.06065620      48.64452911      12.69660679      88.16183816     
    9841.500 84.81521958      46.10578774      12.69660679      85.83976024     
    9842.000 89.29019308      45.07916754      12.69660679      85.53826174     
    9842.500 93.33469566      43.00330501      12.69660679      85.08691309     
    9843.000 90.46082624      40.16432640      12.69660679      85.11808192     
    9843.500 85.38651667      39.03787688      12.69660679      85.16483516     
    9844.000 82.15682253      39.56859567      12.69660679      84.52597303     
    9844.500 83.39298963      40.31092661      12.69660679      83.26108959     
    9845.000 84.44269195      41.06718414      12.69660679      81.98823520     
    9845.500 80.98198943      47.40012584      12.69660679      81.25331811     
    9846.000 74.54417580      49.44353211      12.69660679      79.58441558     
    9846.500 67.56461519      50.21532466      12.69660679      76.74259074     
    9847.000 65.85695708      50.56332289      12.69660679      74.73526474     
    9847.500 67.29991352      43.62217848      12.69660679      75.45454545     
    9848.000 74.89210398      42.26295461      12.69660679      74.61538462     
    9848.500 84.20444513      40.81859809      12.69660679      80.14532613     
    9849.000 86.48860282      40.95158251      12.69660679      82.02378087     
    9849.500 87.66327140      51.33195279      12.69660679      82.50748672     
    9850.000 81.93918410      50.11542416      12.69660679      79.13557031     
    9850.500 73.78051846      48.24134825      12.69660679      76.51597814     
    9851.000 62.68969203      49.96541456      12.69660679      73.65634366     
    9851.500 51.70027953      66.07970140      12.69660679      67.77070929     
    9852.000 40.66912285      152.76457200     12.69660679      61.29134865     
    9852.500 29.76987182      347.17013132     12.69660679      54.29570430     
