~VERSION INFORMATION
 VERS.                2.0:   CWLS LOG ASCII STANDARD - VERSION 2.0
 WRAP.                 NO:   ONE LINE PER DEPTH STEP
~WELL INFORMATION
#MNEM.UNIT      DATA TYPE    INFORMATION
#----------   ------------   ------------------------------
 STRT.FT           0.0000:   START DEPTH
 STOP.FT        7147.0000:   STOP DEPTH
 STEP.FT           0.5000:   STEP LENGTH
 NULL.          -999.2500:   NULL VALUE
 COMP. MOBIL PRODUCING TEXAS & NEW MEEXICO INC:   COMPANY
 WELL. SCHLOSER FRED ESTATE B #2:   WELL
 FLD .      ROJO CABALLOS:   FIELD
 LOC .                   :   LOCATION
 CNTY.              PECOS:   COUNTY
 STAT.              TEXAS:   STATE
 CTRY. UNITED STATES OF AMERICA:   COUNTRY
 SRVC.       Schlumberger:   SERVICE COMPANY
 DATE.        10-Jun-1980:   LOGDATE
 API .     42371330900000:   API NUMBER
~CURVE INFORMATION
#MNEM.UNIT       API CODE    CURVE DESCRIPTION
#----------   ------------   ------------------------------
 DEPT.F                  :   
 GRD .GAPI   45 310 01 00:   GAMMA RAY FROM DENSITY LOG
 GRR .GAPI   11 310 01 00:   GAMMA RAY FROM RESISTIVITY LOG
 GRS .GAPI   60 310 01 00:   GAMMA RAY FROM SONIC LOG
 DT  .US/F   60 500 00 00:   DELTA-T (INTERVAL TRANSIT TIME)
 CALD.IN     45 280 60 00:   CALIPER FROM DENSITY LOG
 CORR.G/C3   45 356 01 00:   DENSITY CORRECTION
 RHOB.G/C3   45 350 01 00:   BULK DENSITY
 NPHI_LS.DEC 42 890 01 00:   NEUTRON POROSITY LIMESTONE
 DPHI_LS.DEC 45 890 10 00:   DENSITY POROSITY LIMESTONE
 LLD .OHMM   11 220 10 00:   LATEROLOG DEEP RESISTIVITY
 LLS .OHMM   11 220 09 00:   LATEROLOG SHALLOW RESISTIVITY
~PARAMETER INFORMATION
#MNEM.UNIT          VALUE    DESCRIPTION
#----------   ------------   ------------------------------
 PD  .                 GL:   PERMANENT DATUM
 EPD .FT             2752:   ELEVATION PERMANENT DATUM
 LMF .                 KB:   LOG MEASURED FROM
 DAPD.FT               13:   FEET ABOVE PERMANENT DATUM
 DMF .                 KB:   DRILLING MEASURED FROM
 EKB .FT             2765:   KELLY BUSHING
 EDF .FT             2764:   DRILLING FLOOR
 EGL .FT             2752:   GROUND LEVEL
 DATE.           06/10/80:   RUN DATE
 RUN .                  1:   RUN NUMBER
 DD  .FT             7150:   DEPTH DRILLER
 DL  .FT             7150:   DEPTH LOGGER
 BLI .FT             7147:   BOTTOM LOG INTERVAL
 TLI .FT             5000:   TOP LOG INTERVAL
 CS  .IN            8.625:   CASING SIZE
 CBD .FT             1919:   CASING BOTTOM DRILLER
 CBL .FT             1904:   CASING BOTTOM LOGGER
 BS  .IN            7.875:   BIT SIZE
 BSD .FT             7150:   BIT SIZE AT DEPTH
 DFT .              BRINE:   DRILLING FLUID TYPE
 DFD .                 10:   DRILLING FLUID DENSITY
 DFV .                 35:   DRILLING FLUID VISCOSITY
 DFPH.                9.5:   DRILLING FLUID PH
 DFL .                 20:   DRILLING FLUID LOSS
 MSS .               CIRC:   MUD SAMPLE SOURCE
 RMS .OHMM           .055:   RESISTIVITY MUD SAMPLE
 MST .DEGF             73:   MUD SAMPLE TEMPERATURE
 RMF .OHMM           .055:   RESISTIVITY MUD FILTRATE SAMPLE
 MFST.DEGF             73:   MUD FILTRATE SAMPLE TEMPERATURE
 MFSS.                  M:   MUD FILTRATE SAMPLE SOURCE
 RMB .OHMM            .03:   RESISTIVITY MUD AT BHT
 BHT .DEGF            107:   BOTTOM HOLE TEMPERATURE
 TCS .HRS            1615:   TIME CIRCULATED STOPPED
 TLAB.HRS            0300:   TIME LOGGER AT BOTTOM
 MRT .DEGF            107:   MAXIMUM RECORDED TEMPERATURE
 LUN .               8024:   LOGGING UNIT NUMBER
 LUL .               MONA:   LOGGING UNIT LOCATION
 ENGI.           MC BRIDE:   RECORDING ENGINEER
 CLNT.            :   CLIENT CODE
 ORIG.      1" 2.5" PRINT:   ORIGIN OF DATA
 UWI .     42371330900000:   UNIQUE WELL ID
 
~OTHER INFORMATION
~A    DEPT     GRD        GRR         GRS        DT       CALD       CORR       RHOB      NPHI_LS    DPHI_LS      LLD        LLS   
# ...
 5368.0000    45.7854    39.6289    41.1342    78.9117    10.4417     0.0182     2.3649     0.2347     0.2154     2.5334     1.8848
 5368.5000    44.8087    38.3886    41.8131    78.9256    10.4398     0.0108     2.3543     0.2349     0.2229     2.4986     1.8683
 5369.0000    43.2160    38.8090    42.2480    78.7792    10.4150     0.0035     2.3457     0.2342     0.2282     2.4862     1.8683
 5369.5000    41.1558    40.5961    41.5565    78.6491    10.3901    -0.0024     2.3366     0.2306     0.2362     2.4716     1.8683
 5370.0000    40.1329    42.4156    41.0952    78.2932    10.3326    -0.0019     2.3276     0.2295     0.2435     2.4867     1.9199
 5370.5000    40.7162    42.8606    41.3817    77.9373    10.2749     0.0020     2.3216     0.2329     0.2411     2.5238     2.0090
 5371.0000    41.8074    41.4942    41.9880    77.1919    10.2025     0.0070     2.3252     0.2418     0.2363     2.6009     2.0520
 5371.5000    41.6385    39.7585    41.2674    76.1197    10.1274     0.0121     2.3398     0.2517     0.2291     2.7060     2.1370
 5372.0000    40.7581    38.0229    39.6022    75.1379    10.0677     0.0146     2.3544     0.2544     0.2197     2.9205     2.2808
 5372.5000    39.6070    38.3211    35.5847    73.3668    10.0119     0.0128     2.3696     0.2448     0.2063     3.1922     2.5608
 5373.0000    38.3984    39.0484    33.6160    73.0720     9.9767     0.0078     2.3941     0.2332     0.1971     3.4960     2.8767
 5373.5000    37.2227    39.7347    33.8329    73.0499     9.9414     0.0019     2.4039     0.2253     0.1905     3.8428     3.0632
 5374.0000    37.1962    40.4210    37.1927    73.1658     9.9061     0.0001     2.4077     0.2189     0.1881     3.8622     3.0750
 5374.5000    43.5223    42.1879    41.7631    73.1585     9.8708     0.0023     2.4112     0.2079     0.1874     3.8341     3.0652
 5375.0000    51.4241    46.0389    47.8600    72.8186     9.8487     0.0052     2.4194     0.2063     0.1815     3.7403     3.0554
 5375.5000    59.8562    49.4424    53.9570    72.2489     9.8322     0.0062     2.4363     0.2095     0.1711     3.6831     3.1032
 5376.0000    63.2366    53.1384    59.8944    71.9381     9.8157     0.0072     2.4546     0.2156     0.1591     3.7825     3.2291
 5376.5000    62.3241    54.5966    62.4516    71.6874     9.7991     0.0085     2.4584     0.2168     0.1557     3.9296     3.4381
 5377.0000    59.5424    55.2683    60.7871    71.5436     9.7826     0.0102     2.4599     0.2120     0.1556     3.9819     3.6266
 5377.5000    56.9129    56.1316    58.6715    71.5879     9.7661     0.0122     2.4608     0.2050     0.1554     4.0380     3.7589
 5378.0000    56.6721    57.2259    56.8397    71.9142     9.7496     0.0144     2.4618     0.2046     0.1548     4.2394     3.8959
 5378.5000    56.9776    57.0895    55.2017    72.2871     9.7330     0.0166     2.4629     0.2075     0.1536     4.3050     3.9987
 5379.0000    56.8628    56.6148    54.1185    72.3108     9.7205     0.0154     2.4649     0.2058     0.1500     4.3233     4.0331
 5379.5000    56.5751    56.1511    54.2745    71.8515     9.7069     0.0141     2.4708     0.1967     0.1452     4.3626     4.0717
 5380.0000    56.9312    56.1075    55.2790    70.6700     9.6926     0.0132     2.4800     0.1859     0.1384     4.4542     4.1279
 5380.5000    59.9358    57.8155    56.8572    69.3970     9.6787     0.0123     2.4892     0.1714     0.1382     4.5942     4.5143
 5381.0000    63.1893    60.4366    58.6975    68.5020     9.6725     0.0114     2.4984     0.1704     0.1328     5.3212     5.0005
 5381.5000    66.8638    63.2914    63.2030    67.8174     9.6662     0.0112     2.5165     0.1701     0.1185     6.3906     6.2357
 5382.0000    70.5033    65.1867    68.8303    67.5943     9.6650     0.0131     2.5425     0.1691     0.1061     7.8387     7.7759
 5382.5000    73.6320    67.0169    72.7492    67.4400     9.6655     0.0136     2.5541     0.1674     0.0928     9.7968     9.7477
 5383.0000    78.0303    70.7299    74.9620    67.4983     9.6661     0.0141     2.5684     0.1680     0.0858    11.1750    11.1192
 5383.5000    82.8278    75.7649    79.0719    68.2407     9.6701     0.0147     2.5774     0.1731     0.0803    12.7471    12.6836
 5384.0000    86.7900    82.7490    85.0687    69.6039     9.6742     0.0153     2.5872     0.1881     0.0751    14.5404    14.4682
 5384.5000    93.4855    93.6790    94.6718    71.4369     9.6676     0.0160     2.5844     0.1982     0.0765    16.5859    16.5039
 5385.0000    98.4636   103.6364   102.6400    72.9531     9.6621     0.0163     2.5759     0.2018     0.0856    17.7015    17.6659
 5385.5000   102.5349   113.5938   107.0244    73.5232     9.6600     0.0165     2.5591     0.2061     0.0980    17.2720    17.1938
 5386.0000    99.4277   111.6216   102.9666    72.3685     9.6600     0.0166     2.5443     0.2155     0.1063    15.3818    15.3128
 5386.5000    92.5821   101.7606    93.0626    71.0204     9.6600     0.0167     2.5364     0.2291     0.1109    13.3416    13.2616
 5387.0000    79.9631    91.4798    78.1472    70.4230     9.6608     0.0168     2.5309     0.2257     0.1131    11.3591    11.2910
 5387.5000    68.1441    79.5193    62.5086    70.8074     9.6699     0.0169     2.5220     0.2053     0.1209     9.3226     9.2209
 5388.0000    57.3241    67.5587    52.5143    71.6660     9.6790     0.0135     2.4940     0.1866     0.1383     6.9971     6.9274
 5388.5000    55.1334    57.9610    50.1842    73.0001     9.6881     0.0098     2.4650     0.1782     0.1585     5.3215     5.2748
 5389.0000    53.9253    53.8978    48.3099    73.7048     9.6859     0.0073     2.4484     0.1778     0.1683     4.2803     4.2457
 5389.5000    53.4698    52.6389    48.1863    73.8426     9.6822     0.0105     2.4352     0.1793     0.1711     3.9309     3.9202
 5390.0000    54.1663    52.2893    51.9085    73.5420     9.6611     0.0164     2.4375     0.2005     0.1706     3.6454     3.6319
 5390.5000    55.8116    51.9171    55.3884    72.9945     9.6490     0.0222     2.4437     0.2252     0.1665     3.5956     3.5881
 5391.0000    56.4569    51.4551    56.3659    72.4808     9.6477     0.0229     2.4535     0.2354     0.1601     3.7823     3.7725
 5391.5000    55.8819    50.9831    56.2683    71.6760     9.6454     0.0195     2.4603     0.2328     0.1553     3.9878     3.9791
 5392.0000    55.0005    49.9563    57.0669    70.6336     9.6402     0.0064     2.4652     0.2236     0.1532     4.2761     4.2522
 5392.5000    54.5229    48.0667    58.6996    68.2089     9.6417     0.0028     2.4708     0.2151     0.1482     4.9537     4.9262
 5393.0000    54.3145    47.2123    59.0512    67.1072     9.6420     0.0083     2.4816     0.2051     0.1374     5.7762     5.7070
 5393.5000    54.0449    47.3379    57.5665    67.5203     9.6405     0.0151     2.4992     0.1930     0.1259     6.8357     6.6664
 5394.0000    53.5300    49.3994    56.1239    68.7692     9.6390     0.0209     2.5185     0.1868     0.1195     6.9640     7.7809
 5394.5000    52.9212    50.0626    56.4838    70.5075     9.6377     0.0218     2.5080     0.1895     0.1251     6.1236     6.8159
 5395.0000    52.0299    50.7062    60.6862    71.2952     9.6393     0.0230     2.4928     0.1966     0.1372     5.3846     5.5431
 5395.5000    51.3126    52.3590    64.9578    71.7914     9.6394     0.0227     2.4727     0.2031     0.1469     4.7723     4.7547
 5396.0000    51.8712    54.5890    63.1935    72.2131     9.6395     0.0207     2.4664     0.2074     0.1530     4.2180     4.2059
 5396.5000    53.8390    55.4561    59.6268    72.4340     9.6396     0.0187     2.4629     0.2149     0.1551     3.9552     3.9475
 5397.0000    55.8068    55.3547    57.5465    72.5639     9.6398     0.0166     2.4596     0.2182     0.1559     3.8400     3.8326
 5397.5000    57.6963    54.8680    56.8601    72.5435     9.6399     0.0146     2.4560     0.2223     0.1592     3.7684     3.7623
 5398.0000    59.2730    55.3588    57.5870    72.2886     9.6439     0.0125     2.4524     0.2273     0.1571     3.7768     3.7705
