###############################################
##         ENVERUS                           ##
##         ESS - Open Hole                   ##
##         PERMIAN / DELAWARE                ##
##         Nov 04 2023  V4.0                 ##
##         42-371-32680-00-00                ##
###############################################
## Copyright 2017-2023  ENVERUS.  All Rights Reserved. 
## Confidential - Property of ENVERUS, use governed by terms and 
## conditions found within the existing Information Services Subscription Agreement 
## (as may be amended, the “ISSA”) between Customer and ENVERUS. 
## 
~VERSION INFORMATION
# MNEM.UNIT                               DATA : DESCRIPTION OF MNEMONIC
#-----.-----     ----------------------------- : -----------------------------
VERS.                                     2.00 : CWLS LOG ASCII STANDARD - VERSION 2.00
WRAP.                                       NO : MULTIPLE LINES PER DEPTH STEP
VEND.                                  ENVERUS : VENDOR
TYPE.                          ESS - OPEN HOLE : ENVERUS ESSENTIAL CURVES – ACCESSIBLE THROUGH ENVERUS PRISM(TM)
DOC.                                  31991434 : ENVERUS HEADER RAW DOCUMENT ID
#___________________________________________________________________________________________________ 
~WELL INFORMATION 
# uAv5E/S3ZwrMaovXfwZJbnQ+z8RwnTA5GIEFL0LfM7mdkMX/8iXP+LiYgCnT3sJm4ejuYgXNUZeSPI/Yhcow4w== 
# MNEM.UNIT                                              DATA : DESCRIPTION OF MNEMONIC 
#-----.-----                    ----------------------------- : ----------------------------- 
CNTY.                                                   PECOS : COUNTY 
STATE.                                                  TEXAS : STATE 
CNTRY.                                                    USA : COUNTRY 
API.                                             42-371-32680 : API (10 Digit) 
API_14.                                    42-371-32680-00-00 : API (14 Digits) 
API_14_std.                                 42-371-32680-0000 : API (14 Digits Standard) 
UWI.                                           42371326800000 : UNIQUE WELL ID 
WELL.                                     MARALO - STEWART  1 : WELL NAME
STRT.FT                                                  21.0 : START DEPTH
STOP.FT                                               21630.0 : STOP DEPTH
STEP.FT                                                   0.5 : STEP BETWEEN DEPTHS
NULL.                                                 -999.25 : NULL VALUE
COMP.                                            MARALO, INC. : COMPANY 
DATE.                                             11-DEC-1978 : LOG DATE
#___________________________________________________________________________________________________ 
~CURVE INFORMATION 
# MNEM.UNIT           : CURVE DESCRIPTION 
#-----.-----          : ----------------------------- 
 DEPT.FT               : MEASURED DEPTH 
 GR__D.API             : GAMMA RAY (GR) 
 DT__D.US/FT           : SONIC DELTA TRANSIT TIME (DT) 
 RESD__D.OHMM          : DEEP INDUCTION RESISTIVITY (ILD - ILD) 
 #___________________________________________________________________________________________________ 
~A         DEPT          GR__D          DT__D        RESD__D
# ...
         8469.0         77.673         83.655       -999.250
         8469.5         73.350         82.786       -999.250
         8470.0         69.028         81.916       -999.250
         8470.5         64.705         82.425       -999.250
         8471.0         60.382         82.991       -999.250
         8471.5         58.438         83.816       -999.250
         8472.0         57.480         84.690       -999.250
         8472.5         57.384         85.465       -999.250
         8473.0         57.385         85.384       -999.250
         8473.5         57.385         85.183       -999.250
         8474.0         59.512         84.649       -999.250
         8474.5         64.945         83.668       -999.250
         8475.0         70.377         82.687       -999.250
         8475.5         66.891         82.133       -999.250
         8476.0         63.140         82.021       -999.250
         8476.5         59.389         83.478       -999.250
         8477.0         55.638         84.074       -999.250
         8477.5         54.204         84.004       -999.250
         8478.0         60.323         82.978       -999.250
         8478.5         66.442         81.939       -999.250
         8479.0         72.561         81.714       -999.250
         8479.5         73.113         82.393       -999.250
         8480.0         70.916         83.600       -999.250
         8480.5         68.842         84.851       -999.250
         8481.0         69.729         86.103       -999.250
         8481.5         70.617         86.540       -999.250
         8482.0         71.505         86.543       -999.250
         8482.5         70.396         84.600       -999.250
         8483.0         68.062         82.578       -999.250
         8483.5         65.728         78.779       -999.250
         8484.0         63.393         77.403       -999.250
         8484.5         59.854         77.581       -999.250
         8485.0         54.976         79.443       -999.250
         8485.5         54.030         81.170       -999.250
         8486.0         58.288         82.351       -999.250
         8486.5         62.545         83.532       -999.250
         8487.0         66.803         83.834       -999.250
         8487.5         71.061         84.472       -999.250
         8488.0         70.334         85.111       -999.250
         8488.5         67.923         85.749       -999.250
         8489.0         65.512         85.890       -999.250
         8489.5         63.101         86.020       -999.250
         8490.0         67.585         86.466       -999.250
         8490.5         72.254         87.173       -999.250
         8491.0         71.067         87.485       -999.250
         8491.5         68.487         87.523       -999.250
         8492.0         65.907         86.499       -999.250
         8492.5         63.723         83.979       -999.250
         8493.0         62.150         81.882       -999.250
         8493.5         60.578         80.613       -999.250
         8494.0         58.410         81.202       -999.250
         8494.5         55.527         83.121       -999.250
         8495.0         52.644         84.842       -999.250
         8495.5         49.762         85.428       -999.250
         8496.0         46.879         85.994       -999.250
         8496.5         44.980         86.332       -999.250
         8497.0         52.665         85.694       -999.250
         8497.5         60.351         85.056       -999.250
         8498.0         68.037         84.827       -999.250
         8498.5         70.066         84.636       -999.250
         8499.0         71.703         84.422       -999.250
         8499.5         73.340         83.962       -999.250
         8500.0         71.045         83.151       -999.250
         8500.5         67.804         82.418       -999.250
         8501.0         68.189         82.441       -999.250
         8501.5         68.573         82.463       -999.250
         8502.0         68.958         82.984       -999.250
         8502.5         69.343         83.561       -999.250
         8503.0         58.448         84.139       -999.250
         8503.5         57.716         84.748       -999.250
         8504.0         56.984         85.357       -999.250
         8504.5         56.252         85.961       -999.250
         8505.0         56.689         86.537       -999.250
         8505.5         61.090         86.840       -999.250
         8506.0         65.492         86.846       -999.250
         8506.5         69.893         82.019       -999.250
         8507.0         70.184         75.631       -999.250
         8507.5         66.127         70.154       -999.250
         8508.0         62.070         70.399       -999.250
         8508.5         57.025         73.484       -999.250
         8509.0         51.576         76.569       -999.250
         8509.5         49.321         80.246       -999.250
         8510.0         58.559         83.772       -999.250
         8510.5         67.796         84.140       -999.250
         8511.0         68.677         83.990       -999.250
         8511.5         66.231         84.093       -999.250
         8512.0         63.785         84.282       -999.250
         8512.5         61.339         84.454       -999.250
         8513.0         58.894         84.227       -999.250
         8513.5         63.760         83.963       -999.250
         8514.0         70.296         83.596       -999.250
         8514.5         76.833         82.708       -999.250
         8515.0         75.254         81.952       -999.250
         8515.5         72.270         81.697       -999.250
         8516.0         69.286         81.883       -999.250
         8516.5         66.302         82.854       -999.250
         8517.0         63.318         83.983       -999.250
         8517.5         64.196         84.391       -999.250
         8518.0         65.667         84.485       -999.250
         8518.5         64.555         84.465       -999.250
         8519.0         60.951         84.833       -999.250
         8519.5         57.347         85.302       -999.250
         8520.0         57.274         85.377       -999.250
         8520.5         62.884         85.077       -999.250
         8521.0         68.494         84.653       -999.250
         8521.5         69.297         84.388       -999.250
         8522.0         67.556         84.558       -999.250
         8522.5         65.814         85.181       -999.250
         8523.0         64.864         84.907       -999.250
         8523.5         65.469         84.633       -999.250
         8524.0         66.075         84.421       -999.250
         8524.5         67.013         84.329       -999.250
         8525.0         69.061         84.405       -999.250
         8525.5         71.110         84.733       -999.250
         8526.0         69.307         84.994       -999.250
         8526.5         67.095         84.843       -999.250
         8527.0         64.882         84.654       -999.250
         8527.5         62.669         84.394       -999.250
         8528.0         64.467         84.133       -999.250
         8528.5         67.317         83.951       -999.250
         8529.0         70.167         84.026       -999.250
         8529.5         73.017         84.102       -999.250
         8530.0         69.552         83.759       -999.250
         8530.5         65.297         83.290       -999.250
         8531.0         61.906         83.759       -999.250
         8531.5         65.878         84.228       -999.250
         8532.0         69.849         83.971       -999.250
         8532.5         73.820         83.348       -999.250
         8533.0         68.895         82.925       -999.250
         8533.5         63.400         83.440       -999.250
         8534.0         57.906         84.438       -999.250
         8534.5         52.411         85.309       -999.250
