#--------------------------------------------------#
#-------------------ENVERUS, INC.------------------#
#------------------WWW.ENVERUS.COM-----------------#
#------------------COPYRIGHT 2020------------------#
#--------------------------------------------------#
#THIS FILE MAY BE USED ONLY IN ACCORDANCE WITH A CURRENT SUBSCRIPTION AGREEMENT BETWEEN
#THE USER AND ENVERUS, INC. NO PART OF THIS FILE MAY BE REPRODUCED, USED, COPIED,
#MODIFIED, PROPAGATED, OR DISTRIBUTED EXCEPT IN ACCORDANCE WITH THE SUBSCRIPTION
#AGREEMENT. UNAUTHORIZED USE OR DISTRIBUTION OF ALL OR ANY PART OF THIS FILE MAY VIOLATE
#COPYRIGHT, TRADEMARK, AND/OR OTHER LAWS AND IS SUBJECT TO CIVIL AS WELL AS CRIMINAL
#SANCTIONS.
#--------------------------------------------------#
#THIS FILE IS PROVIDED "AS-IS" AND ALL WARRANTIES ARE EXPRESSLY DISCLAIMED, WHETHER
#EXPRESS, ORAL, IMPLIED, STATUTORY OR OTHERWISE, INCLUDING ANY IMPLIED WARRANTY OF FITNESS
#FOR A PARTICULAR PURPOSE, MERCHANTABILITY, TITLE OR NON-INFRINGEMENT, AND ANY WARRANTIES
#ARISING BY VIRTUE OF CUSTOM OF TRADE OR COURSE OF DEALING.  FURTHER, ENVERUS, INC.
#AND ITS LICENSORS DO NOT REPRESENT OR WARRANT THAT THIS FILE WILL MEET USER'S
#REQUIREMENTS OR ARE SUITABLE FOR USER'S NEEDS OR THAT THE DATA OR RESULTS PROVIDED IN
#CONJUNCTION THEREWITH ARE CORRECT, ACCURATE, TIMELY OR RELIABLE. THESE DISCLAIMERS SHALL
#APPLY REGARDLESS OF ANY FAILURE OF ESSENTIAL PURPOSE OF ANY LIMITED REMEDY.  SOME
#JURISDICTIONS DO NOT ALLOW THE EXCLUSION OF CERTAIN WARRANTIES SO SOME OF THE ABOVE
#EXCLUSIONS MAY NOT APPLY. IN NO EVENT SHALL ENVERUS, INC. OR ANY OF ITS AFFILIATES
#BE LIABLE UNDER ANY LEGAL THEORY, WHETHER IN TORT (INCLUDING WITHOUT LIMITATION
#NEGLIGENCE), CONTRACT, STRICT LIABILITY, STATUTORY OR OTHERWISE, FOR ANY SPECIAL,
#INCIDENTAL, CONSEQUENTIAL, EXEMPLARY, PUNITIVE OR INDIRECT DAMAGE OF ANY KIND, INCLUDING
#WITHOUT LIMITATION LOSS OF REVENUE, PROFITS, GOODWILL, USE, AND/OR DATA OR THE COST OF
#PROCUREMENT OF SUBSTITUTE GOODS OR SERVICES, EVEN IF APPRISED OF THE POSSIBILITY OF SUCH
#DAMAGES IN ADVANCE.
#--------------------------------------------------#

~VERSION INFORMATION
VERS. 2.0 : CWLS LOG ASCII STANDARD - VERSION 2.0
WRAP.  NO : ONE LINE PER DEPTH STEP
~WELL INFORMATION
#MNEMONIC     .UNIT              VALUE :DESCRIPTION
STRT       .FT                51 :START DEPTH
STOP       .FT                6194 :STOP DEPTH
STEP       .FT                   0.500 :STEP
NULL       .                  -999.990 :NULL
UWI        .              42389004340000 :UNIQUE WELL ID
API        .              42389004340000 :API NUMBER
COMP       .         :COMPANY
WELL       .         1, :WELL
DATE       .                            :LOG DATE
~CURVE INFORMATION
#MNEMONIC     .UNIT      API CODE :CURVE DESCRIPTION
DEPTH       .FT                      :MEASURED DEPTH
GR.API        UNKNOWN   :GR
DT.US/FT        UNKNOWN   :DT
~A    DEPTH    GR    DT
# ...
 3611.5     6.894   48.574
 3612     7.338   48.529
 3612.5     7.782   51.426
 3613     8.225   54.323
 3613.5     8.669   54.324
 3614     9.112   54.195
 3614.5     9.432   54.065
 3615     8.921   53.936
 3615.5     8.41   53.807
 3616     7.9   53.677
 3616.5     7.389   53.548
 3617     6.878   53.419
 3617.5     6.368   51.721
 3618     5.895   51.243
 3618.5     6.934   51.352
 3619     7.972   51.461
 3619.5     8.94   51.387
 3620     7.139   51.239
 3620.5     7.164   51.092
 3621     7.87   50.944
 3621.5     8.577   50.796
 3622     9.283   50.648
 3622.5     9.036   50.5
 3623     8.645   50.352
 3623.5     8.254   50.248
 3624     7.863   50.396
 3624.5     7.471   50.544
 3625     7.08   50.692
 3625.5     6.689   50.841
 3626     6.298   50.989
 3626.5     6.207   51.137
 3627     6.981   51.285
 3627.5     7.754   51.316
 3628     8.528   51
 3628.5     8.956   50.684
 3629     8.861   50.368
 3629.5     8.766   50.053
 3630     8.672   49.859
 3630.5     8.577   50.113
 3631     8.482   50.366
 3631.5     8.387   50.62
 3632     8.293   50.873
 3632.5     8.198   51.127
 3633     8.103   51.312
 3633.5     8.009   51.211
 3634     7.914   51.111
 3634.5     7.846   51.01
 3635     7.938   50.909
 3635.5     8.031   50.94
 3636     8.123   51.206
 3636.5     8.216   51.471
 3637     8.309   51.736
 3637.5     8.401   52.001
 3638     8.494   51.737
 3638.5     8.587   51.252
 3639     8.679   50.766
 3639.5     8.772   50.291
 3640     8.864   50.195
 3640.5     8.957   50.1
 3641     8.59   50.004
 3641.5     7.688   49.909
 3642     6.786   49.813
 3642.5     5.884   49.892
 3643     4.982   49.984
 3643.5     4.08   50.076
 3644     3.178   50.169
 3644.5     3.774   50.261
 3645     4.379   50.354
 3645.5     4.984   50.446
 3646     5.59   50.538
 3646.5     6.195   50.631
 3647     6.8   50.658
 3647.5     7.323   50.6
 3648     7.29   50.542
 3648.5     7.258   50.484
 3649     7.225   50.426
 3649.5     7.192   50.368
 3650     7.159   50.31
 3650.5     7.126   50.104
 3651     7.093   49.369
 3651.5     7.06   49.951
 3652     7.027   50.359
 3652.5     6.994   50.012
 3653     6.961   49.831
 3653.5     7.413   49.761
 3654     8.313   49.692
 3654.5     9.213   49.623
 3655     10.113   49.553
 3655.5     11.014   49.484
 3656     11.914   49.415
 3656.5     12.814   49.345
 3657     13.714   49.276
 3657.5     13.678   49.207
 3658     12.984   49.137
 3658.5     12.29   49.068
 3659     11.595   48.999
 3659.5     10.901   49.022
 3660     10.207   49.048
 3660.5     9.513   49.354
 3661     8.819   49.909
 3661.5     8.323   50.463
 3662     8.707   50.782
 3662.5     9.09   50.096
 3663     9.473   49.409
 3663.5     9.857   50.886
 3664     10.24   53.881
 3664.5     10.623   56.876
 3665     11.006   59.87
 3665.5     11.39   62.865
 3666     11.773   65.86
 3666.5     12.156   64.898
 3667     12.54   59.327
 3667.5     12.923   53.756
 3668     13.009   48.185
 3668.5     12.407   44.778
 3669     11.806   46.013
 3669.5     11.204   47.248
 3670     10.602   48.482
 3670.5     10.001   49.475
 3671     9.399   49.805
 3671.5     8.847   50.135
 3672     8.365   50.465
 3672.5     7.884   50.795
 3673     7.555   51.125
 3673.5     7.919   51.456
 3674     8.284   51.786
 3674.5     8.649   52.01
 3675     9.014   51.988
 3675.5     9.379   51.966
 3676     9.744   51.944
 3676.5     10.108   51.921
 3677     10.473   51.899
 3677.5     10.838   51.877
 3678     11.203   51.857
 3678.5     11.568   51.944
 3679     11.933   52.031
 3679.5     12.297   52.118
 3680     12.662   52.205
 3680.5     13.027   52.292
 3681     12.677   52.416
 3681.5     11.626   53.178
 3682     10.574   53.939
 3682.5     9.523   54.223
 3683     8.471   53.001
 3683.5     8.251   51.779
 3684     9.744   50.557
 3684.5     11.237   54.15
 3685     12.731   58.015
 3685.5     14.224   61.879
 3686     15.718   65.743
 3686.5     14.78   69.607
 3687     13.093   73.471
 3687.5     11.405   76.382
 3688     10.319   73.545
 3688.5     10.599   70.708
 3689     10.878   67.871
 3689.5     10.731   66.915
 3690     10.177   67.064
 3690.5     9.623   67.213
 3691     9.07   67.362
 3691.5     8.516   67.405
 3692     8.034   67.173
 3692.5     8.035   66.94
 3693     8.036   66.806
 3693.5     8.036   66.855
 3694     8.005   66.905
 3694.5     7.275   66.955
 3695     6.545   67.005
 3695.5     5.833   67.055
 3696     5.803   67.105
 3696.5     5.773   66.934
 3697     5.743   66.724
 3697.5     5.712   66.514
 3698     5.682   66.305
 3698.5     5.652   66.123
 3699     5.622   66.452
 3699.5     5.592   66.781
 3700     5.917   67.11
 3700.5     6.441   67.243
 3701     6.966   66.622
 3701.5     7.179   66.001
 3702     6.962   66.001
 3702.5     6.746   67.245
 3703     6.53   68.489
 3703.5     6.313   69.733
 3704     6.117   70.656
 3704.5     6.376   70.792
 3705     6.635   70.928
 3705.5     6.893   71.063
 3706     7.152   71.199
 3706.5     7.41   71.335
 3707     7.669   71.422
 3707.5     7.927   71.401
 3708     8.186   71.38
 3708.5     8.445   71.359
 3709     8.703   71.339
 3709.5     8.962   71.318
 3710     9.22   71.297
 3710.5     9.479   71.277
 3711     9.738   71.256
 3711.5     9.996   71.235
 3712     10.255   71.097
 3712.5     10.513   70.943
 3713     10.372   70.788
 3713.5     9.693   70.634
 3714     9.014   70.479
 3714.5     8.335   70.325
 3715     7.656   70.171
 3715.5     6.977   70.016
 3716     6.298   69.875
 3716.5     6.254   69.998
 3717     6.425   70.122
 3717.5     6.597   70.245
 3718     6.768   70.368
 3718.5     6.94   70.492
 3719     7.111   70.615
 3719.5     7.283   70.739
 3720     7.454   70.862
 3720.5     7.626   70.816
 3721     7.797   70.75
 3721.5     7.229   70.684
 3722     6.541   70.619
 3722.5     5.854   70.553
 3723     5.952   70.488
 3723.5     6.195   70.422
 3724     6.437   70.357
 3724.5     6.679   70.291
 3725     6.604   70.307
 3725.5     6.265   70.407
 3726     5.927   70.508
 3726.5     5.655   70.609
 3727     5.954   70.71
 3727.5     6.252   70.811
 3728     6.551   70.912
 3728.5     6.849   71.013
 3729     7.148   71.113
 3729.5     7.446   70.999
 3730     7.745   70.832
 3730.5     8.043   70.666
 3731     8.342   70.5
 3731.5     8.64   70.334
 3732     8.939   70.466
 3732.5     9.237   70.711
 3733     9.536   70.956
 3733.5     9.835   71.201
 3734     9.906   71.677
 3734.5     9.402   72.578
 3735     8.897   73.479
 3735.5     8.393   74.38
 3736     7.889   73.216
 3736.5     7.384   68.843
 3737     6.88   64.668
 3737.5     7.072   61.354
 3738     7.72   58.039
 3738.5     8.367   54.724
 3739     9.014   51.409
 3739.5     9.662   53.224
 3740     10.309   55.736
 3740.5     10.52   55.986
 3741     10.026   56.237
 3741.5     9.532   57.986
 3742     9.038   60.261
 3742.5     8.544   62.536
 3743     8.05   64.811
 3743.5     8.427   67.086
 3744     10.409   69.362
 3744.5     12.391   71.637
 3745     14.372   73.515
 3745.5     16.354   72.195
 3746     16.605   70.875
 3746.5     14.644   69.556
 3747     12.682   68.236
 3747.5     10.721   66.916
 3748     8.76   66.712
 3748.5     7.884   66.787
 3749     7.523   66.295
 3749.5     7.162   65.474
 3750     6.802   65.07
 3750.5     6.441   65.638
 3751     6.081   65.861
 3751.5     5.72   65.463
 3752     5.36   65.247
 3752.5     5.036   65.615
 3753     5.238   65.983
 3753.5     5.44   66.351
 3754     5.437   66.719
 3754.5     5.217   66.6
 3755     4.997   66.107
 3755.5     4.777   65.614
 3756     4.556   65.121
 3756.5     4.336   64.676
 3757     4.138   64.722
 3757.5     4.617   64.767
 3758     5.097   64.813
 3758.5     5.576   64.858
 3759     6.056   64.904
 3759.5     6.536   65.598
 3760     6.622   67.235
 3760.5     6.655   67.946
 3761     6.688   68.144
 3761.5     6.72   68.413
 3762     7.047   68.98
 3762.5     7.451   69.547
 3763     7.855   70.114
 3763.5     7.706   70.682
 3764     7.143   71.249
 3764.5     6.579   71.597
 3765     6.015   71.552
