#--------------------------------------------------#
#-------------------ENVERUS, INC.------------------#
#------------------WWW.ENVERUS.COM-----------------#
#------------------COPYRIGHT 2020------------------#
#--------------------------------------------------#
#THIS FILE MAY BE USED ONLY IN ACCORDANCE WITH A CURRENT SUBSCRIPTION AGREEMENT BETWEEN
#THE USER AND ENVERUS, INC. NO PART OF THIS FILE MAY BE REPRODUCED, USED, COPIED,
#MODIFIED, PROPAGATED, OR DISTRIBUTED EXCEPT IN ACCORDANCE WITH THE SUBSCRIPTION
#AGREEMENT. UNAUTHORIZED USE OR DISTRIBUTION OF ALL OR ANY PART OF THIS FILE MAY VIOLATE
#COPYRIGHT, TRADEMARK, AND/OR OTHER LAWS AND IS SUBJECT TO CIVIL AS WELL AS CRIMINAL
#SANCTIONS.
#--------------------------------------------------#
#THIS FILE IS PROVIDED "AS-IS" AND ALL WARRANTIES ARE EXPRESSLY DISCLAIMED, WHETHER
#EXPRESS, ORAL, IMPLIED, STATUTORY OR OTHERWISE, INCLUDING ANY IMPLIED WARRANTY OF FITNESS
#FOR A PARTICULAR PURPOSE, MERCHANTABILITY, TITLE OR NON-INFRINGEMENT, AND ANY WARRANTIES
#ARISING BY VIRTUE OF CUSTOM OF TRADE OR COURSE OF DEALING.  FURTHER, ENVERUS, INC.
#AND ITS LICENSORS DO NOT REPRESENT OR WARRANT THAT THIS FILE WILL MEET USER'S
#REQUIREMENTS OR ARE SUITABLE FOR USER'S NEEDS OR THAT THE DATA OR RESULTS PROVIDED IN
#CONJUNCTION THEREWITH ARE CORRECT, ACCURATE, TIMELY OR RELIABLE. THESE DISCLAIMERS SHALL
#APPLY REGARDLESS OF ANY FAILURE OF ESSENTIAL PURPOSE OF ANY LIMITED REMEDY.  SOME
#JURISDICTIONS DO NOT ALLOW THE EXCLUSION OF CERTAIN WARRANTIES SO SOME OF THE ABOVE
#EXCLUSIONS MAY NOT APPLY. IN NO EVENT SHALL ENVERUS, INC. OR ANY OF ITS AFFILIATES
#BE LIABLE UNDER ANY LEGAL THEORY, WHETHER IN TORT (INCLUDING WITHOUT LIMITATION
#NEGLIGENCE), CONTRACT, STRICT LIABILITY, STATUTORY OR OTHERWISE, FOR ANY SPECIAL,
#INCIDENTAL, CONSEQUENTIAL, EXEMPLARY, PUNITIVE OR INDIRECT DAMAGE OF ANY KIND, INCLUDING
#WITHOUT LIMITATION LOSS OF REVENUE, PROFITS, GOODWILL, USE, AND/OR DATA OR THE COST OF
#PROCUREMENT OF SUBSTITUTE GOODS OR SERVICES, EVEN IF APPRISED OF THE POSSIBILITY OF SUCH
#DAMAGES IN ADVANCE.
#--------------------------------------------------#

~VERSION INFORMATION
VERS. 2.0 : CWLS LOG ASCII STANDARD - VERSION 2.0
WRAP.  NO : ONE LINE PER DEPTH STEP
~WELL INFORMATION
#MNEMONIC     .UNIT              VALUE :DESCRIPTION
STRT       .FT                51 :START DEPTH
STOP       .FT                6194 :STOP DEPTH
STEP       .FT                   0.500 :STEP
NULL       .                  -999.990 :NULL
UWI        .              42389004340000 :UNIQUE WELL ID
API        .              42389004340000 :API NUMBER
COMP       .         :COMPANY
WELL       .         1, :WELL
DATE       .                            :LOG DATE
~CURVE INFORMATION
#MNEMONIC     .UNIT      API CODE :CURVE DESCRIPTION
DEPTH       .FT                      :MEASURED DEPTH
GR.API        UNKNOWN   :GR
DT.US/FT        UNKNOWN   :DT
~A    DEPTH    GR    DT
# ...
 4072     9.794   49.976
 4072.5     10.437   50.071
 4073     11.08   50.166
 4073.5     11.509   50.26
 4074     11.077   50.355
 4074.5     10.644   50.45
 4075     10.212   50.465
 4075.5     9.779   50.355
 4076     9.347   50.246
 4076.5     8.914   50.137
 4077     9.308   50.027
 4077.5     9.758   49.918
 4078     10.208   49.916
 4078.5     10.659   49.951
 4079     11.109   49.986
 4079.5     11.559   50.022
 4080     11.75   50.057
 4080.5     11.228   50.092
 4081     10.705   50.127
 4081.5     10.182   50.163
 4082     9.659   50.198
 4082.5     9.136   50.233
 4083     8.614   50.069
 4083.5     8.091   49.833
 4084     7.568   49.596
 4084.5     8.271   49.36
 4085     9.719   49.123
 4085.5     11.168   49.037
 4086     11.123   49.031
 4086.5     10.792   49.025
 4087     10.461   49.019
 4087.5     10.129   49.012
 4088     10.308   49.006
 4088.5     10.511   49
 4089     10.715   48.994
 4089.5     10.49   48.988
 4090     10.1   48.981
 4090.5     9.71   48.975
 4091     9.319   49.244
 4091.5     8.929   49.713
 4092     8.579   50.182
 4092.5     8.566   50.161
 4093     8.553   50.031
 4093.5     8.54   49.9
 4094     8.527   49.77
 4094.5     8.514   49.64
 4095     8.501   49.509
 4095.5     8.488   49.379
 4096     8.475   49.44
 4096.5     8.84   49.539
 4097     9.24   49.638
 4097.5     9.641   49.737
 4098     10.042   49.837
 4098.5     10.443   49.936
 4099     10.844   50.035
 4099.5     11.245   50.134
 4100     11.646   50.233
 4100.5     12.046   50.321
 4101     12.447   50.253
 4101.5     12.72   50.184
 4102     12.282   50.116
 4102.5     11.845   50.048
 4103     11.407   49.979
 4103.5     10.969   49.911
 4104     10.532   49.966
 4104.5     10.094   50.04
 4105     9.656   50.114
 4105.5     9.219   50.188
 4106     8.781   50.262
 4106.5     8.723   50.335
 4107     9.171   50.409
 4107.5     9.618   50.483
 4108     10.065   50.557
 4108.5     10.199   50.631
 4109     9.73   50.531
 4109.5     9.261   50.396
 4110     8.792   50.261
 4110.5     8.323   50.127
 4111     7.854   49.992
 4111.5     7.385   49.858
 4112     6.917   49.723
 4112.5     6.448   49.589
 4113     6.2   49.454
 4113.5     6.567   49.36
 4114     6.935   49.464
 4114.5     7.303   49.567
 4115     7.671   49.671
 4115.5     8.039   49.774
 4116     8.407   49.877
 4116.5     8.775   49.981
 4117     9.111   49.914
 4117.5     9.114   49.833
 4118     9.117   49.752
 4118.5     9.312   49.672
 4119     9.7   49.591
 4119.5     10.088   49.51
 4120     10.477   49.43
 4120.5     10.865   49.349
 4121     11.253   49.45
 4121.5     11.641   49.584
 4122     12.029   49.718
 4122.5     11.903   49.851
 4123     11.605   49.985
 4123.5     11.307   50.119
 4124     10.478   50.179
 4124.5     9.449   50.085
 4125     8.42   49.992
 4125.5     7.391   49.898
 4126     6.362   49.805
 4126.5     5.333   49.711
 4127     4.919   49.674
 4127.5     5.293   49.72
 4128     5.666   49.767
 4128.5     6.04   49.813
 4129     6.413   49.859
 4129.5     6.787   49.905
 4130     7.161   49.952
 4130.5     7.534   49.998
 4131     7.908   50.044
 4131.5     8.281   50.091
 4132     8.655   50.137
 4132.5     9.028   50.201
 4133     9.402   50.309
 4133.5     9.775   50.416
 4134     10.149   50.523
 4134.5     10.522   50.631
 4135     10.896   50.738
 4135.5     11.27   50.845
 4136     11.643   50.953
 4136.5     12.017   51.06
 4137     12.39   51.072
 4137.5     12.125   51.072
 4138     11.678   51.072
 4138.5     11.231   51.071
 4139     10.784   51.071
 4139.5     10.337   51.07
 4140     9.89   51.07
 4140.5     9.443   51.069
 4141     9.443   51.069
 4141.5     9.517   51.068
 4142     9.591   51.068
 4142.5     9.664   51.067
 4143     9.738   51.067
 4143.5     9.812   51.067
 4144     9.886   51.066
 4144.5     9.743   51.066
 4145     9.408   51.044
 4145.5     9.073   50.989
 4146     8.739   50.935
 4146.5     8.404   50.881
 4147     8.069   50.826
 4147.5     7.734   50.772
 4148     7.4   50.718
 4148.5     7.065   50.663
 4149     6.73   50.661
 4149.5     6.547   50.697
 4150     7.179   50.732
 4150.5     7.811   50.717
 4151     8.443   50.694
 4151.5     9.075   50.672
 4152     9.707   50.649
 4152.5     9.431   50.627
 4153     9.154   50.604
 4153.5     8.876   50.581
 4154     9.408   50.559
 4154.5     10.197   50.536
 4155     10.986   50.514
 4155.5     11.774   50.554
 4156     11.866   50.633
 4156.5     11.155   50.712
 4157     10.444   50.791
 4157.5     9.733   50.87
 4158     9.021   50.829
 4158.5     8.31   50.744
 4159     8.059   50.659
 4159.5     7.899   50.574
 4160     7.74   50.489
 4160.5     7.581   50.404
 4161     7.422   50.319
 4161.5     7.263   50.234
 4162     7.104   50.149
 4162.5     6.945   50.064
 4163     6.786   50.021
 4163.5     6.626   49.99
 4164     6.467   49.96
 4164.5     6.308   49.929
 4165     6.149   49.899
 4165.5     6.095   49.868
 4166     6.386   49.838
 4166.5     6.677   49.807
 4167     6.968   49.798
 4167.5     7.26   49.916
 4168     7.551   50.035
 4168.5     7.842   50.154
 4169     8.134   50.273
 4169.5     8.425   50.391
 4170     8.716   50.064
 4170.5     8.863   49.547
 4171     8.711   49.093
 4171.5     8.559   49.523
 4172     8.407   49.953
 4172.5     8.255   49.642
 4173     8.103   48.8
 4173.5     7.951   47.959
 4174     7.799   47.117
 4174.5     7.647   47.588
 4175     7.495   48.644
 4175.5     7.343   49.7
 4176     7.191   49.848
 4176.5     7.039   49.822
 4177     6.887   49.796
 4177.5     7.116   49.77
 4178     7.371   49.744
 4178.5     7.625   49.719
 4179     7.879   49.693
 4179.5     8.134   49.667
 4180     7.781   49.641
 4180.5     7.247   49.718
 4181     6.712   49.804
 4181.5     6.177   49.889
 4182     5.643   49.975
 4182.5     5.108   50.06
 4183     5.079   50.146
 4183.5     5.568   50.219
 4184     6.057   50.218
 4184.5     6.546   50.218
 4185     7.035   50.217
 4185.5     7.524   50.242
 4186     8.013   50.311
 4186.5     8.503   50.381
 4187     8.992   50.45
 4187.5     9.481   50.519
 4188     9.97   50.588
 4188.5     10.459   50.657
 4189     10.948   50.538
 4189.5     11.437   50.387
 4190     11.926   50.235
 4190.5     12.415   50.084
 4191     12.904   49.932
 4191.5     13.393   49.901
 4192     13.882   49.996
 4192.5     14.371   50.091
 4193     14.861   50.186
 4193.5     15.35   50.281
 4194     15.839   50.376
 4194.5     16.328   50.471
 4195     16.655   50.455
 4195.5     16.283   50.39
 4196     15.911   50.326
 4196.5     15.539   50.262
 4197     14.525   50.206
 4197.5     13.272   50.209
 4198     12.019   50.213
 4198.5     10.766   50.216
 4199     10.066   50.219
 4199.5     9.74   50.223
 4200     9.414   50.226
 4200.5     9.088   50.229
 4201     8.762   50.233
 4201.5     8.436   50.202
 4202     8.11   50.158
 4202.5     8.659   50.115
 4203     9.309   50.071
 4203.5     9.959   50.112
 4204     10.609   50.155
 4204.5     11.26   50.199
 4205     11.91   50.242
 4205.5     12.56   50.286
 4206     13.211   50.244
 4206.5     13.861   50.184
 4207     12.909   50.129
 4207.5     11.718   50.115
 4208     10.527   50.101
 4208.5     9.336   50.087
 4209     10.392   50.073
 4209.5     11.546   50.06
 4210     12.701   50.046
 4210.5     13.855   50.032
 4211     13.686   49.971
 4211.5     12.876   49.9
 4212     12.065   49.829
 4212.5     11.255   49.562
 4213     10.444   49.161
 4213.5     9.893   48.761
 4214     10.111   48.361
 4214.5     10.329   48.499
 4215     10.548   48.959
 4215.5     10.766   49.418
 4216     10.985   49.878
 4216.5     10.921   50.108
 4217     9.849   50.08
 4217.5     8.777   50.052
 4218     7.706   50.025
 4218.5     6.634   49.997
 4219     7.086   49.97
 4219.5     7.761   49.942
 4220     8.435   49.914
 4220.5     9.11   49.892
 4221     9.784   49.914
 4221.5     10.459   49.936
 4222     11.133   49.958
 4222.5     11.603   49.98
 4223     10.803   50.002
 4223.5     10.004   50.023
 4224     9.204   50.045
 4224.5     8.404   50.067
