###############################################
##         ENVERUS                           ##
##         ESS - Open Hole                   ##
##         PERMIAN / DELAWARE                ##
##         Nov 04 2023  V4.0                 ##
##         42-389-10119-00-00                ##
###############################################
## Copyright 2017-2023  ENVERUS.  All Rights Reserved. 
## Confidential - Property of ENVERUS, use governed by terms and 
## conditions found within the existing Information Services Subscription Agreement 
## (as may be amended, the “ISSA”) between Customer and ENVERUS. 
## 
~VERSION INFORMATION
# MNEM.UNIT                               DATA : DESCRIPTION OF MNEMONIC
#-----.-----     ----------------------------- : -----------------------------
VERS.                                     2.00 : CWLS LOG ASCII STANDARD - VERSION 2.00
WRAP.                                       NO : MULTIPLE LINES PER DEPTH STEP
VEND.                                  ENVERUS : VENDOR
TYPE.                          ESS - OPEN HOLE : ENVERUS ESSENTIAL CURVES – ACCESSIBLE THROUGH ENVERUS PRISM(TM)
DOC.                                  32008410 : ENVERUS HEADER RAW DOCUMENT ID
#___________________________________________________________________________________________________ 
~WELL INFORMATION 
# X8E3XgEZRMs+LiTqjMYqety/5rGXYLbzRNciiYBq17B6ClLelYcJjKNVvvPfWOVGxhvISow7q4Dbthq8gKP2Nw== 
# MNEM.UNIT                                              DATA : DESCRIPTION OF MNEMONIC 
#-----.-----                    ----------------------------- : ----------------------------- 
CNTY.                                                  REEVES : COUNTY 
STATE.                                                  TEXAS : STATE 
CNTRY.                                                    USA : COUNTRY 
API.                                             42-389-10119 : API (10 Digit) 
API_14.                                    42-389-10119-00-00 : API (14 Digits) 
API_14_std.                                 42-389-10119-0000 : API (14 Digits Standard) 
UWI.                                           42389101190000 : UNIQUE WELL ID 
WELL.                                                   1-40, : WELL NAME
STRT.FT                                                  58.0 : START DEPTH
STOP.FT                                                5338.0 : STOP DEPTH
STEP.FT                                                   0.5 : STEP BETWEEN DEPTHS
NULL.                                                 -999.25 : NULL VALUE
#___________________________________________________________________________________________________ 
~CURVE INFORMATION 
# MNEM.UNIT           : CURVE DESCRIPTION 
#-----.-----          : ----------------------------- 
 DEPT.FT               : MEASURED DEPTH 
 GR.API                : GAMMA RAY (GR) 
 DT.US/FT              : SONIC DELTA TRANSIT TIME (DT) 
 #___________________________________________________________________________________________________ 
~A         DEPT             GR             DT
# ...
         1450.0         26.997         71.781
         1450.5         24.356         73.911
         1451.0         20.232         54.282
         1451.5         19.299         53.682
         1452.0         18.981         53.561
         1452.5         18.663         54.123
         1453.0         18.345         54.684
         1453.5         18.027         55.246
         1454.0         17.709         56.905
         1454.5         17.391         60.817
         1455.0         17.764         65.621
         1455.5         18.317         63.741
         1456.0         18.871         59.363
         1456.5         19.424         56.250
         1457.0         20.373         55.407
         1457.5         22.223         54.565
         1458.0         24.073         54.393
         1458.5         23.721         55.296
         1459.0         19.268         54.532
         1459.5         14.816         53.506
         1460.0         14.822         54.714
         1460.5         16.523         56.208
         1461.0         18.224         57.701
         1461.5         19.925         59.194
         1462.0         19.698         60.380
         1462.5         18.924         60.824
         1463.0         18.151         61.268
         1463.5         17.859         61.712
         1464.0         19.085         61.817
         1464.5         20.311         60.974
         1465.0         21.537         63.886
         1465.5         22.764         67.870
         1466.0         22.838         69.354
         1466.5         22.590         69.592
         1467.0         22.342         59.676
         1467.5         22.094         58.080
         1468.0         20.831         56.483
         1468.5         19.245         57.079
         1469.0         17.660         60.799
         1469.5         16.074         61.069
         1470.0         17.964         61.339
         1470.5         21.486         61.609
         1471.0         25.008         61.879
         1471.5         27.264         62.149
         1472.0         26.454         59.216
         1472.5         25.644         55.148
         1473.0         24.834         54.746
         1473.5         24.023         55.082
         1474.0         23.213         55.418
         1474.5         22.403         59.782
         1475.0         21.592         65.064
         1475.5         20.782         70.381
         1476.0         22.351         75.715
         1476.5         24.970         81.048
         1477.0         27.589         86.748
         1477.5         30.554         86.897
         1478.0         34.422         74.488
         1478.5         37.017         71.308
         1479.0         37.229         58.011
         1479.5         37.441         57.945
         1480.0         37.654         62.372
         1480.5         25.682         66.799
         1481.0         12.648         60.136
         1481.5         13.650         61.477
         1482.0         14.651         67.080
         1482.5         15.653         72.247
         1483.0         16.654         72.337
         1483.5         17.655         71.933
         1484.0         18.657         68.227
         1484.5         20.459         61.540
         1485.0         22.744         57.802
         1485.5         25.029         54.064
         1486.0         23.674         54.027
         1486.5         20.657         56.117
         1487.0         17.640         57.713
         1487.5         14.853         57.808
         1488.0         15.703         57.903
         1488.5         16.553         51.727
         1489.0         17.402         51.288
         1489.5         18.252         50.849
         1490.0         18.881         50.410
         1490.5         17.225         51.136
         1491.0         15.569         54.256
         1491.5         15.266         57.376
         1492.0         16.142         60.496
         1492.5         17.017         63.616
         1493.0         17.892         67.099
         1493.5         18.768         70.783
         1494.0         19.643         74.466
         1494.5         21.508         78.150
         1495.0         24.113         81.834
         1495.5         26.719        110.665
         1496.0         29.324        110.813
         1496.5         30.725        110.731
         1497.0         26.728         77.223
         1497.5         22.730         65.136
         1498.0         18.732         68.304
         1498.5         17.064         63.798
         1499.0         17.618         53.406
         1499.5         18.171         50.971
         1500.0         18.725         67.266
         1500.5         19.096         67.622
         1501.0         15.745         67.462
         1501.5         16.180         61.321
         1502.0         16.616         55.181
         1502.5         17.051         52.693
         1503.0         15.978         51.432
         1503.5         13.330         50.172
         1504.0         12.261         49.416
         1504.5         13.347         49.873
         1505.0         14.433         50.330
         1505.5         14.234         50.787
         1506.0         12.451         53.630
         1506.5         13.367         57.191
         1507.0         14.538         62.643
         1507.5         15.709         70.842
         1508.0         16.880         72.562
         1508.5         18.165         71.475
         1509.0         19.584         67.479
         1509.5         21.003         63.535
         1510.0         22.422         55.464
         1510.5         23.842         55.067
         1511.0         24.706         56.396
         1511.5         12.788         57.724
         1512.0         12.788         57.887
         1512.5         12.787         57.462
         1513.0         12.787         57.036
         1513.5         12.786         56.611
         1514.0         14.202         60.833
         1514.5         15.828         62.296
         1515.0         17.455         61.464
         1515.5         19.081         59.400
         1516.0         19.602         59.233
         1516.5         18.701         59.066
         1517.0         17.801         56.580
         1517.5         18.221         53.270
         1518.0         20.641         51.003
         1518.5         21.246         51.477
         1519.0         19.592         51.951
         1519.5         17.937         52.425
         1520.0         18.645         51.020
         1520.5         19.648         51.317
         1521.0         20.651         51.614
         1521.5         15.250         52.208
         1522.0         15.187         53.935
         1522.5         16.282         55.663
         1523.0         17.377         58.310
         1523.5         18.472         61.160
         1524.0         19.567         61.228
         1524.5         19.997         61.296
         1525.0         19.381         61.365
         1525.5         20.076         57.026
         1526.0         23.024         50.861
         1526.5         23.906         49.521
         1527.0         22.026         50.054
         1527.5         20.146         50.587
         1528.0         18.266         51.119
         1528.5         17.182         51.652
         1529.0         17.743         52.185
         1529.5         18.304         50.934
         1530.0         18.865         51.442
         1530.5         17.346         51.949
         1531.0         11.785         52.457
         1531.5         10.593         52.497
         1532.0         11.020         52.305
         1532.5         11.447         52.112
         1533.0         11.873         51.919
         1533.5         12.300         51.726
         1534.0         12.727         51.534
         1534.5         13.153         51.435
         1535.0         13.263         51.791
         1535.5         13.262         52.147
         1536.0         13.662         52.503
         1536.5         15.369         52.859
