#--------------------------------------------------#
#-------------------ENVERUS, INC.------------------#
#------------------WWW.ENVERUS.COM-----------------#
#------------------COPYRIGHT 2020------------------#
#--------------------------------------------------#
#THIS FILE MAY BE USED ONLY IN ACCORDANCE WITH A CURRENT SUBSCRIPTION AGREEMENT BETWEEN
#THE USER AND ENVERUS, INC. NO PART OF THIS FILE MAY BE REPRODUCED, USED, COPIED,
#MODIFIED, PROPAGATED, OR DISTRIBUTED EXCEPT IN ACCORDANCE WITH THE SUBSCRIPTION
#AGREEMENT. UNAUTHORIZED USE OR DISTRIBUTION OF ALL OR ANY PART OF THIS FILE MAY VIOLATE
#COPYRIGHT, TRADEMARK, AND/OR OTHER LAWS AND IS SUBJECT TO CIVIL AS WELL AS CRIMINAL
#SANCTIONS.
#--------------------------------------------------#
#THIS FILE IS PROVIDED "AS-IS" AND ALL WARRANTIES ARE EXPRESSLY DISCLAIMED, WHETHER
#EXPRESS, ORAL, IMPLIED, STATUTORY OR OTHERWISE, INCLUDING ANY IMPLIED WARRANTY OF FITNESS
#FOR A PARTICULAR PURPOSE, MERCHANTABILITY, TITLE OR NON-INFRINGEMENT, AND ANY WARRANTIES
#ARISING BY VIRTUE OF CUSTOM OF TRADE OR COURSE OF DEALING.  FURTHER, ENVERUS, INC.
#AND ITS LICENSORS DO NOT REPRESENT OR WARRANT THAT THIS FILE WILL MEET USER'S
#REQUIREMENTS OR ARE SUITABLE FOR USER'S NEEDS OR THAT THE DATA OR RESULTS PROVIDED IN
#CONJUNCTION THEREWITH ARE CORRECT, ACCURATE, TIMELY OR RELIABLE. THESE DISCLAIMERS SHALL
#APPLY REGARDLESS OF ANY FAILURE OF ESSENTIAL PURPOSE OF ANY LIMITED REMEDY.  SOME
#JURISDICTIONS DO NOT ALLOW THE EXCLUSION OF CERTAIN WARRANTIES SO SOME OF THE ABOVE
#EXCLUSIONS MAY NOT APPLY. IN NO EVENT SHALL ENVERUS, INC. OR ANY OF ITS AFFILIATES
#BE LIABLE UNDER ANY LEGAL THEORY, WHETHER IN TORT (INCLUDING WITHOUT LIMITATION
#NEGLIGENCE), CONTRACT, STRICT LIABILITY, STATUTORY OR OTHERWISE, FOR ANY SPECIAL,
#INCIDENTAL, CONSEQUENTIAL, EXEMPLARY, PUNITIVE OR INDIRECT DAMAGE OF ANY KIND, INCLUDING
#WITHOUT LIMITATION LOSS OF REVENUE, PROFITS, GOODWILL, USE, AND/OR DATA OR THE COST OF
#PROCUREMENT OF SUBSTITUTE GOODS OR SERVICES, EVEN IF APPRISED OF THE POSSIBILITY OF SUCH
#DAMAGES IN ADVANCE.
#--------------------------------------------------#

~VERSION INFORMATION
VERS. 2.0 : CWLS LOG ASCII STANDARD - VERSION 2.0
WRAP. NO : ONE LINE PER DEPTH STEP
~WELL INFORMATION
#MNEMONIC     .UNIT              VALUE :DESCRIPTION
STRT       .FT                101.00000 :START DEPTH
STOP       .FT                5802.00000 :STOP DEPTH
STEP       .FT                0.50000 :STEP
NULL       .                -999.25000 :NULL VALUE
UWI       .                42389010150000 :UNIQUE WELL ID
API       .                42389010150000 :API NUMBER
COMP       .                 :COMPANY
WELL       .                 :WELL
FLD       .                 :FIELD
LOC       .                 :LOCATION
CNTY       .                 :COUNTY
STAT       .                 :STATE
CTRY       .                 :COUNTRY
SRVC       .                 :SERVICE COMPANY
DATE       .                 :DATE
~CURVE INFORMATION
#MNEMONIC     .UNIT      API CODE :CURVE DESCRIPTION
DEPTH       .FT                      :MEASURED DEPTH
DT       .US/FT        UNKNOWN   :DT
GR       .GAPI        UNKNOWN   :GR
~A    DEPTH    DT    GR
# ...
2729.50000    53.46278    2.14002
2730.00000    52.66065    2.34878
2730.50000    51.80723    2.55754
2731.00000    51.87141    2.76631
2731.50000    52.09102    2.97507
2732.00000    52.31063    3.18384
2732.50000    52.53024    3.39260
2733.00000    52.74985    3.60136
2733.50000    52.96946    3.25658
2734.00000    53.06251    2.54741
2734.50000    52.98379    1.94784
2735.00000    52.90507    2.23748
2735.50000    52.82635    2.52711
2736.00000    52.74764    2.81675
2736.50000    52.66892    2.75630
2737.00000    52.67339    2.55509
2737.50000    52.68909    2.35387
2738.00000    52.70480    2.27792
2738.50000    52.48936    2.49406
2739.00000    52.00771    2.71021
2739.50000    51.52607    2.92636
2740.00000    51.10640    3.14250
2740.50000    51.43861    3.35865
2741.00000    51.77082    3.57479
2741.50000    52.10304    3.79094
2742.00000    51.85983    4.00709
2742.50000    51.29393    4.12431
2743.00000    51.16418    4.18818
2743.50000    51.42810    4.25206
2744.00000    51.69202    4.31593
2744.50000    51.95593    4.37980
2745.00000    52.21985    4.44368
2745.50000    52.27918    4.50755
2746.00000    52.00184    4.57142
2746.50000    51.72450    4.63530
2747.00000    51.47295    4.69917
2747.50000    51.22679    4.76304
2748.00000    50.98063    4.82692
2748.50000    50.73447    4.92809
2749.00000    50.48830    5.12976
2749.50000    50.64451    5.33143
2750.00000    51.74684    5.53310
2750.50000    52.84918    5.73477
2751.00000    53.95151    5.93644
2751.50000    55.05384    6.13810
2752.00000    55.03819    6.33977
2752.50000    53.96414    6.54144
2753.00000    52.89009    6.74311
2753.50000    51.81604    8.72514
2754.00000    50.74200    10.71253
2754.50000    49.66795    12.69992
2755.00000    50.00539    14.68731
2755.50000    51.14067    16.67469
2756.00000    52.27595    18.66208
2756.50000    53.41122    20.64947
2757.00000    54.54650    21.28319
2757.50000    54.34475    19.42874
2758.00000    52.28394    15.56519
2758.50000    50.22314    11.70164
2759.00000    50.67189    7.83809
2759.50000    51.28823    5.00270
2760.00000    51.90458    4.73925
2760.50000    52.47732    4.47580
2761.00000    52.31750    4.21235
2761.50000    52.15769    4.45494
2762.00000    51.99787    5.09319
2762.50000    51.83805    5.73145
2763.00000    51.67823    6.36970
2763.50000    52.73247    7.00796
2764.00000    53.46814    6.72999
2764.50000    52.69485    5.91628
2765.00000    51.92155    5.10256
2765.50000    51.37636    4.28885
2766.00000    51.51383    4.32325
2766.50000    51.65129    4.46345
2767.00000    51.78875    4.60364
2767.50000    51.92622    4.74383
2768.00000    52.56602    4.88403
2768.50000    56.05636    5.02422
2769.00000    55.42391    5.16442
2769.50000    54.79145    5.26876
2770.00000    54.15900    5.17858
2770.50000    53.52654    5.08841
2771.00000    52.99299    4.99823
2771.50000    53.17065    4.90806
2772.00000    53.34830    5.15110
2772.50000    53.52596    5.22734
2773.00000    53.70361    4.65398
2773.50000    68.39435    4.08062
2774.00000    72.87378    3.50726
2774.50000    77.35322    3.68958
2775.00000    81.64741    4.00781
2775.50000    60.17634    4.04505
2776.00000    57.88478    3.61436
2776.50000    63.33321    3.18367
2777.00000    68.78163    2.75298
2777.50000    67.55242    2.75505
2778.00000    58.72358    2.77655
2778.50000    69.69612    2.79804
2779.00000    81.66871    2.81953
2779.50000    79.26925    2.76897
2780.00000    74.99342    2.55835
2780.50000    70.71760    2.34773
2781.00000    66.44177    2.13712
2781.50000    62.68119    2.27484
2782.00000    66.67779    2.65708
2782.50000    70.67438    3.03931
2783.00000    69.12065    3.42155
2783.50000    66.20316    3.80378
2784.00000    65.23553    4.18601
2784.50000    68.03232    4.30636
2785.00000    70.82911    4.05058
2785.50000    71.05523    3.79480
2786.00000    70.05160    3.53902
2786.50000    69.04796    3.28323
2787.00000    68.04433    3.02745
2787.50000    67.04070    2.77167
2788.00000    66.03706    2.74424
2788.50000    65.03343    2.74471
2789.00000    65.57320    2.74517
2789.50000    67.53747    2.74563
2790.00000    69.50173    2.74609
2790.50000    67.06891    2.74656
2791.00000    64.08731    2.74702
2791.50000    61.10571    2.08311
2792.00000    73.03291    1.80458
2792.50000    71.84488    2.06985
2793.00000    70.65685    2.33512
2793.50000    69.46882    2.60039
2794.00000    68.28080    2.86567
2794.50000    67.09277    3.13094
2795.00000    65.90474    3.39622
2795.50000    64.71671    3.61104
2796.00000    68.99590    3.36375
2796.50000    68.10405    3.11646
2797.00000    66.85600    2.86917
2797.50000    65.60796    2.62188
2798.00000    64.35991    2.37459
2798.50000    65.20535    2.12730
2799.00000    70.44074    1.88001
2799.50000    72.58051    2.32845
2800.00000    71.54758    2.80637
2800.50000    70.51465    3.28428
2801.00000    69.48171    3.28789
2801.50000    68.44878    3.22164
2802.00000    67.41585    3.15539
2802.50000    66.38292    3.08914
2803.00000    65.34999    3.02289
2803.50000    64.31706    2.95664
2804.00000    64.15952    2.89039
2804.50000    67.07614    2.82414
2805.00000    69.99277    2.75789
2805.50000    72.30333    2.69164
2806.00000    70.36834    2.62539
2806.50000    68.43335    2.57547
2807.00000    66.49836    2.68588
2807.50000    64.56337    2.79630
2808.00000    62.65568    2.90671
2808.50000    60.94993    3.01713
2809.00000    59.24417    3.12754
2809.50000    57.53841    3.23796
2810.00000    65.32301    3.34837
2810.50000    75.95188    3.44584
2811.00000    75.18782    3.24853
2811.50000    71.90486    3.05121
2812.00000    68.62189    2.85389
2812.50000    65.33892    2.65658
2813.00000    65.39330    2.47508
2813.50000    66.82282    2.48690
2814.00000    68.25235    2.49871
2814.50000    69.68187    2.51053
2815.00000    71.11139    2.52235
2815.50000    72.54091    2.53416
2816.00000    73.00161    2.54598
2816.50000    69.57761    2.55779
2817.00000    66.15362    2.56961
2817.50000    64.23291    2.66386
2818.00000    65.46389    2.88164
2818.50000    66.69487    3.09943
2819.00000    67.92584    3.31721
2819.50000    69.15682    3.53500
2820.00000    70.38780    3.75278
2820.50000    71.61878    3.86535
2821.00000    72.84975    3.88103
2821.50000    73.55780    3.89671
2822.00000    69.62990    3.91239
2822.50000    65.70201    3.92807
2823.00000    63.78813    3.94375
2823.50000    68.49045    3.95842
2824.00000    73.19277    3.89109
2824.50000    72.24255    3.82376
2825.00000    71.22526    3.75643
2825.50000    70.20796    3.68911
2826.00000    69.19067    3.62178
2826.50000    68.17337    3.55445
2827.00000    67.15608    3.48712
2827.50000    66.13879    3.41979
2828.00000    65.12149    3.29809
2828.50000    70.30008    3.06654
2829.00000    71.77717    2.83499
2829.50000    70.70059    2.60344
2830.00000    69.62401    2.37190
2830.50000    68.54743    2.46809
2831.00000    67.47084    2.72263
2831.50000    66.39426    2.97718
2832.00000    65.31768    3.23172
2832.50000    65.53664    3.48627
2833.00000    67.49099    3.74082
2833.50000    69.44533    3.78609
2834.00000    71.39967    3.60859
2834.50000    69.15591    3.43110
2835.00000    66.67565    3.25360
2835.50000    73.18582    3.07611
2836.00000    72.57784    3.19533
2836.50000    71.96987    3.58852
2837.00000    71.36190    3.98170
2837.50000    70.75393    4.37488
2838.00000    70.14596    4.76807
2838.50000    69.53799    4.89127
2839.00000    68.93002    4.26025
2839.50000    68.32205    3.62922
2840.00000    67.71408    2.99820
2840.50000    69.13219    2.36717
2841.00000    71.86563    2.54525
2841.50000    71.56697    2.80563
2842.00000    70.75083    3.06601
2842.50000    69.93469    3.32639
2843.00000    69.11855    3.58677
2843.50000    68.30241    3.84715
2844.00000    67.48627    4.05375
2844.50000    66.67012    3.76676
2845.00000    67.79152    3.47977
2845.50000    69.95407    3.19278
2846.00000    72.11661    3.21017
2846.50000    72.31883    3.36941
