###############################################
##         ENVERUS                           ##
##         ESS - Open Hole                   ##
##         PERMIAN / DELAWARE                ##
##         Nov 04 2023  V4.0                 ##
##         42-389-30075-00-00                ##
###############################################
## Copyright 2017-2023  ENVERUS.  All Rights Reserved. 
## Confidential - Property of ENVERUS, use governed by terms and 
## conditions found within the existing Information Services Subscription Agreement 
## (as may be amended, the “ISSA”) between Customer and ENVERUS. 
## 
~VERSION INFORMATION
# MNEM.UNIT                               DATA : DESCRIPTION OF MNEMONIC
#-----.-----     ----------------------------- : -----------------------------
VERS.                                     2.00 : CWLS LOG ASCII STANDARD - VERSION 2.00
WRAP.                                       NO : MULTIPLE LINES PER DEPTH STEP
VEND.                                  ENVERUS : VENDOR
TYPE.                          ESS - OPEN HOLE : ENVERUS ESSENTIAL CURVES – ACCESSIBLE THROUGH ENVERUS PRISM(TM)
DOC.                                  32306518 : ENVERUS HEADER RAW DOCUMENT ID
#___________________________________________________________________________________________________ 
~WELL INFORMATION 
# kPY+8M9YT4rQMtoZY4hkcKqQFbcx8dAfbukAxGfLCr0mY2TilAra5+x7Ygngqds2nYZXTdz9AGmqNniTAH+qTQ== 
# MNEM.UNIT                                              DATA : DESCRIPTION OF MNEMONIC 
#-----.-----                    ----------------------------- : ----------------------------- 
CNTY.                                                  REEVES : COUNTY 
STATE.                                                  TEXAS : STATE 
CNTRY.                                                    USA : COUNTRY 
API.                                             42-389-30075 : API (10 Digit) 
API_14.                                    42-389-30075-00-00 : API (14 Digits) 
API_14_std.                                 42-389-30075-0000 : API (14 Digits Standard) 
UWI.                                           42389300750000 : UNIQUE WELL ID 
WELL.                                        CAMPBELL STATE 1 : WELL NAME
STRT.FT                                                   5.0 : START DEPTH
STOP.FT                                               20980.0 : STOP DEPTH
STEP.FT                                                   0.5 : STEP BETWEEN DEPTHS
NULL.                                                 -999.25 : NULL VALUE
#___________________________________________________________________________________________________ 
~CURVE INFORMATION 
# MNEM.UNIT           : CURVE DESCRIPTION 
#-----.-----          : ----------------------------- 
 DEPT.FT               : MEASURED DEPTH 
 CALI.IN               : CALIPER (CAL - CAL) 
 GR.API                : GAMMA RAY (GR) 
 DT.US/FT              : SONIC DELTA TRANSIT TIME (DT) 
 NPHI.V/V              : NEUTRON POROSITY (NPHI) 
 #___________________________________________________________________________________________________ 
~A         DEPT           CALI             GR             DT           NPHI
# ...
        20940.0          7.021         28.691       -999.250        0.04091
        20940.5          7.018         27.798       -999.250        0.04119
        20941.0          6.987         25.329       -999.250        0.04194
        20941.5          6.955         22.821       -999.250        0.04300
        20942.0          6.923         20.314       -999.250        0.04406
        20942.5          6.891         17.807       -999.250        0.04512
        20943.0          6.859         15.300       -999.250        0.04618
        20943.5          6.827         13.092       -999.250        0.04734
        20944.0          6.795         14.128       -999.250        0.04901
        20944.5          6.763         15.163       -999.250        0.05067
        20945.0          6.731         16.199       -999.250        0.05234
        20945.5          6.724         17.235       -999.250        0.05401
        20946.0          6.716         18.270       -999.250        0.05568
        20946.5          6.708         19.048       -999.250        0.05735
        20947.0          6.701         18.814       -999.250        0.05869
        20947.5          6.693         18.579       -999.250        0.05908
        20948.0          6.686         18.345       -999.250        0.05947
        20948.5          6.678         18.111       -999.250        0.05832
        20949.0          6.670         17.876       -999.250        0.05606
        20949.5          6.663         17.642       -999.250        0.05380
        20950.0          6.655         17.407       -999.250        0.05155
        20950.5          6.647         17.173       -999.250        0.04929
        20951.0          6.640         16.938       -999.250        0.04703
        20951.5          6.632         16.704       -999.250        0.04477
        20952.0          6.625         16.534       -999.250        0.04251
        20952.5          6.617         16.809       -999.250        0.04025
        20953.0          6.609         17.083       -999.250        0.03800
        20953.5          6.602         17.358       -999.250        0.03726
        20954.0          6.594         17.632       -999.250        0.03761
        20954.5          6.586         17.907       -999.250        0.03796
        20955.0          6.579         18.181       -999.250        0.03831
        20955.5          6.571         18.456       -999.250        0.03865
        20956.0          6.564         18.730       -999.250        0.03900
        20956.5          6.556         19.005       -999.250        0.03750
        20957.0          6.548         19.279       -999.250        0.03466
        20957.5          6.541         19.554       -999.250        0.03182
        20958.0          6.533         19.828       -999.250        0.02898
        20958.5          6.525         20.103       -999.250        0.03025
        20959.0          6.518         20.377       -999.250        0.03206
        20959.5          6.510         17.166       -999.250        0.03388
        20960.0          6.502         13.187       -999.250        0.03569
        20960.5          6.495          9.208       -999.250        0.03750
        20961.0          6.487          5.229       -999.250        0.03932
        20961.5          6.480          1.522       -999.250        0.04113
        20962.0          6.472          1.506       -999.250        0.04180
        20962.5          6.464          1.490       -999.250        0.04242
        20963.0          6.457          1.475       -999.250        0.04303
        20963.5          6.449          1.459       -999.250        0.04364
        20964.0          6.441          1.443       -999.250        0.04425
        20964.5          6.434          1.427       -999.250        0.04486
        20965.0          6.426          1.411       -999.250        0.04547
        20965.5          6.472          1.395       -999.250        0.04608
        20966.0          6.577          1.380       -999.250        0.04670
        20966.5          6.682          1.364       -999.250        0.04707
        20967.0          6.787          1.348       -999.250        0.04724
        20967.5          6.800          1.332       -999.250        0.04742
        20968.0          6.802          1.316       -999.250        0.04759
        20968.5          6.804          1.300       -999.250        0.04776
        20969.0          6.806          1.285       -999.250        0.04794
        20969.5          6.809          1.269       -999.250        0.04780
        20970.0          6.811          1.253       -999.250        0.04743
        20970.5          6.813          1.237       -999.250        0.04705
        20971.0          6.816          1.221       -999.250        0.04667
        20971.5          6.818          1.205       -999.250        0.04630
        20972.0          6.820          1.190       -999.250        0.04592
        20972.5          6.822          1.174       -999.250        0.04555
        20973.0          6.825          1.158       -999.250        0.04517
        20973.5          6.827          1.142       -999.250     -999.25000
        20974.0          6.829          1.126       -999.250     -999.25000
        20974.5          6.832          1.111       -999.250     -999.25000
        20975.0          6.834          1.095       -999.250     -999.25000
        20975.5          6.836          1.079       -999.250     -999.25000
        20976.0          6.838          1.063       -999.250     -999.25000
        20976.5          6.841          1.047       -999.250     -999.25000
        20977.0          6.843          1.031       -999.250     -999.25000
        20977.5          6.845          1.016       -999.250     -999.25000
        20978.0          6.848          1.000       -999.250     -999.25000
        20978.5          6.850          0.984       -999.250     -999.25000
        20979.0          6.852          0.968       -999.250     -999.25000
        20979.5          6.855          0.952       -999.250     -999.25000
        20980.0          6.857          0.936       -999.250     -999.25000
