#--------------------------------------------------#
#-------------------ENVERUS, INC.------------------#
#------------------WWW.ENVERUS.COM-----------------#
#------------------COPYRIGHT 2020------------------#
#--------------------------------------------------#
#THIS FILE MAY BE USED ONLY IN ACCORDANCE WITH A CURRENT SUBSCRIPTION AGREEMENT BETWEEN
#THE USER AND ENVERUS, INC. NO PART OF THIS FILE MAY BE REPRODUCED, USED, COPIED,
#MODIFIED, PROPAGATED, OR DISTRIBUTED EXCEPT IN ACCORDANCE WITH THE SUBSCRIPTION
#AGREEMENT. UNAUTHORIZED USE OR DISTRIBUTION OF ALL OR ANY PART OF THIS FILE MAY VIOLATE
#COPYRIGHT, TRADEMARK, AND/OR OTHER LAWS AND IS SUBJECT TO CIVIL AS WELL AS CRIMINAL
#SANCTIONS.
#--------------------------------------------------#
#THIS FILE IS PROVIDED "AS-IS" AND ALL WARRANTIES ARE EXPRESSLY DISCLAIMED, WHETHER
#EXPRESS, ORAL, IMPLIED, STATUTORY OR OTHERWISE, INCLUDING ANY IMPLIED WARRANTY OF FITNESS
#FOR A PARTICULAR PURPOSE, MERCHANTABILITY, TITLE OR NON-INFRINGEMENT, AND ANY WARRANTIES
#ARISING BY VIRTUE OF CUSTOM OF TRADE OR COURSE OF DEALING.  FURTHER, ENVERUS, INC.
#AND ITS LICENSORS DO NOT REPRESENT OR WARRANT THAT THIS FILE WILL MEET USER'S
#REQUIREMENTS OR ARE SUITABLE FOR USER'S NEEDS OR THAT THE DATA OR RESULTS PROVIDED IN
#CONJUNCTION THEREWITH ARE CORRECT, ACCURATE, TIMELY OR RELIABLE. THESE DISCLAIMERS SHALL
#APPLY REGARDLESS OF ANY FAILURE OF ESSENTIAL PURPOSE OF ANY LIMITED REMEDY.  SOME
#JURISDICTIONS DO NOT ALLOW THE EXCLUSION OF CERTAIN WARRANTIES SO SOME OF THE ABOVE
#EXCLUSIONS MAY NOT APPLY. IN NO EVENT SHALL ENVERUS, INC. OR ANY OF ITS AFFILIATES
#BE LIABLE UNDER ANY LEGAL THEORY, WHETHER IN TORT (INCLUDING WITHOUT LIMITATION
#NEGLIGENCE), CONTRACT, STRICT LIABILITY, STATUTORY OR OTHERWISE, FOR ANY SPECIAL,
#INCIDENTAL, CONSEQUENTIAL, EXEMPLARY, PUNITIVE OR INDIRECT DAMAGE OF ANY KIND, INCLUDING
#WITHOUT LIMITATION LOSS OF REVENUE, PROFITS, GOODWILL, USE, AND/OR DATA OR THE COST OF
#PROCUREMENT OF SUBSTITUTE GOODS OR SERVICES, EVEN IF APPRISED OF THE POSSIBILITY OF SUCH
#DAMAGES IN ADVANCE.
#--------------------------------------------------#

~VERSION INFORMATION
VERS. 2.0 : CWLS LOG ASCII STANDARD - VERSION 2.0
WRAP. NO : ONE LINE PER DEPTH STEP
~WELL INFORMATION
#MNEMONIC     .UNIT              VALUE :DESCRIPTION
STRT       .FT                5046.00000 :START DEPTH
STOP       .FT                5253.00000 :STOP DEPTH
STEP       .FT                0.50000 :STEP
NULL       .                -999.25000 :NULL VALUE
UWI       .                42389007260000 :UNIQUE WELL ID
API       .                42389007260000 :API NUMBER
COMP       .                 :COMPANY
WELL       .                 :WELL
FLD       .                 :FIELD
LOC       .                 :LOCATION
CNTY       .                 :COUNTY
STAT       .                 :STATE
CTRY       .                 :COUNTRY
SRVC       .                 :SERVICE COMPANY
DATE       .                 :DATE
~CURVE INFORMATION
#MNEMONIC     .UNIT      API CODE :CURVE DESCRIPTION
DEPTH       .FT                      :MEASURED DEPTH
DT       .US/FT        UNKNOWN   :DT
GR       .GAPI        UNKNOWN   :GR
~A    DEPTH    DT    GR
# ...
5160.00000    68.27882    101.13011
5160.50000    68.64871    112.02804
5161.00000    68.80487    122.93591
5161.50000    68.84146    130.10178
5162.00000    68.91200    137.23861
5162.50000    69.22494    133.81940
5163.00000    73.02807    128.24287
5163.50000    74.33948    97.98727
5164.00000    73.02102    83.89020
5164.50000    72.67426    69.79313
5165.00000    74.03634    64.10785
5165.50000    74.90844    61.99518
5166.00000    75.64879    58.47573
5166.50000    74.89995    54.07737
5167.00000    77.34703    50.40995
5167.50000    80.92089    48.79321
5168.00000    82.71317    47.17647
5168.50000    81.08914    45.55973
5169.00000    78.31499    43.94298
5169.50000    75.12181    43.30216
5170.00000    71.09528    43.88629
5170.50000    66.15348    44.68305
5171.00000    61.21168    47.30318
5171.50000    61.20935    49.92332
5172.00000    65.21709    52.87725
5172.50000    73.91432    58.25825
5173.00000    80.34046    63.63925
5173.50000    85.35468    69.02025
5174.00000    80.90515    71.48106
5174.50000    76.32650    68.24478
5175.00000    74.45981    63.67506
5175.50000    75.08681    59.10533
5176.00000    82.20088    54.53560
5176.50000    83.32511    53.12944
5177.00000    80.66197    53.11282
5177.50000    78.35614    52.87867
5178.00000    79.82255    51.94033
5178.50000    80.61438    51.00198
5179.00000    80.83010    51.69393
5179.50000    81.67486    52.81544
5180.00000    82.49861    52.99663
5180.50000    83.13909    53.17783
5181.00000    85.25731    53.02600
5181.50000    86.43581    52.11669
5182.00000    85.99500    51.20739
5182.50000    83.07427    50.29809
5183.00000    85.56798    50.15742
5183.50000    86.15735    51.15850
5184.00000    84.89661    51.98145
5184.50000    82.32004    52.05723
5185.00000    78.31946    52.13300
5185.50000    78.39507    53.35086
5186.00000    79.97339    55.23588
5186.50000    81.57748    58.25690
5187.00000    81.14649    60.86269
5187.50000    79.00129    61.93266
5188.00000    74.51664    59.23041
5188.50000    74.69351    55.47892
5189.00000    76.21302    54.50209
5189.50000    79.37368    55.62304
5190.00000    82.39242    57.58897
5190.50000    81.99563    59.83795
5191.00000    80.34283    60.87586
5191.50000    77.44073    60.16210
5192.00000    74.36125    59.44834
5192.50000    76.72179    57.68742
5193.00000    78.84870    55.67641
5193.50000    79.09976    53.66539
5194.00000    79.63089    54.06092
5194.50000    80.37337    54.59515
5195.00000    80.68708    55.12938
5195.50000    80.82115    56.23447
5196.00000    81.48560    58.08393
5196.50000    82.37747    60.02789
5197.00000    83.06551    61.98557
5197.50000    83.01242    62.34368
5198.00000    82.48404    62.28160
5198.50000    81.33421    61.62647
5199.00000    80.23329    58.45205
5199.50000    80.12278    55.27764
5200.00000    81.06576    52.10322
5200.50000    83.17534    49.03751
5201.00000    85.71868    49.34750
5201.50000    85.36496    49.27412
5202.00000    82.30702    49.26109
5202.50000    81.03551    50.74076
5203.00000    81.68646    51.87603
5203.50000    82.03343    49.42229
5204.00000    81.98781    46.96856
5204.50000    81.67042    44.51482
5205.00000    80.85379    44.95276
5205.50000    79.78490    46.65652
5206.00000    80.06971    48.39626
5206.50000    80.75760    50.13600
5207.00000    80.51858    51.87573
5207.50000    80.03433    51.77740
5208.00000    80.21551    51.11039
5208.50000    83.97894    50.44338
5209.00000    84.04650    49.77638
5209.50000    82.99865    49.42667
5210.00000    81.43977    50.25245
5210.50000    80.62379    51.07823
5211.00000    82.95788    52.94753
5211.50000    84.72159    55.18206
5212.00000    84.42248    57.41659
5212.50000    81.75197    59.34817
5213.00000    78.11440    58.42824
5213.50000    77.01533    57.50832
5214.00000    76.93600    56.58839
5214.50000    75.36722    55.62525
5215.00000    78.76489    56.74437
5215.50000    80.07701    58.06731
5216.00000    80.91101    59.69363
5216.50000    80.29059    60.02230
5217.00000    79.48640    58.46980
5217.50000    79.95771    56.28663
5218.00000    80.44913    54.17115
5218.50000    80.09275    52.35348
5219.00000    79.60865    50.61860
5219.50000    78.09194    51.41543
5220.00000    78.87844    52.72033
5220.50000    80.78002    54.02522
5221.00000    80.96021    56.36620
5221.50000    78.27559    60.91832
5222.00000    78.14696    65.47044
5222.50000    83.78167    70.02256
5223.00000    82.26975    67.83086
5223.50000    80.81146    65.13262
5224.00000    79.41686    62.43439
5224.50000    81.76276    60.27654
5225.00000    82.69638    59.42453
5225.50000    82.14593    58.57252
5226.00000    81.57618    57.72051
5226.50000    80.97144    56.82568
5227.00000    80.90663    55.64964
5227.50000    81.28335    54.47362
5228.00000    80.26276    54.11093
5228.50000    78.97382    54.95636
5229.00000    79.18031    56.87601
5229.50000    80.37274    63.36917
5230.00000    81.98007    69.03525
5230.50000    82.85449    74.59398
5231.00000    83.09874    80.15272
5231.50000    82.81575    85.71146
5232.00000    79.83453    90.21783
5232.50000    76.26292    90.22078
5233.00000    74.70705    90.22374
5233.50000    74.95079    86.82215
5234.00000    72.78953    83.34908
5234.50000    73.99141    82.70070
5235.00000    75.06683    82.05232
5235.50000    72.26016    82.24831
5236.00000    73.62684    84.41937
5236.50000    74.99352    86.68419
5237.00000    74.38009    89.12616
5237.50000    69.27403    90.31990
5238.00000    73.54687    88.00504
5238.50000    75.18856    85.69018
5239.00000    75.86629    79.22357
5239.50000    78.14846    72.41368
5240.00000    78.54836    65.60380
5240.50000    79.68650    58.79391
5241.00000    87.42511    54.54631
5241.50000    90.08915    51.69606
5242.00000    88.97592    50.57233
5242.50000    84.99822    50.75500
5243.00000    80.29703    50.93767
5243.50000    75.59584    51.12034
5244.00000    81.19651    49.77488
5244.50000    84.77305    48.03987
5245.00000    83.09561    47.48000
5245.50000    80.39267    48.31143
5246.00000    75.93442    49.14287
5246.50000    71.79019    47.41101
5247.00000    74.08378    47.58858
5247.50000    79.86433    48.58952
5248.00000    86.71093    49.59046
5248.50000    87.42388    50.59140
5249.00000    86.52247    49.85077
5249.50000    -999.25000    48.94178
5250.00000    -999.25000    48.52002
5250.50000    -999.25000    49.17399
5251.00000    -999.25000    49.82796
5251.50000    -999.25000    50.26167
5252.00000    -999.25000    49.74972
5252.50000    -999.25000    49.23777
5253.00000    -999.25000    48.72583
