~VERSION INFORMATION
VERS.           1.2   :CWLS Log ASCII Standard - VERSION 1.2
WRAP.           NO    :One Line per depth step
PROD.  Schlumberger   :LAS Producer
PROG.  DLIS to ASCII 17C0-152                          :LAS Program name and version
CREA.        2014/05/28 16:07                          :LAS Creation date {YYYY/MM/DD hh:mm}
DLIS_CREA.  2014-May-27 22:17                          :DLIS Creation date and time {YYYY-MMM-DD hh:mm}
SOURCE.     db5fefe1-f67d-4e3f-8816-ab53d5f8be46       :DLIS File Name
#--------------------------------------------------
~WELL INFORMATION
#MNEM.UNIT      DATA             DESCRIPTION
#---- ------ --------------   -----------------------------
# Enverus has updated the API/UWI.  The previous names are renamed to  PREV_API / PREV_UWI
API.  API (14 Digits with Dashes) : 42-389-34023-90-00
UWI.              UNIQUE WELL ID : 42389340239000

STRT .F      9586.5000       :START DEPTH     
STOP .F      10811.5000      :STOP DEPTH     
STEP .F       0.5000         :STEP       
NULL .          -999.25      :NULL VALUE
COMP .                 COMPANY:  J. Cleo Thompson                   
WELL .                    WELL:  Okapi State Unit B35 #2H           
FLD  .                   FIELD:  Wolfbone (Trend Area)              
LOC  .                LOCATION:  260' FNL & 500' FEL                
CNTY .                  COUNTY:  Reeves                             
STAT .                   STATE:  Texas                              
CTRY .                 COUNTRY:                                     
SRVC .         SERVICE COMPANY:  Schlumberger                       
LATI .DEG             LATITUDE:  31.112200 degrees                  
LONG .DEG            LONGITUDE:  -103.28900 degrees                 
PREV_API  .              API NUMBER:  42-389-34023                       
DATE .                LOG DATE:  27-May-2014
PREV_UWI  .          UNIQUE WELL ID:                                     
#-----------------------------------------------------------------------------
~PARAMETER INFORMATION
#MNEM.UNIT    VALUE                      DESCRIPTION
#---- -----   --------------------       ------------------------
CN   .        J. Cleo Thompson           :Company Name
WN   .        Okapi State Unit B35 #2H   :Well Name
FN   .        Wolfbone (Trend Area)      :Field Name
FL   .        260' FNL & 500' FEL        :Field Location
FL1  .        Section  35  Block  50 T8S  Abstract 4369 :Field Location, Line 1
COUN .        Reeves                     :County or Parish
STAT .        Texas                      :State or Province
NATI .                                   :Nation
DATE .        27-May-2014                :Tools Above Rotary Table Date
APIN .        42-389-34023               :API Well Number
SECT .        35                         :Section
TOWN .        50 T8S                     :Township
RANG .        4369                       :Range
DMF  .        KB                         :Drilling Measured From (Name of Drilling Elevation Reference)
LMF  .        KB                         :Logging Measured From (Name of Logging Elevation Reference)
PDAT .        GL                         :Permanent Datum
ENGI .        AJ Massis                  :Engineer s Name
WITN .        Bennie McNett              :Witness s Name
LATI .        31.112200 degrees          :Latitude
LONG .        -103.28900 degrees         :Longitude
LUL  .        Midland                    :Logging Unit Location
LUN  .        9105                       :Logging Unit Number
RUN  .        1B                         :Run Number
SON  .                                   :Service Order Number
BHT  .DEGF     162.00000                 :Bottom Hole Temperature
BS   .IN         8.50000                 :Bit Size
MDEN .G/C3       2.71000                 :Matrix Density for Density Porosity
DFD  .LB/G      10.70000                 :Drilling Fluid Density
DFV  .S         46.00000                 :Drilling Fluid Viscosity
DFL  .C3        10.00000                 :Drilling Fluid Loss
RMFS .OHMM       0.30000                 :Resistivity of Mud Filtrate Sample
EKB  .F       2829.00000                 :Elevation of Kelly Bushing
EGL  .F       2807.00000                 :Elevation of Ground Level
BLI  .F       11012.00000                :Bottom Log Interval
BSAL .PPM     132000.00000               :Borehole Salinity
FLEV .F          8.00000                 :Depth of Drilling Fluid Level to LMF (Log Measured From)
MCST .DEGF      68.00000                 :Mudcake Sample Temperature
MFST .DEGF      80.20000                 :Mud Filtrate Sample Temperature
MRT  .DEGF     162.00000                 :Maximum Recorded Temperature
MST  .DEGF      80.20000                 :Mud Sample Temperature
RMCS .OHMM    -999.25000                 :Resistivity of Mud Cake Sample
RMS  .OHMM       0.30000                 :Resistivity of Mud Sample
RW   .OHMM       1.00000                 :Connate Water Resistivity
TDD  .F       11012.00000                :Driller Total Depth
TDL  .F       11012.00000                :Logger Total Depth
TLI  .F       9676.00000                 :Top Log Interval
HIDE .        Wolfbone (Trend Area)      :Header Identifier
MATR .        LIME                       :Rock Matrix for Neutron Porosity Corrections
FNUM .           1.00000                 :F-Numerator for Formation Factor Formula
FEXP .           2.00000                 :Exponent "m" for Formation Factor Formula
DFT  .        Salt Brine                 :Drilling Fluid Type
DFPH .           9.00000                 :Drilling Fluid pH
MCSS .                                   :Mudcake Sample Source
MFSS .                                   :Mud Filtrate Sample Source
FD   .G/C3       1.10000                 :Fluid Density
MSS  .        Active Tank                :Mud Sample Source
OS1  .                                   :Other Services Line 1
OS2  .                                   :Other Services Line 2
OS3  .                                   :Other Services Line 3
OS4  .                                   :Other Services Line 4
OS5  .                                   :Other Services Line 5
R1   .        Tools run as per toolsketch :Remarks Line 1
R2   .        Logs performed on a Limestone matrix (2.71

g/cc  47.6 us/ft ). Mud Properties  MW =

10.7 g/cc  FD = 1.1 g/cc. :Remarks Line 2
R3   .        Max recorded temperature from downhole

thermometer = 162 degF. :Remarks Line 3
R4   .        Logs run from TD to casing. GR & Neutron

logged from casing to 200ft as per client

request. :Remarks Line 4
R5   .        Tools got stuck near TD and calipers had to be closed in order to get free. :Remarks Line 5
R6   .        Well was washed out for many intervals. :Remarks Line 6
R7   .        Repeat done at casing due to getting stuck at TD :Remarks Line 7
R8   .                                   :Remarks Line 8
TCS  .        18 00 00                   :Time Circulation Stopped
TLAB .        16 19 01                   :Time Logger At Bottom
EPD  .C3         2807.000000             :Elevation of Permanent Datum above Mean Sea Level
APD  .F          22.000000               :Elevation of Depth Reference (LMF) above Permanent Datum
#-----------------------------------------------------------------------------
~CURVE INFORMATION
#MNEM.UNIT   API CODE                                  DESCRIPTION
#---- -----  --------                                  -----------------------
DEPT .F                                                :DEPTH (BOREHOLE) {F12.4}
CDF  .LBF                                              :Calibrated Downhole Force {F11.4}
CTEM .DEGF                                             :Cartridge Temperature {F11.4}
DCAL .IN                                               :Differential Caliper {F11.4}
DTCO .US/F                                             :Delta-T Compressional {F11.4}
DTSM .US/F                                             :Delta-T Shear {F11.4}
ED   .F                                                :East Departure {F11.4}
GR_EDTC.GAPI                                           :Gamma Ray {F11.4}
GTEM .DEGF                                             :Generalized Borehole Temperature {F11.4}
HAZI .DEG                                              :Hole Azimuth Relative to True North {F11.4}
HAZIM.DEG                                              :Memorized Hole Azimuth {F11.4}
ITT  .S                                                :Integrated Transit Time {F11.4}
ND   .F                                                :North Departure {F11.4}
P1AZ .DEG                                              :Pad 1 Azimuth in Horizontal Plane (0 = True North) {F11.4}
PR   .                                                 :Poisson s Ratio {F11.4}
RB   .DEG                                              :Relative Bearing {F11.4}
SDEV .DEG                                              :Sonde Deviation {F11.4}
SDEVM.DEG                                              :Memorized Sonde Deviation {F11.4}
SPHI .CFCF                                             :Sonic Porosity {F11.4}
STIT .F                                                :Stuck Tool Indicator, Total {F11.4}
TENS .LBF                                              :Cable Tension {F11.4}
#-----------------------------------------------------------------------------
# 
#      DEPT        CDF        CTEM       DCAL       DTCO       DTSM        ED      GR_EDTC      GTEM       HAZI      HAZIM       ITT         ND        P1AZ        PR         RB        SDEV      SDEVM       SPHI       STIT       TENS
#
~A  
   9586.5000  1192.5681   161.6000    -0.6101    75.5984  -999.2500     0.0000    48.6273   149.8317   144.8855   144.8855     0.0883     0.0000    52.0416  -999.2500   267.1549     1.6504     1.6504     0.1980     0.0000  3879.4998
   9587.0000  1192.5681   161.6000    -0.6101    75.5984  -999.2500     0.0000    48.6273   149.8360   144.8855   144.8855     0.0883     0.0000    52.0416  -999.2500   267.1549     1.6504     1.6504     0.1980     0.0000  3879.4998
   9587.5000  1192.5681   161.6000    -0.6101    75.5984  -999.2500     0.0000    48.6273   149.8403   144.8855   144.8855     0.0883     0.0000    52.0416  -999.2500   267.1549     1.6504     1.6504     0.1980     0.0000  3879.4998
   9588.0000  1192.5681   161.6000    -0.6101    75.5984  -999.2500     0.0000    48.6273   149.8445   144.8855   144.8855     0.0883     0.0000    52.0416  -999.2500   267.1549     1.6504     1.6504     0.1980     0.0000  3879.4998
   9588.5000  1192.5681   161.6000    -0.6101    75.5984  -999.2500     0.0000    48.6273   149.8488   144.8855   144.8855     0.0883     0.0000    52.0416  -999.2500   267.1549     1.6504     1.6504     0.1980     0.0000  3879.4998
   9589.0000  1192.5681   161.6000    -0.6101    75.5984  -999.2500     0.0000    48.6273   149.8531   144.8855   144.8855     0.0883     0.0000    52.0416  -999.2500   267.1549     1.6504     1.6504     0.1980     0.0000  3879.4998
   9589.5000  1192.5681   161.6000    -0.6101    75.5984  -999.2500     0.0000    48.6273   149.8573   144.8855   144.8855     0.0883     0.0000    52.0416  -999.2500   267.1549     1.6504     1.6504     0.1980     0.0000  3879.4998
   9590.0000  1192.5681   161.6000    -0.6101    75.5984  -999.2500     0.0000    48.6273   149.8616   144.8855   144.8855     0.0883     0.0000    52.0416  -999.2500   267.1549     1.6504     1.6504     0.1980     0.0000  3879.4998
   9590.5000  1192.5681   161.6000    -0.6101    75.5984  -999.2500     0.0000    48.6273   149.8659   144.8855   144.8855     0.0883     0.0000    52.0416  -999.2500   267.1549     1.6504     1.6504     0.1980     0.0000  3879.4998
   9591.0000  1192.5681   161.6000    -0.6101    75.5984  -999.2500     0.0000    48.6273   149.8701   144.8855   144.8855     0.0883     0.0000    52.0416  -999.2500   267.1549     1.6504     1.6504     0.1980     0.0000  3879.4998
   9591.5000  1192.5681   161.6000    -0.6101    75.5984  -999.2500     0.0000    48.6273   149.8744   144.8855   144.8855     0.0883     0.0000    52.0416  -999.2500   267.1549     1.6504     1.6504     0.1980     0.0000  3879.4998
   9592.0000  1192.5681   161.6000    -0.6101    75.5984  -999.2500     0.0000    48.6273   149.8787   144.8855   144.8855     0.0883     0.0000    52.0416  -999.2500   267.1549     1.6504     1.6504     0.1980     0.0000  3879.4998
   9592.5000  1192.5681   161.6000    -0.6101    75.5984  -999.2500     0.0000    48.6273   149.8829   144.8855   144.8855     0.0883     0.0000    52.0416  -999.2500   267.1549     1.6504     1.6504     0.1980     0.0000  3879.4998
   9593.0000  1192.5681   161.6000    -0.6101    75.5984  -999.2500     0.0000    48.6273   149.8872   144.8855   144.8855     0.0883     0.0000    52.0416  -999.2500   267.1549     1.6504     1.6504     0.1980     0.0000  3879.4998
   9593.5000  1192.5681   161.6000    -0.6101    75.5984  -999.2500     0.0000    48.6273   149.8915   144.8855   144.8855     0.0883     0.0000    52.0416  -999.2500   267.1549     1.6504     1.6504     0.1980     0.0000  3879.4998
   9594.0000  1192.5681   161.6000    -0.6101    75.5984  -999.2500     0.0000    48.6273   149.8958   144.8855   144.8855     0.0883     0.0000    52.0416  -999.2500   267.1549     1.6504     1.6504     0.1980     0.0000  3879.4998
   9594.5000  1192.5681   161.6000    -0.6101    75.5984  -999.2500     0.0000    49.0587   149.9000   144.8855   144.8855     0.0883     0.0000    52.0416  -999.2500   267.1549     1.6504     1.6504     0.1980     0.0000  3879.4998
   9595.0000  1192.5681   161.6000    -0.6101    75.5984  -999.2500     0.0000    52.6073   149.9043   144.8855   144.8855     0.0883     0.0000    52.0416  -999.2500   267.1549     1.6504     1.6504     0.1980     0.0000  3879.4998
   9595.5000  1192.5681   161.6000    -0.6101    75.5984  -999.2500     0.0000    56.4406   149.9086   144.8855   144.8855     0.0883     0.0000    52.0416  -999.2500   267.1549     1.6504     1.6504     0.1980     0.0000  3879.4998
   9596.0000  1192.5681   161.6000    -0.6101    75.5984  -999.2500     0.0000    54.1331   149.9128   144.8855   144.8855     0.0883     0.0000    52.0416  -999.2500   267.1549     1.6504     1.6504     0.1980     0.0000  3879.4998
   9596.5000  1192.5681   161.6000    -0.6101    75.5984  -999.2500     0.0000    50.6895   149.9171   144.8855   144.8855     0.0883     0.0000    52.0416  -999.2500   267.1549     1.6504     1.6504     0.1980     0.0000  3879.4998
   9597.0000  1192.5681   161.6000    -0.6101    75.5984  -999.2500     0.0000    49.9938   149.9214   144.8855   144.8855     0.0883     0.0000    52.0416  -999.2500   267.1549     1.6504     1.6504     0.1980     0.0000  3879.4998
   9597.5000  1192.5681   161.6000    -0.6101    75.5984  -999.2500     0.0000    53.2020   149.9256   144.8855   144.8855     0.0883     0.0000    52.0416  -999.2500   267.1549     1.6504     1.6504     0.1980     0.0000  3879.4998
   9598.0000  1192.5681   161.6000    -0.6101    75.5984  -999.2500     0.0000    56.6456   149.9299   144.8855   144.8855     0.0883     0.0000    52.0416  -999.2500   267.1549     1.6504     1.6504     0.1980     0.0000  3879.4998
   9598.5000  1192.5681   161.6000    -0.6101    75.5984  -999.2500     0.0000    55.6835   149.9342   144.8855   144.8855     0.0883     0.0000    52.0416  -999.2500   267.1549     1.6504     1.6504     0.1980     0.0000  3879.4998
   9599.0000  1192.5681   161.6000    -0.6101    75.5984  -999.2500     0.0000    53.0154   149.9384   144.8855   144.8855     0.0883     0.0000    52.0416  -999.2500   267.1549     1.6504     1.6504     0.1980     0.0000  3879.4998
   9599.5000  1192.5681   161.6000    -0.6101    75.5984  -999.2500     0.0000    48.6212   149.9427   144.8855   144.8855     0.0883     0.0000    52.0416  -999.2500   267.1549     1.6504     1.6504     0.1980     0.0000  3879.4998
   9600.0000  1192.5681   161.6000    -0.6101    75.5984  -999.2500     0.0000    48.1510   149.9469   144.8855   144.8855     0.0883     0.0000    52.0416  -999.2500   267.1549     1.6504     1.6504     0.1980     0.0000  3879.4998
   9600.5000  1192.5681   161.6000    -0.6101    75.5984  -999.2500     0.0000    49.2245   149.9512   144.8855   144.8855     0.0883     0.0000    52.0416  -999.2500   267.1549     1.6504     1.6504     0.1980     0.0000  3879.4998
   9601.0000  1192.5681   161.6000    -0.6101    75.5984  -999.2500     0.0000    48.4168   149.9555   144.8855   144.8855     0.0883     0.0000    52.0416  -999.2500   267.1549     1.6504     1.6504     0.1980     0.0000  3879.4998
   9601.5000  1192.5681   161.6000    -0.6101    75.5984  -999.2500     0.0000    47.9142   149.9598   144.8855   144.8855     0.0883     0.0000    52.0416  -999.2500   267.1549     1.6504     1.6504     0.1980     0.0000  3879.4998
   9602.0000  1192.5681   161.6000    -0.6101    75.5984  -999.2500     0.0000    40.9667   149.9641   144.8855   144.8855     0.0883     0.0000    52.0416  -999.2500   267.1549     1.6504     1.6504     0.1980     0.0000  3879.4998
   9602.5000  1192.5681   161.6000    -0.6101    75.5984  -999.2500     0.0000    36.9502   149.9683   144.8855   144.8855     0.0883     0.0000    52.0416  -999.2500   267.1549     1.6504     1.6504     0.1980     0.0000  3879.4998
   9603.0000  1192.5681   161.6000    -0.6101    75.5984  -999.2500     0.0000    31.6080   149.9726   144.8855   144.8855     0.0883     0.0000    52.0416  -999.2500   267.1549     1.6504     1.6504     0.1980     0.0000  3879.4998
   9603.5000  1192.5681   161.6000    -0.6101    75.5984  -999.2500     0.0000    30.1487   149.9768   144.8855   144.8855     0.0883     0.0000    52.0416  -999.2500   267.1549     1.6504     1.6504     0.1980     0.0000  3879.4998
