#--------------------------------------------------#
#-------------------ENVERUS, INC.------------------#
#------------------WWW.ENVERUS.COM-----------------#
#------------------COPYRIGHT 2020------------------#
#--------------------------------------------------#
#THIS FILE MAY BE USED ONLY IN ACCORDANCE WITH A CURRENT SUBSCRIPTION AGREEMENT BETWEEN
#THE USER AND ENVERUS, INC. NO PART OF THIS FILE MAY BE REPRODUCED, USED, COPIED,
#MODIFIED, PROPAGATED, OR DISTRIBUTED EXCEPT IN ACCORDANCE WITH THE SUBSCRIPTION
#AGREEMENT. UNAUTHORIZED USE OR DISTRIBUTION OF ALL OR ANY PART OF THIS FILE MAY VIOLATE
#COPYRIGHT, TRADEMARK, AND/OR OTHER LAWS AND IS SUBJECT TO CIVIL AS WELL AS CRIMINAL
#SANCTIONS.
#--------------------------------------------------#
#THIS FILE IS PROVIDED "AS-IS" AND ALL WARRANTIES ARE EXPRESSLY DISCLAIMED, WHETHER
#EXPRESS, ORAL, IMPLIED, STATUTORY OR OTHERWISE, INCLUDING ANY IMPLIED WARRANTY OF FITNESS
#FOR A PARTICULAR PURPOSE, MERCHANTABILITY, TITLE OR NON-INFRINGEMENT, AND ANY WARRANTIES
#ARISING BY VIRTUE OF CUSTOM OF TRADE OR COURSE OF DEALING.  FURTHER, ENVERUS, INC.
#AND ITS LICENSORS DO NOT REPRESENT OR WARRANT THAT THIS FILE WILL MEET USER'S
#REQUIREMENTS OR ARE SUITABLE FOR USER'S NEEDS OR THAT THE DATA OR RESULTS PROVIDED IN
#CONJUNCTION THEREWITH ARE CORRECT, ACCURATE, TIMELY OR RELIABLE. THESE DISCLAIMERS SHALL
#APPLY REGARDLESS OF ANY FAILURE OF ESSENTIAL PURPOSE OF ANY LIMITED REMEDY.  SOME
#JURISDICTIONS DO NOT ALLOW THE EXCLUSION OF CERTAIN WARRANTIES SO SOME OF THE ABOVE
#EXCLUSIONS MAY NOT APPLY. IN NO EVENT SHALL ENVERUS, INC. OR ANY OF ITS AFFILIATES
#BE LIABLE UNDER ANY LEGAL THEORY, WHETHER IN TORT (INCLUDING WITHOUT LIMITATION
#NEGLIGENCE), CONTRACT, STRICT LIABILITY, STATUTORY OR OTHERWISE, FOR ANY SPECIAL,
#INCIDENTAL, CONSEQUENTIAL, EXEMPLARY, PUNITIVE OR INDIRECT DAMAGE OF ANY KIND, INCLUDING
#WITHOUT LIMITATION LOSS OF REVENUE, PROFITS, GOODWILL, USE, AND/OR DATA OR THE COST OF
#PROCUREMENT OF SUBSTITUTE GOODS OR SERVICES, EVEN IF APPRISED OF THE POSSIBILITY OF SUCH
#DAMAGES IN ADVANCE.
#--------------------------------------------------#

~VERSION INFORMATION
VERS. 2.0 : CWLS LOG ASCII STANDARD - VERSION 2.0
WRAP.  NO : ONE LINE PER DEPTH STEP
~WELL INFORMATION
#MNEMONIC     .UNIT              VALUE :DESCRIPTION
STRT       .FT                50 :START DEPTH
STOP       .FT                6118 :STOP DEPTH
STEP       .FT                   0.500 :STEP
NULL       .                  -999.990 :NULL
UWI        .              42389003090000 :UNIQUE WELL ID
API        .              42389003090000 :API NUMBER
COMP       .         :COMPANY
WELL       .         1, :WELL
DATE       .                            :LOG DATE
~CURVE INFORMATION
#MNEMONIC     .UNIT      API CODE :CURVE DESCRIPTION
DEPTH       .FT                      :MEASURED DEPTH
NEUT.API        UNKNOWN   :NEUT
GR.API        UNKNOWN   :GR
DT.US/FT        UNKNOWN   :DT
~A    DEPTH    NEUT    GR    DT
# ...
 5735     1331.58   107.678   -999.990
 5735.5     1315.607   106.258   -999.990
 5736     1277.051   106.61   -999.990
 5736.5     1238.494   106.963   -999.990
 5737     1199.938   107.316   -999.990
 5737.5     1186.625   107.669   -999.990
 5738     1181.949   108.022   -999.990
 5738.5     1177.273   108.375   -999.990
 5739     1164.557   108.728   -999.990
 5739.5     1146.771   109.081   -999.990
 5740     1128.985   108.358   -999.990
 5740.5     1117.698   107.557   -999.990
 5741     1133.412   105.315   -999.990
 5741.5     1149.127   102.599   -999.990
 5742     1164.841   99.883   -999.990
 5742.5     1180.556   97.167   -999.990
 5743     1202.29   98.068   -999.990
 5743.5     1231.431   100.341   -999.990
 5744     1244.271   102.613   -999.990
 5744.5     1246.739   104.886   -999.990
 5745     1248.503   107.158   -999.990
 5745.5     1235.391   124.781   -999.990
 5746     1222.278   132.475   -999.990
 5746.5     1209.166   128.675   -999.990
 5747     1196.054   124.875   -999.990
 5747.5     1182.941   121.074   -999.990
 5748     1187.507   120.039   -999.990
 5748.5     1222.205   120.246   -999.990
 5749     1235.64   126.32   -999.990
 5749.5     1233.98   134.489   -999.990
 5750     1232.32   142.658   -999.990
 5750.5     1230.661   145.445   -999.990
 5751     1374.502   141.168   -999.990
 5751.5     1354.825   136.891   -999.990
 5752     1335.148   132.614   -999.990
 5752.5     1315.471   128.337   -999.990
 5753     1295.795   129.2   -999.990
 5753.5     1276.118   137.232   -999.990
 5754     1256.441   145.265   -999.990
 5754.5     1236.764   153.298   -999.990
 5755     1206.8   161.33   -999.990
 5755.5     1174.883   168.637   -999.990
 5756     1142.965   174.377   -999.990
 5756.5     1144.556   174.106   -999.990
 5757     1169.72   159.347   -999.990
 5757.5     1194.883   144.588   -999.990
 5758     1220.047   129.829   -999.990
 5758.5     1245.21   123.15   -999.990
 5759     1270.374   114.591   -999.990
 5759.5     1288.604   106.033   -999.990
 5760     1279.739   102.425   -999.990
 5760.5     1270.874   100.371   -999.990
 5761     1262.009   98.906   -999.990
 5761.5     1242.877   102.734   -999.990
 5762     1127.221   106.563   -999.990
 5762.5     1141.151   110.391   -999.990
 5763     1155.082   114.219   -999.990
 5763.5     1169.013   139.449   -999.990
 5764     1179.156   137.593   -999.990
 5764.5     1178.568   137.455   -999.990
 5765     1177.979   142.207   -999.990
 5765.5     1177.39   146.96   -999.990
 5766     1241.555   138.371   -999.990
 5766.5     1218.876   126.77   -999.990
 5767     1186.368   119.798   -999.990
 5767.5     1153.859   113.511   -999.990
 5768     1121.351   107.225   -999.990
 5768.5     1106.394   108.516   -999.990
 5769     1105.286   108.957   -999.990
 5769.5     1104.179   106.983   -999.990
 5770     1103.071   105.008   -999.990
 5770.5     1101.964   105.434   -999.990
 5771     1100.856   107.258   -999.990
 5771.5     1099.749   108.742   -999.990
 5772     1120.406   107.334   -999.990
 5772.5     1141.062   105.925   -999.990
 5773     1154.191   104.517   -999.990
 5773.5     1150.216   103.108   -999.990
 5774     1146.24   101.7   -999.990
 5774.5     1142.265   103.975   -999.990
 5775     1138.29   107.003   -999.990
 5775.5     1134.314   110.031   -999.990
 5776     1135.638   113.059   -999.990
 5776.5     1141.927   117.487   -999.990
 5777     1148.216   125.336   -999.990
 5777.5     1158.545   134.633   -999.990
 5778     1188.258   142.391   -999.990
 5778.5     1217.97   142.079   -999.990
 5779     1246.429   141.766   -999.990
 5779.5     1270.915   141.453   -999.990
 5780     1275.16   102.732   -999.990
 5780.5     1242.432   103.655   -999.990
 5781     1209.705   104.578   -999.990
 5781.5     1206.261   105.501   -999.990
 5782     1220.041   106.424   -999.990
 5782.5     1233.819   107.348   -999.990
 5783     1231.587   108.271   -999.990
 5783.5     1207.994   109.194   -999.990
 5784     1184.4   110.732   -999.990
 5784.5     1160.807   112.822   -999.990
 5785     1137.214   114.912   -999.990
 5785.5     1154.841   116.212   -999.990
 5786     1179.764   113.623   -999.990
 5786.5     1204.687   111.034   -999.990
 5787     1229.61   108.518   -999.990
 5787.5     1254.533   107.618   -999.990
 5788     1271.941   106.719   -999.990
 5788.5     1260.249   105.819   -999.990
 5789     1248.557   104.919   -999.990
 5789.5     1236.864   105.794   -999.990
 5790     1225.172   107.517   -999.990
 5790.5     1277.141   109.24   -999.990
 5791     1329.629   110.962   -999.990
 5791.5     1346.004   112.685   -999.990
 5792     1346.362   114.408   -999.990
 5792.5     1346.719   116.131   -999.990
 5793     1347.076   112.329   -999.990
 5793.5     1347.434   108.085   -999.990
 5794     1347.791   103.842   -999.990
 5794.5     1396.941   104.102   -999.990
 5795     1412.814   106.038   -999.990
 5795.5     1425.814   107.975   -999.990
 5796     1396.487   107.457   -999.990
 5796.5     1367.161   106.262   -999.990
 5797     1386.995   107.42   -999.990
 5797.5     1409.2   110.202   -999.990
 5798     1431.406   112.985   -999.990
 5798.5     1441.133   115.768   -999.990
 5799     1438.57   118.55   -999.990
 5799.5     1436.006   121.333   -999.990
 5800     1433.443   121.143   -999.990
 5800.5     1430.879   120.021   -999.990
 5801     1439.25   118.899   -999.990
 5801.5     1489.134   120.417   -999.990
 5802     1539.017   120.357   -999.990
 5802.5     1549.723   118.964   -999.990
 5803     1553.682   119.493   -999.990
 5803.5     1557.64   120.944   -999.990
 5804     1561.599   122.394   -999.990
 5804.5     1539.337   123.844   -999.990
 5805     1499.766   124.85   -999.990
 5805.5     1424.685   148.084   -999.990
 5806     1283.675   171.317   -999.990
 5806.5     1142.664   182.421   -999.990
 5807     1031.96   193.18   -999.990
 5807.5     992.142   203.939   -999.990
 5808     952.325   214.699   -999.990
 5808.5     912.507   219.499   -999.990
 5809     960.889   221.47   -999.990
 5809.5     1022.152   223.442   -999.990
 5810     1083.416   225.413   -999.990
 5810.5     1144.68   227.25   -999.990
 5811     1498.365   210.863   -999.990
 5811.5     1483.803   194.477   -999.990
 5812     1469.24   178.09   -999.990
 5812.5     1454.678   161.703   -999.990
 5813     1440.115   153.599   -999.990
 5813.5     1464.254   160.279   -999.990
 5814     1533.704   166.958   -999.990
 5814.5     1603.155   173.637   -999.990
 5815     1672.606   180.317   -999.990
 5815.5     1822.667   186.996   -999.990
 5816     1779.251   164.328   -999.990
 5816.5     1735.835   130.194   -999.990
 5817     1692.418   119.24   -999.990
 5817.5     1649.002   123.57   -999.990
 5818     1605.585   127.899   -999.990
 5818.5     1562.169   132.229   -999.990
 5819     1518.753   136.559   -999.990
 5819.5     1466.899   140.889   -999.990
 5820     1365.782   145.219   -999.990
 5820.5     1264.665   149.549   -999.990
 5821     1274.648   159.891   -999.990
 5821.5     1289.58   171.646   -999.990
 5822     1304.511   181.268   -999.990
 5822.5     1298.578   176.271   -999.990
 5823     1257.326   171.273   -999.990
 5823.5     1216.073   176.332   -999.990
 5824     1213.563   183.154   -999.990
 5824.5     1254.324   189.976   -999.990
 5825     1295.084   196.799   -999.990
 5825.5     1335.844   187.059   -999.990
 5826     1376.605   173.337   -999.990
 5826.5     1359.61   159.615   -999.990
 5827     1338.987   145.894   -999.990
 5827.5     1349.695   139.807   -999.990
 5828     1361.779   135.991   -999.990
 5828.5     1373.863   132.176   -999.990
 5829     1385.947   128.36   -999.990
 5829.5     1398.031   130.058   -999.990
 5830     1410.115   134.115   -999.990
 5830.5     1340.418   138.173   -999.990
 5831     1259.187   142.689   -999.990
 5831.5     1199.56   147.875   -999.990
 5832     1183.357   153.061   -999.990
 5832.5     1167.155   158.246   -999.990
 5833     1150.952   163.432   -999.990
