#--------------------------------------------------#
#-------------------ENVERUS, INC.------------------#
#------------------WWW.ENVERUS.COM-----------------#
#------------------COPYRIGHT 2020------------------#
#--------------------------------------------------#
#THIS FILE MAY BE USED ONLY IN ACCORDANCE WITH A CURRENT SUBSCRIPTION AGREEMENT BETWEEN
#THE USER AND ENVERUS, INC. NO PART OF THIS FILE MAY BE REPRODUCED, USED, COPIED,
#MODIFIED, PROPAGATED, OR DISTRIBUTED EXCEPT IN ACCORDANCE WITH THE SUBSCRIPTION
#AGREEMENT. UNAUTHORIZED USE OR DISTRIBUTION OF ALL OR ANY PART OF THIS FILE MAY VIOLATE
#COPYRIGHT, TRADEMARK, AND/OR OTHER LAWS AND IS SUBJECT TO CIVIL AS WELL AS CRIMINAL
#SANCTIONS.
#--------------------------------------------------#
#THIS FILE IS PROVIDED "AS-IS" AND ALL WARRANTIES ARE EXPRESSLY DISCLAIMED, WHETHER
#EXPRESS, ORAL, IMPLIED, STATUTORY OR OTHERWISE, INCLUDING ANY IMPLIED WARRANTY OF FITNESS
#FOR A PARTICULAR PURPOSE, MERCHANTABILITY, TITLE OR NON-INFRINGEMENT, AND ANY WARRANTIES
#ARISING BY VIRTUE OF CUSTOM OF TRADE OR COURSE OF DEALING.  FURTHER, ENVERUS, INC.
#AND ITS LICENSORS DO NOT REPRESENT OR WARRANT THAT THIS FILE WILL MEET USER'S
#REQUIREMENTS OR ARE SUITABLE FOR USER'S NEEDS OR THAT THE DATA OR RESULTS PROVIDED IN
#CONJUNCTION THEREWITH ARE CORRECT, ACCURATE, TIMELY OR RELIABLE. THESE DISCLAIMERS SHALL
#APPLY REGARDLESS OF ANY FAILURE OF ESSENTIAL PURPOSE OF ANY LIMITED REMEDY.  SOME
#JURISDICTIONS DO NOT ALLOW THE EXCLUSION OF CERTAIN WARRANTIES SO SOME OF THE ABOVE
#EXCLUSIONS MAY NOT APPLY. IN NO EVENT SHALL ENVERUS, INC. OR ANY OF ITS AFFILIATES
#BE LIABLE UNDER ANY LEGAL THEORY, WHETHER IN TORT (INCLUDING WITHOUT LIMITATION
#NEGLIGENCE), CONTRACT, STRICT LIABILITY, STATUTORY OR OTHERWISE, FOR ANY SPECIAL,
#INCIDENTAL, CONSEQUENTIAL, EXEMPLARY, PUNITIVE OR INDIRECT DAMAGE OF ANY KIND, INCLUDING
#WITHOUT LIMITATION LOSS OF REVENUE, PROFITS, GOODWILL, USE, AND/OR DATA OR THE COST OF
#PROCUREMENT OF SUBSTITUTE GOODS OR SERVICES, EVEN IF APPRISED OF THE POSSIBILITY OF SUCH
#DAMAGES IN ADVANCE.
#--------------------------------------------------#

~VERSION INFORMATION
VERS. 2.0 : CWLS LOG ASCII STANDARD - VERSION 2.0
WRAP. NO : ONE LINE PER DEPTH STEP
~WELL INFORMATION
#MNEMONIC     .UNIT              VALUE :DESCRIPTION
STRT       .FT                101.00000 :START DEPTH
STOP       .FT                5802.00000 :STOP DEPTH
STEP       .FT                0.50000 :STEP
NULL       .                -999.25000 :NULL VALUE
UWI       .                42389010150000 :UNIQUE WELL ID
API       .                42389010150000 :API NUMBER
COMP       .                 :COMPANY
WELL       .                 :WELL
FLD       .                 :FIELD
LOC       .                 :LOCATION
CNTY       .                 :COUNTY
STAT       .                 :STATE
CTRY       .                 :COUNTRY
SRVC       .                 :SERVICE COMPANY
DATE       .                 :DATE
~CURVE INFORMATION
#MNEMONIC     .UNIT      API CODE :CURVE DESCRIPTION
DEPTH       .FT                      :MEASURED DEPTH
DT       .US/FT        UNKNOWN   :DT
GR       .GAPI        UNKNOWN   :GR
~A    DEPTH    DT    GR
# ...
2376.00000    81.29413    4.61686
2376.50000    79.59748    4.30086
2377.00000    77.90082    4.18892
2377.50000    76.20417    4.21368
2378.00000    74.50751    4.23843
2378.50000    72.81086    4.26318
2379.00000    71.11420    4.28190
2379.50000    69.41755    4.29650
2380.00000    67.72089    4.31110
2380.50000    66.33383    4.32570
2381.00000    67.72889    4.34030
2381.50000    69.12394    4.35491
2382.00000    70.51899    4.36951
2382.50000    71.91405    4.47684
2383.00000    73.30910    4.60499
2383.50000    73.94903    4.73314
2384.00000    70.45490    4.86130
2384.50000    66.96076    4.98945
2385.00000    63.46663    5.11760
2385.50000    59.97250    5.24575
2386.00000    56.47836    5.37390
2386.50000    52.98423    5.50205
2387.00000    49.49009    5.17781
2387.50000    48.67163    4.76133
2388.00000    65.66888    4.74468
2388.50000    82.66612    4.72802
2389.00000    86.62891    4.71136
2389.50000    83.42640    4.69470
2390.00000    80.22390    4.67805
2390.50000    77.02139    4.59746
2391.00000    73.81888    4.44938
2391.50000    70.61638    4.30130
2392.00000    67.41387    4.15321
2392.50000    64.21137    4.00513
2393.00000    61.00886    4.33568
2393.50000    57.80635    4.75459
2394.00000    54.60385    5.17349
2394.50000    55.91085    5.10036
2395.00000    72.23294    4.89870
2395.50000    83.76029    4.69704
2396.00000    79.31028    4.64931
2396.50000    74.86026    4.84652
2397.00000    70.41024    5.04372
2397.50000    65.96023    5.24093
2398.00000    67.47121    5.28043
2398.50000    71.72685    5.08081
2399.00000    73.00785    4.88120
2399.50000    71.79551    4.68158
2400.00000    70.58316    4.48197
2400.50000    69.37082    4.28236
2401.00000    68.15848    4.08274
2401.50000    66.94614    3.88313
2402.00000    65.73380    3.69779
2402.50000    64.52146    3.94745
2403.00000    63.30912    4.19711
2403.50000    62.09678    4.50204
2404.00000    61.33619    4.95329
2404.50000    66.22689    5.40454
2405.00000    71.11759    5.85578
2405.50000    76.00829    6.30703
2406.00000    75.36344    6.29567
2406.50000    72.84778    6.08427
2407.00000    70.33212    5.87287
2407.50000    67.81646    5.66147
2408.00000    73.07967    5.57136
2408.50000    76.07070    5.48377
2409.00000    74.60135    5.39618
2409.50000    73.13201    5.30860
2410.00000    71.66266    5.22101
2410.50000    70.19331    5.13342
2411.00000    68.72396    5.04583
2411.50000    67.25462    4.95825
2412.00000    65.78527    4.88671
2412.50000    64.31592    5.65552
2413.00000    63.20701    6.42434
2413.50000    65.84254    7.19315
2414.00000    68.47806    7.96196
2414.50000    71.11359    8.73077
2415.00000    71.02491    8.58513
2415.50000    69.72678    7.52651
2416.00000    68.42865    7.52663
2416.50000    67.13052    7.52675
2417.00000    65.83240    7.52686
2417.50000    64.53427    7.52698
2418.00000    63.23614    7.36510
2418.50000    61.93801    7.12381
2419.00000    61.64694    6.88252
2419.50000    64.36704    6.64124
2420.00000    67.08713    6.39995
2420.50000    69.80723    6.15867
2421.00000    72.52733    5.92904
2421.50000    73.72899    5.76206
2422.00000    72.51061    5.59508
2422.50000    71.29223    5.42810
2423.00000    70.07385    5.26112
2423.50000    68.85547    5.09414
2424.00000    67.63710    5.15563
2424.50000    66.41872    5.82107
2425.00000    68.94086    6.48652
2425.50000    74.80831    7.15196
2426.00000    73.27536    7.81740
2426.50000    69.66347    8.48284
2427.00000    66.05158    8.12580
2427.50000    62.43969    7.52621
2428.00000    66.29094    6.92663
2428.50000    72.55628    6.47122
2429.00000    78.82161    6.26445
2429.50000    85.08695    6.05768
2430.00000    91.35229    5.85091
2430.50000    93.52112    5.64415
2431.00000    88.17324    5.43738
2431.50000    82.82536    5.23061
2432.00000    77.47748    5.10377
2432.50000    72.12960    5.23171
2433.00000    66.78172    5.35965
2433.50000    61.43384    5.48759
2434.00000    56.08596    5.61553
2434.50000    56.48225    4.81315
2435.00000    58.09347    3.50703
2435.50000    59.70470    3.67644
2436.00000    61.31593    3.84585
2436.50000    62.92715    4.01526
2437.00000    64.53838    4.18468
2437.50000    72.20545    4.35409
2438.00000    80.79830    4.37524
2438.50000    89.39116    4.36155
2439.00000    90.54983    4.34786
2439.50000    78.31659    4.33417
2440.00000    66.08335    4.32048
2440.50000    63.49275    4.30679
2441.00000    66.79893    4.29310
2441.50000    70.10512    4.32512
2442.00000    73.41130    4.37558
2442.50000    74.22251    4.42604
2443.00000    73.59074    4.47650
2443.50000    72.95898    4.52696
2444.00000    72.32721    4.57742
2444.50000    71.69545    4.14509
2445.00000    71.06368    3.63321
2445.50000    70.43192    3.39935
2446.00000    49.40166    3.65356
2446.50000    50.23284    3.90778
2447.00000    51.06401    4.16200
2447.50000    51.89519    4.41621
2448.00000    52.72637    4.67043
2448.50000    53.55754    4.92464
2449.00000    54.13741    5.17886
2449.50000    54.42585    5.43308
2450.00000    54.71429    5.50920
2450.50000    55.00273    5.38214
2451.00000    55.29117    5.25509
2451.50000    55.57961    5.12804
2452.00000    55.86805    5.00099
2452.50000    56.15649    5.16266
2453.00000    56.44493    5.38551
2453.50000    56.73337    5.60837
2454.00000    57.02181    5.83122
2454.50000    57.31025    6.05407
2455.00000    55.83259    6.27693
2455.50000    53.95041    6.49978
2456.00000    52.06822    6.18455
2456.50000    50.18605    5.70253
2457.00000    52.40425    5.22051
2457.50000    59.42980    4.73849
2458.00000    66.45535    4.25647
2458.50000    71.33094    4.10601
2459.00000    73.56397    4.34204
2459.50000    75.79699    4.57808
2460.00000    78.03002    4.81411
2460.50000    80.26305    5.05015
2461.00000    82.49607    5.28618
2461.50000    84.72910    5.52222
2462.00000    86.96212    5.75825
2462.50000    89.19515    5.99429
2463.00000    91.42817    6.23032
2463.50000    93.66120    6.46636
2464.00000    43.43612    6.70239
2464.50000    44.77551    5.94391
2465.00000    46.11491    5.60599
2465.50000    47.45430    5.85520
2466.00000    48.79369    6.10440
2466.50000    50.13308    4.13809
2467.00000    51.50273    4.00207
2467.50000    52.92949    3.86605
2468.00000    54.35625    3.73004
2468.50000    55.78302    3.59402
2469.00000    57.20978    3.45800
2469.50000    57.03679    3.32198
2470.00000    56.51677    3.48183
2470.50000    55.99676    3.66635
2471.00000    55.47674    3.85087
2471.50000    54.95673    4.03539
2472.00000    54.43671    4.21991
2472.50000    55.28223    4.40443
2473.00000    57.21153    4.58895
2473.50000    59.14083    4.77347
2474.00000    61.07013    4.57969
2474.50000    62.99943    4.35787
2475.00000    64.92873    4.13605
2475.50000    66.85803    3.91423
2476.00000    68.13218    3.69241
2476.50000    66.00467    3.47059
2477.00000    63.87716    3.59501
2477.50000    61.74965    3.84784
2478.00000    59.62214    4.10067
2478.50000    57.49463    4.35349
2479.00000    55.36712    4.60632
2479.50000    53.23961    4.85914
2480.00000    52.09390    4.50894
2480.50000    53.18956    4.08808
2481.00000    54.18543    3.66721
2481.50000    53.97660    3.24635
2482.00000    53.76778    2.95460
2482.50000    53.55895    3.10678
2483.00000    53.74338    3.25897
2483.50000    54.10148    3.41115
2484.00000    54.45957    3.56334
2484.50000    54.44166    3.71552
2485.00000    54.23500    3.86771
2485.50000    54.02835    3.67930
2486.00000    53.82169    3.38541
2486.50000    53.61503    3.09152
2487.00000    53.40837    2.79763
2487.50000    53.20170    2.66937
2488.00000    52.99505    2.77238
2488.50000    52.78839    2.87538
2489.00000    52.58173    2.97839
2489.50000    52.72113    3.08139
2490.00000    52.88402    3.18440
2490.50000    53.04691    3.28740
2491.00000    53.20980    3.39041
2491.50000    53.37269    3.49341
2492.00000    53.53558    3.59642
2492.50000    53.69847    4.21548
2493.00000    53.86136    4.91296
2493.50000    54.02425    5.61044
