#--------------------------------------------------#
#-------------------ENVERUS, INC.------------------#
#------------------WWW.ENVERUS.COM-----------------#
#------------------COPYRIGHT 2020------------------#
#--------------------------------------------------#
#THIS FILE MAY BE USED ONLY IN ACCORDANCE WITH A CURRENT SUBSCRIPTION AGREEMENT BETWEEN
#THE USER AND ENVERUS, INC. NO PART OF THIS FILE MAY BE REPRODUCED, USED, COPIED,
#MODIFIED, PROPAGATED, OR DISTRIBUTED EXCEPT IN ACCORDANCE WITH THE SUBSCRIPTION
#AGREEMENT. UNAUTHORIZED USE OR DISTRIBUTION OF ALL OR ANY PART OF THIS FILE MAY VIOLATE
#COPYRIGHT, TRADEMARK, AND/OR OTHER LAWS AND IS SUBJECT TO CIVIL AS WELL AS CRIMINAL
#SANCTIONS.
#--------------------------------------------------#
#THIS FILE IS PROVIDED "AS-IS" AND ALL WARRANTIES ARE EXPRESSLY DISCLAIMED, WHETHER
#EXPRESS, ORAL, IMPLIED, STATUTORY OR OTHERWISE, INCLUDING ANY IMPLIED WARRANTY OF FITNESS
#FOR A PARTICULAR PURPOSE, MERCHANTABILITY, TITLE OR NON-INFRINGEMENT, AND ANY WARRANTIES
#ARISING BY VIRTUE OF CUSTOM OF TRADE OR COURSE OF DEALING.  FURTHER, ENVERUS, INC.
#AND ITS LICENSORS DO NOT REPRESENT OR WARRANT THAT THIS FILE WILL MEET USER'S
#REQUIREMENTS OR ARE SUITABLE FOR USER'S NEEDS OR THAT THE DATA OR RESULTS PROVIDED IN
#CONJUNCTION THEREWITH ARE CORRECT, ACCURATE, TIMELY OR RELIABLE. THESE DISCLAIMERS SHALL
#APPLY REGARDLESS OF ANY FAILURE OF ESSENTIAL PURPOSE OF ANY LIMITED REMEDY.  SOME
#JURISDICTIONS DO NOT ALLOW THE EXCLUSION OF CERTAIN WARRANTIES SO SOME OF THE ABOVE
#EXCLUSIONS MAY NOT APPLY. IN NO EVENT SHALL ENVERUS, INC. OR ANY OF ITS AFFILIATES
#BE LIABLE UNDER ANY LEGAL THEORY, WHETHER IN TORT (INCLUDING WITHOUT LIMITATION
#NEGLIGENCE), CONTRACT, STRICT LIABILITY, STATUTORY OR OTHERWISE, FOR ANY SPECIAL,
#INCIDENTAL, CONSEQUENTIAL, EXEMPLARY, PUNITIVE OR INDIRECT DAMAGE OF ANY KIND, INCLUDING
#WITHOUT LIMITATION LOSS OF REVENUE, PROFITS, GOODWILL, USE, AND/OR DATA OR THE COST OF
#PROCUREMENT OF SUBSTITUTE GOODS OR SERVICES, EVEN IF APPRISED OF THE POSSIBILITY OF SUCH
#DAMAGES IN ADVANCE.
#--------------------------------------------------#

~VERSION INFORMATION
VERS. 2.0 : CWLS LOG ASCII STANDARD - VERSION 2.0
WRAP.  NO : ONE LINE PER DEPTH STEP
~WELL INFORMATION
#MNEMONIC     .UNIT              VALUE :DESCRIPTION
STRT       .FT                50 :START DEPTH
STOP       .FT                6118 :STOP DEPTH
STEP       .FT                   0.500 :STEP
NULL       .                  -999.990 :NULL
UWI        .              42389003090000 :UNIQUE WELL ID
API        .              42389003090000 :API NUMBER
COMP       .         :COMPANY
WELL       .         1, :WELL
DATE       .                            :LOG DATE
~CURVE INFORMATION
#MNEMONIC     .UNIT      API CODE :CURVE DESCRIPTION
DEPTH       .FT                      :MEASURED DEPTH
NEUT.API        UNKNOWN   :NEUT
GR.API        UNKNOWN   :GR
DT.US/FT        UNKNOWN   :DT
~A    DEPTH    NEUT    GR    DT
# ...
 5108.5     1293.194   13.667   52.363
 5109     1250.432   19.17   51.891
 5109.5     1207.67   24.873   51.419
 5110     1164.908   30.576   55.138
 5110.5     1122.146   33.521   59.108
 5111     1082.976   34.663   63.079
 5111.5     1053.876   39.092   67.049
 5112     993.876   44.599   70.439
 5112.5     921.507   50.105   72.092
 5113     849.137   55.611   73.744
 5113.5     776.767   61.117   73.853
 5114     704.398   66.623   69.503
 5114.5     689.266   72.13   67.23
 5115     702.26   77.636   66.815
 5115.5     715.254   83.02   67.36
 5116     728.247   88.145   68.323
 5116.5     741.241   93.271   69.286
 5117     736.593   98.397   70.249
 5117.5     727.875   103.523   69.771
 5118     719.156   110.73   68.503
 5118.5     710.438   102.099   67.235
 5119     711.097   93.468   65.967
 5119.5     739.037   85.547   66.223
 5120     766.977   87.546   66.774
 5120.5     770.22   89.546   67.324
 5121     758.555   91.545   67.875
 5121.5     746.89   90.862   68.329
 5122     744.32   89.517   68.115
 5122.5     743.45   88.171   67.901
 5123     742.58   88.682   67.687
 5123.5     737.999   90.105   67.473
 5124     726.688   91.528   67.259
 5124.5     715.378   92.951   67.668
 5125     704.068   94.374   70.054
 5125.5     698.876   95.797   69.146
 5126     719.367   96.955   68.237
 5126.5     735.413   93.685   67.329
 5127     737.622   90.415   68.28
 5127.5     739.832   87.145   70.191
 5128     742.041   86.412   69.751
 5128.5     735.161   90.117   69.072
 5129     713.845   103.677   69.655
 5129.5     692.528   109.854   72.203
 5130     671.211   107.222   71.696
 5130.5     649.894   115.125   71.189
 5131     650.773   123.029   70.682
 5131.5     676.599   129.638   71.816
 5132     702.426   135.806   73.571
 5132.5     727.07   137.629   72.046
 5133     730.666   139.453   70.499
 5133.5     734.262   141.276   68.953
 5134     737.858   142.588   67.406
 5134.5     751.551   132.804   65.86
 5135     800.168   112.05   67.095
 5135.5     833.416   78.302   68.612
 5136     792.847   77.64   70.129
 5136.5     752.278   80.262   71.645
 5137     711.708   111.582   73.162
 5137.5     671.139   144.516   74.678
 5138     676.01   155.245   74.503
 5138.5     700.276   156.752   72.869
 5139     724.541   158.26   71.236
 5139.5     748.806   135.575   69.602
 5140     772.633   114.194   67.968
 5140.5     792.924   97.784   66.808
 5141     813.215   85.827   66.145
 5141.5     833.506   81.485   65.482
 5142     853.797   77.144   65.986
 5142.5     874.088   72.802   67.238
 5143     894.379   68.461   68.489
 5143.5     886.192   64.457   69.741
 5144     847.153   62.255   70.117
 5144.5     808.114   61.309   70.361
 5145     780.257   67.137   70.605
 5145.5     756.887   72.964   70.849
 5146     733.516   78.791   71.521
 5146.5     710.146   84.618   72.432
 5147     689.422   93.255   73.343
 5147.5     677.581   104.917   74.254
 5148     673.702   117.11   73.647
 5148.5     683.19   134.067   73.034
 5149     692.678   134.238   72.421
 5149.5     717.875   83.267   71.808
 5150     759.591   77.643   72.334
 5150.5     801.307   83.957   73.428
 5151     819.466   87.788   74.522
 5151.5     825.902   79.574   75.616
 5152     832.339   71.36   76.578
 5152.5     838.775   63.146   76.741
 5153     831.207   63.218   76.903
 5153.5     822.055   64.422   77.209
 5154     812.902   65.625   77.679
 5154.5     803.749   66.829   78.149
 5155     794.596   68.033   78.619
 5155.5     785.443   69.237   79.089
 5156     776.29   68.094   78.28
 5156.5     767.138   66.891   77.081
 5157     769.988   65.689   76.524
 5157.5     778.685   64.486   76.252
 5158     787.382   65.88   75.98
 5158.5     796.079   68.506   75.707
 5159     804.776   71.132   78.93
 5159.5     799.339   70.631   82.168
 5160     788.034   66.495   82.421
 5160.5     776.728   62.358   82.617
 5161     765.423   58.222   82.813
 5161.5     767.389   54.085   83.009
 5162     780.589   49.949   83.206
 5162.5     793.789   49.363   83.402
 5163     806.989   48.795   80.138
 5163.5     820.188   48.529   78.788
 5164     833.388   48.957   81.286
 5164.5     809.651   49.384   80.901
 5165     781.017   49.811   80.318
 5165.5     752.383   50.239   81.322
 5166     723.75   50.666   82.327
 5166.5     695.116   51.094   82.238
 5167     673.233   53.886   79.914
 5167.5     676.969   58.701   77.59
 5168     680.705   63.516   75.685
 5168.5     684.441   68.331   76.499
 5169     706.484   70.341   77.312
 5169.5     725.276   71.622   75.557
 5170     725.915   72.902   73.389
 5170.5     726.555   74.182   74.338
 5171     727.195   77.271   75.288
 5171.5     747.762   80.987   75.402
 5172     772.222   84.703   73.659
 5172.5     796.682   88.42   73.313
 5173     820.048   85.088   75.964
 5173.5     841.771   76.213   78.616
 5174     842.653   67.337   81.267
 5174.5     819.505   56.875   83.864
 5175     796.356   51.434   84.197
 5175.5     773.207   55.855   84.53
 5176     750.059   60.277   84.864
 5176.5     726.91   64.698   81.881
 5177     717.343   67.745   78.938
 5177.5     721.984   70.38   78.9
 5178     726.626   73.014   78.863
 5178.5     724.878   74.533   81.741
 5179     717.437   71.577   87.617
 5179.5     709.997   68.621   95.774
 5180     702.557   65.666   92.936
 5180.5     714.717   62.71   90.097
 5181     750.242   59.754   85.323
 5181.5     785.766   56.799   78.923
 5182     840.011   53.843   72.523
 5182.5     909.057   50.979   67.924
 5183     913.549   50.981   70.019
 5183.5     917.538   50.983   75.389
 5184     883.759   50.986   80.703
 5184.5     844.358   50.988   83.996
 5185     804.957   50.99   87.289
 5185.5     765.556   53.15   85.012
 5186     726.155   56.153   82.572
 5186.5     704.109   59.156   80.132
 5187     684.721   62.159   77.066
 5187.5     686.167   65.374   73.555
 5188     714.619   70.17   74.083
 5188.5     743.072   74.965   74.61
 5189     747.2   79.761   75.137
 5189.5     745.756   84.312   75.664
 5190     744.311   82.502   76.191
 5190.5     742.867   80.692   76.718
 5191     741.423   78.882   77.246
 5191.5     741.649   77.072   77.609
 5192     753.274   75.262   77.12
 5192.5     764.899   73.452   76.632
 5193     765.603   71.641   76.652
 5193.5     761.251   70.094   76.985
 5194     756.899   70.889   77.319
 5194.5     767.892   71.683   77.653
 5195     789.397   72.478   77.987
 5195.5     778.589   73.273   77.605
 5196     767.781   73.537   77.197
 5196.5     756.973   72.297   76.788
 5197     746.165   71.058   76.38
 5197.5     735.357   69.818   76.361
 5198     725.122   68.578   76.626
 5198.5     735.386   67.339   76.89
 5199     745.65   67.146   76.414
 5199.5     755.914   68.567   75.594
 5200     766.178   69.988   75.7
 5200.5     775.525   69.102   75.806
 5201     784.004   67.727   75.913
 5201.5     792.482   66.353   76.019
 5202     800.961   64.978   75.824
 5202.5     796.517   64.762   75.363
 5203     788.564   65.668   74.902
 5203.5     780.611   66.575   74.441
 5204     772.659   67.481   73.98
 5204.5     764.706   68.387   73.52
 5205     768.912   69.294   73.437
 5205.5     776.308   68.946   73.507
 5206     783.704   67.644   73.562
 5206.5     791.099   66.929   73.371
 5207     798.495   68.355   73.179
 5207.5     804.356   69.782   72.987
 5208     807.674   71.208   72.795
 5208.5     810.992   72.634   72.815
 5209     799.953   74.061   72.978
 5209.5     785.788   75.487   73.141
 5210     771.623   80.748   73.304
 5210.5     759.024   85.848   72.933
 5211     775.431   85.935   72.406
 5211.5     790.246   86.022   71.878
 5212     781.975   86.109   71.351
 5212.5     773.703   86.195   70.824
 5213     789.438   83.197   70.296
 5213.5     811.565   79.401   69.769
 5214     833.692   75.606   69.6
 5214.5     825.779   74.716   69.734
 5215     809.591   74.278   69.868
 5215.5     808.289   73.839   70.002
 5216     806.987   73.4   70.136
 5216.5     805.684   72.961   70.162
