###############################################
##         ENVERUS                           ##
##         ESS - Open Hole                   ##
##         PERMIAN / DELAWARE                ##
##         Nov 04 2023  V4.0                 ##
##         42-389-10119-00-00                ##
###############################################
## Copyright 2017-2023  ENVERUS.  All Rights Reserved. 
## Confidential - Property of ENVERUS, use governed by terms and 
## conditions found within the existing Information Services Subscription Agreement 
## (as may be amended, the “ISSA”) between Customer and ENVERUS. 
## 
~VERSION INFORMATION
# MNEM.UNIT                               DATA : DESCRIPTION OF MNEMONIC
#-----.-----     ----------------------------- : -----------------------------
VERS.                                     2.00 : CWLS LOG ASCII STANDARD - VERSION 2.00
WRAP.                                       NO : MULTIPLE LINES PER DEPTH STEP
VEND.                                  ENVERUS : VENDOR
TYPE.                          ESS - OPEN HOLE : ENVERUS ESSENTIAL CURVES – ACCESSIBLE THROUGH ENVERUS PRISM(TM)
DOC.                                  32008410 : ENVERUS HEADER RAW DOCUMENT ID
#___________________________________________________________________________________________________ 
~WELL INFORMATION 
# X8E3XgEZRMs+LiTqjMYqety/5rGXYLbzRNciiYBq17B6ClLelYcJjKNVvvPfWOVGxhvISow7q4Dbthq8gKP2Nw== 
# MNEM.UNIT                                              DATA : DESCRIPTION OF MNEMONIC 
#-----.-----                    ----------------------------- : ----------------------------- 
CNTY.                                                  REEVES : COUNTY 
STATE.                                                  TEXAS : STATE 
CNTRY.                                                    USA : COUNTRY 
API.                                             42-389-10119 : API (10 Digit) 
API_14.                                    42-389-10119-00-00 : API (14 Digits) 
API_14_std.                                 42-389-10119-0000 : API (14 Digits Standard) 
UWI.                                           42389101190000 : UNIQUE WELL ID 
WELL.                                                   1-40, : WELL NAME
STRT.FT                                                  58.0 : START DEPTH
STOP.FT                                                5338.0 : STOP DEPTH
STEP.FT                                                   0.5 : STEP BETWEEN DEPTHS
NULL.                                                 -999.25 : NULL VALUE
#___________________________________________________________________________________________________ 
~CURVE INFORMATION 
# MNEM.UNIT           : CURVE DESCRIPTION 
#-----.-----          : ----------------------------- 
 DEPT.FT               : MEASURED DEPTH 
 GR.API                : GAMMA RAY (GR) 
 DT.US/FT              : SONIC DELTA TRANSIT TIME (DT) 
 #___________________________________________________________________________________________________ 
~A         DEPT             GR             DT
# ...
         1798.0         10.465         86.554
         1798.5         11.134         69.146
         1799.0         11.804         63.737
         1799.5         12.474         63.737
         1800.0         13.144         62.508
         1800.5         12.448         87.019
         1801.0         11.142         87.070
         1801.5          9.836         73.496
         1802.0          8.530         73.513
         1802.5          7.224         81.908
         1803.0          5.918         82.047
         1803.5          4.650         76.234
         1804.0          5.289         65.484
         1804.5          5.928         48.866
         1805.0          6.567         46.020
         1805.5          7.206         43.175
         1806.0          7.845         40.329
         1806.5          8.139         53.592
         1807.0          8.170         67.743
         1807.5          8.201         59.803
         1808.0          8.232         59.348
         1808.5          8.263         62.117
         1809.0          8.294         64.885
         1809.5          8.325         54.515
         1810.0          8.356         43.657
         1810.5          8.957         51.152
         1811.0         10.026         58.648
         1811.5         11.095         54.517
         1812.0         12.164         47.425
         1812.5         12.972         49.546
         1813.0         11.936         51.666
         1813.5         10.901         52.000
         1814.0          9.866         51.602
         1814.5          8.880         51.204
         1815.0          9.213         51.392
         1815.5          9.546         51.820
         1816.0          9.879         53.165
         1816.5         10.212         58.313
         1817.0         10.545         64.024
         1817.5         10.878         69.736
         1818.0         11.211         73.429
         1818.5         11.544         75.531
         1819.0         11.877         81.919
         1819.5         12.210         81.990
         1820.0         15.253         82.049
         1820.5         20.320         62.519
         1821.0         25.386         52.629
         1821.5         30.870         47.959
         1822.0         36.446         49.552
         1822.5         40.792         50.876
         1823.0         33.706         52.201
         1823.5         26.620         52.310
         1824.0         19.534         51.817
         1824.5         12.770         51.325
         1825.0         11.372         50.832
         1825.5          9.974         51.029
         1826.0          8.575         51.564
         1826.5          7.177         52.098
         1827.0          6.351         52.633
         1827.5          6.293         53.167
         1828.0          6.235         53.701
         1828.5          6.176         53.777
         1829.0          6.118         53.598
         1829.5          6.059         53.419
         1830.0          6.001         88.902
         1830.5          5.943        100.247
         1831.0          5.884        102.225
         1831.5          6.555        101.816
         1832.0          7.310         96.861
         1832.5          8.065         91.297
         1833.0          8.820         82.592
         1833.5          9.575         69.646
         1834.0          9.005         56.700
         1834.5          8.367         46.768
         1835.0          7.729         46.615
         1835.5          7.091         46.462
         1836.0          6.452         46.309
         1836.5          6.772         51.323
         1837.0          7.222         59.127
         1837.5          7.673         72.337
         1838.0          8.124         82.566
         1838.5          8.574         78.161
         1839.0          8.392         79.434
         1839.5          8.144         87.001
         1840.0          7.897         80.946
         1840.5          7.650         63.901
         1841.0          7.403         62.891
         1841.5          7.156         45.507
         1842.0          6.908         39.375
         1842.5          6.661         46.362
         1843.0          7.122         57.185
         1843.5          7.708         68.007
         1844.0          8.294         78.830
         1844.5          8.879         79.153
         1845.0          9.465         90.541
         1845.5         10.051         79.324
         1846.0          9.703         81.389
         1846.5          9.252         84.386
         1847.0          8.800         63.807
         1847.5          8.349         55.573
         1848.0          7.897         61.393
         1848.5          7.446         67.213
         1849.0          8.092         62.847
         1849.5          8.957         67.173
         1850.0          9.823         79.336
         1850.5          9.918         76.720
         1851.0          8.764         72.633
         1851.5          7.610         78.631
         1852.0          6.456         80.012
         1852.5          5.710         73.422
         1853.0          6.001         75.600
         1853.5          6.293         78.743
         1854.0          6.584         66.985
         1854.5          6.875         76.032
         1855.0          7.167         85.565
         1855.5          7.364         86.151
         1856.0          7.342         74.641
         1856.5          7.321         71.610
         1857.0          7.299         68.578
         1857.5          7.278         74.656
         1858.0          7.256         78.682
         1858.5          7.234         78.920
         1859.0          7.213         58.600
         1859.5          7.191         64.125
         1860.0          7.170         69.650
         1860.5          7.148         38.872
         1861.0          7.126         38.832
         1861.5          7.554         39.265
         1862.0          8.119         45.918
         1862.5          8.684         47.692
         1863.0          9.249         49.466
         1863.5          8.969         51.228
         1864.0          8.477         52.432
         1864.5          7.985         53.637
         1865.0          7.493         54.841
         1865.5          7.001         52.091
         1866.0          6.509         51.627
         1866.5          6.717         51.636
         1867.0          7.186         51.645
         1867.5          7.656         51.654
         1868.0          8.126         51.663
         1868.5          8.596         51.672
         1869.0          9.066         51.681
         1869.5          9.536         52.603
         1870.0         10.006         53.528
         1870.5         17.294         57.268
         1871.0         25.944         56.581
         1871.5         27.833         55.894
         1872.0         27.333         55.207
         1872.5         25.420         53.656
         1873.0         23.506         51.246
         1873.5         21.593         51.445
         1874.0         19.680         51.691
         1874.5         17.767         51.937
         1875.0         15.853         52.182
         1875.5         13.940         52.428
         1876.0         12.027         52.674
         1876.5         11.378         52.920
         1877.0         11.087         52.964
         1877.5         10.797         52.770
         1878.0         10.506         52.576
         1878.5         10.216         52.383
         1879.0          9.925         53.507
         1879.5          9.635         53.790
         1880.0          9.344         53.939
         1880.5         12.151         54.088
         1881.0         11.416         54.236
         1881.5         10.682         53.773
         1882.0          9.947         53.270
         1882.5          9.212         52.766
         1883.0          8.760         52.262
         1883.5          9.517         52.008
         1884.0         10.273         52.076
         1884.5         11.029         52.144
