~VERSION INFORMATION
 VERS.                2.0:   CWLS LOG ASCII STANDARD - VERSION 2.0
 WRAP.                 NO:   ONE LINE PER DEPTH STEP
~WELL INFORMATION
#MNEM.UNIT      DATA TYPE    INFORMATION
#----------   ------------   ------------------------------
 STRT.FT          50.0000:   START DEPTH
 STOP.FT        5375.0000:   STOP DEPTH
 STEP.FT           0.5000:   STEP LENGTH
 NULL.          -999.2500:   NULL VALUE
 COMP.  A.N. NORWOOD, INC:   COMPANY
 WELL.        MCINTYRE #1:   WELL
 FLD .  ROJO CABALLOS, S.:   FIELD
 LOC .                   :   LOCATION
 CNTY.              PECOS:   COUNTY
 STAT.              TEXAS:   STATE
 CTRY. UNITED STATES OF AMERICA:   COUNTRY
 SRVC.              Welex:   SERVICE COMPANY
 DATE.        06-May-1983:   LOGDATE
 API .     42371342980000:   API NUMBER
~CURVE INFORMATION
#MNEM.UNIT       API CODE    CURVE DESCRIPTION
#----------   ------------   ------------------------------
 DEPT.F      0   1   0  0:   1 MEASURED DEPTH
 GRD .GAPI   45 310 01 00:   GAMMA RAY FROM DENSITY LOG
 NPOR_LS.DEC 42 890 01 00:   NEUTRON POROSITY LIMESTONE
 CALD.IN     45 280 60 00:   CALIPER FROM DENSITY LOG
 CORR.G/C3   45 356 01 00:   DENSITY CORRECTION
 RHOB.G/C3   45 350 01 00:   BULK DENSITY
 DPOR_LS.DEC 45 890 10 00:   DENSITY POROSITY LIMESTONE
 DT  .US/F   60 500 00 00:   DELTA-T (INTERVAL TRANSIT TIME)
 SPR .MV     07 010 01 00:   SPONTANEOUS POTENTIAL FROM RESISTIVITY LOG
 ILD .OHMM   07 120 46 00:   INDUCTION DEEP RESISTIVITY
 ILM .OHMM   07 120 44 00:   INDUCTION MEDIUM RESISTIVITY
~PARAMETER INFORMATION
#MNEM.UNIT          VALUE    DESCRIPTION
#----------   ------------   ------------------------------
 PD  .                 GL:   PERMANENT DATUM
 EPD .FT             2768:   ELEVATION PERMANENT DATUM
 LMF .                 KB:   LOG MEASURED FROM
 DAPD.FT               10:   FEET ABOVE PERMANENT DATUM
 DMF .                 KB:   DRILLING MEASURED FROM
 EKB .FT             2778:   KELLY BUSHING
 EDF .FT             2777:   DRILLING FLOOR
 EGL .FT             2768:   GROUND LEVEL
 DATE.           05/06/83:   RUN DATE
 RUN .                  1:   RUN NUMBER
 DD  .FT             5380:   DEPTH DRILLER
 DL  .FT             5377:   DEPTH LOGGER
 BLI .FT             5375:   BOTTOM LOG INTERVAL
 TLI .FT               50:   TOP LOG INTERVAL
 CS  .IN            8.625:   CASING SIZE
 CBD .FT             1596:   CASING BOTTOM DRILLER
 CBL .FT             1613:   CASING BOTTOM LOGGER
 BS  .IN             7.75:   BIT SIZE
 BSD .FT             5380:   BIT SIZE AT DEPTH
 DFT .           SALT GEL:   DRILLING FLUID TYPE
 DFD .               10.2:   DRILLING FLUID DENSITY
 DFV .                 33:   DRILLING FLUID VISCOSITY
 DFPH.                9.5:   DRILLING FLUID PH
 DFL .                 18:   DRILLING FLUID LOSS
 MSS .               CIRC:   MUD SAMPLE SOURCE
 RMS .OHMM           0.09:   RESISTIVITY MUD SAMPLE
 MST .DEGF             72:   MUD SAMPLE TEMPERATURE
 RMF .OHMM           0.08:   RESISTIVITY MUD FILTRATE SAMPLE
 MFST.DEGF             72:   MUD FILTRATE SAMPLE TEMPERATURE
 MFSS.               MEAS:   MUD FILTRATE SAMPLE SOURCE
 MCSS.               MEAS:   MUD CAKE SAMPLE SOURCE
 RMB .OHMM          0.059:   RESISTIVITY MUD AT BHT
 BHT .DEGF            112:   BOTTOM HOLE TEMPERATURE
 TCS .HRS               4:   TIME CIRCULATED STOPPED
 MRT .DEGF            112:   MAXIMUM RECORDED TEMPERATURE
 LUN .               3415:   LOGGING UNIT NUMBER
 LUL .             ODESSA:   LOGGING UNIT LOCATION
 ENGI.             LAWSON:   RECORDING ENGINEER
 WITN.            NORWOOD:   WITNESSED BY
 ORIG.      1" 2.5" PRINT:   ORIGIN OF DATA
 UWI .     42371342980000:   UNIQUE WELL ID
~OTHER INFORMATION
~A    DEPT        GRD      NPOR_LS      CALD        CORR        RHOB       DPOR_LS        DT         SPR         ILD         ILM    
# ...
  5052.0000      9.3148     -0.0070      8.5479     -0.0270      2.8530     -0.0838     49.2223    -48.2131    974.3156     40.4303 
  5052.5000      9.6136     -0.0069      8.5550     -0.0218      2.8660     -0.0824     49.3428    -48.1975   1023.9471     40.0391 
  5053.0000      8.4684     -0.0069      8.5622     -0.0165      2.8796     -0.0950     49.4018    -48.1329   1075.0486     39.7675 
  5053.5000      7.6797     -0.0068      8.5693     -0.0114      2.8933     -0.0990     49.4054    -47.9941   1128.7010     39.4977 
  5054.0000      7.3772     -0.0067      8.5765     -0.0064      2.9071     -0.0990     49.4189    -48.0402   1143.4849     39.2298 
  5054.5000      7.4515     -0.0066      8.5836     -0.0014      2.9165     -0.0989     49.4131    -48.2331   1143.6581     38.9636 
  5055.0000      8.3854     -0.0065      8.5908      0.0036      2.9194     -0.0989     49.3932    -48.4286   1125.3168     38.6993 
  5055.5000      9.2458     -0.0064      8.5979      0.0087      2.9178     -0.0968     49.1456    -48.4433   1074.8757     38.3746 
  5056.0000      9.4666     -0.0064      8.6051      0.0137      2.9027     -0.0944     48.9527    -48.4470   1026.6951     37.9456 
  5056.5000      9.4625     -0.0063      8.6107      0.0192      2.8876     -0.0975     49.0015    -48.4508    980.6741     37.5214 
  5057.0000      9.2302     -0.0062      8.6105      0.0271      2.8846     -0.0994     49.2048    -48.3391    936.7165     37.1020 
  5057.5000      8.7564     -0.0061      8.6103      0.0349      2.8883     -0.0997     49.2048    -48.2049    905.0298     36.6872 
  5058.0000      8.2782     -0.0060      8.6101      0.0428      2.9089     -0.1000     49.1836    -48.1195    898.8035     36.3105 
  5058.5000      7.9206     -0.0059      8.6099      0.0507      2.9547     -0.1003     49.0840    -48.0828    894.1096     36.4722 
  5059.0000      7.6757     -0.0059      8.6096      0.0587      2.9812     -0.1002     49.0535    -48.0460    890.2701     36.6347 
  5059.5000      7.8324     -0.0058      8.6094      0.0570      2.9927     -0.1001     49.1859    -47.9413    856.7463     36.7979 
  5060.0000      8.8998     -0.0057      8.6092      0.0510      2.9949     -0.0995     49.3971    -47.8125    807.6895     36.9618 
  5060.5000      9.6140     -0.0056      8.6090      0.0391      2.9797     -0.0989     49.4909    -47.6838    794.8091     37.1265 
  5061.0000     10.1032     -0.0055      8.6087      0.0256      2.9509     -0.0980     49.6419    -47.5941    787.9941     37.2919 
  5061.5000     10.1965     -0.0055      8.6085      0.0121      2.9277     -0.0956     49.6774    -47.5468    785.4952     37.4581 
  5062.0000      9.6359     -0.0056      8.6083     -0.0014      2.8952     -0.0819     49.5971    -47.4981    786.4004     37.6249 
  5062.5000      8.5769     -0.0056      8.6081     -0.0136      2.8628     -0.0731     49.4155    -47.4852    795.9151     37.7925 
  5063.0000      7.6727     -0.0057      8.6078     -0.0180      2.8324     -0.0689     49.2440    -47.5496    836.9545     37.8966 
  5063.5000      6.9184     -0.0057      8.6076     -0.0179      2.8314     -0.0758     49.2105    -47.6440    894.5313     37.9248 
  5064.0000      7.0855     -0.0057      8.6074     -0.0179      2.8373     -0.0793     49.2160    -47.4487   1033.8794     37.9690 
  5064.5000      7.8409     -0.0058      8.6072     -0.0179      2.8428     -0.0779     49.2251    -47.3618   1076.7750     38.0157 
  5065.0000      8.8426     -0.0058      8.6070     -0.0153      2.8483     -0.0839     49.4282    -47.5431   1119.3925     38.0624 
  5065.5000      9.8086     -0.0059      8.6067     -0.0118      2.8611     -0.0928     49.4465    -47.8155   1221.6035     38.1093 
  5066.0000     10.4709     -0.0059      8.6052     -0.0082      2.8704     -0.0985     49.4523    -48.0050   1276.0189     38.1562 
  5066.5000     11.1329     -0.0059      8.6028      0.0010      2.8778     -0.0995     49.4523    -48.0592   1336.1764     38.2031 
  5067.0000     11.4638     -0.0060      8.6028      0.0132      2.9000     -0.0995     49.4523    -48.1135   1383.3773     38.2501 
  5067.5000     10.8532     -0.0060      8.6033      0.0276      2.9076   -999.2500     49.4523    -48.1338   1433.3013     38.2972 
  5068.0000     10.2088     -0.0061      8.5984      0.0293      2.9118   -999.2500     49.4617    -48.1196   1524.1108     38.3443 
  5068.5000      9.7415     -0.0061      8.5920      0.0311      2.9143   -999.2500     49.4654    -48.1055   1944.6566     38.3915 
  5069.0000      9.6667     -0.0061      8.5856      0.0301      2.9161   -999.2500     49.4500    -48.0707   1969.2389     38.4387 
  5069.5000     10.1352     -0.0062      8.5792      0.0282      2.9208   -999.2500     49.4375    -48.0355   1934.2172     38.4616 
  5070.0000     10.8195     -0.0062      8.5780      0.0255      2.9274   -999.2500     49.4250    -48.0003   1750.3090     38.4790 
  5070.5000     11.6620     -0.0063      8.5778      0.0204      2.9340   -999.2500     49.4125    -47.9651   1548.3008     38.4965 
  5071.0000     12.1722     -0.0063      8.5776      0.0115      2.9368   -999.2500     49.4000    -47.9300   1596.3341     38.5139 
  5071.5000     12.0006     -0.0063      8.5774      0.0027      2.9370   -999.2500     49.3875    -47.8948   1772.0541     38.5314 
  5072.0000     10.7392     -0.0064      8.5731     -0.0033      2.9299   -999.2500     49.3699    -47.8596   1877.2759     38.5489 
  5072.5000      9.6920     -0.0064      8.5434     -0.0060      2.9103   -999.2500     49.2508    -47.8860   1944.4526     38.5664 
  5073.0000      8.7961     -0.0065      8.5136     -0.0039      2.9161   -999.2500     49.1316    -47.9189   1957.6581     38.5839 
  5073.5000      8.0183     -0.0065      8.4839     -0.0003      2.9276   -999.2500     49.1029    -47.8879   1766.5885     38.6014 
  5074.0000      7.3649     -0.0065      8.4133      0.0044      2.9260   -999.2500     49.0938    -47.7841   1559.3610     38.6189 
  5074.5000      7.2339     -0.0066      8.3768      0.0090      2.9104   -999.2500     49.0765    -47.7472   1550.8427     38.6364 
  5075.0000      7.4457     -0.0066      8.3532      0.0122      2.8948     -0.0998     49.0519    -47.7225   1651.9915     38.6539 
  5075.5000      8.3875     -0.0067      8.3680      0.0151      2.8792     -0.0966     49.0545    -47.6977   1866.9347     38.6714 
  5076.0000      9.3584     -0.0067      8.4043      0.0180      2.8684     -0.0935     49.0575    -47.6730   1983.6654     38.6890 
  5076.5000     10.3970     -0.0067      8.4406      0.0207      2.8684     -0.0955     49.0605    -47.6483   1993.4117     38.7065 
  5077.0000     11.4545     -0.0068      8.4801      0.0234      2.8722     -0.0977     49.0636    -47.6235   1989.0621     38.7241 
  5077.5000     12.3335     -0.0068      8.5275      0.0265      2.8865     -0.0993     49.0671    -47.5988   1981.1743     38.7417 
  5078.0000     12.3777     -0.0069      8.5531      0.0316      2.9008     -0.0999     49.0737    -47.5740   1980.3000     38.7592 
  5078.5000     10.7308     -0.0069      8.5616      0.0367      2.9151     -0.1009     49.0850    -47.5493   1979.4250     38.7768 
  5079.0000      8.9067     -0.0069      8.5701      0.0401      2.9154     -0.1009     49.0215    -47.5492   1978.5516     38.7944 
  5079.5000      7.9521     -0.0070      8.5763      0.0401      2.9103     -0.1005     49.0249    -47.5821   1977.6774     38.8120 
  5080.0000      7.2900     -0.0070      8.5724      0.0309      2.9010     -0.1003     49.0333    -47.6150   1976.8047     38.8296 
  5080.5000      6.9256     -0.0071      8.5685      0.0219      2.8922     -0.0999     49.0417    -47.6479   1975.9313     38.8472 
  5081.0000      6.9405     -0.0071      8.5646      0.0128      2.8857     -0.0994     49.0501    -47.6807   1965.9520     38.8649 
  5081.5000      7.0627     -0.0071      8.5608      0.0038      2.8792     -0.0982     49.0585    -47.7136   1928.8019     38.8825 
  5082.0000      7.3741     -0.0071      8.5569     -0.0007      2.8766     -0.0950     49.0669    -47.7465   1880.3402     38.9001 
