#--------------------------------------------------#
#-------------------ENVERUS, INC.------------------#
#------------------WWW.ENVERUS.COM-----------------#
#------------------COPYRIGHT 2020------------------#
#--------------------------------------------------#
#THIS FILE MAY BE USED ONLY IN ACCORDANCE WITH A CURRENT SUBSCRIPTION AGREEMENT BETWEEN
#THE USER AND ENVERUS, INC. NO PART OF THIS FILE MAY BE REPRODUCED, USED, COPIED,
#MODIFIED, PROPAGATED, OR DISTRIBUTED EXCEPT IN ACCORDANCE WITH THE SUBSCRIPTION
#AGREEMENT. UNAUTHORIZED USE OR DISTRIBUTION OF ALL OR ANY PART OF THIS FILE MAY VIOLATE
#COPYRIGHT, TRADEMARK, AND/OR OTHER LAWS AND IS SUBJECT TO CIVIL AS WELL AS CRIMINAL
#SANCTIONS.
#--------------------------------------------------#
#THIS FILE IS PROVIDED "AS-IS" AND ALL WARRANTIES ARE EXPRESSLY DISCLAIMED, WHETHER
#EXPRESS, ORAL, IMPLIED, STATUTORY OR OTHERWISE, INCLUDING ANY IMPLIED WARRANTY OF FITNESS
#FOR A PARTICULAR PURPOSE, MERCHANTABILITY, TITLE OR NON-INFRINGEMENT, AND ANY WARRANTIES
#ARISING BY VIRTUE OF CUSTOM OF TRADE OR COURSE OF DEALING.  FURTHER, ENVERUS, INC.
#AND ITS LICENSORS DO NOT REPRESENT OR WARRANT THAT THIS FILE WILL MEET USER'S
#REQUIREMENTS OR ARE SUITABLE FOR USER'S NEEDS OR THAT THE DATA OR RESULTS PROVIDED IN
#CONJUNCTION THEREWITH ARE CORRECT, ACCURATE, TIMELY OR RELIABLE. THESE DISCLAIMERS SHALL
#APPLY REGARDLESS OF ANY FAILURE OF ESSENTIAL PURPOSE OF ANY LIMITED REMEDY.  SOME
#JURISDICTIONS DO NOT ALLOW THE EXCLUSION OF CERTAIN WARRANTIES SO SOME OF THE ABOVE
#EXCLUSIONS MAY NOT APPLY. IN NO EVENT SHALL ENVERUS, INC. OR ANY OF ITS AFFILIATES
#BE LIABLE UNDER ANY LEGAL THEORY, WHETHER IN TORT (INCLUDING WITHOUT LIMITATION
#NEGLIGENCE), CONTRACT, STRICT LIABILITY, STATUTORY OR OTHERWISE, FOR ANY SPECIAL,
#INCIDENTAL, CONSEQUENTIAL, EXEMPLARY, PUNITIVE OR INDIRECT DAMAGE OF ANY KIND, INCLUDING
#WITHOUT LIMITATION LOSS OF REVENUE, PROFITS, GOODWILL, USE, AND/OR DATA OR THE COST OF
#PROCUREMENT OF SUBSTITUTE GOODS OR SERVICES, EVEN IF APPRISED OF THE POSSIBILITY OF SUCH
#DAMAGES IN ADVANCE.
#--------------------------------------------------#

~VERSION INFORMATION
VERS. 2.0 : CWLS LOG ASCII STANDARD - VERSION 2.0
WRAP. NO : ONE LINE PER DEPTH STEP
~WELL INFORMATION
#MNEMONIC     .UNIT              VALUE :DESCRIPTION
STRT       .FT                7.00000 :START DEPTH
STOP       .FT                16581.00000 :STOP DEPTH
STEP       .FT                0.50000 :STEP
NULL       .                -999.25000 :NULL VALUE
UWI       .                42389300260000 :UNIQUE WELL ID
API       .                42389300260000 :API NUMBER
COMP       .                 :COMPANY
WELL       .                 :WELL
FLD       .                 :FIELD
LOC       .                 :LOCATION
CNTY       .                 :COUNTY
STAT       .                 :STATE
CTRY       .                 :COUNTRY
SRVC       .                 :SERVICE COMPANY
DATE       .                 :DATE
~CURVE INFORMATION
#MNEMONIC     .UNIT      API CODE :CURVE DESCRIPTION
DEPTH       .FT                      :MEASURED DEPTH
CAL       .IN        UNKNOWN   :CAL
DT       .US/FT        UNKNOWN   :DT
GR       .GAPI        UNKNOWN   :GR
~A    DEPTH    CAL    DT    GR
# ...
13396.50000    10.02427    85.21851    104.50135
13397.00000    9.97179    83.65572    103.09073
13397.50000    9.91930    82.09293    101.68011
13398.00000    9.88611    80.53015    100.26948
13398.50000    9.89871    83.50190    98.85886
13399.00000    9.91132    90.26657    97.44824
13399.50000    9.92392    89.31952    98.62480
13400.00000    9.93652    88.37248    100.31249
13400.50000    9.94913    87.42543    102.00019
13401.00000    9.95492    86.47839    100.38939
13401.50000    9.85995    85.53134    97.14058
13402.00000    9.76498    86.04434    94.12434
13402.50000    9.67001    87.03081    96.57508
13403.00000    9.57504    86.89929    99.02581
13403.50000    9.48007    85.42067    101.47655
13404.00000    9.38510    85.64868    103.92729
13404.50000    9.29013    86.84898    106.37802
13405.00000    9.42457    86.06288    104.95459
13405.50000    9.57884    84.59838    103.61940
13406.00000    9.55149    83.13388    103.14715
13406.50000    9.37608    81.87810    102.67490
13407.00000    9.20066    82.26645    102.20266
13407.50000    9.30747    84.13990    101.73041
13408.00000    9.45537    85.93078    102.38210
13408.50000    9.60328    86.09436    103.92835
13409.00000    9.75118    86.25794    105.47460
13409.50000    9.89909    85.91223    107.02085
13410.00000    10.04699    84.29393    116.64175
13410.50000    10.13051    82.67564    121.51112
13411.00000    10.08951    81.05735    120.97997
13411.50000    10.04851    79.43905    120.44882
13412.00000    10.00751    77.82076    119.91767
13412.50000    9.96650    76.61672    119.38652
13413.00000    9.92550    75.54113    118.85537
13413.50000    9.88450    74.97143    118.32422
13414.00000    9.84350    74.81042    117.79307
13414.50000    9.80250    74.64940    117.26192
13415.00000    9.81949    80.07192    115.58085
13415.50000    9.91104    87.57274    113.01491
13416.00000    10.00258    87.22963    110.44897
13416.50000    10.09413    86.88653    107.88303
13417.00000    10.18567    86.54342    105.31708
13417.50000    10.25985    86.69781    106.63217
13418.00000    10.32187    87.85669    107.97923
13418.50000    10.38389    87.49556    109.32629
13419.00000    10.44591    86.79266    107.75919
13419.50000    10.50793    86.08977    105.53857
13420.00000    10.56995    85.38688    103.31795
13420.50000    10.63196    84.68398    101.09734
13421.00000    10.37020    84.19338    100.75257
13421.50000    10.05089    84.42801    105.94319
13422.00000    9.73159    84.66264    111.13381
13422.50000    9.41229    100.25243    116.32443
13423.00000    9.28200    97.28676    121.51505
13423.50000    9.27826    94.09708    117.52764
13424.00000    9.27451    92.04161    112.86763
13424.50000    9.27077    89.98614    108.20761
13425.00000    9.26703    87.93067    103.54760
13425.50000    9.26328    86.83840    98.88758
13426.00000    9.25954    85.77257    94.22757
13426.50000    9.34057    84.06998    91.88858
13427.00000    9.45791    82.36740    95.23850
13427.50000    9.57524    81.09749    98.58842
13428.00000    9.69258    80.67727    101.93834
13428.50000    9.80991    80.25704    105.28826
13429.00000    9.92725    79.27742    108.63818
13429.50000    10.07672    77.39430    111.98809
13430.00000    10.24053    75.51118    115.33801
13430.50000    10.40434    73.62806    116.84196
13431.00000    10.56816    71.74494    108.44820
13431.50000    10.77899    69.86182    100.05443
13432.00000    11.02867    67.97870    96.92251
13432.50000    11.27834    66.09557    100.96612
13433.00000    11.48452    64.21245    105.00972
13433.50000    11.28551    62.32933    109.05333
13434.00000    11.08649    87.07020    112.42971
13434.50000    10.88748    84.98406    106.08200
13435.00000    10.68847    82.89792    103.70419
13435.50000    10.50795    80.81178    102.87920
13436.00000    10.35810    92.62891    102.05421
13436.50000    10.20825    92.86859    91.85969
13437.00000    10.05194    93.10827    90.21682
13437.50000    9.80730    93.34795    88.57396
13438.00000    9.56267    93.58764    86.05945
13438.50000    9.31804    93.82732    79.59244
13439.00000    9.07340    93.28390    73.12543
13439.50000    8.92686    92.05553    66.65842
13440.00000    9.04857    90.82716    61.33288
13440.50000    9.17028    89.59879    63.21155
13441.00000    9.29200    88.05664    65.09022
13441.50000    9.41371    86.19089    66.96889
13442.00000    9.53543    84.32515    68.84756
13442.50000    9.82744    82.45940    70.72622
13443.00000    10.60110    80.59365    72.32948
13443.50000    11.37475    78.72791    73.59179
13444.00000    11.18534    76.86216    74.85410
13444.50000    10.75261    74.99642    76.11641
13445.00000    10.31988    73.13067    96.70716
13445.50000    10.54782    71.26493    92.55988
13446.00000    10.89858    67.38412    88.41260
13446.50000    11.24934    63.47561    84.26532
13447.00000    11.60010    59.56711    99.03409
13447.50000    11.73646    58.33499    95.78715
13448.00000    11.52021    59.83892    92.54021
13448.50000    11.30396    61.34286    90.37331
13449.00000    11.08770    91.83425    118.54212
13449.50000    10.87145    101.56807    113.86446
13450.00000    10.65520    98.47589    108.27576
13450.50000    10.43895    95.62112    113.98721
13451.00000    10.22270    92.76634    118.97932
13451.50000    10.00644    90.64021    116.35116
13452.00000    9.99642    88.59523    113.72299
13452.50000    10.14232    86.55024    111.09483
13453.00000    10.28822    84.50526    108.46666
13453.50000    10.43412    82.46027    105.83849
13454.00000    10.58002    80.41529    104.09162
13454.50000    10.72593    89.47516    105.14225
13455.00000    10.87183    89.69840    106.19287
13455.50000    10.75344    88.98941    107.24350
13456.00000    10.25812    88.28042    108.29412
13456.50000    9.86352    87.57143    109.20904
13457.00000    10.05436    86.86245    109.35009
13457.50000    10.24519    94.58636    109.49114
13458.00000    10.43603    97.13286    109.63219
13458.50000    10.62687    94.92360    108.49598
13459.00000    10.81771    92.71434    104.45956
13459.50000    10.84749    90.50508    100.42313
13460.00000    10.43073    88.29582    96.38671
13460.50000    10.03810    86.08656    94.22280
13461.00000    9.94930    83.87730    95.69780
13461.50000    9.86050    80.79862    97.17279
13462.00000    9.77170    81.57542    98.81840
13462.50000    9.68290    82.35222    100.50600
13463.00000    9.59409    83.12901    102.19361
13463.50000    9.50529    88.58959    103.88121
13464.00000    9.63804    87.25118    105.56881
13464.50000    9.91127    85.91276    107.25641
13465.00000    10.18449    85.95071    108.34934
13465.50000    10.29616    85.57802    108.76877
13466.00000    10.35282    84.70989    109.18819
13466.50000    10.40947    83.84176    109.60762
13467.00000    10.45197    82.97363    110.02704
13467.50000    10.26659    82.10550    110.44646
13468.00000    10.08120    81.38833    110.55560
13468.50000    9.89582    80.71446    106.77857
13469.00000    9.71043    80.04060    103.59395
13469.50000    9.52505    84.79529    105.99643
13470.00000    9.60800    90.84794    108.39892
13470.50000    9.80020    90.14377    110.80141
13471.00000    9.99240    89.43960    111.02701
13471.50000    10.18460    88.73543    106.52421
13472.00000    10.37680    88.03126    102.02141
13472.50000    10.41646    87.32708    97.51861
13473.00000    10.24009    86.62291    100.13149
13473.50000    10.06372    85.91874    102.76415
13474.00000    9.88735    84.11153    105.39682
13474.50000    9.71098    82.04518    108.02948
13475.00000    9.55972    79.97883    110.66215
13475.50000    9.66762    80.18431    113.29481
13476.00000    9.77553    99.43161    110.12102
13476.50000    9.88343    96.22778    107.18359
13477.00000    9.99133    93.02395    108.77578
13477.50000    10.09924    90.73665    110.36797
13478.00000    10.20714    89.42848    111.96016
13478.50000    10.31504    88.12032    113.55235
13479.00000    10.42295    86.81215    115.14454
