#--------------------------------------------------#
#-------------------ENVERUS, INC.------------------#
#------------------WWW.ENVERUS.COM-----------------#
#------------------COPYRIGHT 2020------------------#
#--------------------------------------------------#
#THIS FILE MAY BE USED ONLY IN ACCORDANCE WITH A CURRENT SUBSCRIPTION AGREEMENT BETWEEN
#THE USER AND ENVERUS, INC. NO PART OF THIS FILE MAY BE REPRODUCED, USED, COPIED,
#MODIFIED, PROPAGATED, OR DISTRIBUTED EXCEPT IN ACCORDANCE WITH THE SUBSCRIPTION
#AGREEMENT. UNAUTHORIZED USE OR DISTRIBUTION OF ALL OR ANY PART OF THIS FILE MAY VIOLATE
#COPYRIGHT, TRADEMARK, AND/OR OTHER LAWS AND IS SUBJECT TO CIVIL AS WELL AS CRIMINAL
#SANCTIONS.
#--------------------------------------------------#
#THIS FILE IS PROVIDED "AS-IS" AND ALL WARRANTIES ARE EXPRESSLY DISCLAIMED, WHETHER
#EXPRESS, ORAL, IMPLIED, STATUTORY OR OTHERWISE, INCLUDING ANY IMPLIED WARRANTY OF FITNESS
#FOR A PARTICULAR PURPOSE, MERCHANTABILITY, TITLE OR NON-INFRINGEMENT, AND ANY WARRANTIES
#ARISING BY VIRTUE OF CUSTOM OF TRADE OR COURSE OF DEALING.  FURTHER, ENVERUS, INC.
#AND ITS LICENSORS DO NOT REPRESENT OR WARRANT THAT THIS FILE WILL MEET USER'S
#REQUIREMENTS OR ARE SUITABLE FOR USER'S NEEDS OR THAT THE DATA OR RESULTS PROVIDED IN
#CONJUNCTION THEREWITH ARE CORRECT, ACCURATE, TIMELY OR RELIABLE. THESE DISCLAIMERS SHALL
#APPLY REGARDLESS OF ANY FAILURE OF ESSENTIAL PURPOSE OF ANY LIMITED REMEDY.  SOME
#JURISDICTIONS DO NOT ALLOW THE EXCLUSION OF CERTAIN WARRANTIES SO SOME OF THE ABOVE
#EXCLUSIONS MAY NOT APPLY. IN NO EVENT SHALL ENVERUS, INC. OR ANY OF ITS AFFILIATES
#BE LIABLE UNDER ANY LEGAL THEORY, WHETHER IN TORT (INCLUDING WITHOUT LIMITATION
#NEGLIGENCE), CONTRACT, STRICT LIABILITY, STATUTORY OR OTHERWISE, FOR ANY SPECIAL,
#INCIDENTAL, CONSEQUENTIAL, EXEMPLARY, PUNITIVE OR INDIRECT DAMAGE OF ANY KIND, INCLUDING
#WITHOUT LIMITATION LOSS OF REVENUE, PROFITS, GOODWILL, USE, AND/OR DATA OR THE COST OF
#PROCUREMENT OF SUBSTITUTE GOODS OR SERVICES, EVEN IF APPRISED OF THE POSSIBILITY OF SUCH
#DAMAGES IN ADVANCE.
#--------------------------------------------------#

~VERSION INFORMATION
VERS. 2.0 : CWLS LOG ASCII STANDARD - VERSION 2.0
WRAP.  NO : ONE LINE PER DEPTH STEP
~WELL INFORMATION
#MNEMONIC     .UNIT              VALUE :DESCRIPTION
STRT       .FT                50 :START DEPTH
STOP       .FT                6118 :STOP DEPTH
STEP       .FT                   0.500 :STEP
NULL       .                  -999.990 :NULL
UWI        .              42389003090000 :UNIQUE WELL ID
API        .              42389003090000 :API NUMBER
COMP       .         :COMPANY
WELL       .         1, :WELL
DATE       .                            :LOG DATE
~CURVE INFORMATION
#MNEMONIC     .UNIT      API CODE :CURVE DESCRIPTION
DEPTH       .FT                      :MEASURED DEPTH
NEUT.API        UNKNOWN   :NEUT
GR.API        UNKNOWN   :GR
DT.US/FT        UNKNOWN   :DT
~A    DEPTH    NEUT    GR    DT
# ...
 6030.5     1426.525   137.324   -999.990
 6031     1487.389   132.227   -999.990
 6031.5     1537.278   127.603   -999.990
 6032     1567.359   123.301   -999.990
 6032.5     1544.834   119   -999.990
 6033     1498.115   114.699   -999.990
 6033.5     1451.395   115.539   -999.990
 6034     1404.676   121.257   -999.990
 6034.5     1357.956   127.275   -999.990
 6035     1374.135   132.639   -999.990
 6035.5     1405.57   138.003   -999.990
 6036     1437.006   143.367   -999.990
 6036.5     1463.417   148.731   -999.990
 6037     1455.673   154.094   -999.990
 6037.5     1447.928   138.409   -999.990
 6038     1440.184   128.387   -999.990
 6038.5     1432.439   126.147   -999.990
 6039     1417.905   123.907   -999.990
 6039.5     1382.183   121.668   -999.990
 6040     1346.461   119.382   -999.990
 6040.5     1330.716   116.623   -999.990
 6041     1342.741   113.864   -999.990
 6041.5     1354.766   111.106   -999.990
 6042     1366.331   109.077   -999.990
 6042.5     1335.903   112.148   -999.990
 6043     1305.476   115.219   -999.990
 6043.5     1275.049   117.624   -999.990
 6044     1244.622   115.631   -999.990
 6044.5     1208.889   115.295   -999.990
 6045     1164.56   117.697   -999.990
 6045.5     1120.906   120.1   -999.990
 6046     1144.435   124.711   -999.990
 6046.5     1167.964   126.675   -999.990
 6047     1191.492   128.548   -999.990
 6047.5     1215.021   130.421   -999.990
 6048     1238.323   132.294   -999.990
 6048.5     1228.348   134.167   -999.990
 6049     1218.374   136.041   -999.990
 6049.5     1252.018   137.664   -999.990
 6050     1263.764   134.751   -999.990
 6050.5     1251.335   131.839   -999.990
 6051     1238.906   128.926   -999.990
 6051.5     1226.476   130.237   -999.990
 6052     1214.047   131.663   -999.990
 6052.5     1211.602   133.088   -999.990
 6053     1239.272   134.514   -999.990
 6053.5     1266.942   135.939   -999.990
 6054     1294.611   137.364   -999.990
 6054.5     1322.281   138.563   -999.990
 6055     1359.693   136.161   -999.990
 6055.5     1374.672   133.76   -999.990
 6056     1351.332   131.358   -999.990
 6056.5     1327.991   128.956   -999.990
 6057     1304.651   128.653   -999.990
 6057.5     1281.31   135.218   -999.990
 6058     1257.969   141.784   -999.990
 6058.5     1287.541   148.349   -999.990
 6059     1358.202   154.914   -999.990
 6059.5     1428.862   158.49   -999.990
 6060     1519.918   159.783   -999.990
 6060.5     1646.534   161.077   -999.990
 6061     1773.149   162.37   -999.990
 6061.5     1804.105   106.854   -999.990
 6062     1756.533   107.193   -999.990
 6062.5     1708.961   116.112   -999.990
 6063     1661.389   124.378   -999.990
 6063.5     1613.817   129.764   -999.990
 6064     1566.245   133.635   -999.990
 6064.5     1518.673   134.697   -999.990
 6065     1478.339   135.759   -999.990
 6065.5     1453.343   136.821   -999.990
 6066     1428.346   137.884   -999.990
 6066.5     1398.567   138.946   -999.990
 6067     1401.073   140.008   -999.990
 6067.5     1416.834   141.07   -999.990
 6068     1432.596   142.132   -999.990
 6068.5     1448.357   128.826   -999.990
 6069     1464.119   114.013   -999.990
 6069.5     1398.883   100.777   -999.990
 6070     1332.942   102.463   -999.990
 6070.5     1267.001   104.782   -999.990
 6071     1201.06   107.101   -999.990
 6071.5     1155.534   106.255   -999.990
 6072     1145.24   105.201   -999.990
 6072.5     1134.946   104.146   -999.990
 6073     1129.332   103.092   -999.990
 6073.5     1134.629   103.911   -999.990
 6074     1139.927   106.054   -999.990
 6074.5     1145.224   108.198   -999.990
 6075     1150.521   110.341   -999.990
 6075.5     1142.417   112.484   -999.990
 6076     1122.896   114.627   -999.990
 6076.5     1103.374   112.842   -999.990
 6077     1122.003   110.923   -999.990
 6077.5     1144.916   109.004   -999.990
 6078     1152.953   107.085   -999.990
 6078.5     1130.637   105.166   -999.990
 6079     1108.322   103.247   -999.990
 6079.5     1114.611   101.328   -999.990
 6080     1133.838   102.403   -999.990
 6080.5     1153.064   105.825   -999.990
 6081     1172.29   109.246   -999.990
 6081.5     1191.516   112.418   -999.990
 6082     1210.743   113.479   -999.990
 6082.5     1229.969   114.541   -999.990
 6083     1219.367   115.602   -999.990
 6083.5     1201.179   116.663   -999.990
 6084     1182.991   115.299   -999.990
 6084.5     1181.051   113.212   -999.990
 6085     1185.083   111.125   -999.990
 6085.5     1186.92   109.039   -999.990
 6086     1173.522   106.952   -999.990
 6086.5     1160.125   105.406   -999.990
 6087     1146.727   108.169   -999.990
 6087.5     1146.437   110.932   -999.990
 6088     1181.215   113.695   -999.990
 6088.5     1181.209   116.457   -999.990
 6089     1181.203   119.22   -999.990
 6089.5     1207.416   120.223   -999.990
 6090     1243.238   119.362   -999.990
 6090.5     1221.535   118.5   -999.990
 6091     1199.831   117.638   -999.990
 6091.5     1195.159   -999.990   -999.990
 6092     1194.247   -999.990   -999.990
 6092.5     1193.334   -999.990   -999.990
 6093     1200.65   -999.990   -999.990
 6093.5     1223.983   -999.990   -999.990
 6094     1247.316   -999.990   -999.990
 6094.5     1270.649   -999.990   -999.990
 6095     1293.983   -999.990   -999.990
 6095.5     1317.316   -999.990   -999.990
 6096     1340.649   -999.990   -999.990
 6096.5     1339.397   -999.990   -999.990
 6097     1332.148   -999.990   -999.990
 6097.5     1324.898   -999.990   -999.990
 6098     1317.649   -999.990   -999.990
 6098.5     1310.657   -999.990   -999.990
 6099     1323.899   -999.990   -999.990
 6099.5     1331.788   -999.990   -999.990
 6100     1324.879   -999.990   -999.990
 6100.5     1317.969   -999.990   -999.990
 6101     1317.225   -999.990   -999.990
 6101.5     1338.545   -999.990   -999.990
 6102     1359.866   -999.990   -999.990
 6102.5     1381.186   -999.990   -999.990
 6103     1392.448   -999.990   -999.990
 6103.5     1376.823   -999.990   -999.990
 6104     1361.197   -999.990   -999.990
 6104.5     1345.572   -999.990   -999.990
 6105     1340.653   -999.990   -999.990
 6105.5     1354.245   -999.990   -999.990
 6106     1367.837   -999.990   -999.990
 6106.5     1358.593   -999.990   -999.990
 6107     1341.157   -999.990   -999.990
 6107.5     1323.721   -999.990   -999.990
 6108     1306.284   -999.990   -999.990
 6108.5     1288.848   -999.990   -999.990
 6109     1287.309   -999.990   -999.990
 6109.5     1299.005   -999.990   -999.990
 6110     1310.702   -999.990   -999.990
 6110.5     1321.559   -999.990   -999.990
 6111     1311.842   -999.990   -999.990
 6111.5     1302.125   -999.990   -999.990
 6112     1292.408   -999.990   -999.990
 6112.5     1308.104   -999.990   -999.990
 6113     1332.122   -999.990   -999.990
 6113.5     1321.953   -999.990   -999.990
 6114     1311.784   -999.990   -999.990
 6114.5     1301.615   -999.990   -999.990
 6115     1291.445   -999.990   -999.990
 6115.5     1291.359   -999.990   -999.990
 6116     1302.378   -999.990   -999.990
 6116.5     1306.018   -999.990   -999.990
 6117     1290.744   -999.990   -999.990
 6117.5     1286.536   -999.990   -999.990
 6118     1291.104   -999.990   -999.990
