#--------------------------------------------------#
#-------------------ENVERUS, INC.------------------#
#------------------WWW.ENVERUS.COM-----------------#
#------------------COPYRIGHT 2020------------------#
#--------------------------------------------------#
#THIS FILE MAY BE USED ONLY IN ACCORDANCE WITH A CURRENT SUBSCRIPTION AGREEMENT BETWEEN
#THE USER AND ENVERUS, INC. NO PART OF THIS FILE MAY BE REPRODUCED, USED, COPIED,
#MODIFIED, PROPAGATED, OR DISTRIBUTED EXCEPT IN ACCORDANCE WITH THE SUBSCRIPTION
#AGREEMENT. UNAUTHORIZED USE OR DISTRIBUTION OF ALL OR ANY PART OF THIS FILE MAY VIOLATE
#COPYRIGHT, TRADEMARK, AND/OR OTHER LAWS AND IS SUBJECT TO CIVIL AS WELL AS CRIMINAL
#SANCTIONS.
#--------------------------------------------------#
#THIS FILE IS PROVIDED "AS-IS" AND ALL WARRANTIES ARE EXPRESSLY DISCLAIMED, WHETHER
#EXPRESS, ORAL, IMPLIED, STATUTORY OR OTHERWISE, INCLUDING ANY IMPLIED WARRANTY OF FITNESS
#FOR A PARTICULAR PURPOSE, MERCHANTABILITY, TITLE OR NON-INFRINGEMENT, AND ANY WARRANTIES
#ARISING BY VIRTUE OF CUSTOM OF TRADE OR COURSE OF DEALING.  FURTHER, ENVERUS, INC.
#AND ITS LICENSORS DO NOT REPRESENT OR WARRANT THAT THIS FILE WILL MEET USER'S
#REQUIREMENTS OR ARE SUITABLE FOR USER'S NEEDS OR THAT THE DATA OR RESULTS PROVIDED IN
#CONJUNCTION THEREWITH ARE CORRECT, ACCURATE, TIMELY OR RELIABLE. THESE DISCLAIMERS SHALL
#APPLY REGARDLESS OF ANY FAILURE OF ESSENTIAL PURPOSE OF ANY LIMITED REMEDY.  SOME
#JURISDICTIONS DO NOT ALLOW THE EXCLUSION OF CERTAIN WARRANTIES SO SOME OF THE ABOVE
#EXCLUSIONS MAY NOT APPLY. IN NO EVENT SHALL ENVERUS, INC. OR ANY OF ITS AFFILIATES
#BE LIABLE UNDER ANY LEGAL THEORY, WHETHER IN TORT (INCLUDING WITHOUT LIMITATION
#NEGLIGENCE), CONTRACT, STRICT LIABILITY, STATUTORY OR OTHERWISE, FOR ANY SPECIAL,
#INCIDENTAL, CONSEQUENTIAL, EXEMPLARY, PUNITIVE OR INDIRECT DAMAGE OF ANY KIND, INCLUDING
#WITHOUT LIMITATION LOSS OF REVENUE, PROFITS, GOODWILL, USE, AND/OR DATA OR THE COST OF
#PROCUREMENT OF SUBSTITUTE GOODS OR SERVICES, EVEN IF APPRISED OF THE POSSIBILITY OF SUCH
#DAMAGES IN ADVANCE.
#--------------------------------------------------#

~VERSION INFORMATION
VERS. 2.0 : CWLS LOG ASCII STANDARD - VERSION 2.0
WRAP. NO : ONE LINE PER DEPTH STEP
~WELL INFORMATION
#MNEMONIC     .UNIT              VALUE :DESCRIPTION
STRT       .FT                7.00000 :START DEPTH
STOP       .FT                16581.00000 :STOP DEPTH
STEP       .FT                0.50000 :STEP
NULL       .                -999.25000 :NULL VALUE
UWI       .                42389300260000 :UNIQUE WELL ID
API       .                42389300260000 :API NUMBER
COMP       .                 :COMPANY
WELL       .                 :WELL
FLD       .                 :FIELD
LOC       .                 :LOCATION
CNTY       .                 :COUNTY
STAT       .                 :STATE
CTRY       .                 :COUNTRY
SRVC       .                 :SERVICE COMPANY
DATE       .                 :DATE
~CURVE INFORMATION
#MNEMONIC     .UNIT      API CODE :CURVE DESCRIPTION
DEPTH       .FT                      :MEASURED DEPTH
CAL       .IN        UNKNOWN   :CAL
DT       .US/FT        UNKNOWN   :DT
GR       .GAPI        UNKNOWN   :GR
~A    DEPTH    CAL    DT    GR
# ...
11107.00000    -999.25000    96.27307    130.88841
11107.50000    -999.25000    96.63057    129.57479
11108.00000    -999.25000    96.98807    128.26117
11108.50000    -999.25000    96.14573    126.88299
11109.00000    -999.25000    94.39927    122.00456
11109.50000    -999.25000    94.06754    117.12612
11110.00000    -999.25000    94.61591    112.24769
11110.50000    -999.25000    95.16427    107.36926
11111.00000    -999.25000    95.71264    102.49082
11111.50000    -999.25000    95.55850    99.03897
11112.00000    -999.25000    94.09093    96.33566
11112.50000    -999.25000    101.40341    93.63235
11113.00000    -999.25000    102.42782    90.92905
11113.50000    -999.25000    103.45224    93.94479
11114.00000    -999.25000    104.47666    99.33936
11114.50000    -999.25000    101.28857    104.73394
11115.00000    -999.25000    99.68258    110.12852
11115.50000    -999.25000    89.51671    115.52309
11116.00000    -999.25000    89.36351    120.91767
11116.50000    -999.25000    89.91363    126.31225
11117.00000    -999.25000    92.83700    131.70682
11117.50000    -999.25000    95.76037    134.52842
11118.00000    -999.25000    96.71021    136.20872
11118.50000    -999.25000    95.88839    133.40929
11119.00000    -999.25000    95.06658    129.40121
11119.50000    -999.25000    94.24477    132.06773
11120.00000    -999.25000    93.42295    136.51025
11120.50000    -999.25000    92.60114    140.95277
11121.00000    -999.25000    92.40156    144.13280
11121.50000    -999.25000    94.58697    129.31443
11122.00000    -999.25000    99.94331    114.49605
11122.50000    -999.25000    100.72173    110.94436
11123.00000    -999.25000    101.50015    109.10511
11123.50000    -999.25000    99.82259    106.67226
11124.00000    -999.25000    97.60689    102.50517
11124.50000    -999.25000    82.77606    98.33808
11125.00000    -999.25000    80.79959    94.17099
11125.50000    -999.25000    78.82313    95.49713
11126.00000    -999.25000    76.84667    97.27251
11126.50000    -999.25000    77.00025    99.04789
11127.00000    -999.25000    77.73602    100.82327
11127.50000    -999.25000    78.61149    102.59865
11128.00000    -999.25000    81.42362    91.95027
11128.50000    -999.25000    82.03074    93.97347
11129.00000    -999.25000    83.36815    95.99666
11129.50000    -999.25000    85.04172    98.01986
11130.00000    -999.25000    86.71528    96.18067
11130.50000    -999.25000    88.38885    99.75509
11131.00000    -999.25000    90.06242    106.46081
11131.50000    -999.25000    91.73598    113.16653
11132.00000    -999.25000    92.31457    119.87225
11132.50000    -999.25000    86.98170    106.94205
11133.00000    -999.25000    81.64883    93.62637
11133.50000    -999.25000    77.60178    81.66855
11134.00000    -999.25000    73.86295    82.71320
11134.50000    -999.25000    70.12412    83.75785
11135.00000    -999.25000    71.60572    88.04001
11135.50000    -999.25000    75.29925    95.05475
11136.00000    -999.25000    78.99279    102.06950
11136.50000    -999.25000    82.68632    109.08424
11137.00000    -999.25000    86.37985    116.09898
11137.50000    -999.25000    90.89052    122.59476
11138.00000    -999.25000    93.40694    121.49796
11138.50000    -999.25000    93.53244    120.40117
11139.00000    -999.25000    93.65793    119.30437
11139.50000    -999.25000    93.21491    119.21838
11140.00000    -999.25000    92.61481    124.10542
11140.50000    -999.25000    92.01471    126.21426
11141.00000    -999.25000    91.41461    122.20339
11141.50000    -999.25000    90.81451    119.77510
11142.00000    -999.25000    90.67645    120.77872
11142.50000    -999.25000    91.43013    121.78234
11143.00000    -999.25000    91.11274    121.49680
11143.50000    -999.25000    90.50840    112.28680
11144.00000    -999.25000    89.90405    111.24026
11144.50000    -999.25000    89.29970    113.13571
11145.00000    -999.25000    87.65462    114.00064
11145.50000    -999.25000    85.02421    110.76860
11146.00000    -999.25000    83.87626    113.50714
11146.50000    -999.25000    83.85836    117.06256
11147.00000    -999.25000    83.84047    120.61799
11147.50000    -999.25000    85.83859    123.61782
11148.00000    -999.25000    90.38883    122.79318
11148.50000    -999.25000    95.03498    121.96854
11149.00000    -999.25000    95.18851    121.14390
11149.50000    -999.25000    95.34204    120.31926
11150.00000    -999.25000    95.47468    119.49462
11150.50000    -999.25000    95.04260    118.66998
11151.00000    -999.25000    94.61051    119.54576
11151.50000    -999.25000    94.17842    121.33466
11152.00000    -999.25000    94.12398    123.12357
11152.50000    -999.25000    94.39322    124.91248
11153.00000    -999.25000    94.66246    126.70139
11153.50000    -999.25000    93.67983    125.35547
11154.00000    -999.25000    90.57020    121.73096
11154.50000    -999.25000    88.33974    118.10645
11155.00000    -999.25000    88.07085    119.50329
11155.50000    -999.25000    87.80195    121.29230
11156.00000    -999.25000    87.53306    123.08132
11156.50000    -999.25000    87.26416    124.87034
11157.00000    -999.25000    87.15496    126.65936
11157.50000    -999.25000    90.23908    127.87181
11158.00000    -999.25000    93.32320    128.98747
11158.50000    -999.25000    96.40732    126.44801
11159.00000    -999.25000    95.67663    123.68864
11159.50000    -999.25000    94.74296    120.92926
11160.00000    -999.25000    93.80930    122.20677
11160.50000    -999.25000    95.84213    125.61954
11161.00000    -999.25000    100.52389    126.83102
11161.50000    -999.25000    102.44002    115.70544
11162.00000    -999.25000    99.77922    104.57987
11162.50000    -999.25000    97.68882    97.62842
11163.00000    -999.25000    87.06629    99.52422
11163.50000    -999.25000    84.00384    101.42002
11164.00000    -999.25000    81.14400    99.90270
11164.50000    -999.25000    80.94303    97.46058
11165.00000    -999.25000    80.46561    95.01845
11165.50000    -999.25000    78.15084    95.77036
11166.00000    -999.25000    75.83608    99.86447
11166.50000    -999.25000    73.80152    104.65446
11167.00000    -999.25000    79.66909    109.44444
11167.50000    -999.25000    100.84717    114.23443
11168.00000    -999.25000    100.63992    119.02441
11168.50000    -999.25000    99.79935    123.81440
11169.00000    -999.25000    97.56506    126.46558
11169.50000    -999.25000    95.05985    128.14827
11170.00000    -999.25000    94.66061    129.83097
11170.50000    -999.25000    94.26136    131.51366
11171.00000    -999.25000    93.86212    133.19636
11171.50000    -999.25000    93.93937    123.54271
11172.00000    -999.25000    101.18124    106.75992
11172.50000    -999.25000    100.41172    89.97714
11173.00000    -999.25000    99.72007    73.19435
11173.50000    -999.25000    87.61950    75.50914
11174.00000    -999.25000    81.27833    80.12041
11174.50000    -999.25000    75.42951    84.73168
11175.00000    -999.25000    73.18945    89.34294
11175.50000    -999.25000    75.30793    93.95421
11176.00000    -999.25000    80.65491    98.56548
11176.50000    -999.25000    86.00189    103.17675
11177.00000    -999.25000    86.44201    107.78801
11177.50000    -999.25000    85.93939    111.72334
11178.00000    -999.25000    92.33608    113.14400
11178.50000    -999.25000    92.43641    114.56465
11179.00000    -999.25000    92.74731    115.98531
11179.50000    -999.25000    94.01896    117.40596
11180.00000    -999.25000    95.29061    118.82662
11180.50000    -999.25000    96.45912    120.24727
11181.00000    -999.25000    96.35154    121.66793
11181.50000    -999.25000    96.24397    123.08858
11182.00000    -999.25000    94.62104    122.38107
11182.50000    -999.25000    90.98412    121.51412
11183.00000    -999.25000    90.35603    114.47385
11183.50000    -999.25000    89.72794    107.43358
11184.00000    -999.25000    94.06906    108.99768
11184.50000    -999.25000    99.18818    110.92425
11185.00000    -999.25000    102.08119    112.85082
11185.50000    -999.25000    103.93126    114.77739
