#--------------------------------------------------#
#-------------------ENVERUS, INC.------------------#
#------------------WWW.ENVERUS.COM-----------------#
#------------------COPYRIGHT 2020------------------#
#--------------------------------------------------#
#THIS FILE MAY BE USED ONLY IN ACCORDANCE WITH A CURRENT SUBSCRIPTION AGREEMENT BETWEEN
#THE USER AND ENVERUS, INC. NO PART OF THIS FILE MAY BE REPRODUCED, USED, COPIED,
#MODIFIED, PROPAGATED, OR DISTRIBUTED EXCEPT IN ACCORDANCE WITH THE SUBSCRIPTION
#AGREEMENT. UNAUTHORIZED USE OR DISTRIBUTION OF ALL OR ANY PART OF THIS FILE MAY VIOLATE
#COPYRIGHT, TRADEMARK, AND/OR OTHER LAWS AND IS SUBJECT TO CIVIL AS WELL AS CRIMINAL
#SANCTIONS.
#--------------------------------------------------#
#THIS FILE IS PROVIDED "AS-IS" AND ALL WARRANTIES ARE EXPRESSLY DISCLAIMED, WHETHER
#EXPRESS, ORAL, IMPLIED, STATUTORY OR OTHERWISE, INCLUDING ANY IMPLIED WARRANTY OF FITNESS
#FOR A PARTICULAR PURPOSE, MERCHANTABILITY, TITLE OR NON-INFRINGEMENT, AND ANY WARRANTIES
#ARISING BY VIRTUE OF CUSTOM OF TRADE OR COURSE OF DEALING.  FURTHER, ENVERUS, INC.
#AND ITS LICENSORS DO NOT REPRESENT OR WARRANT THAT THIS FILE WILL MEET USER'S
#REQUIREMENTS OR ARE SUITABLE FOR USER'S NEEDS OR THAT THE DATA OR RESULTS PROVIDED IN
#CONJUNCTION THEREWITH ARE CORRECT, ACCURATE, TIMELY OR RELIABLE. THESE DISCLAIMERS SHALL
#APPLY REGARDLESS OF ANY FAILURE OF ESSENTIAL PURPOSE OF ANY LIMITED REMEDY.  SOME
#JURISDICTIONS DO NOT ALLOW THE EXCLUSION OF CERTAIN WARRANTIES SO SOME OF THE ABOVE
#EXCLUSIONS MAY NOT APPLY. IN NO EVENT SHALL ENVERUS, INC. OR ANY OF ITS AFFILIATES
#BE LIABLE UNDER ANY LEGAL THEORY, WHETHER IN TORT (INCLUDING WITHOUT LIMITATION
#NEGLIGENCE), CONTRACT, STRICT LIABILITY, STATUTORY OR OTHERWISE, FOR ANY SPECIAL,
#INCIDENTAL, CONSEQUENTIAL, EXEMPLARY, PUNITIVE OR INDIRECT DAMAGE OF ANY KIND, INCLUDING
#WITHOUT LIMITATION LOSS OF REVENUE, PROFITS, GOODWILL, USE, AND/OR DATA OR THE COST OF
#PROCUREMENT OF SUBSTITUTE GOODS OR SERVICES, EVEN IF APPRISED OF THE POSSIBILITY OF SUCH
#DAMAGES IN ADVANCE.
#--------------------------------------------------#

# EXPORTED FROM DI TRANSFORM
# DI TRANSFORM - A PRODUCT OF DRILLINGINFO, INC. - WWW.DRILLINGINFO.COM
#
~VERSION INFORMATION
 VERS.        2.0 : LAS ASCII STANDARD - VERSION 2.0
 WRAP.         NO : ONE LINE PER DEPTH STEP

~WELL INFORMATION
#MNEM.UNIT       DATA TYPE       INFORMATION
#---------       ---------       -----------
 STRT.FT           100 : START DEPTH
 STOP.FT         18040 : STOP DEPTH
 STEP.FT           0.5 : STEP LENGTH
 NULL.         -999.25 : NULL VALUE
 UWI.   42371302980000 : UNIQUE WELL ID
 API.   42371302980000 : WELL IDENTIFIER
 COMP.                 : COMPANY
 WELL.          DRD_55 : WELL NAME
 FLD.                  : FIELD NAME
 LOC.                  : WELL LOCATION
 CNTY.                 : COUNTY
 STAT.                 : STATE OR PROVINCE
 CTRY.                 : COUNTRY
 SRVC.                 : SERVICE COMPANY
 DATE.                 : DATE

~CURVE INFORMATION
#MNEM.UNIT       API CODE       CURVE DESCRIPTION
#---------       --------       -----------------
 DEPT.FT        : <MEASURED DEPTH>
 CAL.IN         : CALIPER
 DT.US/FT       : SONIC
 GR.GAPI        : GAMMA RAY

~PARAMETER INFORMATION
#MNEM.UNIT       VALUE       DESCRIPTION
#---------       -----       -----------

~A       DEPT         CAL          DT          GR
# ...
        16900     12.1034     69.9596     36.3144
      16900.5     11.8104     70.1593     35.2281
        16901     11.4727     62.2121      34.187
      16901.5     11.2929     62.5034     33.5524
        16902     11.1964     63.1569     33.7489
      16902.5     11.0679     65.4747       34.79
        16903     11.0449     80.2101     36.9061
      16903.5     11.0185     90.9007     38.4982
        16904     11.0365     77.2121      38.916
      16904.5     11.8771     62.7434     38.5479
        16905     11.6804     60.1111     37.6468
      16905.5     11.4086     57.7424     36.4126
        16906     11.4269     56.2505     34.8509
      16906.5     11.4183     76.3902     33.2746
        16907     11.3989     60.1354      30.603
      16907.5     11.7813     59.0101     27.2019
        16908     12.4443     58.9199     24.8961
      16908.5     13.0864     51.9899     23.9837
        16909     13.2542     68.0397     23.9837
      16909.5     13.2934     75.8387     23.9837
        16910     13.3167     61.6364     23.9837
      16910.5      13.353     52.7909     23.3491
        16911     11.7515     61.4599      22.308
      16911.5     11.3597      56.602     21.9512
        16912     10.9713     47.7495     22.8636
      16912.5     10.4958     54.1818     25.5364
        16913     10.1141     56.1232     27.2358
      16913.5      9.8276     53.5485     28.0194
        16914     10.0337     56.5064     30.5736
      16914.5     10.0314     66.0606      32.998
        16915      9.9225     50.4276     37.3758
      16915.5      10.061     58.4343     42.5215
        16916     10.0803     61.3576     45.3659
      16916.5      9.9255     70.6108     45.4088
        16917      9.7344     63.6242     44.3677
      16917.5      9.7117     62.3232     43.4959
        16918      9.6384     61.2215     43.4959
      16918.5      9.9532     62.0047     43.0894
        16919      9.6356     61.9152     41.7886
      16919.5      9.6146     59.7657     37.1398
        16920      9.6431     57.9529     32.9042
      16920.5      9.6845     57.4545     29.2141
        16921      9.6845     57.4545     26.4092
      16921.5      9.5936     57.6855     23.8573
        16922      9.5557     58.5455     22.5745
      16922.5      9.6379     58.5455     22.7755
        16923      9.6472       58.87     24.1396
      16923.5      9.6612     59.2727     25.2033
        16924      9.6281     59.0222     25.4923
      16924.5      9.5914     58.4411     26.8473
        16925        9.57     57.1414     28.3875
      16925.5      9.5448     56.1963     30.6481
        16926      9.5448     55.1731     31.2827
      16926.5      9.5914     54.5455     32.6321
        16927      9.6863     55.5946     35.8356
      16927.5      9.7459     56.7071     37.7315
        16928      9.8475     58.9455     43.4959
      16928.5      9.7832     60.1121     44.9187
        16929      9.7468      59.963     41.2218
      16929.5      9.6872     58.8515     37.3509
        16930      9.6509     57.8114     39.1599
      16930.5      9.5912     57.3327     41.6712
        16931      9.5316     57.5232     43.6382
      16931.5      9.5215      58.668     45.0226
        16932      9.5215     60.4633     47.8681
      16932.5      9.5215     62.0303     52.0325
        16933      9.5215     63.0451     55.4607
      16933.5      9.5535     62.5848     53.3322
        16934      9.5914     61.1313     46.1789
      16934.5      9.6029     59.5192     40.6662
        16935      9.6379     57.1077     35.4675
      16935.5      9.6379     55.2485     30.5793
        16936      9.6324     53.7535     27.1274
      16936.5      9.6205     52.8828     25.7159
        16937      9.5914     52.3636     25.2033
      16937.5      9.5681      52.468     24.8532
        16938      9.5681      52.536     26.0705
      16938.5      9.5452     52.8465     28.0352
        16939      9.4749     53.2781     30.0248
      16939.5      9.4276     53.7768     31.3008
        16940      9.4077     54.1414     31.3008
      16940.5      9.4051     54.3306     32.2064
        16941      9.4835     55.5084     33.7715
      16941.5      9.6379     56.8576     35.1016
        16942      9.6379     58.1172     35.7362
      16942.5      9.5584      59.266     35.1739
        16943       9.454     59.7717     34.5528
      16943.5      9.5215     62.5434     34.5528
        16944      9.5215      65.429     34.5528
      16944.5      9.5215     59.2192      33.855
        16945      9.5215     58.3064     33.7398
      16945.5      9.5215     57.4741     32.0743
        16946      9.5215     57.4061     31.8699
      16946.5      9.5343     58.7808     33.4971
        16947      9.5684     57.9556     36.5063
      16947.5      9.6024     58.4343     39.9898
        16948      9.6146      58.901     43.2069
      16948.5      9.6523     59.6256     44.7629
        16949      9.6899     61.0646     47.9336
      16949.5      9.6833     66.6377     52.4322
        16950      9.8268     68.7946      56.346
      16950.5      9.7153     72.9242     61.1484
        16951      9.6144     74.9024     62.8162
      16951.5      9.5548     71.8428     65.3026
        16952      9.5153     69.0061     67.3848
      16952.5      9.4749     68.7643     69.4049
        16953      9.4284     68.1946     71.1382
      16953.5      9.4094        66.2     68.7568
        16954      9.4051     64.5428     64.3722
      16954.5      9.4051     61.3306     60.0215
        16955      9.4051     59.8182     60.7724
      16955.5      9.4122     61.0785     63.1075
        16956      9.4292     62.2343     68.5637
      16956.5      9.4462     62.5677     75.5014
        16957      9.4517     62.9232     88.8844
      16957.5      9.4517      63.431    108.5535
        16958      9.4517     64.4202     133.794
      16958.5      9.4517     65.2724    135.9463
        16959      9.4747     66.1798    159.4083
      16959.5      9.4749     67.6909    168.3638
        16960      9.4982     69.1178    174.4128
      16960.5      9.5215     69.8609    177.0991
        16961      9.5448     70.5172    173.3808
      16961.5      9.5448     70.5205    162.5881
        16962      9.5448     70.6667    141.7073
      16962.5      9.5448     69.9899    136.2127
        16963      9.5215     68.4404     92.2809
      16963.5      9.4973     66.0323     73.8336
        16964      9.4377     64.1576      65.935
      16964.5      9.4347     62.9209     65.3873
        16965      9.4421     62.7744     74.6161
      16965.5      9.4496     64.4566      87.622
        16966      9.4517     65.8411     94.2909
      16966.5      9.4749     66.1818      96.407
        16967      9.4749     66.1232     92.1138
      16967.5      9.4749     65.2306     90.2213
        16968      9.4753     65.0519      99.598
      16968.5      9.4852     65.6727    117.4187
        16969      9.4952      66.402    132.8117
      16969.5      9.5189     67.5451    143.6506
        16970      9.5448     68.6061      147.29
      16970.5      9.5448     68.9569    143.6676
        16971      9.5236     69.6094    134.1418
      16971.5      9.5446     70.6091     124.353
        16972      9.5208     70.0902    118.5953
      16972.5       9.495     68.2104    112.4944
        16973      9.4517     65.4061     109.065
      16973.5      9.4699     62.2764    110.9056
        16974      9.5687     61.5178    118.2294
      16974.5      9.6433      62.899    131.7175
        16975      9.7763     65.1515    140.8424
      16975.5      9.7543     66.4862     147.972
        16976      9.7543      67.402    148.3469
      16976.5      9.7397     67.4391    144.8103
        16977      9.6612     67.4168    136.8112
      16977.5      9.6146     68.0606     127.998
        16978      9.7016     69.5259    121.4724
      16978.5      9.9158      69.296      116.39
        16979      9.7574     68.4485     117.019
      16979.5      9.6613     67.7586    121.9388
