~Version Information Block
 VERS.                2.00:     CWLS LOG ASCII STANDARD - VERSION 2.000000
 WRAP.                  NO:     One Line Per Depth Step
#
~Well Information Block
#MNEM.UNIT                     Data                         Information
#----------   ------------------------------------------   ----------------
# Enverus has updated the API/UWI.  The previous names are renamed to  PREV_API / PREV_UWI
API.                             42-371-39483-90-00 : API (14 Digits with Dashes)
UWI.                                 42371394839000 : UNIQUE WELL ID

 STRT.FT                                    10010.0000:     START DEPTH
 STOP.FT                                    11812.0000:     STOP DEPTH
 STEP.FT                                        0.5000:     STEP
 NULL.                                       -999.2500:     NULL VALUE
 COMP.                           PATRIOT RESOURCES INC:     COMPANY
 WELL.                        ROOSTERFISH UNIT 22NE 1H:     WELL
 FLD .                             WOLFBONE TREND AREA:     FIELD
 LOC .                                                :     LOCATION
 SEC .                                              22:     SECTION
 CNTY.                                          PEACOS:     COUNTY
 STAT.                                           TEXAS:     STATE
 CTRY.                                           U.S.A:     COUNTRY
 SRVC.                                    SCHLUMBERGER:     SERVICE COMPANY
 DATE.                                      03/18/2017:     DATE
PREV_APII .                                  42371394830000:     API NUMBER
 PREV_UWI .                                  42371394830000:     UWI NUMBER
 TVD .                                              NO:     TVD flag
 WSTA.                                             LOC:     Well status
#
~Curve Information Block
#MNEM.UNIT       API CODE      Curve Description
#----------    -------------   -------------------
 DEPT.FT                   :   Depth in Feet
 ECGR.GAPI     35 310 01 01:   Environmentally Corrected Gamma Ray
 CALI.IN       70 280 01 01:   Caliper
 TENS.LBS                  :   Tension
 SPHI_476.V/V  61 890 01 01:   Sonic Porosity 47.6 Matrix
 DT  .US/F     60 520 08 01:   Delta-T
 DTSM.US/F                 :   Delta-T Shear Measurement
 STIT.FT/H                 :   STIT
#
~Parameter Information Block
#MNEM.UNIT            Value               Description
#----------    --------------------    -------------------
 RUN .                         ONE:    Run Number
 PDAT.                          GL:    Permanent Datum
 EPD .FT                        25:    Elevation Of Perm. Datum
 LMF .               KELLY BUSHING:    Log Measured From
 EKB .FT                          :    Elevation Of Kelly Bushing
 DF .FT                           :    Elevation Of Derrick Floor
 GL .FT                         25:    Elevation Of Ground Level
 TD  .FT                     18979:    Total Depth
 CSGD.FT                      5100:    Casing Bottom (Driller) 1
 CSGL.FT                     18979:    Casing Bottom (Logger) 1
 MUD .                   OIL BASED:    Drilling Fluid Type
 MUDV .CP                      102:    Drilling Fluid Viscosity
 MUDD .LB/USG                 13.0:    Drilling Fluid Density
 FL .ML/30MIN                     :    Drilling Fluid Loss
 PH.                           8.8:    Drilling Fluid Ph
 MUDS .                           :    Mud Sample Source
 RM .OHMM                         :    Resistivity Of Mud Sample
 RMT .DEGF                        :    Mud Sample Temperature
 RMF .OHMM                        :    Mud Filtrate Resistivity
 RMFT.DEGF                        :    Mud Filtrate Sample Temperature
 RMC .OHMM                        :    Mud Cake Resistivity
 RMCT.DEGF                        :    Mud Cake Sample Temperature
 RMB .OHMM                        :    Mud Resistivity At Bht
 TMAX .DEGF                    152:    Bottom Hole Temperature
#
~Other Information Block
<DescLogPlotStart>   NEURALOG PLOT DEFINITION
PLOTDEFVERSION: 3
LASFILE: D:\nds\projects\poojawells\December data\PoojaWells Digitizing_Cassidy
DEPTHSCALE: 240.000000
RESOLUTION: 144
DEPTHLABELFREQ: 100.000000
HEAVYGRIDFREQ: 100.000000
MEDIUMGRIDFREQ: 50.000000
LIGHTGRIDFREQ: 10.000000
#
#   TRACK 1
#
STARTTRACK: 
 LEFTX: 0.500000 inch
 RIGHTX: 3.000000 inch
 SCALETYPE: Linear
 NUMCHARTDIVISIONS: 10
CURVE: ECGR  0.000000   150.000000 (0,0,255)      Solid             2     Y    
BACKUP: 150.000000 300.000000 (0,0,255)      Solid             2    
CURVE: CALI  6.000000   16.000000  (0,131,131)    Dot               2     Y    
BACKUP: -4.000000  6.000000   (0,131,131)    Dot               2    
CURVE: TENS  10000.000000 0.000000   (255,0,255)    Short_Dash        2     N  
ENDTRACK: 
#
#   TRACK 2
#
STARTTRACK: 
 LEFTX: 3.500000 inch
 RIGHTX: 8.500000 inch
 SCALETYPE: Linear
 NUMCHARTDIVISIONS: 10
CURVE: SPHI_476 0.300000   -0.100000  (255,0,0)      Solid             2     N 
CURVE: DT    140.000000 40.000000  (255,131,0)    Dot               2     N    
CURVE: DTSM  240.000000 40.000000  (255,255,0)    Short_Dash        2     N    
ENDTRACK: 
#
#   TRACK 3
#
STARTTRACK: 
 LEFTX: 8.500000 inch
 RIGHTX: 9.256944 inch
 SCALETYPE: Linear
 NUMCHARTDIVISIONS: 10
CURVE: STIT  0.000000   50.000000  (0,0,255)      Solid             2     N    
ENDTRACK: 
<DescLogPlotEnd>
~A DEPTH     ECGR             CALI             TENS             SPHI_476             DT               DTSM             STIT            
# ...
   11535.000 119.76163142     8.52943787       4690.99162011    0.28073515       87.13161179      158.41922006     0.68807339      
   11535.500 117.38924132     8.76266473       4678.77094972    0.28132901       87.29641639      158.66991643     0.68807339      
   11536.000 116.45899940     9.10180032       4664.00638468    0.28296193       87.42618384      158.83865438     0.68807339      
   11536.500 117.53610043     8.94090387       4650.83798883    0.28463324       87.70194986      158.91579173     0.68807339      
   11537.000 117.63489568     8.41858306       4632.68156425    0.28635097       87.83774373      158.99292908     0.68807339      
   11537.500 124.09525984     8.40812221       4622.90502793    0.28602600       87.98050139      159.08077994     0.68807339      
   11538.000 121.93616220     8.40597844       4622.90502793    0.28661096       88.09540390      160.19498607     0.68807339      
   11538.500 123.41601437     8.40354844       4626.81564246    0.28912945       88.36583101      160.35354618     0.68807339      
   11539.000 119.09459740     8.40222426       4646.92737430    0.28827636       88.34958217      160.50782087     0.68807339      
   11539.500 119.57208275     8.40167706       4618.43575419    0.29054490       88.60027855      160.66209556     0.68807339      
   11540.000 118.39122404     8.40165258       4611.78485332    0.29278140       88.85097493      161.16991643     0.68807339      
   11540.500 117.21645786     8.40160717       4650.85316204    0.29509023       89.10167131      162.17270195     0.68807339      
   11541.000 119.55763614     8.40152869       4630.10267574    0.29750487       89.35236769      162.98050139     0.68807339      
   11541.500 120.60374798     8.40101581       4610.16180927    0.29779944       89.60306407      162.61838440     0.68807339      
   11542.000 122.07568149     8.38928189       4602.06109627    0.29721448       89.65181058      161.61559889     0.68807339      
   11542.500 123.24958439     8.37772235       4630.83709030    0.29247911       89.09470752      160.75208914     0.68807339      
   11543.000 121.81340047     8.37363672       4646.69695643    0.26614206       84.58217270      156.43763541     0.68807339      
   11543.500 120.31598731     8.37357623       4631.88580977    0.25172702       83.14066852      152.64933457     0.68807339      
   11544.000 112.83947969     8.37358069       4617.79735132    0.24654596       82.27162040      150.96100279     0.68807339      
   11544.500 103.50384487     8.37359575       4603.39552033    0.24512535       82.12760336      150.45961003     0.68807339      
   11545.000 91.74505426      8.37360205       4597.05286782    0.24456825       81.98427306      149.95821727     0.68807339      
   11545.500 79.70215515      8.37359717       4602.47641949    0.24623955       82.28612895      149.45682451     0.68807339      
   11546.000 77.22681413      8.37356938       4607.61019531    0.25034819       82.96629036      150.74164345     0.68807339      
   11546.500 83.83811979      8.37345484       4613.29769816    0.25626741       83.79887502      152.62511668     0.68807339      
   11547.000 105.15726337     8.37658270       4617.77693505    0.25793872       83.95455990      153.34056162     0.68807339      
   11547.500 114.36291727     8.38012680       4623.81466807    0.25849582       84.61455318      153.09229435     0.68807339      
   11548.000 115.34406273     8.38372493       4671.01239141    0.27187425       86.12882020      154.91244871     0.68807339      
   11548.500 115.25444363     8.38733485       4695.94101881    0.28224698       87.38677537      158.20268568     0.68807339      
   11549.000 116.02886594     8.39094166       4634.01158653    0.28579387       87.88114400      160.04178273     0.68807339      
   11549.500 122.73434053     8.39454221       4623.26038818    0.28635097       87.95211338      161.30919220     0.68807339      
   11550.000 122.82014920     8.39813569       4631.06035259    0.28794270       88.18339257      161.03064067     0.68807339      
   11550.500 116.90888359     8.40155532       4650.83798883    0.29023478       88.46631131      160.75208914     0.68807339      
   11551.000 110.40403131     8.40165076       4650.83798883    0.29213370       88.95498572      161.85933148     0.68807339      
   11551.500 110.19598881     8.40166512       4650.83798883    0.29470752       89.09470752      162.98050139     0.68807339      
   11552.000 111.60972660     8.40167645       4659.21787709    0.29605695       89.31197772      162.92664810     0.68807339      
   11552.500 114.38147553     8.40168281       4692.73743017    0.29650263       89.51253482      162.85979573     0.68807339      
   11553.000 118.47010001     8.40168539       4696.92737430    0.29693593       89.51392758      162.79294336     0.68807339      
   11553.500 122.31986976     8.40168539       4678.77094972    0.29419817       89.06267409      162.72609099     0.68807339      
   11554.000 121.92263658     8.40168443       4663.40782123    0.29071946       88.61142061      162.22144847     0.68807339      
   11554.500 115.94333681     8.40168253       4650.83798883    0.28768154       88.11977716      161.46935933     0.68807339      
   11555.000 114.32631466     8.40167458       4650.83798883    0.28631852       87.98050139      160.89136490     0.68807339      
   11555.500 116.20956018     8.40165130       4673.93373816    0.28372420       87.60631383      160.55710306     0.68807339      
   11556.000 117.07907820     8.40094729       4697.19449524    0.28020864       87.17177344      159.82888977     0.68807339      
   11556.500 116.90620815     8.39720557       4650.72511902    0.27747664       86.73723305      158.96935933     0.68807339      
   11557.000 116.85110598     8.39345660       4664.40495579    0.27465181       86.30269266      158.47910864     0.68807339      
   11557.500 113.15823757     8.38971685       4678.94305230    0.27520891       86.24729186      158.07799443     0.68807339      
   11558.000 113.26432202     8.38597844       4693.20297952    0.27465181       86.35871247      157.68802228     0.68807339      
   11558.500 107.83421674     8.38223303       4701.81564246    0.27559889       86.54596100      157.90467348     0.68807339      
   11559.000 108.09170703     8.37847169       4678.77094972    0.27995357       87.15598886      159.01887960     0.68807339      
   11559.500 106.25742792     8.37466638       4660.61452514    0.28579387       87.97988198      160.13308573     0.68807339      
   11560.000 111.37138814     8.37362573       4659.21787709    0.28702746       88.05010846      160.55091303     0.68807339      
   11560.500 115.95887542     8.37359942       4678.77094972    0.28731397       88.11754547      160.66233364     0.68807339      
   11561.000 115.58717539     8.37359447       4695.99627561    0.28817549       88.26961205      161.14206128     0.68807339      
   11561.500 112.28160572     8.37359548       4692.17877095    0.28913649       88.55977269      163.87186630     0.68807339      
   11562.000 113.74365599     8.37359551       4650.83798883    0.29697307       89.46727019      167.99442897     0.68807339      
   11562.500 115.05320074     8.37359551       4667.13221601    0.29916435       89.79108635      164.09470752     0.68807339      
   11563.000 118.85584296     8.37359243       4686.45251397    0.29898864       89.79108635      164.00835655     0.68807339      
   11563.500 117.28291538     8.37358069       4703.44506518    0.29883437       89.79108635      163.90807799     0.68807339      
   11564.000 120.17434956     8.37358659       4686.68528864    0.29868009       89.79108635      163.80779944     0.68807339      
   11564.500 124.24105320     8.37367457       4669.92551210    0.29827332       89.79117796      163.70708502     0.68807339      
   11565.000 127.04700138     8.37780465       4650.83798883    0.29582262       89.44368587      163.60272420     0.68807339      
