~Version Information Block
 VERS.                2.00:     CWLS LOG ASCII STANDARD - VERSION 2.000000
 WRAP.                  NO:     One Line Per Depth Step
#
~Well Information Block
#MNEM.UNIT                     Data                         Information
#----------   ------------------------------------------   ----------------
 STRT.FT                                     5200.0000:     START DEPTH
 STOP.FT                                    11550.0000:     STOP DEPTH
 STEP.FT                                        0.5000:     STEP
 NULL.                                       -999.2500:     NULL VALUE
 COMP.               AMERICAN QUASAR PETROLEUM COMPANY:     COMPANY
 WELL.                               MCCARTER # 1 - 31:     WELL
 FLD .                                         WILDCAT:     FIELD
 LOC .                                                :     LOCATION
 CNTY.                                          REEVES:     COUNTY
 STAT.                                           TEXAS:     STATE
 CTRY.                                             USA:     COUNTRY
 SRVC.                                                :     SERVICE COMPANY
 DATE.                                      08/07/2015:     DATE
 API .                                  42389311800000:     API NUMBER
 UWI .                                  42389311800000:     UWI NUMBER
 TVD .                                              NO:     TVD flag
 WSTA.                                             LOC:     Well status
#
~Curve Information Block
#MNEM.UNIT       API CODE      Curve Description
#----------    -------------   -------------------
 DEPT.FT                   :   Depth in Feet
 GR  .GAPI                 :   Gamma Ray
 LLD .OHMM                 :   Latero-Log Deep (Resistivity)
 CALI.IN                   :   Caliper
 DT  .US/F                 :   Delta-T
#
~Parameter Information Block
#MNEM.UNIT            Value               Description
#----------    --------------------    -------------------
 RUN .                         ONE:    Run Number
 PDAT.                          GL:    Permanent Datum
 EPD .FT                          :    Elevation Of Perm. Datum
 LMF .               KELLY BUSHING:    Log Measured From
 EKB .FT                          :    Elevation Of Kelly Bushing
 DF .FT                           :    Elevation Of Derrick Floor
 GL .FT                           :    Elevation Of Ground Level
 TD  .FT                          :    Total Depth
 CSGD.FT                          :    Casing Bottom (Driller) 1
 CSGL.FT                          :    Casing Bottom (Logger) 1
 MUD .                            :    Drilling Fluid Type
 MUDV .CP                         :    Drilling Fluid Viscosity
 MUDD .LB/USG                     :    Drilling Fluid Density
 FL .ML/30MIN                     :    Drilling Fluid Loss
 PH.                              :    Drilling Fluid Ph
 MUDS .                           :    Mud Sample Source
 RM .OHMM                         :    Resistivity Of Mud Sample
 RMT .DEGF                        :    Mud Sample Temperature
 RMF .OHMM                        :    Mud Filtrate Resistivity
 RMFT.DEGF                        :    Mud Filtrate Sample Temperature
 RMC .OHMM                        :    Mud Cake Resistivity
 RMCT.DEGF                        :    Mud Cake Sample Temperature
 RMB .OHMM                        :    Mud Resistivity At Bht
 TMAX .DEGF                       :    Bottom Hole Temperature    
#
~Other Information Block
<DescLogPlotStart>   NEURALOG PLOT DEFINITION
PLOTDEFVERSION: 3
LASFILE: E:\Nair Innovations\Texas - NII\Shivam\42389311800000\42389311800000_G
DEPTHSCALE: 239.999996
RESOLUTION: 200
DEPTHLABELFREQ: 100.000000
HEAVYGRIDFREQ: 100.000000
MEDIUMGRIDFREQ: 50.000000
LIGHTGRIDFREQ: 10.000000
#
#   TRACK 1
#
STARTTRACK: 
 LEFTX: 0.500000 inch
 RIGHTX: 3.000000 inch
 SCALETYPE: Linear
 NUMCHARTDIVISIONS: 10
CURVE: GR    0.000000   125.000000 (0,0,255)      Solid             2     Y    
BACKUP: 125.000000 250.000000 (0,0,255)      Solid             2    
CURVE: CALI  6.000000   16.000000  (0,0,255)      Solid             2     N    
ENDTRACK: 
#
#   TRACK 2
#
STARTTRACK: 
 LEFTX: 3.500000 inch
 RIGHTX: 8.500000 inch
 SCALETYPE: Log
 NUMCYCLES: 4
 STARTCYCLE: 2
CURVE: LLD   0.200000   2000.000000 (0,131,131)    Solid             2     Y   
BACKUP: 2000.000000 20000000.000000 (0,131,131)    Solid             2    
ENDTRACK: 
#
#   TRACK 3
#
STARTTRACK: 
 LEFTX: 3.500000 inch
 RIGHTX: 8.500000 inch
 SCALETYPE: Linear
 NUMCHARTDIVISIONS: 10
CURVE: DT    100.000000 40.000000  (0,131,131)    Solid             2     Y    
BACKUP: 160.000000 100.000000 (0,131,131)    Solid             2    
BACKUP: 40.000000  -20.000000 (0,131,131)    Solid             2    
ENDTRACK: 
<DescLogPlotEnd>
<DepthTrack type='Reference' track='1' Label='0' color='0' hor='0' />
<Reference font='144,0,-900,0,500,0,16777216,Arial' />
~A DEPTH     GR               LLD              CALI             DT              
# ...
    7724.500 69.59459064      76.85232798      12.69631578      60.28971029     
    7725.000 73.68280230      73.81833821      12.69662404      60.76923077     
    7725.500 75.82241743      75.55754260      12.67681159      63.70629371     
    7726.000 74.48932661      79.47460763      12.67647647      64.06327006     
    7726.500 69.34501701      76.72825942      12.67669306      64.39660340     
    7727.000 67.68623401      74.02641355      12.67629016      64.12587413     
    7727.500 70.07392648      72.46832647      12.66482373      63.82617383     
    7728.000 73.83642613      73.56215333      12.66467718      57.65234765     
    7728.500 74.24506665      74.40509971      12.67291306      62.24135864     
    7729.000 70.84111346      75.27831485      12.69768608      64.08811189     
    7729.500 64.80282345      75.84437352      12.69642737      64.44253236     
    7730.000 64.14001807      85.04897659      12.69641118      64.11090664     
    7730.500 63.61219392      93.72692993      12.69642892      63.78798690     
    7731.000 66.00115665      102.59594500     12.69643019      63.50655583     
    7731.500 72.07460535      106.14259841     12.69641834      63.40659341     
    7732.000 75.66835510      112.45996177     12.69621284      63.72107892     
    7732.500 80.01095379      123.69942219     12.69601138      64.42107892     
    7733.000 84.98836176      136.06217546     12.69581139      65.10541459     
    7733.500 87.18537849      149.66048558     12.69561161      66.76093906     
    7734.000 87.02523583      172.22656346     12.69541181      68.74125874     
    7734.500 81.58599766      200.43306810     12.69521200      67.34201253     
    7735.000 75.72027570      228.47865153     12.69501219      65.89655799     
    7735.500 69.23988534      244.32916730     12.69481238      64.72527473     
    7736.000 68.35725499      254.23679937     12.69461258      63.02993007     
    7736.500 84.65397990      238.21102585     12.69441277      63.20993007     
    7737.000 97.04700959      227.58425878     12.69421296      65.13601399     
    7737.500 104.97310970     223.34910134     12.69401316      66.51973027     
    7738.000 100.41248798     226.24635789     12.69381335      67.28831169     
    7738.500 95.13032196      228.92925443     12.69361354      67.88831169     
    7739.000 92.09100072      229.69430957     12.69341373      68.18045954     
    7739.500 93.25387883      198.35027242     12.69321393      68.06045954     
    7740.000 86.97525401      185.76584500     12.69301412      67.94045954     
    7740.500 74.61351354      192.93639015     12.69281431      67.82045954     
    7741.000 62.17831021      199.95741008     12.69261451      67.08136863     
    7741.500 49.65695640      205.54254952     12.69241470      64.78521479     
    7742.000 45.10176141      209.77986342     12.69221489      58.13186813     
    7742.500 44.40891561      181.94111627     12.69201508      59.07272727     
    7743.000 46.20767003      147.65668274     12.69181528      59.75272727     
    7743.500 50.18632638      120.13815242     12.69161547      60.49458541     
    7744.000 51.07830703      97.44231161      12.69141566      61.33458541     
    7744.500 51.85450495      88.46834311      12.69121586      62.17458541     
    7745.000 51.40157757      83.90906901      12.69101605      62.44755245     
    7745.500 50.13896635      77.38649241      12.69081624      61.90809191     
    7746.000 47.36893657      74.44340737      12.69061643      61.43736264     
    7746.500 44.07550356      67.70349251      12.69041663      60.96236264     
    7747.000 42.54665032      60.81292987      12.69021682      60.16439861     
    7747.500 51.50352805      49.63860578      12.69001701      59.62827176     
    7748.000 59.44912833      45.73708402      12.68981721      60.55074023     
    7748.500 60.40145532      40.58569442      12.68961740      61.48572428     
    7749.000 61.25616348      36.88435451      12.68941759      62.41572428     
    7749.500 65.67625597      36.79701962      12.68921778      63.34665335     
    7750.000 77.96037249      39.99407765      12.68901798      64.68741785     
    7750.500 98.43361424      45.93544778      12.68881817      66.02952311     
    7751.000 93.10728805      51.98279837      12.68861836      67.37162837     
    7751.500 98.36304060      51.50526654      12.68841856      68.97177821     
    7752.000 94.37413277      45.44676154      12.68821875      69.30519531     
    7752.500 89.12544060      40.13793689      12.68801894      69.48935666     
    7753.000 84.91439175      35.90229243      12.68781913      69.58041958     
    7753.500 84.61612453      34.63434267      12.68761933      69.48946054     
    7754.000 86.75106587      37.92676732      12.68741952      69.04640814     
    7754.500 87.23130921      41.13166483      12.68721971      68.36493379     
    7755.000 86.48722086      45.13744889      12.68701991      67.68311262     
    7755.500 84.54164693      48.90425293      12.68682010      67.00026008     
    7756.000 81.16337244      50.75969146      12.68662029      66.29198801     
    7756.500 76.61439080      53.30802983      12.68642048      65.48198801     
    7757.000 72.51738588      56.13261245      12.68622068      64.66533467     
    7757.500 68.87683604      59.70076490      12.68602087      64.00258802     
    7758.000 67.70618091      58.07053770      12.68582106      64.00627769     
    7758.500 71.87931796      62.28690178      12.68562125      64.14762723     
    7759.000 79.41793191      64.79933370      12.68542145      64.76503497     
    7759.500 99.07622342      90.36464521      12.68522164      65.95389610     
    7760.000 105.99002214     125.52598446     12.68502183      69.10389610     
    7760.500 108.92123830     173.40449140     12.68482203      72.81718282     
    7761.000 109.77985298     239.53109374     12.68462222      71.87282717     
    7761.500 75.29283598      306.71103001     12.68442241      69.06963661     
    7762.000 51.68620524      329.20230046     12.68422260      65.26338661     
    7762.500 49.11269543      313.13520679     12.68402280      61.45442049     
    7763.000 47.44676893      291.97025751     12.68382299      58.23360580     
    7763.500 49.27067264      211.38691071     12.68362318      58.47460704     
    7764.000 54.50417558      243.67374559     12.68342338      57.53246753     
    7764.500 60.95723754      143.81739580     12.68322357      58.38901099     
    7765.000 67.34271414      121.11346684     12.68302376      59.75024975     
    7765.500 74.78604088      98.26814573      12.68282395      61.17532468     
    7766.000 78.56834515      91.27432564      12.68262415      62.39240759     
    7766.500 82.78314239      79.60628009      12.68242434      63.79240759     
    7767.000 87.39474203      72.46832647      12.68222453      64.72527473     
    7767.500 95.86577710      63.68483203      12.68202473      65.20479520     
    7768.000 103.79089618     60.81292987      12.68182492      65.99550450     
    7768.500 108.37919725     59.70301568      12.68162511      66.86823379     
    7769.000 109.40335061     59.05730085      12.68142530      67.84416364     
    7769.500 104.86668937     70.67096378      12.68122550      68.73877677     
    7770.000 97.65994732      86.05382982      12.68102569      68.54954248     
    7770.500 90.25327433      135.22907452     12.68082588      68.24282756     
    7771.000 88.12951803      203.72579805     12.68062608      67.59795883     
    7771.500 88.70396641      227.58425878     12.68042627      66.94305694     
    7772.000 91.02126013      227.58425878     12.68022646      67.26100566     
    7772.500 92.10053502      167.83312886     12.68002665      67.82767233     
    7773.000 92.56942775      129.06324621     12.67982685      68.26173826     
    7773.500 90.46368834      96.87479401      12.67962704      68.74125874     
