~VERSION INFORMATION
VERS.           1.2   :CWLS Log ASCII Standard - VERSION 1.2
WRAP.           NO    :One Line per depth step
PROD.  Schlumberger   :LAS Producer
PROG.  DLIS to ASCII 17C0-152                          :LAS Program name and version
CREA.        2014/05/28 16:07                          :LAS Creation date {YYYY/MM/DD hh:mm}
DLIS_CREA.  2014-May-27 22:17                          :DLIS Creation date and time {YYYY-MMM-DD hh:mm}
SOURCE.     db5fefe1-f67d-4e3f-8816-ab53d5f8be46       :DLIS File Name
#--------------------------------------------------
~WELL INFORMATION
#MNEM.UNIT      DATA             DESCRIPTION
#---- ------ --------------   -----------------------------
# Enverus has updated the API/UWI.  The previous names are renamed to  PREV_API / PREV_UWI
API.  API (14 Digits with Dashes) : 42-389-34023-90-00
UWI.              UNIQUE WELL ID : 42389340239000

STRT .F      9586.5000       :START DEPTH     
STOP .F      10811.5000      :STOP DEPTH     
STEP .F       0.5000         :STEP       
NULL .          -999.25      :NULL VALUE
COMP .                 COMPANY:  J. Cleo Thompson                   
WELL .                    WELL:  Okapi State Unit B35 #2H           
FLD  .                   FIELD:  Wolfbone (Trend Area)              
LOC  .                LOCATION:  260' FNL & 500' FEL                
CNTY .                  COUNTY:  Reeves                             
STAT .                   STATE:  Texas                              
CTRY .                 COUNTRY:                                     
SRVC .         SERVICE COMPANY:  Schlumberger                       
LATI .DEG             LATITUDE:  31.112200 degrees                  
LONG .DEG            LONGITUDE:  -103.28900 degrees                 
PREV_API  .              API NUMBER:  42-389-34023                       
DATE .                LOG DATE:  27-May-2014
PREV_UWI  .          UNIQUE WELL ID:                                     
#-----------------------------------------------------------------------------
~PARAMETER INFORMATION
#MNEM.UNIT    VALUE                      DESCRIPTION
#---- -----   --------------------       ------------------------
CN   .        J. Cleo Thompson           :Company Name
WN   .        Okapi State Unit B35 #2H   :Well Name
FN   .        Wolfbone (Trend Area)      :Field Name
FL   .        260' FNL & 500' FEL        :Field Location
FL1  .        Section  35  Block  50 T8S  Abstract 4369 :Field Location, Line 1
COUN .        Reeves                     :County or Parish
STAT .        Texas                      :State or Province
NATI .                                   :Nation
DATE .        27-May-2014                :Tools Above Rotary Table Date
APIN .        42-389-34023               :API Well Number
SECT .        35                         :Section
TOWN .        50 T8S                     :Township
RANG .        4369                       :Range
DMF  .        KB                         :Drilling Measured From (Name of Drilling Elevation Reference)
LMF  .        KB                         :Logging Measured From (Name of Logging Elevation Reference)
PDAT .        GL                         :Permanent Datum
ENGI .        AJ Massis                  :Engineer s Name
WITN .        Bennie McNett              :Witness s Name
LATI .        31.112200 degrees          :Latitude
LONG .        -103.28900 degrees         :Longitude
LUL  .        Midland                    :Logging Unit Location
LUN  .        9105                       :Logging Unit Number
RUN  .        1B                         :Run Number
SON  .                                   :Service Order Number
BHT  .DEGF     162.00000                 :Bottom Hole Temperature
BS   .IN         8.50000                 :Bit Size
MDEN .G/C3       2.71000                 :Matrix Density for Density Porosity
DFD  .LB/G      10.70000                 :Drilling Fluid Density
DFV  .S         46.00000                 :Drilling Fluid Viscosity
DFL  .C3        10.00000                 :Drilling Fluid Loss
RMFS .OHMM       0.30000                 :Resistivity of Mud Filtrate Sample
EKB  .F       2829.00000                 :Elevation of Kelly Bushing
EGL  .F       2807.00000                 :Elevation of Ground Level
BLI  .F       11012.00000                :Bottom Log Interval
BSAL .PPM     132000.00000               :Borehole Salinity
FLEV .F          8.00000                 :Depth of Drilling Fluid Level to LMF (Log Measured From)
MCST .DEGF      68.00000                 :Mudcake Sample Temperature
MFST .DEGF      80.20000                 :Mud Filtrate Sample Temperature
MRT  .DEGF     162.00000                 :Maximum Recorded Temperature
MST  .DEGF      80.20000                 :Mud Sample Temperature
RMCS .OHMM    -999.25000                 :Resistivity of Mud Cake Sample
RMS  .OHMM       0.30000                 :Resistivity of Mud Sample
RW   .OHMM       1.00000                 :Connate Water Resistivity
TDD  .F       11012.00000                :Driller Total Depth
TDL  .F       11012.00000                :Logger Total Depth
TLI  .F       9676.00000                 :Top Log Interval
HIDE .        Wolfbone (Trend Area)      :Header Identifier
MATR .        LIME                       :Rock Matrix for Neutron Porosity Corrections
FNUM .           1.00000                 :F-Numerator for Formation Factor Formula
FEXP .           2.00000                 :Exponent "m" for Formation Factor Formula
DFT  .        Salt Brine                 :Drilling Fluid Type
DFPH .           9.00000                 :Drilling Fluid pH
MCSS .                                   :Mudcake Sample Source
MFSS .                                   :Mud Filtrate Sample Source
FD   .G/C3       1.10000                 :Fluid Density
MSS  .        Active Tank                :Mud Sample Source
OS1  .                                   :Other Services Line 1
OS2  .                                   :Other Services Line 2
OS3  .                                   :Other Services Line 3
OS4  .                                   :Other Services Line 4
OS5  .                                   :Other Services Line 5
R1   .        Tools run as per toolsketch :Remarks Line 1
R2   .        Logs performed on a Limestone matrix (2.71

g/cc  47.6 us/ft ). Mud Properties  MW =

10.7 g/cc  FD = 1.1 g/cc. :Remarks Line 2
R3   .        Max recorded temperature from downhole

thermometer = 162 degF. :Remarks Line 3
R4   .        Logs run from TD to casing. GR & Neutron

logged from casing to 200ft as per client

request. :Remarks Line 4
R5   .        Tools got stuck near TD and calipers had to be closed in order to get free. :Remarks Line 5
R6   .        Well was washed out for many intervals. :Remarks Line 6
R7   .        Repeat done at casing due to getting stuck at TD :Remarks Line 7
R8   .                                   :Remarks Line 8
TCS  .        18 00 00                   :Time Circulation Stopped
TLAB .        16 19 01                   :Time Logger At Bottom
EPD  .C3         2807.000000             :Elevation of Permanent Datum above Mean Sea Level
APD  .F          22.000000               :Elevation of Depth Reference (LMF) above Permanent Datum
#-----------------------------------------------------------------------------
~CURVE INFORMATION
#MNEM.UNIT   API CODE                                  DESCRIPTION
#---- -----  --------                                  -----------------------
DEPT .F                                                :DEPTH (BOREHOLE) {F12.4}
CDF  .LBF                                              :Calibrated Downhole Force {F11.4}
CTEM .DEGF                                             :Cartridge Temperature {F11.4}
DCAL .IN                                               :Differential Caliper {F11.4}
DTCO .US/F                                             :Delta-T Compressional {F11.4}
DTSM .US/F                                             :Delta-T Shear {F11.4}
ED   .F                                                :East Departure {F11.4}
GR_EDTC.GAPI                                           :Gamma Ray {F11.4}
GTEM .DEGF                                             :Generalized Borehole Temperature {F11.4}
HAZI .DEG                                              :Hole Azimuth Relative to True North {F11.4}
HAZIM.DEG                                              :Memorized Hole Azimuth {F11.4}
ITT  .S                                                :Integrated Transit Time {F11.4}
ND   .F                                                :North Departure {F11.4}
P1AZ .DEG                                              :Pad 1 Azimuth in Horizontal Plane (0 = True North) {F11.4}
PR   .                                                 :Poisson s Ratio {F11.4}
RB   .DEG                                              :Relative Bearing {F11.4}
SDEV .DEG                                              :Sonde Deviation {F11.4}
SDEVM.DEG                                              :Memorized Sonde Deviation {F11.4}
SPHI .CFCF                                             :Sonic Porosity {F11.4}
STIT .F                                                :Stuck Tool Indicator, Total {F11.4}
TENS .LBF                                              :Cable Tension {F11.4}
#-----------------------------------------------------------------------------
# 
#      DEPT        CDF        CTEM       DCAL       DTCO       DTSM        ED      GR_EDTC      GTEM       HAZI      HAZIM       ITT         ND        P1AZ        PR         RB        SDEV      SDEVM       SPHI       STIT       TENS
#
~A  
# ...
  10479.0000  1239.5656   165.5529     0.1820    78.4283   131.4693     0.0000    60.8747   157.4502   277.6063   271.4046     0.0222     0.0000   341.3515     0.2238    63.7361     1.6314     1.6267     0.2180     0.0000  4139.6665
  10479.5000  1245.5775   165.5529     0.1820    79.5408   132.5380     0.0000    60.1104   157.4545   277.1818   269.0372     0.0221     0.0000   338.5123     0.2186    61.3206     1.6291     1.5953     0.2259     0.0000  4144.3330
  10480.0000  1245.9182   165.5529     0.1708    79.3811   133.1645     0.0000    74.2569   157.4588   275.6812   269.0668     0.0221     0.0000   335.0677     0.2244    59.3768     1.6268     1.6023     0.2248     0.0000  4123.6665
  10480.5000  1244.7135   165.5529     0.1931    79.4245   132.4522     0.0000    89.3121   157.4630   273.9765   267.6950     0.0221     0.0000   332.4003     0.2193    58.4135     1.6255     1.5842     0.2251     0.0000  4098.3335
  10481.0000  1240.3484   165.5529     0.1931    79.5141   133.5003     0.0000   101.7237   157.4673   272.3633   268.6666     0.0220     0.0000   329.8972     0.2251    57.5236     1.6264     1.6110     0.2257     0.0000  4108.0000
  10481.5000  1237.5675   165.5529     0.1931    79.5267   133.1291     0.0000    96.4770   157.4716   271.2840   270.2424     0.0220     0.0000   327.4864     0.2226    56.1912     1.6303     1.6611     0.2258     0.0000  4090.6665
  10482.0000  1239.2461   165.5529     0.1820    78.8882   134.4166     0.0000    82.9299   157.4758   271.0121   271.1334     0.0219     0.0000   324.8981     0.2373    53.8746     1.6373     1.6910     0.2213     0.0000  4119.0000
  10482.5000  1239.7366   165.5529     0.1931    78.4841   131.9614     0.0000    67.0612   157.4801   271.5527   271.7190     0.0219     0.0000   322.1413     0.2263    50.5767     1.6474     1.7112     0.2184     0.0000  4104.6665
  10483.0000  1237.1176   165.5529     0.1820    78.3735   131.1935     0.0000    62.5344   157.4844   272.6445   271.8210     0.0219     0.0000   319.4650     0.2225    46.8086     1.6599     1.7138     0.2176     0.0000  4102.6665
  10483.5000  1236.5192   165.5529     0.1820    78.3201   130.1647     0.0000    60.7472   157.4886   273.8574   271.4184     0.0218     0.0000   316.7535     0.2162    42.8839     1.6726     1.6961     0.2173     0.0000  4093.6667
  10484.0000  1236.5713   165.5529     0.1931    78.3468   129.5341     0.0000    59.9101   157.4929   275.8407   270.6272     0.0218     0.0000   314.1371     0.2116    38.2842     1.6942     1.6615     0.2174     0.0000  4100.6665
  10484.5000  1235.1915   165.5529     0.2042    77.6495   129.2896     0.0000    59.4193   157.4972   274.9758   269.6525     0.0217     0.0000   311.3813     0.2179    36.3938     1.6828     1.6202     0.2125     0.0000  4079.2500
  10485.0000  1234.9296   165.5529     0.2042    78.0092   129.3329     0.0000    66.6643   157.5014   275.5934   268.7328     0.0217     0.0000   309.0482     0.2141    33.4436     1.6933     1.5844     0.2151     0.0000  4070.0000
  10485.5000  1235.9926   165.5529     0.1931    77.8444   129.1842     0.0000    73.6347   157.5057   273.2625   268.0858     0.0217     0.0000   306.0730     0.2149    32.7994     1.6542     1.5651     0.2139     0.0000  4090.9998
  10486.0000  1235.8755   165.5529     0.1931    78.7439   129.4908     0.0000    81.6060   157.5100   271.6007   267.8123     0.0216     0.0000   303.3540     0.2066    31.7427     1.6329     1.5689     0.2203     0.0000  4102.0000
  10486.5000  1238.6610   165.5529     0.1819    80.1296   130.8087     0.0000    76.0418   157.5143   270.2345   267.8779     0.0216     0.0000   300.3856     0.1997    30.1410     1.6118     1.5944     0.2301     0.0000  4107.3335
  10487.0000  1238.9358   165.5529     0.1930    80.8388   132.0921     0.0000    72.9197   157.5185   267.9420   268.1871     0.0215     0.0000   297.7312     0.2006    29.7799     1.5811     1.6430     0.2351     0.0000  4106.6665
  10487.5000  1237.9231   165.5529     0.1931    81.6948   134.4777     0.0000    72.0679   157.5228   267.6161   268.4245     0.0215     0.0000   295.0518     0.2075    27.4265     1.5814     1.6841     0.2411     0.0000  4086.0000
  10488.0000  1235.9341   165.5529     0.1930    81.6740   133.9275     0.0000    83.2376   157.5271   268.4071   268.5169     0.0215     0.0000   292.3957     0.2039    23.9803     1.6040     1.7121     0.2410     0.0000  4086.6665
  10488.5000  1235.4219   165.5529     0.1819    81.6305   134.7846     0.0000    93.0517   157.5313   270.0484   268.4520     0.0214     0.0000   289.5626     0.2104    19.5066     1.6550     1.7178     0.2407     0.0000  4108.0000
  10489.0000  1239.4153   165.5529     0.1931    79.8351   134.3407     0.0000    93.5415   157.5356   270.9677   268.2979     0.0214     0.0000   286.7877     0.2270    15.8135     1.6857     1.6994     0.2280     0.0000  4100.0000
  10489.5000  1241.0870   165.5529     0.1930    78.7672   132.3030     0.0000    89.7438   157.5398   271.7190   268.1382     0.0213     0.0000   283.5845     0.2255    11.8606     1.7112     1.6628     0.2204     0.0000  4076.0000
  10490.0000  1235.7225   165.5529     0.2042    78.5623   131.6443     0.0000    82.6518   157.5441   271.8210   268.0394     0.0213     0.0000   281.0414     0.2234     9.2162     1.7138     1.6194     0.2190     0.0000  4079.6667
  10490.5000  1232.7009   165.5529     0.2042    78.9405   131.3641     0.0000    70.8797   157.5484   271.4184   268.0061     0.0213     0.0000   278.4030     0.2174     6.9816     1.6961     1.5828     0.2216     0.0000  4087.2500
  10491.0000  1234.8450   165.5529     0.2042    79.3447   132.3711     0.0000    54.5403   157.5527   270.6272   267.9685     0.0212     0.0000   275.6944     0.2196     5.0649     1.6615     1.5648     0.2245     0.0000  4057.6665
  10491.5000  1238.6820   165.5529     0.2042    79.4594   132.3249     0.0000    50.8169   157.5569   269.6525   267.8545     0.0212     0.0000   272.7505     0.2180     3.0968     1.6202     1.5699     0.2253     0.0000  4048.2500
  10492.0000  1243.9575   165.5529     0.2042    78.4929   131.8816     0.0000    61.6302   157.5612   268.7328   267.6164     0.0211     0.0000   269.7667     0.2257     1.0333     1.5844     1.5955     0.2185     0.0000  4098.7500
  10492.5000  1244.9656   165.5529     0.1930    78.3948   131.2695     0.0000    79.4756   157.5655   268.0858   267.2732     0.0211     0.0000   266.8770     0.2228   358.7913     1.5651     1.6324     0.2178     0.0000  4098.0000
  10493.0000  1245.4498   165.5529     0.1930    77.9179   131.3232     0.0000    91.2279   157.5697   267.8123   266.8886     0.0211     0.0000   264.1827     0.2283   356.3718     1.5689     1.6677     0.2144     0.0000  4109.3335
  10493.5000  1244.3986   165.5529     0.1930    77.7032   131.5278     0.0000    94.8895   157.5740   267.8779   266.5663     0.0210     0.0000   261.4989     0.2319   353.6234     1.5944     1.6892     0.2129     0.0000  4077.3335
  10494.0000  1243.8945   165.5529     0.1930    78.2707   132.3330     0.0000    83.3121   157.5783   268.1322   266.4199     0.0210     0.0000   259.1615     0.2310   351.0328     1.6343     1.6865     0.2169     0.0000  4110.3335
  10494.5000  1240.2405   165.5529     0.1930    79.3021   133.4336     0.0000    68.4393   157.5826   268.3883   266.6110     0.0210     0.0000   256.8223     0.2269   348.4388     1.6766     1.6609     0.2242     0.0000  4063.6667
  10495.0000  1243.3346   165.5529     0.1930    79.3713   134.1564     0.0000    60.0631   157.5868   268.5152   267.0910     0.0209     0.0000   254.2392     0.2307   345.7302     1.7081     1.6219     0.2247     0.0000  4091.0002
  10495.5000  1243.8945   165.5529     0.1930    78.6704   134.2179     0.0000    61.9374   157.5911   268.4785   267.7195     0.0209     0.0000   251.3244     0.2383   342.8532     1.7186     1.5818     0.2197     0.0000  4084.6670
  10496.0000  1244.9656   165.4541     0.1930    78.0874   133.9246     0.0000    70.6881   157.5953   268.3371   268.2404     0.0208     0.0000   248.5232     0.2425   340.1939     1.7049     1.5516     0.2156     0.0000  4085.0002
