~VERSION INFORMATION
VERS.           1.2   :CWLS Log ASCII Standard - VERSION 1.2
WRAP.           NO    :One Line per depth step
PROD.  Schlumberger   :LAS Producer
PROG.  DLIS to ASCII 17C0-152                          :LAS Program name and version
CREA.        2014/05/28 16:07                          :LAS Creation date {YYYY/MM/DD hh:mm}
DLIS_CREA.  2014-May-27 22:17                          :DLIS Creation date and time {YYYY-MMM-DD hh:mm}
SOURCE.     db5fefe1-f67d-4e3f-8816-ab53d5f8be46       :DLIS File Name
#--------------------------------------------------
~WELL INFORMATION
#MNEM.UNIT      DATA             DESCRIPTION
#---- ------ --------------   -----------------------------
# Enverus has updated the API/UWI.  The previous names are renamed to  PREV_API / PREV_UWI
API.  API (14 Digits with Dashes) : 42-389-34023-90-00
UWI.              UNIQUE WELL ID : 42389340239000

STRT .F      9586.5000       :START DEPTH     
STOP .F      10811.5000      :STOP DEPTH     
STEP .F       0.5000         :STEP       
NULL .          -999.25      :NULL VALUE
COMP .                 COMPANY:  J. Cleo Thompson                   
WELL .                    WELL:  Okapi State Unit B35 #2H           
FLD  .                   FIELD:  Wolfbone (Trend Area)              
LOC  .                LOCATION:  260' FNL & 500' FEL                
CNTY .                  COUNTY:  Reeves                             
STAT .                   STATE:  Texas                              
CTRY .                 COUNTRY:                                     
SRVC .         SERVICE COMPANY:  Schlumberger                       
LATI .DEG             LATITUDE:  31.112200 degrees                  
LONG .DEG            LONGITUDE:  -103.28900 degrees                 
PREV_API  .              API NUMBER:  42-389-34023                       
DATE .                LOG DATE:  27-May-2014
PREV_UWI  .          UNIQUE WELL ID:                                     
#-----------------------------------------------------------------------------
~PARAMETER INFORMATION
#MNEM.UNIT    VALUE                      DESCRIPTION
#---- -----   --------------------       ------------------------
CN   .        J. Cleo Thompson           :Company Name
WN   .        Okapi State Unit B35 #2H   :Well Name
FN   .        Wolfbone (Trend Area)      :Field Name
FL   .        260' FNL & 500' FEL        :Field Location
FL1  .        Section  35  Block  50 T8S  Abstract 4369 :Field Location, Line 1
COUN .        Reeves                     :County or Parish
STAT .        Texas                      :State or Province
NATI .                                   :Nation
DATE .        27-May-2014                :Tools Above Rotary Table Date
APIN .        42-389-34023               :API Well Number
SECT .        35                         :Section
TOWN .        50 T8S                     :Township
RANG .        4369                       :Range
DMF  .        KB                         :Drilling Measured From (Name of Drilling Elevation Reference)
LMF  .        KB                         :Logging Measured From (Name of Logging Elevation Reference)
PDAT .        GL                         :Permanent Datum
ENGI .        AJ Massis                  :Engineer s Name
WITN .        Bennie McNett              :Witness s Name
LATI .        31.112200 degrees          :Latitude
LONG .        -103.28900 degrees         :Longitude
LUL  .        Midland                    :Logging Unit Location
LUN  .        9105                       :Logging Unit Number
RUN  .        1B                         :Run Number
SON  .                                   :Service Order Number
BHT  .DEGF     162.00000                 :Bottom Hole Temperature
BS   .IN         8.50000                 :Bit Size
MDEN .G/C3       2.71000                 :Matrix Density for Density Porosity
DFD  .LB/G      10.70000                 :Drilling Fluid Density
DFV  .S         46.00000                 :Drilling Fluid Viscosity
DFL  .C3        10.00000                 :Drilling Fluid Loss
RMFS .OHMM       0.30000                 :Resistivity of Mud Filtrate Sample
EKB  .F       2829.00000                 :Elevation of Kelly Bushing
EGL  .F       2807.00000                 :Elevation of Ground Level
BLI  .F       11012.00000                :Bottom Log Interval
BSAL .PPM     132000.00000               :Borehole Salinity
FLEV .F          8.00000                 :Depth of Drilling Fluid Level to LMF (Log Measured From)
MCST .DEGF      68.00000                 :Mudcake Sample Temperature
MFST .DEGF      80.20000                 :Mud Filtrate Sample Temperature
MRT  .DEGF     162.00000                 :Maximum Recorded Temperature
MST  .DEGF      80.20000                 :Mud Sample Temperature
RMCS .OHMM    -999.25000                 :Resistivity of Mud Cake Sample
RMS  .OHMM       0.30000                 :Resistivity of Mud Sample
RW   .OHMM       1.00000                 :Connate Water Resistivity
TDD  .F       11012.00000                :Driller Total Depth
TDL  .F       11012.00000                :Logger Total Depth
TLI  .F       9676.00000                 :Top Log Interval
HIDE .        Wolfbone (Trend Area)      :Header Identifier
MATR .        LIME                       :Rock Matrix for Neutron Porosity Corrections
FNUM .           1.00000                 :F-Numerator for Formation Factor Formula
FEXP .           2.00000                 :Exponent "m" for Formation Factor Formula
DFT  .        Salt Brine                 :Drilling Fluid Type
DFPH .           9.00000                 :Drilling Fluid pH
MCSS .                                   :Mudcake Sample Source
MFSS .                                   :Mud Filtrate Sample Source
FD   .G/C3       1.10000                 :Fluid Density
MSS  .        Active Tank                :Mud Sample Source
OS1  .                                   :Other Services Line 1
OS2  .                                   :Other Services Line 2
OS3  .                                   :Other Services Line 3
OS4  .                                   :Other Services Line 4
OS5  .                                   :Other Services Line 5
R1   .        Tools run as per toolsketch :Remarks Line 1
R2   .        Logs performed on a Limestone matrix (2.71

g/cc  47.6 us/ft ). Mud Properties  MW =

10.7 g/cc  FD = 1.1 g/cc. :Remarks Line 2
R3   .        Max recorded temperature from downhole

thermometer = 162 degF. :Remarks Line 3
R4   .        Logs run from TD to casing. GR & Neutron

logged from casing to 200ft as per client

request. :Remarks Line 4
R5   .        Tools got stuck near TD and calipers had to be closed in order to get free. :Remarks Line 5
R6   .        Well was washed out for many intervals. :Remarks Line 6
R7   .        Repeat done at casing due to getting stuck at TD :Remarks Line 7
R8   .                                   :Remarks Line 8
TCS  .        18 00 00                   :Time Circulation Stopped
TLAB .        16 19 01                   :Time Logger At Bottom
EPD  .C3         2807.000000             :Elevation of Permanent Datum above Mean Sea Level
APD  .F          22.000000               :Elevation of Depth Reference (LMF) above Permanent Datum
#-----------------------------------------------------------------------------
~CURVE INFORMATION
#MNEM.UNIT   API CODE                                  DESCRIPTION
#---- -----  --------                                  -----------------------
DEPT .F                                                :DEPTH (BOREHOLE) {F12.4}
CDF  .LBF                                              :Calibrated Downhole Force {F11.4}
CTEM .DEGF                                             :Cartridge Temperature {F11.4}
DCAL .IN                                               :Differential Caliper {F11.4}
DTCO .US/F                                             :Delta-T Compressional {F11.4}
DTSM .US/F                                             :Delta-T Shear {F11.4}
ED   .F                                                :East Departure {F11.4}
GR_EDTC.GAPI                                           :Gamma Ray {F11.4}
GTEM .DEGF                                             :Generalized Borehole Temperature {F11.4}
HAZI .DEG                                              :Hole Azimuth Relative to True North {F11.4}
HAZIM.DEG                                              :Memorized Hole Azimuth {F11.4}
ITT  .S                                                :Integrated Transit Time {F11.4}
ND   .F                                                :North Departure {F11.4}
P1AZ .DEG                                              :Pad 1 Azimuth in Horizontal Plane (0 = True North) {F11.4}
PR   .                                                 :Poisson s Ratio {F11.4}
RB   .DEG                                              :Relative Bearing {F11.4}
SDEV .DEG                                              :Sonde Deviation {F11.4}
SDEVM.DEG                                              :Memorized Sonde Deviation {F11.4}
SPHI .CFCF                                             :Sonic Porosity {F11.4}
STIT .F                                                :Stuck Tool Indicator, Total {F11.4}
TENS .LBF                                              :Cable Tension {F11.4}
#-----------------------------------------------------------------------------
# 
#      DEPT        CDF        CTEM       DCAL       DTCO       DTSM        ED      GR_EDTC      GTEM       HAZI      HAZIM       ITT         ND        P1AZ        PR         RB        SDEV      SDEVM       SPHI       STIT       TENS
#
~A  
# ...
   9744.0000  1206.9368   163.5764     0.2153    76.2191   121.6479     0.0000    85.0099   151.1762   292.3206   293.3790     0.0791     0.0000   119.6473     0.1769   187.3244     1.5672     1.6073     0.2024     0.0000  3846.0002
   9744.5000  1204.1313   163.5764     0.2265    76.1532   121.2773     0.0000    84.1816   151.1804   291.8599   293.4548     0.0791     0.0000   116.5834     0.1745   184.7222     1.5660     1.6255     0.2019     0.0000  3849.9998
   9745.0000  1207.3018   163.5764     0.2153    76.2341   122.2263     0.0000    85.1106   151.1847   291.7183   293.6285     0.0791     0.0000   115.1646     0.1816   183.4454     1.5695     1.6505     0.2025     0.0000  3872.3333
   9745.5000  1205.6996   163.5764     0.2354    76.1722   121.7814     0.0000    80.6029   151.1889   291.8744   293.8274     0.0790     0.0000   112.4164     0.1787   180.5414     1.5793     1.6768     0.2021     0.0000  3852.0002
   9746.0000  1205.7148   163.5764     0.2132    76.5939   122.7179     0.0000    84.5051   151.1932   292.3645   294.0148     0.0790     0.0000   109.8986     0.1809   177.5349     1.5941     1.6981     0.2050     0.0000  3873.6667
   9746.5000  1205.1450   163.5764     0.2265    76.8824   123.0225     0.0000    87.1070   151.1975   293.0347   294.1356     0.0789     0.0000   107.4300     0.1796   174.3972     1.6110     1.7086     0.2071     0.0000  3872.0000
   9747.0000  1207.2212   163.5764     0.2265    77.1372   122.5472     0.0000    87.1072   151.2018   293.5854   294.2659     0.0789     0.0000   105.3648     0.1719   171.7828     1.6234     1.7114     0.2089     0.0000  3868.0000
   9747.5000  1207.7758   163.5764     0.2354    77.2083   123.5210     0.0000    85.4927   151.2061   294.1366   294.3896     0.0789     0.0000   102.5981     0.1794   168.4660     1.6343     1.7040     0.2094     0.0000  3875.0002
   9748.0000  1206.2067   163.5764     0.2265    77.9409   123.6138     0.0000    87.6358   151.2103   294.4353   294.5153     0.0788     0.0000    99.9484     0.1700   165.5189     1.6376     1.6909     0.2146     0.0000  3864.6667
   9748.5000  1208.9547   163.5764     0.2376    78.1223   123.8080     0.0000    93.5999   151.2146   294.4709   294.6133     0.0788     0.0000    97.6384     0.1692   163.1736     1.6324     1.6801     0.2159     0.0000  3859.0000
   9749.0000  1208.1218   163.5764     0.2376    78.3675   124.7077     0.0000    97.2323   151.2188   294.3106   294.7025     0.0787     0.0000    95.6257     0.1737   161.3219     1.6242     1.6720     0.2176     0.0000  3857.6665
   9749.5000  1206.2067   163.5764     0.2243    78.3787   125.0876     0.0000    94.8179   151.2231   294.0045   294.6880     0.0787     0.0000    92.8295     0.1768   158.8329     1.6114     1.6730     0.2177     0.0000  3871.0000
   9750.0000  1208.2463   163.5764     0.2354    78.3443   124.9709     0.0000    91.9697   151.2274   293.6734   294.5233     0.0787     0.0000    90.0617     0.1763   156.3966     1.6017     1.6847     0.2174     0.0000  3855.3333
   9750.5000  1209.2025   163.5764     0.2243    78.3684   125.5557     0.0000    95.0169   151.2316   293.4523   294.2656     0.0786     0.0000    87.2696     0.1809   153.8262     1.5992     1.7002     0.2176     0.0000  3882.7500
   9751.0000  1208.2979   163.5764     0.2376    78.5437   125.5704     0.0000    99.4800   151.2359   293.3790   293.8482     0.0786     0.0000    84.5761     0.1787   151.2064     1.6073     1.7232     0.2188     0.0000  3872.6667
   9751.5000  1212.3954   163.5764     0.2243    78.5998   126.4667     0.0000    97.3929   151.2402   293.4352   293.4032     0.0785     0.0000    82.3990     0.1853   148.9744     1.6212     1.7452     0.2192     0.0000  3896.0000
   9752.0000  1206.7655   163.5764     0.2355    78.6041   127.0497     0.0000    91.4969   151.2445   293.5901   293.0602     0.0785     0.0000    79.7340     0.1899   146.1549     1.6453     1.7611     0.2193     0.0000  3881.3335
   9752.5000  1207.0909   163.5764     0.2355    78.7041   127.0788     0.0000    85.9123   151.2487   293.7923   292.9193     0.0785     0.0000    77.1065     0.1889   143.3260     1.6718     1.7680     0.2200     0.0000  3911.6667
   9753.0000  1205.1450   163.5764     0.2265    78.9278   127.3214     0.0000    89.3885   151.2530   293.9827   293.0273     0.0784     0.0000    74.5107     0.1879   140.5402     1.6945     1.7662     0.2216     0.0000  3905.3330
   9753.5000  1205.1450   163.5764     0.2243    79.1608   126.9719     0.0000    88.7812   151.2573   294.1356   293.2752     0.0784     0.0000    71.9002     0.1821   137.7772     1.7086     1.7607     0.2232     0.0000  3914.6665
   9754.0000  1206.9937   163.5764     0.2355    79.5073   128.1819     0.0000    94.3632   151.2615   294.2659   293.7032     0.0783     0.0000    69.2188     0.1873   134.9655     1.7114     1.7525     0.2257     0.0000  3904.9998
   9754.5000  1207.1436   163.5764     0.2132    79.9517   128.7077     0.0000    94.5658   151.2658   294.3896   294.1205     0.0783     0.0000    66.3897     0.1858   132.0131     1.7040     1.7473     0.2288     0.0000  3903.3335
   9755.0000  1209.8661   163.5764     0.2132    80.9242   129.2488     0.0000    98.9631   151.2701   294.4893   294.3412     0.0783     0.0000    64.1129     0.1776   129.6360     1.6937     1.7484     0.2357     0.0000  3889.6667
   9755.5000  1213.0391   163.5764     0.2042    81.3156   131.6812     0.0000   103.5905   151.2743   294.6133   294.2811     0.0782     0.0000    61.1857     0.1918   126.5847     1.6801     1.7542     0.2384     0.0000  3888.0000
   9756.0000  1218.3933   163.5764     0.2042    81.1442   132.0582     0.0000   110.5876   151.2786   294.7025   293.8821     0.0782     0.0000    58.1092     0.1967   123.4180     1.6720     1.7662     0.2372     0.0000  3903.6667
   9756.5000  1209.8339   163.5764     0.2042    80.4113   132.3265     0.0000   114.8495   151.2829   294.6880   293.2054     0.0781     0.0000    55.2256     0.2073   120.5481     1.6730     1.7811     0.2320     0.0000  3911.6667
   9757.0000  1207.0553   163.5764     0.2042    80.1894   132.1322     0.0000   109.8312   151.2871   294.5654   292.4277     0.0781     0.0000    53.1312     0.2085   118.5759     1.6817     1.7952     0.2305     0.0000  3912.6665
   9757.5000  1204.0642   163.5764     0.2042    79.8937   131.7086     0.0000   106.8280   151.2914   294.2656   291.8677     0.0781     0.0000    50.5945     0.2089   116.3389     1.7002     1.8043     0.2284     0.0000  3908.3333
   9758.0000  1201.7397   163.5764     0.2153    79.6473   131.5257     0.0000    96.8270   151.2957   293.8482   291.4112     0.0780     0.0000    48.1855     0.2105   114.3469     1.7232     1.8108     0.2266     0.0000  3931.0000
   9758.5000  1205.4388   163.5764     0.2021    79.5396   130.9223     0.0000    91.3187   151.2999   293.4032   291.3165     0.0780     0.0000    45.6778     0.2075   112.2839     1.7452     1.8122     0.2259     0.0000  3921.3333
   9759.0000  1206.9937   163.5764     0.1931    79.4082   130.1608     0.0000    81.7850   151.3042   293.1182   291.5751     0.0779     0.0000    43.5673     0.2036   110.4575     1.7586     1.8098     0.2250     0.0000  3934.6667
   9759.5000  1210.8284   163.5764     0.2042    79.2851   129.5718     0.0000    80.0570   151.3085   292.9279   291.9637     0.0779     0.0000    40.8336     0.2007   107.9139     1.7673     1.8072     0.2241     0.0000  3955.3333
   9760.0000  1213.6154   163.5764     0.2042    79.1095   128.5154     0.0000    81.6525   151.3127   292.9865   292.5015     0.0779     0.0000    37.9730     0.1950   104.9935     1.7672     1.8051     0.2228     0.0000  3955.0000
   9760.5000  1212.6586   163.5764     0.2021    78.9038   128.0549     0.0000    84.6129   151.3170   293.2752   292.8783     0.0778     0.0000    35.1505     0.1940   101.8805     1.7607     1.8064     0.2214     0.0000  3921.6665
   9761.0000  1210.0083   163.5764     0.2132    78.9418   127.6865     0.0000    85.6015   151.3213   293.7032   292.9066     0.0778     0.0000    32.4620     0.1906    98.7627     1.7525     1.8101     0.2217     0.0000  3945.0000
