#--------------------------------------------------#
#-------------------ENVERUS, INC.------------------#
#------------------WWW.ENVERUS.COM-----------------#
#------------------COPYRIGHT 2020------------------#
#--------------------------------------------------#
#THIS FILE MAY BE USED ONLY IN ACCORDANCE WITH A CURRENT SUBSCRIPTION AGREEMENT BETWEEN
#THE USER AND ENVERUS, INC. NO PART OF THIS FILE MAY BE REPRODUCED, USED, COPIED,
#MODIFIED, PROPAGATED, OR DISTRIBUTED EXCEPT IN ACCORDANCE WITH THE SUBSCRIPTION
#AGREEMENT. UNAUTHORIZED USE OR DISTRIBUTION OF ALL OR ANY PART OF THIS FILE MAY VIOLATE
#COPYRIGHT, TRADEMARK, AND/OR OTHER LAWS AND IS SUBJECT TO CIVIL AS WELL AS CRIMINAL
#SANCTIONS.
#--------------------------------------------------#
#THIS FILE IS PROVIDED "AS-IS" AND ALL WARRANTIES ARE EXPRESSLY DISCLAIMED, WHETHER
#EXPRESS, ORAL, IMPLIED, STATUTORY OR OTHERWISE, INCLUDING ANY IMPLIED WARRANTY OF FITNESS
#FOR A PARTICULAR PURPOSE, MERCHANTABILITY, TITLE OR NON-INFRINGEMENT, AND ANY WARRANTIES
#ARISING BY VIRTUE OF CUSTOM OF TRADE OR COURSE OF DEALING.  FURTHER, ENVERUS, INC.
#AND ITS LICENSORS DO NOT REPRESENT OR WARRANT THAT THIS FILE WILL MEET USER'S
#REQUIREMENTS OR ARE SUITABLE FOR USER'S NEEDS OR THAT THE DATA OR RESULTS PROVIDED IN
#CONJUNCTION THEREWITH ARE CORRECT, ACCURATE, TIMELY OR RELIABLE. THESE DISCLAIMERS SHALL
#APPLY REGARDLESS OF ANY FAILURE OF ESSENTIAL PURPOSE OF ANY LIMITED REMEDY.  SOME
#JURISDICTIONS DO NOT ALLOW THE EXCLUSION OF CERTAIN WARRANTIES SO SOME OF THE ABOVE
#EXCLUSIONS MAY NOT APPLY. IN NO EVENT SHALL ENVERUS, INC. OR ANY OF ITS AFFILIATES
#BE LIABLE UNDER ANY LEGAL THEORY, WHETHER IN TORT (INCLUDING WITHOUT LIMITATION
#NEGLIGENCE), CONTRACT, STRICT LIABILITY, STATUTORY OR OTHERWISE, FOR ANY SPECIAL,
#INCIDENTAL, CONSEQUENTIAL, EXEMPLARY, PUNITIVE OR INDIRECT DAMAGE OF ANY KIND, INCLUDING
#WITHOUT LIMITATION LOSS OF REVENUE, PROFITS, GOODWILL, USE, AND/OR DATA OR THE COST OF
#PROCUREMENT OF SUBSTITUTE GOODS OR SERVICES, EVEN IF APPRISED OF THE POSSIBILITY OF SUCH
#DAMAGES IN ADVANCE.
#--------------------------------------------------#

~VERSION INFORMATION
VERS. 2.0 : CWLS LOG ASCII STANDARD - VERSION 2.0
WRAP.  NO : ONE LINE PER DEPTH STEP
~WELL INFORMATION
#MNEMONIC     .UNIT              VALUE :DESCRIPTION
STRT       .FT                2 :START DEPTH
STOP       .FT                6341 :STOP DEPTH
STEP       .FT                   0.500 :STEP
NULL       .                  -999.990 :NULL
UWI        .              42389104050000 :UNIQUE WELL ID
API        .              42389104050000 :API NUMBER
COMP       .         ENDEAVOR ENERGY RESOURCES L.P. :COMPANY
WELL       .        TXL REEVES STATE UNIT  2 :WELL
DATE       .                            :LOG DATE
~CURVE INFORMATION
#MNEMONIC     .UNIT      API CODE :CURVE DESCRIPTION
DEPTH       .FT                      :MEASURED DEPTH
GR.API        UNKNOWN   :GR
DT.US/FT        UNKNOWN   :DT
~A    DEPTH    GR    DT
# ...
 2910     2.615   67.071
 2910.5     2.692   67.102
 2911     2.398   67.133
 2911.5     2.104   67.164
 2912     1.81   67.196
 2912.5     1.516   67.227
 2913     1.222   67.258
 2913.5     0.978   67.289
 2914     1.223   67.32
 2914.5     1.469   67.351
 2915     1.714   67.383
 2915.5     1.959   67.414
 2916     2.204   67.445
 2916.5     2.449   67.441
 2917     2.694   67.393
 2917.5     2.939   67.345
 2918     3.184   67.297
 2918.5     3.429   67.248
 2919     3.674   67.2
 2919.5     3.417   67.152
 2920     3.155   67.104
 2920.5     2.893   67.055
 2921     2.632   67.007
 2921.5     2.37   66.959
 2922     2.108   66.911
 2922.5     1.846   66.862
 2923     1.754   66.814
 2923.5     2.245   66.766
 2924     2.736   66.717
 2924.5     3.081   66.669
 2925     2.571   66.621
 2925.5     2.061   66.573
 2926     1.551   66.524
 2926.5     2.412   66.476
 2927     3.354   66.428
 2927.5     4.297   66.38
 2928     5.239   66.331
 2928.5     6.181   66.283
 2929     7.124   66.235
 2929.5     8.066   64.357
 2930     9.008   59.703
 2930.5     8.971   55.049
 2931     8.659   53.31
 2931.5     8.347   52.939
 2932     7.749   52.569
 2932.5     6.675   52.198
 2933     5.6   51.828
 2933.5     4.526   51.457
 2934     3.887   51.086
 2934.5     4.378   50.716
 2935     4.87   50.972
 2935.5     5.361   51.397
 2936     5.853   51.823
 2936.5     6.344   52.249
 2937     7.463   52.674
 2937.5     8.856   53.1
 2938     10.25   53.525
 2938.5     10.332   53.623
 2939     9.366   53.318
 2939.5     8.4   53.012
 2940     7.435   52.707
 2940.5     6.469   52.401
 2941     5.503   52.095
 2941.5     4.967   51.928
 2942     6.039   52.432
 2942.5     7.112   52.936
 2943     7.653   53.441
 2943.5     6.873   53.42
 2944     6.093   52.929
 2944.5     5.313   52.438
 2945     4.533   51.947
 2945.5     3.753   51.456
 2946     2.973   50.965
 2946.5     2.193   51.082
 2947     2.232   51.24
 2947.5     2.486   51.398
 2948     2.741   51.555
 2948.5     2.995   51.713
 2949     3.249   51.551
 2949.5     2.441   51.235
 2950     0.982   50.919
 2950.5     0.525   50.603
 2951     0.766   50.287
 2951.5     1.007   50.03
 2952     1.248   50.043
 2952.5     1.49   50.055
 2953     1.731   50.068
 2953.5     1.972   50.08
 2954     2.213   50.092
 2954.5     2.455   50.105
 2955     2.696   50.117
 2955.5     2.937   50.13
 2956     3.179   50.142
 2956.5     3.089   50.155
 2957     2.701   50.167
 2957.5     2.312   50.179
 2958     1.924   50.192
 2958.5     2.078   50.204
 2959     2.661   50.217
 2959.5     3.244   50.229
 2960     3.455   50.244
 2960.5     3.247   50.258
 2961     3.039   50.272
 2961.5     2.831   50.287
 2962     2.623   50.301
 2962.5     2.415   50.315
 2963     2.739   50.33
 2963.5     3.776   50.344
 2964     2.79   50.358
 2964.5     1.803   50.373
 2965     1.718   50.387
 2965.5     2.21   50.401
 2966     2.701   50.416
 2966.5     3.193   50.314
 2967     3.684   50.09
 2967.5     4.176   49.866
 2968     4.667   49.642
 2968.5     5.159   49.418
 2969     6.67   49.194
 2969.5     8.586   48.97
 2970     10.502   48.746
 2970.5     17.463   48.522
 2971     16.085   48.671
 2971.5     19.585   48.85
 2972     19.799   49.029
 2972.5     15.407   49.207
 2973     11.015   49.386
 2973.5     6.623   49.565
 2974     5.501   49.744
 2974.5     5.202   49.922
 2975     4.903   49.934
 2975.5     4.604   49.866
 2976     4.305   49.797
 2976.5     4.1   49.729
 2977     4.105   49.661
 2977.5     4.11   49.593
 2978     4.114   49.524
 2978.5     4.119   49.456
 2979     4.124   49.388
 2979.5     4.129   49.319
 2980     4.134   49.251
 2980.5     4.138   49.183
 2981     4.143   49.114
 2981.5     4.148   49.046
 2982     4.153   48.987
 2982.5     4.584   49.003
 2983     5.076   49.019
 2983.5     5.567   49.035
 2984     6.058   49.051
 2984.5     6.55   49.067
 2985     7.041   49.083
 2985.5     7.533   49.099
 2986     8.024   49.114
 2986.5     7.585   49.13
 2987     6.508   49.146
 2987.5     5.432   49.162
 2988     4.356   49.178
 2988.5     3.931   49.22
 2989     3.808   49.263
 2989.5     3.686   49.306
 2990     3.564   49.349
 2990.5     3.442   49.392
 2991     3.319   49.435
 2991.5     3.197   49.479
 2992     3.8   49.522
 2992.5     5.249   49.565
 2993     5.593   49.608
 2993.5     5.439   49.651
 2994     5.284   49.694
 2994.5     5.13   49.737
 2995     6.631   49.781
 2995.5     8.334   49.824
 2996     10.037   49.756
 2996.5     11.739   49.651
 2997     12.787   49.546
 2997.5     9.822   49.441
 2998     8.102   49.336
 2998.5     7.485   49.231
 2999     6.868   49.126
 2999.5     6.251   49.141
 3000     6.754   49.183
 3000.5     6.959   49.224
 3001     7.165   49.265
 3001.5     7.37   49.306
 3002     7.472   49.347
 3002.5     7.045   49.388
 3003     6.618   49.429
 3003.5     6.191   49.471
 3004     5.764   49.512
 3004.5     5.337   49.553
 3005     4.91   49.594
 3005.5     4.484   49.635
 3006     4.057   49.676
 3006.5     3.63   49.717
 3007     3.203   49.758
 3007.5     2.776   49.8
 3008     2.963   49.841
 3008.5     3.886   49.882
 3009     4.808   49.923
 3009.5     5.731   49.927
 3010     6.654   49.859
 3010.5     7.587   49.79
 3011     8.563   49.722
 3011.5     9.539   49.654
 3012     10.515   49.585
 3012.5     11.49   49.517
 3013     12.466   49.448
 3013.5     13.442   49.38
 3014     14.418   49.312
 3014.5     15.394   49.243
 3015     17.099   49.175
 3015.5     21.074   49.106
 3016     22.456   49.038
 3016.5     23.109   48.97
 3017     23.763   49.097
 3017.5     24.046   49.281
 3018     23.458   49.465
 3018.5     22.87   49.65
 3019     22.282   49.76
 3019.5     21.694   49.677
 3020     12.053   49.594
 3020.5     12.391   49.512
 3021     12.729   49.429
 3021.5     4.318   49.346
 3022     4.051   49.263
 3022.5     3.784   49.18
 3023     3.516   49.228
 3023.5     3.249   49.361
 3024     2.982   49.494
 3024.5     2.714   49.626
 3025     2.447   49.759
 3025.5     2.376   49.892
 3026     2.452   50.025
 3026.5     2.527   50.158
 3027     2.603   50.29
 3027.5     2.679   50.32
 3028     2.754   50.273
 3028.5     2.83   50.225
 3029     2.045   50.178
 3029.5     0.025   50.131
 3030     0.058   50.084
 3030.5     0.092   50.037
 3031     0.126   49.99
 3031.5     0.16   49.943
 3032     0.245   49.895
 3032.5     0.899   49.848
 3033     1.553   49.832
 3033.5     2.208   50.079
 3034     2.862   50.326
 3034.5     3.166   50.573
 3035     3.025   50.82
 3035.5     2.884   51.067
 3036     2.744   51.254
 3036.5     2.603   51.097
 3037     2.463   50.94
 3037.5     2.322   50.782
 3038     2.182   50.625
 3038.5     2.041   50.467
 3039     1.901   50.31
 3039.5     1.76   50.152
 3040     1.62   49.995
 3040.5     1.479   49.837
 3041     1.339   49.68
 3041.5     1.198   49.523
 3042     1.058   49.494
 3042.5     1.217   49.567
 3043     1.708   49.639
 3043.5     2.199   49.712
 3044     2.691   49.785
 3044.5     3.158   49.857
 3045     3.019   49.93
 3045.5     2.88   50.002
 3046     2.741   50.075
 3046.5     2.602   50.148
 3047     2.463   50.22
 3047.5     2.324   50.293
 3048     2.185   50.365
 3048.5     2.046   50.438
 3049     1.907   50.511
 3049.5     3.405   50.583
 3050     4.006   50.656
 3050.5     3.679   50.728
 3051     3.352   50.801
 3051.5     4.129   50.874
 3052     5.057   50.925
 3052.5     4.669   50.846
 3053     4.188   50.767
 3053.5     3.706   50.843
 3054     3.381   50.948
 3054.5     3.35   51.053
 3055     3.319   51.158
 3055.5     3.288   51.263
 3056     4.217   51.368
 3056.5     4.842   51.473
 3057     5.467   51.577
 3057.5     6.092   51.682
 3058     6.717   51.787
 3058.5     7.112   52.468
 3059     5.667   54.611
 3059.5     4.221   56.753
 3060     2.776   58.895
 3060.5     1.934   61.038
 3061     1.962   63.18
 3061.5     1.99   65.323
 3062     2.018   66.806
 3062.5     2.046   66.8
 3063     2.074   66.795
 3063.5     2.102   66.789
 3064     2.13   66.784
 3064.5     2.159   66.779
