###############################################
##         ENVERUS                           ##
##         ESS - Open Hole                   ##
##         PERMIAN / DELAWARE                ##
##         Nov 04 2023  V4.0                 ##
##         42-371-36358-00-00                ##
###############################################
## Copyright 2017-2023  ENVERUS.  All Rights Reserved. 
## Confidential - Property of ENVERUS, use governed by terms and 
## conditions found within the existing Information Services Subscription Agreement 
## (as may be amended, the “ISSA”) between Customer and ENVERUS. 
## 
~VERSION INFORMATION
# MNEM.UNIT                               DATA : DESCRIPTION OF MNEMONIC
#-----.-----     ----------------------------- : -----------------------------
VERS.                                     2.00 : CWLS LOG ASCII STANDARD - VERSION 2.00
WRAP.                                       NO : MULTIPLE LINES PER DEPTH STEP
VEND.                                  ENVERUS : VENDOR
TYPE.                          ESS - OPEN HOLE : ENVERUS ESSENTIAL CURVES – ACCESSIBLE THROUGH ENVERUS PRISM(TM)
DOC.                                  32044985 : ENVERUS HEADER RAW DOCUMENT ID
#___________________________________________________________________________________________________ 
~WELL INFORMATION 
# 9/F+NtSLBEAIaZM9LpLMxALTyCH3LMfPBQiNKTeSadJ6NAezaEZy+3+OEP8rVGNvVB4ifWNnxSKvs1BiqqZA9A== 
# MNEM.UNIT                                              DATA : DESCRIPTION OF MNEMONIC 
#-----.-----                    ----------------------------- : ----------------------------- 
CNTY.                                                   PECOS : COUNTY 
STATE.                                                  TEXAS : STATE 
CNTRY.                                                    USA : COUNTRY 
API.                                             42-371-36358 : API (10 Digit) 
API_14.                                    42-371-36358-00-00 : API (14 Digits) 
API_14_std.                                 42-371-36358-0000 : API (14 Digits Standard) 
UWI.                                           42371363580000 : UNIQUE WELL ID 
WELL.                           SCHLOSSER, FRED ESTATE -B-  9 : WELL NAME
STRT.FT                                                 151.0 : START DEPTH
STOP.FT                                                5707.0 : STOP DEPTH
STEP.FT                                                   0.5 : STEP BETWEEN DEPTHS
NULL.                                                 -999.25 : NULL VALUE
COMP.                                      APACHE CORPORATION : COMPANY 
DATE.                                             07-JUN-1992 : LOG DATE
#___________________________________________________________________________________________________ 
~CURVE INFORMATION 
# MNEM.UNIT           : CURVE DESCRIPTION 
#-----.-----          : ----------------------------- 
 DEPT.FT               : MEASURED DEPTH 
 GR.API                : GAMMA RAY (GR) 
 DT.US/FT              : SONIC DELTA TRANSIT TIME (DT) 
 #___________________________________________________________________________________________________ 
~A         DEPT             GR             DT
# ...
         2674.0          5.042         60.374
         2674.5          6.302         57.959
         2675.0          6.627         55.988
         2675.5          6.628         54.575
         2676.0          7.236         53.938
         2676.5          8.209         53.798
         2677.0          9.181         53.689
         2677.5         10.153         53.581
         2678.0         10.147         53.472
         2678.5          8.638         53.364
         2679.0          7.128         53.285
         2679.5          5.619         53.312
         2680.0          4.461         53.248
         2680.5          5.129         53.028
         2681.0          5.797         52.809
         2681.5          6.465         52.680
         2682.0          7.132         52.746
         2682.5          7.800         52.812
         2683.0          8.468         52.878
         2683.5          9.136         52.991
         2684.0          9.804         53.289
         2684.5         10.472         53.586
         2685.0         11.139         53.884
         2685.5         11.807         53.885
         2686.0         10.135         53.495
         2686.5          8.408         53.400
         2687.0          6.682         53.304
         2687.5          4.956         53.191
         2688.0          5.039         52.998
         2688.5          5.735         52.805
         2689.0          6.431         52.520
         2689.5          7.127         52.203
         2690.0          7.822         52.738
         2690.5          8.518         53.618
         2691.0          9.214         54.498
         2691.5          9.909         55.175
         2692.0         10.605         55.334
         2692.5          9.794         54.652
         2693.0          8.956         53.971
         2693.5          8.118         53.289
         2694.0          7.472         53.359
         2694.5          7.178         53.542
         2695.0          6.883         53.726
         2695.5          6.589         53.445
         2696.0          6.295         53.018
         2696.5          6.000         52.582
         2697.0          5.706         52.411
         2697.5          5.412         52.466
         2698.0          5.117         52.521
         2698.5          4.785         52.576
         2699.0          4.426         52.631
         2699.5          4.238         52.978
         2700.0          5.059         53.391
         2700.5          6.004         52.984
         2701.0          7.547         52.578
         2701.5          7.503         52.171
         2702.0          7.043         51.985
         2702.5          6.582         51.830
         2703.0          6.355         51.773
         2703.5          6.960         51.717
         2704.0          7.566         51.660
         2704.5          7.980         53.143
         2705.0          7.603         54.633
         2705.5          7.226         56.123
         2706.0          8.362         57.614
         2706.5          9.929         58.213
         2707.0         11.383         57.526
         2707.5         10.952         56.839
         2708.0         10.521         58.821
         2708.5          8.124         61.416
         2709.0          5.841         64.010
         2709.5          5.155         66.605
         2710.0          4.469         68.195
         2710.5          3.783         66.278
         2711.0          5.338         64.362
         2711.5          7.438         62.445
         2712.0          7.558         60.529
         2712.5          7.659         59.599
         2713.0          7.761         61.296
         2713.5          5.652         62.992
         2714.0          4.020         64.689
         2714.5          5.398         65.298
         2715.0          6.775         63.408
         2715.5          8.153         62.079
         2716.0          9.530         62.907
         2716.5          9.262         63.860
         2717.0          7.984         66.189
         2717.5          6.706         68.435
         2718.0          5.428         68.778
         2718.5          5.092         69.120
         2719.0          5.177         69.463
         2719.5          5.262         69.437
         2720.0          5.295         69.049
         2720.5          4.591         68.693
         2721.0          3.887         68.712
         2721.5          3.182         68.731
         2722.0          2.478         68.749
         2722.5          2.113         68.767
         2723.0          2.047         68.778
         2723.5          1.981         68.788
         2724.0          1.914         68.799
         2724.5          1.848         68.810
         2725.0          2.381         68.714
         2725.5          2.915         68.561
         2726.0          3.449         68.449
         2726.5          3.983         68.484
         2727.0          4.517         68.519
         2727.5          4.254         68.554
         2728.0          3.859         68.589
         2728.5          3.465         68.614
         2729.0          3.070         68.611
         2729.5          2.923         68.479
         2730.0          2.924         68.339
         2730.5          2.925         67.959
         2731.0          2.926         67.578
         2731.5          2.927         67.197
         2732.0          2.927         66.855
         2732.5          2.928         66.712
         2733.0          3.600         66.568
         2733.5          4.288         65.017
         2734.0          4.976         63.341
         2734.5          4.988         61.666
         2735.0          4.638         59.446
         2735.5          4.289         54.067
         2736.0          3.939         53.086
         2736.5          3.590         53.326
         2737.0          3.240         53.754
         2737.5          2.891         54.183
         2738.0          3.140         54.807
         2738.5          3.644         55.586
         2739.0          4.149         55.879
         2739.5          4.094         55.913
         2740.0          4.028         55.947
         2740.5          3.961         55.843
         2741.0          3.895         55.699
         2741.5          3.408         55.554
         2742.0          2.402         55.226
         2742.5          3.550         54.723
         2743.0          4.845         53.995
         2743.5          5.113         52.742
         2744.0          5.153         52.285
         2744.5          5.192         53.359
         2745.0          5.232         54.434
         2745.5          4.829         55.508
         2746.0          4.372         56.582
         2746.5          3.915         57.657
         2747.0          3.844         59.346
         2747.5          4.069         61.205
         2748.0          4.294         62.997
         2748.5          4.519         64.789
         2749.0          4.744         65.815
         2749.5          4.882         66.622
         2750.0          4.418         67.289
         2750.5          3.954         67.488
         2751.0          3.490         67.763
         2751.5          3.210         68.168
         2752.0          3.685         68.573
         2752.5          4.160         68.273
         2753.0          4.635         67.861
         2753.5          5.110         67.437
         2754.0          5.584         66.707
         2754.5          6.029         65.977
         2755.0          6.474         65.247
         2755.5          6.919         64.162
         2756.0          7.365         63.103
         2756.5          7.810         62.877
         2757.0          8.657         62.104
         2757.5          8.424         61.331
         2758.0          7.732         60.470
         2758.5          7.040         59.514
         2759.0          6.348         58.881
         2759.5          5.656         59.001
         2760.0          5.789         59.092
         2760.5          6.042         58.321
