#--------------------------------------------------#
#-------------------ENVERUS, INC.------------------#
#------------------WWW.ENVERUS.COM-----------------#
#------------------COPYRIGHT 2020------------------#
#--------------------------------------------------#
#THIS FILE MAY BE USED ONLY IN ACCORDANCE WITH A CURRENT SUBSCRIPTION AGREEMENT BETWEEN
#THE USER AND ENVERUS, INC. NO PART OF THIS FILE MAY BE REPRODUCED, USED, COPIED,
#MODIFIED, PROPAGATED, OR DISTRIBUTED EXCEPT IN ACCORDANCE WITH THE SUBSCRIPTION
#AGREEMENT. UNAUTHORIZED USE OR DISTRIBUTION OF ALL OR ANY PART OF THIS FILE MAY VIOLATE
#COPYRIGHT, TRADEMARK, AND/OR OTHER LAWS AND IS SUBJECT TO CIVIL AS WELL AS CRIMINAL
#SANCTIONS.
#--------------------------------------------------#
#THIS FILE IS PROVIDED "AS-IS" AND ALL WARRANTIES ARE EXPRESSLY DISCLAIMED, WHETHER
#EXPRESS, ORAL, IMPLIED, STATUTORY OR OTHERWISE, INCLUDING ANY IMPLIED WARRANTY OF FITNESS
#FOR A PARTICULAR PURPOSE, MERCHANTABILITY, TITLE OR NON-INFRINGEMENT, AND ANY WARRANTIES
#ARISING BY VIRTUE OF CUSTOM OF TRADE OR COURSE OF DEALING.  FURTHER, ENVERUS, INC.
#AND ITS LICENSORS DO NOT REPRESENT OR WARRANT THAT THIS FILE WILL MEET USER'S
#REQUIREMENTS OR ARE SUITABLE FOR USER'S NEEDS OR THAT THE DATA OR RESULTS PROVIDED IN
#CONJUNCTION THEREWITH ARE CORRECT, ACCURATE, TIMELY OR RELIABLE. THESE DISCLAIMERS SHALL
#APPLY REGARDLESS OF ANY FAILURE OF ESSENTIAL PURPOSE OF ANY LIMITED REMEDY.  SOME
#JURISDICTIONS DO NOT ALLOW THE EXCLUSION OF CERTAIN WARRANTIES SO SOME OF THE ABOVE
#EXCLUSIONS MAY NOT APPLY. IN NO EVENT SHALL ENVERUS, INC. OR ANY OF ITS AFFILIATES
#BE LIABLE UNDER ANY LEGAL THEORY, WHETHER IN TORT (INCLUDING WITHOUT LIMITATION
#NEGLIGENCE), CONTRACT, STRICT LIABILITY, STATUTORY OR OTHERWISE, FOR ANY SPECIAL,
#INCIDENTAL, CONSEQUENTIAL, EXEMPLARY, PUNITIVE OR INDIRECT DAMAGE OF ANY KIND, INCLUDING
#WITHOUT LIMITATION LOSS OF REVENUE, PROFITS, GOODWILL, USE, AND/OR DATA OR THE COST OF
#PROCUREMENT OF SUBSTITUTE GOODS OR SERVICES, EVEN IF APPRISED OF THE POSSIBILITY OF SUCH
#DAMAGES IN ADVANCE.
#--------------------------------------------------#

~VERSION INFORMATION
VERS. 2.0 : CWLS LOG ASCII STANDARD - VERSION 2.0
WRAP.  NO : ONE LINE PER DEPTH STEP
~WELL INFORMATION
#MNEMONIC     .UNIT              VALUE :DESCRIPTION
STRT       .FT                75 :START DEPTH
STOP       .FT                5648 :STOP DEPTH
STEP       .FT                   0.500 :STEP
NULL       .                  -999.990 :NULL
UWI        .              42371363570000 :UNIQUE WELL ID
API        .              42371363570000 :API NUMBER
COMP       .         APACHE CORPORATION :COMPANY
WELL       .        SCHLOSSER, FRED ESTATE -B-  13 :WELL
DATE       .                16-MAY-1992 :LOG DATE
~CURVE INFORMATION
#MNEMONIC     .UNIT      API CODE :CURVE DESCRIPTION
DEPTH       .FT                      :MEASURED DEPTH
DT.US/FT        UNKNOWN   :DT
GR.API        UNKNOWN   :GR
~A    DEPTH    DT    GR
# ...
 2623     66.017   2.057
 2623.5     67.867   2.02
 2624     66.986   2.274
 2624.5     66.105   2.529
 2625     65.506   2.783
 2625.5     65.876   3.018
 2626     66.246   3.194
 2626.5     66.616   3.37
 2627     66.986   3.546
 2627.5     67.356   3.722
 2628     67.726   3.754
 2628.5     68.211   3.486
 2629     68.713   3.218
 2629.5     69.215   2.95
 2630     69.717   2.681
 2630.5     70.003   2.81
 2631     68.686   3.019
 2631.5     66.892   3.228
 2632     68.579   3.339
 2632.5     68.937   3.07
 2633     68.444   2.801
 2633.5     67.952   2.532
 2634     67.496   2.411
 2634.5     67.386   3.236
 2635     67.275   4.062
 2635.5     67.165   4.522
 2636     66.862   4.35
 2636.5     66.051   4.179
 2637     67.283   4.008
 2637.5     68.375   3.837
 2638     69.251   3.666
 2638.5     66.501   4.253
 2639     66.665   5.362
 2639.5     67.429   6.415
 2640     67.898   6.116
 2640.5     67.856   5.817
 2641     67.228   5.247
 2641.5     66.601   4.376
 2642     65.974   3.504
 2642.5     65.347   3.054
 2643     62.887   3.085
 2643.5     60.213   3.115
 2644     53.361   3.158
 2644.5     52.377   3.438
 2645     52.175   3.717
 2645.5     52.372   3.997
 2646     52.505   4.276
 2646.5     52.164   4.556
 2647     52.356   4.835
 2647.5     54.609   5.115
 2648     57.218   5.394
 2648.5     60.561   5.42
 2649     60.996   5.203
 2649.5     60.574   4.985
 2650     60.153   4.767
 2650.5     63.692   4.55
 2651     67.624   4.332
 2651.5     67.172   4.115
 2652     66.72   3.857
 2652.5     66.268   3.55
 2653     66.51   3.243
 2653.5     67.362   2.936
 2654     68.214   2.728
 2654.5     69.066   3.002
 2655     66.757   3.276
 2655.5     63.819   3.255
 2656     65.23   2.783
 2656.5     66.642   2.312
 2657     68.054   2.512
 2657.5     68.151   3.138
 2658     67.51   3.764
 2658.5     67.9   4.391
 2659     68.691   5.017
 2659.5     67.039   4.791
 2660     64.859   4.492
 2660.5     62.679   4.193
 2661     68.752   3.895
 2661.5     67.621   3.596
 2662     67.891   3.492
 2662.5     68.161   3.44
 2663     68.587   3.388
 2663.5     69.17   3.336
 2664     68.56   3.284
 2664.5     67.84   3.232
 2665     69.14   3.18
 2665.5     70.455   3.128
 2666     65.569   3.077
 2666.5     65.711   3.025
 2667     69.33   2.973
 2667.5     71.105   2.921
 2668     68.497   2.869
 2668.5     65.889   2.817
 2669     66.497   2.765
 2669.5     68.485   2.713
 2670     70.473   2.661
 2670.5     69.028   2.609
 2671     66.593   2.557
 2671.5     65.372   2.505
 2672     65.509   2.453
 2672.5     66.398   2.401
 2673     67.288   2.349
 2673.5     68.177   2.297
 2674     68.47   2.245
 2674.5     70.711   2.194
 2675     70.103   3.314
 2675.5     69.219   4.536
 2676     68.335   5.537
 2676.5     67.605   5.356
 2677     67.071   5.175
 2677.5     66.536   4.994
 2678     66.92   4.603
 2678.5     68.004   4.02
 2679     69.089   3.437
 2679.5     71.088   2.854
 2680     63.96   2.286
 2680.5     66.05   2.408
 2681     68.14   2.531
 2681.5     70.231   2.653
 2682     67.447   2.776
 2682.5     69.6   2.898
 2683     70.222   3.021
 2683.5     68.729   3.143
 2684     67.236   3.07
 2684.5     66.786   2.991
 2685     66.53   2.913
 2685.5     67.836   2.834
 2686     68.937   2.756
 2686.5     68.16   2.677
 2687     67.383   2.598
 2687.5     66.606   2.386
 2688     65.829   2.162
 2688.5     68.922   1.937
 2689     70.16   2.111
 2689.5     66.543   2.695
 2690     64.79   3.278
 2690.5     67.429   3.861
 2691     69.249   4.432
 2691.5     70.554   4.268
 2692     66.526   4.103
 2692.5     65.493   3.939
 2693     66.829   3.774
 2693.5     68.166   3.609
 2694     69.502   3.355
 2694.5     67.949   3.057
 2695     63.192   2.802
 2695.5     63.606   2.932
 2696     64.526   3.061
 2696.5     65.297   3.191
 2697     66.068   3.32
 2697.5     66.838   3.45
 2698     64.2   3.579
 2698.5     58.266   3.709
 2699     52.838   3.838
 2699.5     46.424   4.262
 2700     48.619   4.772
 2700.5     53.163   5.282
 2701     57.226   5.792
 2701.5     51.067   5.712
 2702     50.256   5.405
 2702.5     49.445   5.098
 2703     49.848   4.791
 2703.5     50.744   4.484
 2704     52.28   4.177
 2704.5     53.816   4.098
 2705     55.954   4.549
 2705.5     50.848   5
 2706     51.878   5.451
 2706.5     52.907   5.902
 2707     52.181   6.352
 2707.5     50.289   6.264
 2708     52.171   6.001
 2708.5     51.447   5.738
 2709     51.969   5.475
 2709.5     52.49   5.212
 2710     53.012   4.949
 2710.5     53.534   4.686
 2711     54.055   4.423
 2711.5     51.998   4.23
 2712     48.486   4.05
 2712.5     48.315   3.87
 2713     49.73   3.69
 2713.5     50.228   3.949
 2714     49.71   4.552
 2714.5     49.193   5.025
 2715     50.753   5.024
 2715.5     52.34   4.811
 2716     51.34   4.083
 2716.5     56.217   3.93
 2717     61.733   3.928
 2717.5     63.1   3.927
 2718     64.466   3.925
 2718.5     65.833   4.1
 2719     66.177   4.339
 2719.5     65.348   4.578
 2720     64.519   4.772
 2720.5     63.69   4.567
 2721     61.114   4.362
 2721.5     62.646   4.157
 2722     66.583   3.951
 2722.5     65.777   3.746
 2723     63.705   3.951
 2723.5     63.495   4.29
 2724     64.98   4.629
 2724.5     66.444   4.567
 2725     65.579   4.18
 2725.5     64.713   3.793
 2726     63.848   3.405
 2726.5     62.983   3.018
 2727     62.117   2.631
 2727.5     61.252   2.244
 2728     64.827   2.19
 2728.5     68.796   2.489
 2729     68.592   2.789
 2729.5     66.141   3.088
 2730     66.972   3.139
 2730.5     67.803   3.148
 2731     68.634   3.158
 2731.5     65.579   3.168
 2732     63.852   3.178
 2732.5     64.778   3.188
 2733     64.718   3.197
 2733.5     64.357   3.207
 2734     63.996   3.217
 2734.5     65.358   3.234
 2735     66.927   3.488
 2735.5     68.497   3.701
 2736     67.376   3.827
 2736.5     65.374   3.954
 2737     63.372   4.08
 2737.5     61.37   4.188
 2738     62.932   3.931
 2738.5     67.381   3.675
 2739     64.089   3.419
 2739.5     61.209   3.162
 2740     66.349   2.906
 2740.5     69.514   3.4
 2741     65.741   3.964
 2741.5     61.967   4.528
 2742     58.194   5.092
 2742.5     56.391   4.012
 2743     59.793   2.674
 2743.5     63.194   2.042
 2744     66.687   2.121
 2744.5     64.523   2.201
 2745     62.359   2.28
 2745.5     60.195   2.621
 2746     58.032   3.294
 2746.5     56.519   3.967
 2747     56.347   4.64
 2747.5     56.689   5.313
 2748     59.647   5.224
 2748.5     60.343   4.883
 2749     60.211   4.542
 2749.5     57.876   4.202
 2750     55.54   3.774
 2750.5     61.023   3.335
 2751     66.509   2.897
 2751.5     66.706   2.459
 2752     66.139   2.347
 2752.5     66.466   2.717
 2753     67.309   3.087
 2753.5     68.151   3.458
 2754     67.964   3.828
 2754.5     62.93   4.198
 2755     60.7   4.568
 2755.5     61.098   4.276
 2756     63.791   2.81
 2756.5     66.189   2.207
 2757     62.56   2.771
 2757.5     58.93   3.336
 2758     58.231   3.901
 2758.5     61.219   4.466
 2759     62.367   5.031
 2759.5     63.515   5.227
 2760     61.203   4.98
 2760.5     59.77   4.733
 2761     58.638   4.487
 2761.5     61.68   4.24
 2762     62.772   3.993
 2762.5     63.456   3.859
 2763     63.96   3.779
 2763.5     64.037   3.699
 2764     64.113   3.62
 2764.5     62.698   3.54
 2765     60.459   3.46
 2765.5     58.948   3.38
 2766     60.681   3.3
 2766.5     62.414   3.22
 2767     60.894   3.14
 2767.5     57.639   3.06
 2768     57.166   3.411
 2768.5     61.674   4.099
 2769     62.348   4.787
 2769.5     59.518   5.475
 2770     56.689   6.162
 2770.5     60.167   6.824
 2771     64.26   6.289
 2771.5     64.622   5.754
 2772     60.544   5.219
 2772.5     57.736   4.684
 2773     62.461   3.985
 2773.5     61.878   3.137
 2774     61.672   2.825
 2774.5     63.242   2.883
 2775     62.293   2.94
 2775.5     60.495   2.998
 2776     58.697   3.055
 2776.5     59.792   3.112
 2777     61.45   3.17
 2777.5     62.015   3.227
 2778     60.347   3.285
 2778.5     58.68   3.342
