~VERSION INFORMATION
 VERS.                2.0:   CWLS LOG ASCII STANDARD - VERSION 2.0
 WRAP.                 NO:   ONE LINE PER DEPTH STEP
~WELL INFORMATION
#MNEM.UNIT      DATA TYPE    INFORMATION
#----------   ------------   ------------------------------
 STRT.FT           0.0000:   START DEPTH
 STOP.FT        7147.0000:   STOP DEPTH
 STEP.FT           0.5000:   STEP LENGTH
 NULL.          -999.2500:   NULL VALUE
 COMP. MOBIL PRODUCING TEXAS & NEW MEEXICO INC:   COMPANY
 WELL. SCHLOSER FRED ESTATE B #2:   WELL
 FLD .      ROJO CABALLOS:   FIELD
 LOC .                   :   LOCATION
 CNTY.              PECOS:   COUNTY
 STAT.              TEXAS:   STATE
 CTRY. UNITED STATES OF AMERICA:   COUNTRY
 SRVC.       Schlumberger:   SERVICE COMPANY
 DATE.        10-Jun-1980:   LOGDATE
 API .     42371330900000:   API NUMBER
~CURVE INFORMATION
#MNEM.UNIT       API CODE    CURVE DESCRIPTION
#----------   ------------   ------------------------------
 DEPT.F                  :   
 GRD .GAPI   45 310 01 00:   GAMMA RAY FROM DENSITY LOG
 GRR .GAPI   11 310 01 00:   GAMMA RAY FROM RESISTIVITY LOG
 GRS .GAPI   60 310 01 00:   GAMMA RAY FROM SONIC LOG
 DT  .US/F   60 500 00 00:   DELTA-T (INTERVAL TRANSIT TIME)
 CALD.IN     45 280 60 00:   CALIPER FROM DENSITY LOG
 CORR.G/C3   45 356 01 00:   DENSITY CORRECTION
 RHOB.G/C3   45 350 01 00:   BULK DENSITY
 NPHI_LS.DEC 42 890 01 00:   NEUTRON POROSITY LIMESTONE
 DPHI_LS.DEC 45 890 10 00:   DENSITY POROSITY LIMESTONE
 LLD .OHMM   11 220 10 00:   LATEROLOG DEEP RESISTIVITY
 LLS .OHMM   11 220 09 00:   LATEROLOG SHALLOW RESISTIVITY
~PARAMETER INFORMATION
#MNEM.UNIT          VALUE    DESCRIPTION
#----------   ------------   ------------------------------
 PD  .                 GL:   PERMANENT DATUM
 EPD .FT             2752:   ELEVATION PERMANENT DATUM
 LMF .                 KB:   LOG MEASURED FROM
 DAPD.FT               13:   FEET ABOVE PERMANENT DATUM
 DMF .                 KB:   DRILLING MEASURED FROM
 EKB .FT             2765:   KELLY BUSHING
 EDF .FT             2764:   DRILLING FLOOR
 EGL .FT             2752:   GROUND LEVEL
 DATE.           06/10/80:   RUN DATE
 RUN .                  1:   RUN NUMBER
 DD  .FT             7150:   DEPTH DRILLER
 DL  .FT             7150:   DEPTH LOGGER
 BLI .FT             7147:   BOTTOM LOG INTERVAL
 TLI .FT             5000:   TOP LOG INTERVAL
 CS  .IN            8.625:   CASING SIZE
 CBD .FT             1919:   CASING BOTTOM DRILLER
 CBL .FT             1904:   CASING BOTTOM LOGGER
 BS  .IN            7.875:   BIT SIZE
 BSD .FT             7150:   BIT SIZE AT DEPTH
 DFT .              BRINE:   DRILLING FLUID TYPE
 DFD .                 10:   DRILLING FLUID DENSITY
 DFV .                 35:   DRILLING FLUID VISCOSITY
 DFPH.                9.5:   DRILLING FLUID PH
 DFL .                 20:   DRILLING FLUID LOSS
 MSS .               CIRC:   MUD SAMPLE SOURCE
 RMS .OHMM           .055:   RESISTIVITY MUD SAMPLE
 MST .DEGF             73:   MUD SAMPLE TEMPERATURE
 RMF .OHMM           .055:   RESISTIVITY MUD FILTRATE SAMPLE
 MFST.DEGF             73:   MUD FILTRATE SAMPLE TEMPERATURE
 MFSS.                  M:   MUD FILTRATE SAMPLE SOURCE
 RMB .OHMM            .03:   RESISTIVITY MUD AT BHT
 BHT .DEGF            107:   BOTTOM HOLE TEMPERATURE
 TCS .HRS            1615:   TIME CIRCULATED STOPPED
 TLAB.HRS            0300:   TIME LOGGER AT BOTTOM
 MRT .DEGF            107:   MAXIMUM RECORDED TEMPERATURE
 LUN .               8024:   LOGGING UNIT NUMBER
 LUL .               MONA:   LOGGING UNIT LOCATION
 ENGI.           MC BRIDE:   RECORDING ENGINEER
 CLNT.            :   CLIENT CODE
 ORIG.      1" 2.5" PRINT:   ORIGIN OF DATA
 UWI .     42371330900000:   UNIQUE WELL ID
 
~OTHER INFORMATION
~A    DEPT     GRD        GRR         GRS        DT       CALD       CORR       RHOB      NPHI_LS    DPHI_LS      LLD        LLS   
# ...
 5520.5000    43.7829    44.4937    45.0266    74.7570    10.3633     0.0274     2.3882     0.2005     0.1931     2.9851     2.5315
 5521.0000    44.9352    44.9095    42.9855    73.6861    10.3432     0.0310     2.3917     0.2027     0.1943     2.8368     2.4688
 5521.5000    45.5600    44.6594    40.9813    72.5750    10.3350     0.0345     2.4098     0.2097     0.1849     2.6958     2.2953
 5522.0000    45.1406    43.5591    40.2235    71.4831    10.3303     0.0381     2.4430     0.2180     0.1671     2.5619     2.1948
 5522.5000    44.7113    41.4649    40.1769    70.4580    10.3256     0.0360     2.4651     0.2131     0.1509     2.5275     2.2669
 5523.0000    44.6947    39.3708    40.7098    69.8552    10.3163     0.0232     2.4652     0.2059     0.1522     2.8335     2.5492
 5523.5000    44.8348    38.9520    41.1897    69.3983    10.3063     0.0105     2.4652     0.1956     0.1584     3.1766     2.9090
 5524.0000    44.6694    40.1976    42.2542    68.5349    10.2926     0.0021     2.4663     0.1920     0.1611     3.5613     3.3195
 5524.5000    43.5911    41.3562    44.5548    67.4942    10.2767     0.0059     2.4681     0.1893     0.1544     3.9926     3.7880
 5525.0000    42.1482    41.8197    44.9321    67.1965    10.2600     0.0142     2.4843     0.1777     0.1398     4.4760     4.3226
 5525.5000    42.0971    41.8197    44.6579    67.6003    10.2461     0.0224     2.5084     0.1677     0.1266     5.0180     4.9326
 5526.0000    43.9130    44.2716    44.0989    68.1429    10.2437     0.0307     2.5172     0.1746     0.1185     5.6257     5.6288
 5526.5000    47.8377    46.9383    44.0016    69.1112    10.2413     0.0280     2.5091     0.1907     0.1215     6.0243     5.9229
 5527.0000    51.7374    48.2838    44.1857    70.1536    10.2296     0.0227     2.5011     0.2029     0.1285     5.6060     5.8700
 5527.5000    52.1221    48.6721    45.5027    71.1961    10.2246     0.0174     2.4930     0.2143     0.1337     5.2004     5.3508
 5528.0000    52.2356    49.8292    50.4487    72.4214    10.2195     0.0121     2.4770     0.2208     0.1437     4.8241     4.8774
 5528.5000    56.5873    52.4405    58.0146    73.6060    10.2145     0.0068     2.4582     0.2270     0.1573     4.4072     4.4460
 5529.0000    63.4523    57.4297    66.6414    73.9773    10.2094     0.0015     2.4414     0.2335     0.1651     4.1823     4.1612
 5529.5000    71.3321    65.9859    75.6730    73.9423    10.2043    -0.0010     2.4546     0.2383     0.1680     4.2392     4.3983
 5530.0000    80.2272    74.5422    85.2809    72.9336    10.2008     0.0002     2.4782     0.2407     0.1600     5.7677     6.0740
 5530.5000    81.5369    78.3208    89.1729    71.9249    10.2001     0.0294     2.4996     0.2283     0.1354     8.4070     8.5182
 5531.0000    80.7789    76.4741    86.8226    71.2236    10.1995     0.0296     2.5161     0.2170     0.1202     9.3323     9.4260
 5531.5000    78.6869    74.3196    83.4984    70.8781    10.1893     0.0275     2.5312     0.2091     0.1139    10.1284    10.2298
 5532.0000    75.7056    72.2726    80.0079    70.7339    10.1886     0.0223     2.5353     0.2155     0.1089    10.7724    10.8242
 5532.5000    72.7245    69.6382    75.3744    70.6040    10.1913     0.0171     2.5393     0.2207     0.1058    10.6250    10.6962
 5533.0000    69.7433    65.7167    71.2051    70.3196    10.1967     0.0119     2.5357     0.2143     0.1065     9.9956    10.0815
 5533.5000    67.3584    61.8932    72.7851    69.7135    10.1990     0.0084     2.5292     0.1970     0.1128     9.3790     9.4423
 5534.0000    68.8678    64.0174    74.5508    69.0644    10.1995     0.0058     2.5228     0.1865     0.1193     9.1597     9.2038
 5534.5000    69.6225    65.0794    69.7757    68.2921    10.2000     0.0058     2.5266     0.1823     0.1183     9.3311     9.3874
 5535.0000    68.9756    62.0834    60.1866    66.7789    10.2006     0.0129     2.5336     0.1805     0.1133     9.6593     9.7175
 5535.5000    62.4215    57.0899    49.3962    64.9785    10.2011     0.0145     2.5372     0.1763     0.1084     9.9475     9.9954
 5536.0000    55.8674    51.2159    42.0286    63.6981    10.2016     0.0106     2.5406     0.1633     0.1061    10.0322    10.0844
 5536.5000    49.3133    41.8197    40.8504    63.9053    10.2022     0.0066     2.5437     0.1392     0.1036    10.1416    10.2020
 5537.0000    43.7465    37.9576    41.4930    65.9146    10.2027     0.0067     2.5445     0.1236     0.1012     9.7023     9.8185
 5537.5000    43.7465    34.9353    42.4938    68.3636    10.2179     0.0082     2.5397     0.1212     0.1021     8.4458     8.6312
 5538.0000    46.5577    36.2543    43.3509    69.6557    10.2477     0.0103     2.5242     0.1250     0.1289     6.6743     7.0542
 5538.5000    53.5854    41.3089    44.8641    70.0782    10.2775     0.0114     2.4943     0.1425     0.1494     4.9624     4.9933
 5539.0000    57.1710    45.1162    47.8006    70.0443    10.3073     0.0052     2.4823     0.1706     0.1479     4.9415     4.9689
 5539.5000    56.9638    48.8712    50.6431    69.7666    10.3371    -0.0009     2.4918     0.1828     0.1419     5.0756     5.1039
 5540.0000    54.0987    51.4634    52.1823    69.6382    10.3669     0.0009     2.5013     0.1900     0.1329     5.1325     5.1572
 5540.5000    51.9466    51.3941    50.4945    69.9489    10.3967     0.0078     2.5036     0.1926     0.1270     5.0628     5.1113
 5541.0000    48.9817    49.1709    48.8858    70.1329    10.4265     0.0148     2.5053     0.1885     0.1271     4.5655     4.6602
 5541.5000    48.1653    47.1097    47.7108    70.1704    10.4312     0.0217     2.5071     0.1815     0.1286     4.0420     4.0973
 5542.0000    50.6064    49.2000    48.9424    70.2080    10.4312     0.0276     2.5090     0.1798     0.1301     3.5994     3.6965
 5542.5000    55.0820    52.6188    52.9228    70.2762    10.4312     0.0239     2.5157     0.1817     0.1266     3.9694     4.0507
 5543.0000    57.8560    54.7426    55.7495    70.4851    10.4336     0.0173     2.5225     0.1862     0.1196     4.5559     4.4388
 5543.5000    59.3814    57.4100    57.9071    71.0983    10.4735     0.0132     2.5243     0.1860     0.1149     5.2289     5.0120
 5544.0000    59.9532    61.0479    59.3595    71.7144    10.5134     0.0092     2.5202     0.1869     0.1189     5.9141     5.6435
 5544.5000    60.7582    64.9202    61.0270    71.7340    10.5533     0.0051     2.5136     0.1914     0.1242     5.8992     5.9002
 5545.0000    63.2127    68.7674    63.1934    71.5873    10.6009     0.0046     2.5071     0.1957     0.1280     5.4846     6.0576
 5545.5000    64.4322    72.6502    67.1297    71.4407    10.6124     0.0079     2.5052     0.1992     0.1302     5.5867     6.0924
 5546.0000    63.7239    71.1243    69.0485    71.3352    10.6551     0.0146     2.5030     0.2008     0.1319     6.6083     6.0747
 5546.5000    59.7577    65.4301    67.0508    71.8263    10.6978     0.0213     2.4990     0.2024     0.1334     5.9591     5.6416
 5547.0000    57.3860    60.4674    62.8469    72.6917    10.7405     0.0210     2.4937     0.2040     0.1363     4.7940     4.8746
 5547.5000    53.2843    55.7121    56.3401    72.7322    10.7832     0.0144     2.4634     0.2117     0.1505     4.0668     4.2084
 5548.0000    48.9098    51.4190    52.5059    71.8854    10.8259     0.0079     2.4339     0.2255     0.1719     3.0420     3.0750
 5548.5000    46.0272    49.0788    46.2554    70.6289    10.8932     0.0013     2.4159     0.2294     0.1893     2.4417     2.4549
 5549.0000    43.9289    47.4432    44.8167    68.3441    10.9521    -0.0045     2.4149     0.2257     0.1834     2.4254     2.3816
 5549.5000    42.6977    47.0750    44.1268    67.8201    11.0020    -0.0025     2.4328     0.2103     0.1729     2.9554     2.9042
 5550.0000    43.1411    44.2410    43.7858    68.5419    11.0362     0.0010     2.4507     0.1885     0.1618     3.6012     3.6422
 5550.5000    43.2939    41.2776    43.4414    71.5019    11.0704     0.0053     2.4584     0.1652     0.1592     3.9270     4.1085
