#--------------------------------------------------#
#-------------------ENVERUS, INC.------------------#
#------------------WWW.ENVERUS.COM-----------------#
#------------------COPYRIGHT 2020------------------#
#--------------------------------------------------#
#THIS FILE MAY BE USED ONLY IN ACCORDANCE WITH A CURRENT SUBSCRIPTION AGREEMENT BETWEEN
#THE USER AND ENVERUS, INC. NO PART OF THIS FILE MAY BE REPRODUCED, USED, COPIED,
#MODIFIED, PROPAGATED, OR DISTRIBUTED EXCEPT IN ACCORDANCE WITH THE SUBSCRIPTION
#AGREEMENT. UNAUTHORIZED USE OR DISTRIBUTION OF ALL OR ANY PART OF THIS FILE MAY VIOLATE
#COPYRIGHT, TRADEMARK, AND/OR OTHER LAWS AND IS SUBJECT TO CIVIL AS WELL AS CRIMINAL
#SANCTIONS.
#--------------------------------------------------#
#THIS FILE IS PROVIDED "AS-IS" AND ALL WARRANTIES ARE EXPRESSLY DISCLAIMED, WHETHER
#EXPRESS, ORAL, IMPLIED, STATUTORY OR OTHERWISE, INCLUDING ANY IMPLIED WARRANTY OF FITNESS
#FOR A PARTICULAR PURPOSE, MERCHANTABILITY, TITLE OR NON-INFRINGEMENT, AND ANY WARRANTIES
#ARISING BY VIRTUE OF CUSTOM OF TRADE OR COURSE OF DEALING.  FURTHER, ENVERUS, INC.
#AND ITS LICENSORS DO NOT REPRESENT OR WARRANT THAT THIS FILE WILL MEET USER'S
#REQUIREMENTS OR ARE SUITABLE FOR USER'S NEEDS OR THAT THE DATA OR RESULTS PROVIDED IN
#CONJUNCTION THEREWITH ARE CORRECT, ACCURATE, TIMELY OR RELIABLE. THESE DISCLAIMERS SHALL
#APPLY REGARDLESS OF ANY FAILURE OF ESSENTIAL PURPOSE OF ANY LIMITED REMEDY.  SOME
#JURISDICTIONS DO NOT ALLOW THE EXCLUSION OF CERTAIN WARRANTIES SO SOME OF THE ABOVE
#EXCLUSIONS MAY NOT APPLY. IN NO EVENT SHALL ENVERUS, INC. OR ANY OF ITS AFFILIATES
#BE LIABLE UNDER ANY LEGAL THEORY, WHETHER IN TORT (INCLUDING WITHOUT LIMITATION
#NEGLIGENCE), CONTRACT, STRICT LIABILITY, STATUTORY OR OTHERWISE, FOR ANY SPECIAL,
#INCIDENTAL, CONSEQUENTIAL, EXEMPLARY, PUNITIVE OR INDIRECT DAMAGE OF ANY KIND, INCLUDING
#WITHOUT LIMITATION LOSS OF REVENUE, PROFITS, GOODWILL, USE, AND/OR DATA OR THE COST OF
#PROCUREMENT OF SUBSTITUTE GOODS OR SERVICES, EVEN IF APPRISED OF THE POSSIBILITY OF SUCH
#DAMAGES IN ADVANCE.
#--------------------------------------------------#

~VERSION INFORMATION
VERS. 2.0 : CWLS LOG ASCII STANDARD - VERSION 2.0
WRAP. NO : ONE LINE PER DEPTH STEP
~WELL INFORMATION
#MNEMONIC     .UNIT              VALUE :DESCRIPTION
STRT       .FT                38.00000 :START DEPTH
STOP       .FT                20083.00000 :STOP DEPTH
STEP       .FT                0.50000 :STEP
NULL       .                -999.25000 :NULL VALUE
UWI       .                42389302750000 :UNIQUE WELL ID
API       .                42389302750000 :API NUMBER
COMP       .                 :COMPANY
WELL       .                 :WELL
FLD       .                 :FIELD
LOC       .                 :LOCATION
CNTY       .                 :COUNTY
STAT       .                 :STATE
CTRY       .                 :COUNTRY
SRVC       .                 :SERVICE COMPANY
DATE       .                 :DATE
~CURVE INFORMATION
#MNEMONIC     .UNIT      API CODE :CURVE DESCRIPTION
DEPTH       .FT                      :MEASURED DEPTH
CAL       .IN        UNKNOWN   :CAL
DT       .US/FT        UNKNOWN   :DT
GR       .GAPI        UNKNOWN   :GR
~A    DEPTH    CAL    DT    GR
# ...
18993.50000    7.24369    50.74277    108.50658
18994.00000    7.21748    51.06607    105.37811
18994.50000    7.19126    51.38938    84.19367
18995.00000    7.16505    51.71268    55.23580
18995.50000    -999.25000    52.03598    55.58459
18996.00000    -999.25000    52.35929    55.93338
18996.50000    -999.25000    52.27742    56.28217
18997.00000    -999.25000    52.12971    56.63097
18997.50000    -999.25000    51.98200    56.97976
18998.00000    -999.25000    51.83429    57.32855
18998.50000    -999.25000    51.68659    57.67734
18999.00000    -999.25000    51.53888    58.02613
18999.50000    -999.25000    51.39117    58.37493
19000.00000    -999.25000    53.86391    58.72372
19000.50000    -999.25000    57.46644    59.07251
19001.00000    -999.25000    60.66341    59.42130
19001.50000    -999.25000    61.15132    59.77010
19002.00000    -999.25000    61.63923    60.11889
19002.50000    -999.25000    62.12715    60.46768
19003.00000    -999.25000    62.61506    60.81647
19003.50000    -999.25000    63.10298    61.16526
19004.00000    -999.25000    63.59089    61.51406
19004.50000    -999.25000    63.98083    61.86285
19005.00000    -999.25000    63.64435    62.21164
19005.50000    -999.25000    63.30787    62.56043
19006.00000    -999.25000    62.97139    62.90923
19006.50000    -999.25000    62.63491    63.25802
19007.00000    -999.25000    62.29843    63.60681
19007.50000    -999.25000    61.96195    63.95560
19008.00000    7.07760    61.62546    64.30439
19008.50000    7.08077    61.15365    64.65319
19009.00000    7.08393    60.49638    65.00198
19009.50000    7.08709    59.83911    65.35077
19010.00000    7.09025    59.17075    65.69956
19010.50000    7.09342    57.86237    66.04836
19011.00000    7.09658    56.55398    62.78020
19011.50000    7.09974    55.24560    55.99043
19012.00000    7.10291    53.93721    49.20066
19012.50000    7.10607    52.73332    42.41089
19013.00000    7.10923    53.05917    39.04448
19013.50000    7.11240    53.38502    36.43293
19014.00000    7.11556    53.71088    33.91315
19014.50000    7.11872    54.03673    35.41041
19015.00000    7.12189    54.65098    36.90767
19015.50000    7.13857    55.78773    38.40493
19016.00000    7.15626    56.92448    39.90219
19016.50000    7.17396    57.81619    41.39945
19017.00000    7.19166    57.96219    68.79475
19017.50000    7.20936    58.50321    65.29839
19018.00000    7.22705    59.04423    61.80203
19018.50000    7.24475    59.35140    58.30567
19019.00000    7.26245    59.28627    54.80931
19019.50000    7.26541    59.22113    51.31295
19020.00000    7.21572    59.15600    48.83453
19020.50000    7.16603    59.09086    46.83090
19021.00000    7.11634    59.02573    44.82726
19021.50000    7.06665    58.96060    42.82363
19022.00000    7.01696    58.89546    40.82000
19022.50000    6.96727    58.27975    38.81637
19023.00000    6.91758    56.32239    36.81274
19023.50000    6.86789    54.36503    34.83498
19024.00000    6.81820    53.72167    33.44710
19024.50000    6.76851    53.48807    32.05922
19025.00000    6.71882    53.25447    31.55780
19025.50000    6.69849    53.02087    33.29986
19026.00000    6.71501    52.78727    35.04192
19026.50000    6.73154    53.37850    36.78397
19027.00000    6.74806    53.98909    38.52603
19027.50000    6.76458    54.35692    40.26808
19028.00000    6.78110    53.58821    39.54090
19028.50000    6.79763    52.81951    33.09533
19029.00000    6.81415    52.05080    26.64975
19029.50000    6.83067    51.28210    20.20417
19030.00000    6.84719    50.51340    18.91674
19030.50000    6.86372    50.23214    20.61427
19031.00000    6.88024    50.84728    22.31180
19031.50000    6.89662    51.46242    24.00934
19032.00000    6.87622    52.07756    25.70687
19032.50000    6.85583    52.02805    26.22452
19033.00000    6.83543    51.56060    24.16713
19033.50000    6.81503    51.09314    22.10974
19034.00000    6.79463    50.62569    20.05235
19034.50000    6.77423    50.15824    17.99496
19035.00000    6.75383    49.79479    15.93757
19035.50000    6.73343    49.64900    14.16523
19036.00000    6.72011    49.50321    16.94124
19036.50000    6.72250    49.35742    19.71725
19037.00000    6.72490    49.21162    20.83335
19037.50000    6.72729    49.09724    19.75632
19038.00000    6.72969    49.33679    18.67928
19038.50000    6.73208    49.57635    17.60225
19039.00000    6.73448    49.81590    16.52521
19039.50000    6.73688    50.05545    15.44818
19040.00000    6.73927    50.29501    17.27274
19040.50000    6.74167    50.33808    19.29493
19041.00000    6.74406    50.10393    21.31712
19041.50000    6.74646    49.86979    23.33930
19042.00000    6.74885    49.63565    24.09934
19042.50000    6.75125    49.40150    21.88781
19043.00000    6.75364    49.16736    19.67628
19043.50000    6.75604    48.93322    17.46475
19044.00000    6.75844    48.69907    15.25322
19044.50000    6.76083    48.46493    13.06098
19045.00000    6.76323    48.23079    10.89509
19045.50000    6.76562    48.17822    10.05563
19046.00000    6.76802    48.15379    11.84889
19046.50000    6.77041    48.12936    13.64214
19047.00000    6.77281    48.10493    15.43540
19047.50000    6.77520    48.12508    17.22865
19048.00000    6.77760    48.48526    19.02190
19048.50000    6.78000    48.84543    20.81516
19049.00000    6.78239    49.20561    22.60841
19049.50000    6.78479    49.56578    24.40167
19050.00000    6.78718    49.92595    26.09651
19050.50000    6.78958    50.28613    25.24946
19051.00000    6.79197    50.64630    24.40241
19051.50000    6.79437    50.53136    23.55536
19052.00000    6.79677    50.07543    22.70831
19052.50000    6.79916    49.61951    21.86125
19053.00000    6.80156    49.39419    21.01420
19053.50000    6.80395    49.96824    23.30401
19054.00000    6.80635    50.54228    26.05508
19054.50000    6.80875    51.11633    28.80614
19055.00000    6.81114    51.69037    31.55720
19055.50000    6.81354    52.26441    34.30826
19056.00000    6.81593    52.83846    37.05932
19056.50000    6.81833    53.41250    37.05885
19057.00000    6.82072    53.98655    30.73466
19057.50000    6.82312    52.75270    25.22324
19058.00000    6.82551    51.06902    26.73572
19058.50000    6.82791    49.38535    28.24820
19059.00000    6.83031    49.97663    29.76067
19059.50000    6.83270    51.04653    31.27315
19060.00000    6.83510    51.47405    32.78563
19060.50000    6.83749    51.28890    34.29810
19061.00000    6.83989    51.10376    33.75438
19061.50000    6.84228    50.91861    30.62696
19062.00000    6.84468    50.73347    27.49954
19062.50000    6.84708    50.54832    24.37211
19063.00000    6.84947    50.36318    22.35750
19063.50000    6.85187    50.17803    24.35028
19064.00000    6.85426    52.49336    26.34306
19064.50000    6.85666    52.11543    28.33583
19065.00000    6.85905    51.71325    30.32861
19065.50000    6.86145    51.31107    32.32139
19066.00000    6.86385    50.90890    34.31417
19066.50000    6.86624    50.50672    34.52772
19067.00000    6.86864    50.87742    33.51357
19067.50000    6.87103    51.54679    32.49942
19068.00000    6.87343    52.21616    31.48527
19068.50000    6.87582    52.88553    30.47112
19069.00000    6.87822    53.49867    29.81879
19069.50000    6.88061    53.10276    32.38356
19070.00000    6.88301    52.70685    34.94833
19070.50000    6.88541    52.31094    37.51310
19071.00000    6.88780    51.91504    40.07787
19071.50000    6.89020    53.22241    39.17575
19072.00000    6.89259    54.23417    34.72425
19072.50000    6.89556    53.78415    30.27275
19073.00000    6.89921    53.33412    25.82125
19073.50000    6.90285    52.88410    22.36716
19074.00000    6.90650    52.43407    22.96827
19074.50000    6.91015    51.98405    23.56938
19075.00000    6.91379    51.53402    24.17049
19075.50000    6.91744    51.12944    24.25255
19076.00000    6.92108    50.92748    21.55678
19076.50000    6.92473    50.72552    18.86101
19077.00000    6.92838    50.52356    16.16524
19077.50000    6.93202    50.32160    13.46948
