#--------------------------------------------------#
#-------------------ENVERUS, INC.------------------#
#------------------WWW.ENVERUS.COM-----------------#
#------------------COPYRIGHT 2020------------------#
#--------------------------------------------------#
#THIS FILE MAY BE USED ONLY IN ACCORDANCE WITH A CURRENT SUBSCRIPTION AGREEMENT BETWEEN
#THE USER AND ENVERUS, INC. NO PART OF THIS FILE MAY BE REPRODUCED, USED, COPIED,
#MODIFIED, PROPAGATED, OR DISTRIBUTED EXCEPT IN ACCORDANCE WITH THE SUBSCRIPTION
#AGREEMENT. UNAUTHORIZED USE OR DISTRIBUTION OF ALL OR ANY PART OF THIS FILE MAY VIOLATE
#COPYRIGHT, TRADEMARK, AND/OR OTHER LAWS AND IS SUBJECT TO CIVIL AS WELL AS CRIMINAL
#SANCTIONS.
#--------------------------------------------------#
#THIS FILE IS PROVIDED "AS-IS" AND ALL WARRANTIES ARE EXPRESSLY DISCLAIMED, WHETHER
#EXPRESS, ORAL, IMPLIED, STATUTORY OR OTHERWISE, INCLUDING ANY IMPLIED WARRANTY OF FITNESS
#FOR A PARTICULAR PURPOSE, MERCHANTABILITY, TITLE OR NON-INFRINGEMENT, AND ANY WARRANTIES
#ARISING BY VIRTUE OF CUSTOM OF TRADE OR COURSE OF DEALING.  FURTHER, ENVERUS, INC.
#AND ITS LICENSORS DO NOT REPRESENT OR WARRANT THAT THIS FILE WILL MEET USER'S
#REQUIREMENTS OR ARE SUITABLE FOR USER'S NEEDS OR THAT THE DATA OR RESULTS PROVIDED IN
#CONJUNCTION THEREWITH ARE CORRECT, ACCURATE, TIMELY OR RELIABLE. THESE DISCLAIMERS SHALL
#APPLY REGARDLESS OF ANY FAILURE OF ESSENTIAL PURPOSE OF ANY LIMITED REMEDY.  SOME
#JURISDICTIONS DO NOT ALLOW THE EXCLUSION OF CERTAIN WARRANTIES SO SOME OF THE ABOVE
#EXCLUSIONS MAY NOT APPLY. IN NO EVENT SHALL ENVERUS, INC. OR ANY OF ITS AFFILIATES
#BE LIABLE UNDER ANY LEGAL THEORY, WHETHER IN TORT (INCLUDING WITHOUT LIMITATION
#NEGLIGENCE), CONTRACT, STRICT LIABILITY, STATUTORY OR OTHERWISE, FOR ANY SPECIAL,
#INCIDENTAL, CONSEQUENTIAL, EXEMPLARY, PUNITIVE OR INDIRECT DAMAGE OF ANY KIND, INCLUDING
#WITHOUT LIMITATION LOSS OF REVENUE, PROFITS, GOODWILL, USE, AND/OR DATA OR THE COST OF
#PROCUREMENT OF SUBSTITUTE GOODS OR SERVICES, EVEN IF APPRISED OF THE POSSIBILITY OF SUCH
#DAMAGES IN ADVANCE.
#--------------------------------------------------#

~VERSION INFORMATION
VERS. 2.0 : CWLS LOG ASCII STANDARD - VERSION 2.0
WRAP.  NO : ONE LINE PER DEPTH STEP
~WELL INFORMATION
#MNEMONIC     .UNIT              VALUE :DESCRIPTION
STRT       .FT                75 :START DEPTH
STOP       .FT                5648 :STOP DEPTH
STEP       .FT                   0.500 :STEP
NULL       .                  -999.990 :NULL
UWI        .              42371363570000 :UNIQUE WELL ID
API        .              42371363570000 :API NUMBER
COMP       .         APACHE CORPORATION :COMPANY
WELL       .        SCHLOSSER, FRED ESTATE -B-  13 :WELL
DATE       .                16-MAY-1992 :LOG DATE
~CURVE INFORMATION
#MNEMONIC     .UNIT      API CODE :CURVE DESCRIPTION
DEPTH       .FT                      :MEASURED DEPTH
DT.US/FT        UNKNOWN   :DT
GR.API        UNKNOWN   :GR
~A    DEPTH    DT    GR
# ...
 5543     64.126   65.424
 5543.5     62.126   67.757
 5544     62.058   69.869
 5544.5     63.544   71.981
 5545     64.98   74.093
 5545.5     66.269   75.804
 5546     66.065   75.719
 5546.5     64.93   75.635
 5547     66.817   85.22
 5547.5     69.684   103.25
 5548     71.741   120.666
 5548.5     73.483   129.446
 5549     72.635   137.362
 5549.5     72.712   157.238
 5550     73.774   178.7
 5550.5     72.793   183.754
 5551     74.513   183.754
 5551.5     76.233   183.196
 5552     77.953   182.252
 5552.5     79.673   181.309
 5553     77.895   180.366
 5553.5     74.206   166.464
 5554     68.584   151.153
 5554.5     66.991   97.991
 5555     65.398   90.417
 5555.5     63.749   82.342
 5556     66.025   78.256
 5556.5     67.186   79.63
 5557     68.341   81.005
 5557.5     68.395   80.983
 5558     68.449   77.447
 5558.5     68.502   73.911
 5559     68.556   70.375
 5559.5     68.61   70.993
 5560     68.443   70.78
 5560.5     67.693   66.195
 5561     66.943   68.195
 5561.5     65.726   67.107
 5562     63.956   63.387
 5562.5     62.186   59.668
 5563     63.426   56.824
 5563.5     65.934   59.309
 5564     67.735   65.87
 5564.5     69.151   71.31
 5565     69.201   75.148
 5565.5     69.25   76.457
 5566     69.3   73.607
 5566.5     69.35   69.845
 5567     69.4   65.88
 5567.5     68.544   62.797
 5568     67.156   61.517
 5568.5     64.736   60.237
 5569     66.792   59.278
 5569.5     68.935   59.151
 5570     70.484   78.113
 5570.5     70.85   93.017
 5571     70.239   105.072
 5571.5     69.532   106.012
 5572     68.822   104.691
 5572.5     68.113   101.093
 5573     67.404   97.495
 5573.5     67.627   93.897
 5574     68.066   94.104
 5574.5     67.516   96.188
 5575     66.966   95.555
 5575.5     66.543   93.022
 5576     66.798   89.868
 5576.5     67.053   83.123
 5577     66.668   76.491
 5577.5     65.853   74.226
 5578     65.037   71.96
 5578.5     63.424   69.963
 5579     65.112   69.46
 5579.5     66.009   68.957
 5580     66.906   71.309
 5580.5     67.804   75.402
 5581     67.24   75.329
 5581.5     66.6   75.257
 5582     66.607   79.126
 5582.5     68.225   79.347
 5583     68.942   79.55
 5583.5     69.063   82.42
 5584     69.183   80.057
 5584.5     68.479   77.694
 5585     70.662   74.339
 5585.5     72.631   70.866
 5586     72.793   69.767
 5586.5     72.315   70.734
 5587     71.838   71.758
 5587.5     71.36   71.547
 5588     71.934   71.336
 5588.5     72.648   70.838
 5589     70.951   70.014
 5589.5     69.115   69.191
 5590     67.713   68.406
 5590.5     66.747   67.671
 5591     68.179   66.935
 5591.5     69.609   65.625
 5592     67.352   62.753
 5592.5     64.913   61.969
 5593     63.504   61.186
 5593.5     65.248   60.402
 5594     65.584   66.146
 5594.5     65.92   73.272
 5595     66.418   80.768
 5595.5     67.924   89.532
 5596     68.52   94.311
 5596.5     69.116   93.61
 5597     69.384   91.242
 5597.5     67.909   88.873
 5598     66.555   83.641
 5598.5     65.472   76.798
 5599     64.388   71.865
 5599.5     63.305   71.864
 5600     65.205   77.721
 5600.5     70.267   164.286
 5601     69.672   163.882
 5601.5     70.067   164.991
 5602     73.227   169.28
 5602.5     76.388   173.569
 5603     76.16   169.447
 5603.5     72.93   160.072
 5604     69.335   143.182
 5604.5     63.861   102.656
 5605     62.685   95.212
 5605.5     66.152   104.322
 5606     70.011   137.144
 5606.5     73.66   165.471
 5607     77.509   186.272
 5607.5     81.828   182.05
 5608     69.775   175.425
 5608.5     67.05   168.417
 5609     69.235   154.097
 5609.5     71.42   138.887
 5610     73.605   120.322
 5610.5     68.11   95.397
 5611     70.512   98.126
 5611.5     69.204   100.856
 5612     68.736   103.585
 5612.5     69.298   102.216
 5613     69.861   100.619
 5613.5     70.423   101.626
 5614     70.346   102.693
 5614.5     65.093   103.124
 5615     64.964   101.473
 5615.5     66.831   100.153
 5616     68.638   99.764
 5616.5     67.321   99.374
 5617     66.005   98.984
 5617.5     64.688   98.594
 5618     68.109   99.116
 5618.5     70.768   100.456
 5619     68.766   101.946
 5619.5     66.764   103.637
 5620     67.174   105.328
 5620.5     70.495   105.692
 5621     73.817   102.708
 5621.5     73.733   99.723
 5622     73.097   96.855
 5622.5     76.428   -999.990
 5623     73.4   -999.990
 5623.5     70.371   -999.990
 5624     67.342   -999.990
 5624.5     64.023   -999.990
 5625     63.705   -999.990
 5625.5     66.107   -999.990
 5626     67.876   -999.990
 5626.5     69.129   -999.990
 5627     68.682   -999.990
 5627.5     67.494   -999.990
 5628     66.306   -999.990
 5628.5     67.01   -999.990
 5629     68.565   -999.990
 5629.5     68.91   -999.990
 5630     69.255   -999.990
 5630.5     69.306   -999.990
 5631     69.001   -999.990
 5631.5     66.93   -999.990
 5632     64.859   -999.990
 5632.5     62.789   -999.990
 5633     56.63   -999.990
 5633.5     59.473   -999.990
 5634     62.316   -999.990
 5634.5     64.501   -999.990
 5635     66.172   -999.990
 5635.5     67.844   -999.990
 5636     67.82   -999.990
 5636.5     67.987   -999.990
 5637     68.817   -999.990
 5637.5     69.647   -999.990
 5638     70.477   -999.990
 5638.5     71.307   -999.990
 5639     70.633   -999.990
 5639.5     69.591   -999.990
 5640     68.549   -999.990
 5640.5     67.701   -999.990
 5641     66.853   -999.990
 5641.5     66.004   -999.990
 5642     67.073   -999.990
 5642.5     68.395   -999.990
 5643     69.47   -999.990
 5643.5     70.372   -999.990
 5644     71.274   -999.990
 5644.5     69.121   -999.990
 5645     67.196   -999.990
 5645.5     66.448   -999.990
 5646     65.7   -999.990
 5646.5     65.026   -999.990
 5647     65.943   -999.990
 5647.5     66.86   -999.990
 5648     67.362   -999.990
