#--------------------------------------------------#
#-------------------ENVERUS, INC.------------------#
#------------------WWW.ENVERUS.COM-----------------#
#------------------COPYRIGHT 2020------------------#
#--------------------------------------------------#
#THIS FILE MAY BE USED ONLY IN ACCORDANCE WITH A CURRENT SUBSCRIPTION AGREEMENT BETWEEN
#THE USER AND ENVERUS, INC. NO PART OF THIS FILE MAY BE REPRODUCED, USED, COPIED,
#MODIFIED, PROPAGATED, OR DISTRIBUTED EXCEPT IN ACCORDANCE WITH THE SUBSCRIPTION
#AGREEMENT. UNAUTHORIZED USE OR DISTRIBUTION OF ALL OR ANY PART OF THIS FILE MAY VIOLATE
#COPYRIGHT, TRADEMARK, AND/OR OTHER LAWS AND IS SUBJECT TO CIVIL AS WELL AS CRIMINAL
#SANCTIONS.
#--------------------------------------------------#
#THIS FILE IS PROVIDED "AS-IS" AND ALL WARRANTIES ARE EXPRESSLY DISCLAIMED, WHETHER
#EXPRESS, ORAL, IMPLIED, STATUTORY OR OTHERWISE, INCLUDING ANY IMPLIED WARRANTY OF FITNESS
#FOR A PARTICULAR PURPOSE, MERCHANTABILITY, TITLE OR NON-INFRINGEMENT, AND ANY WARRANTIES
#ARISING BY VIRTUE OF CUSTOM OF TRADE OR COURSE OF DEALING.  FURTHER, ENVERUS, INC.
#AND ITS LICENSORS DO NOT REPRESENT OR WARRANT THAT THIS FILE WILL MEET USER'S
#REQUIREMENTS OR ARE SUITABLE FOR USER'S NEEDS OR THAT THE DATA OR RESULTS PROVIDED IN
#CONJUNCTION THEREWITH ARE CORRECT, ACCURATE, TIMELY OR RELIABLE. THESE DISCLAIMERS SHALL
#APPLY REGARDLESS OF ANY FAILURE OF ESSENTIAL PURPOSE OF ANY LIMITED REMEDY.  SOME
#JURISDICTIONS DO NOT ALLOW THE EXCLUSION OF CERTAIN WARRANTIES SO SOME OF THE ABOVE
#EXCLUSIONS MAY NOT APPLY. IN NO EVENT SHALL ENVERUS, INC. OR ANY OF ITS AFFILIATES
#BE LIABLE UNDER ANY LEGAL THEORY, WHETHER IN TORT (INCLUDING WITHOUT LIMITATION
#NEGLIGENCE), CONTRACT, STRICT LIABILITY, STATUTORY OR OTHERWISE, FOR ANY SPECIAL,
#INCIDENTAL, CONSEQUENTIAL, EXEMPLARY, PUNITIVE OR INDIRECT DAMAGE OF ANY KIND, INCLUDING
#WITHOUT LIMITATION LOSS OF REVENUE, PROFITS, GOODWILL, USE, AND/OR DATA OR THE COST OF
#PROCUREMENT OF SUBSTITUTE GOODS OR SERVICES, EVEN IF APPRISED OF THE POSSIBILITY OF SUCH
#DAMAGES IN ADVANCE.
#--------------------------------------------------#

~VERSION INFORMATION
VERS. 2.0 : CWLS LOG ASCII STANDARD - VERSION 2.0
WRAP.  NO : ONE LINE PER DEPTH STEP
~WELL INFORMATION
#MNEMONIC     .UNIT              VALUE :DESCRIPTION
STRT       .FT                50 :START DEPTH
STOP       .FT                6118 :STOP DEPTH
STEP       .FT                   0.500 :STEP
NULL       .                  -999.990 :NULL
UWI        .              42389003090000 :UNIQUE WELL ID
API        .              42389003090000 :API NUMBER
COMP       .         :COMPANY
WELL       .         1, :WELL
DATE       .                            :LOG DATE
~CURVE INFORMATION
#MNEMONIC     .UNIT      API CODE :CURVE DESCRIPTION
DEPTH       .FT                      :MEASURED DEPTH
NEUT.API        UNKNOWN   :NEUT
GR.API        UNKNOWN   :GR
DT.US/FT        UNKNOWN   :DT
~A    DEPTH    NEUT    GR    DT
# ...
 3618.5     -999.990   12.112   65.923
 3619     -999.990   11.346   66.574
 3619.5     -999.990   11.39   67.225
 3620     -999.990   12.012   67.876
 3620.5     -999.990   12.635   67.883
 3621     -999.990   13.257   67.884
 3621.5     -999.990   13.879   66.488
 3622     -999.990   13.494   64.548
 3622.5     -999.990   12.575   63.632
 3623     -999.990   13.011   65.819
 3623.5     -999.990   13.886   66.365
 3624     -999.990   14.761   65.827
 3624.5     -999.990   15.636   65.29
 3625     -999.990   15.216   65.391
 3625.5     -999.990   13.873   67.178
 3626     -999.990   12.529   66.612
 3626.5     -999.990   11.186   66.046
 3627     -999.990   10.487   65.48
 3627.5     -999.990   10.738   67.608
 3628     -999.990   10.988   69.649
 3628.5     -999.990   11.238   69.976
 3629     -999.990   11.489   70.302
 3629.5     -999.990   11.739   70.629
 3630     -999.990   11.989   70.956
 3630.5     -999.990   12.239   71.283
 3631     -999.990   13.026   71.61
 3631.5     -999.990   13.933   59.744
 3632     -999.990   14.84   53.903
 3632.5     -999.990   15.747   49.77
 3633     -999.990   16.654   46.658
 3633.5     -999.990   17.561   46.795
 3634     -999.990   18.468   49.13
 3634.5     -999.990   17.749   51.153
 3635     -999.990   16.005   50.564
 3635.5     -999.990   14.26   49.976
 3636     -999.990   13.179   49.388
 3636.5     -999.990   12.112   48.818
 3637     -999.990   11.046   48.725
 3637.5     -999.990   9.979   48.632
 3638     -999.990   9.504   48.538
 3638.5     -999.990   9.945   48.445
 3639     -999.990   10.386   48.437
 3639.5     -999.990   11.123   48.956
 3640     -999.990   12.392   49.474
 3640.5     -999.990   13.567   47.628
 3641     -999.990   13.694   45.271
 3641.5     -999.990   13.822   44.496
 3642     -999.990   13.95   46.122
 3642.5     -999.990   14.078   47.749
 3643     -999.990   14.206   49.375
 3643.5     -999.990   14.334   49.438
 3644     -999.990   14.462   49.021
 3644.5     -999.990   14.59   48.603
 3645     -999.990   14.717   49.606
 3645.5     -999.990   14.845   50.692
 3646     -999.990   14.192   50.489
 3646.5     -999.990   13.39   50.287
 3647     -999.990   12.587   50.084
 3647.5     -999.990   11.784   49.882
 3648     -999.990   10.982   49.679
 3648.5     -999.990   10.179   49.477
 3649     -999.990   9.376   49.275
 3649.5     -999.990   8.574   49.072
 3650     -999.990   8.351   48.87
 3650.5     -999.990   8.22   48.667
 3651     -999.990   8.088   48.627
 3651.5     -999.990   7.957   48.955
 3652     -999.990   7.826   49.283
 3652.5     -999.990   7.695   49.33
 3653     -999.990   7.563   49.208
 3653.5     -999.990   7.653   49.087
 3654     -999.990   8.334   49.231
 3654.5     -999.990   9.016   49.544
 3655     -999.990   9.697   49.856
 3655.5     -999.990   10.378   50.168
 3656     -999.990   11.059   50.469
 3656.5     -999.990   11.74   50.186
 3657     -999.990   12.421   49.904
 3657.5     -999.990   13.103   49.621
 3658     -999.990   13.784   49.338
 3658.5     -999.990   13.854   49.056
 3659     -999.990   13.051   48.773
 3659.5     -999.990   12.248   48.49
 3660     -999.990   11.445   47.657
 3660.5     -999.990   10.643   46.354
 3661     -999.990   9.84   45.705
 3661.5     -999.990   9.037   46.114
 3662     -999.990   8.235   47.144
 3662.5     -999.990   7.749   48.902
 3663     -999.990   7.672   49.105
 3663.5     -999.990   7.595   48.996
 3664     -999.990   7.518   48.887
 3664.5     -999.990   7.442   48.777
 3665     -999.990   7.428   48.668
 3665.5     -999.990   7.867   48.559
 3666     -999.990   8.306   48.45
 3666.5     -999.990   8.746   48.502
 3667     -999.990   9.185   48.929
 3667.5     -999.990   9.624   49.355
 3668     -999.990   10.064   49.781
 3668.5     -999.990   10.503   50.162
 3669     -999.990   10.942   49.954
 3669.5     -999.990   11.381   49.746
 3670     -999.990   11.821   49.538
 3670.5     -999.990   12.26   49.767
 3671     -999.990   12.077   50.931
 3671.5     -999.990   10.803   50.9
 3672     -999.990   9.529   50.432
 3672.5     -999.990   8.254   49.963
 3673     -999.990   8.533   49.495
 3673.5     -999.990   10.014   49.026
 3674     -999.990   11.496   48.558
 3674.5     -999.990   12.978   48.128
 3675     -999.990   14.415   48.416
 3675.5     -999.990   13.056   48.705
 3676     -999.990   11.697   48.993
 3676.5     -999.990   10.338   49.282
 3677     -999.990   10.047   49.537
 3677.5     -999.990   10.479   49.386
 3678     -999.990   10.911   49.236
 3678.5     -999.990   11.343   49.085
 3679     -999.990   11.775   48.934
 3679.5     -999.990   11.818   48.784
 3680     -999.990   10.883   48.633
 3680.5     -999.990   9.958   49.928
 3681     -999.990   10.972   51.877
 3681.5     -999.990   11.987   53.827
 3682     -999.990   13.001   58.006
 3682.5     -999.990   13.29   65.57
 3683     -999.990   13.083   71.594
 3683.5     -999.990   12.875   71.7
 3684     -999.990   12.668   71.805
 3684.5     -999.990   13.394   67.418
 3685     -999.990   14.357   59.275
 3685.5     -999.990   15.321   51.123
 3686     -999.990   16.274   43.732
 3686.5     -999.990   15.317   42.03
 3687     -999.990   14.36   44.421
 3687.5     -999.990   13.403   46.812
 3688     -999.990   12.446   48.864
 3688.5     -999.990   11.489   49.304
 3689     -999.990   10.532   49.744
 3689.5     -999.990   9.575   50.184
 3690     -999.990   8.617   50.624
 3690.5     -999.990   7.66   50.562
 3691     -999.990   9.106   50.09
 3691.5     -999.990   10.848   50.179
 3692     -999.990   12.043   50.51
 3692.5     -999.990   11.474   50.842
 3693     -999.990   10.905   50.91
 3693.5     -999.990   10.336   50.822
 3694     -999.990   10.87   50.734
 3694.5     -999.990   11.647   50.646
 3695     -999.990   12.423   50.631
 3695.5     -999.990   13.2   50.693
 3696     -999.990   13.976   50.755
 3696.5     -999.990   14.532   50.817
 3697     -999.990   13.603   51.167
 3697.5     -999.990   12.675   51.646
 3698     -999.990   11.746   51.371
 3698.5     -999.990   10.817   50.859
 3699     -999.990   12.936   50.348
 3699.5     -999.990   15.206   51.823
 3700     -999.990   17.476   55.922
 3700.5     -999.990   19.746   60.021
 3701     -999.990   21.912   64.12
 3701.5     -999.990   20.383   67.064
 3702     -999.990   18.855   69.664
 3702.5     -999.990   17.326   72.264
 3703     -999.990   15.798   74.865
 3703.5     -999.990   14.269   74.28
 3704     -999.990   12.741   70.806
 3704.5     -999.990   11.212   67.83
 3705     -999.990   9.684   66.712
 3705.5     -999.990   9.457   66.509
 3706     -999.990   9.877   66.583
 3706.5     -999.990   10.298   66.657
 3707     -999.990   10.718   66.732
 3707.5     -999.990   11.042   66.806
 3708     -999.990   10.631   66.866
 3708.5     -999.990   10.22   66.753
 3709     -999.990   9.809   66.641
 3709.5     -999.990   9.707   66.528
 3710     -999.990   10.266   66.415
 3710.5     -999.990   10.824   66.303
 3711     -999.990   11.383   66.324
 3711.5     -999.990   11.942   66.378
 3712     -999.990   12.5   66.433
 3712.5     -999.990   13.059   66.487
 3713     -999.990   13.517   66.542
 3713.5     -999.990   13.17   66.596
 3714     -999.990   12.822   66.437
 3714.5     -999.990   12.475   66.2
 3715     -999.990   12.128   65.963
 3715.5     -999.990   11.781   65.725
 3716     -999.990   11.433   65.488
 3716.5     -999.990   11.086   65.329
 3717     -999.990   10.739   65.775
 3717.5     -999.990   10.391   66.221
 3718     -999.990   10.044   65.629
 3718.5     -999.990   9.697   65.247
 3719     -999.990   9.35   65.52
 3719.5     -999.990   9.002   65.792
 3720     -999.990   8.655   66.065
 3720.5     -999.990   8.308   66.338
 3721     -999.990   9.316   66.61
 3721.5     -999.990   10.433   66.658
 3722     -999.990   11.549   66.553
 3722.5     -999.990   12.665   66.448
 3723     -999.990   13.781   66.343
 3723.5     -999.990   14.415   66.238
 3724     -999.990   13.496   66.133
 3724.5     -999.990   12.577   66.437
