#--------------------------------------------------#
#-------------------ENVERUS, INC.------------------#
#------------------WWW.ENVERUS.COM-----------------#
#------------------COPYRIGHT 2020------------------#
#--------------------------------------------------#
#THIS FILE MAY BE USED ONLY IN ACCORDANCE WITH A CURRENT SUBSCRIPTION AGREEMENT BETWEEN
#THE USER AND ENVERUS, INC. NO PART OF THIS FILE MAY BE REPRODUCED, USED, COPIED,
#MODIFIED, PROPAGATED, OR DISTRIBUTED EXCEPT IN ACCORDANCE WITH THE SUBSCRIPTION
#AGREEMENT. UNAUTHORIZED USE OR DISTRIBUTION OF ALL OR ANY PART OF THIS FILE MAY VIOLATE
#COPYRIGHT, TRADEMARK, AND/OR OTHER LAWS AND IS SUBJECT TO CIVIL AS WELL AS CRIMINAL
#SANCTIONS.
#--------------------------------------------------#
#THIS FILE IS PROVIDED "AS-IS" AND ALL WARRANTIES ARE EXPRESSLY DISCLAIMED, WHETHER
#EXPRESS, ORAL, IMPLIED, STATUTORY OR OTHERWISE, INCLUDING ANY IMPLIED WARRANTY OF FITNESS
#FOR A PARTICULAR PURPOSE, MERCHANTABILITY, TITLE OR NON-INFRINGEMENT, AND ANY WARRANTIES
#ARISING BY VIRTUE OF CUSTOM OF TRADE OR COURSE OF DEALING.  FURTHER, ENVERUS, INC.
#AND ITS LICENSORS DO NOT REPRESENT OR WARRANT THAT THIS FILE WILL MEET USER'S
#REQUIREMENTS OR ARE SUITABLE FOR USER'S NEEDS OR THAT THE DATA OR RESULTS PROVIDED IN
#CONJUNCTION THEREWITH ARE CORRECT, ACCURATE, TIMELY OR RELIABLE. THESE DISCLAIMERS SHALL
#APPLY REGARDLESS OF ANY FAILURE OF ESSENTIAL PURPOSE OF ANY LIMITED REMEDY.  SOME
#JURISDICTIONS DO NOT ALLOW THE EXCLUSION OF CERTAIN WARRANTIES SO SOME OF THE ABOVE
#EXCLUSIONS MAY NOT APPLY. IN NO EVENT SHALL ENVERUS, INC. OR ANY OF ITS AFFILIATES
#BE LIABLE UNDER ANY LEGAL THEORY, WHETHER IN TORT (INCLUDING WITHOUT LIMITATION
#NEGLIGENCE), CONTRACT, STRICT LIABILITY, STATUTORY OR OTHERWISE, FOR ANY SPECIAL,
#INCIDENTAL, CONSEQUENTIAL, EXEMPLARY, PUNITIVE OR INDIRECT DAMAGE OF ANY KIND, INCLUDING
#WITHOUT LIMITATION LOSS OF REVENUE, PROFITS, GOODWILL, USE, AND/OR DATA OR THE COST OF
#PROCUREMENT OF SUBSTITUTE GOODS OR SERVICES, EVEN IF APPRISED OF THE POSSIBILITY OF SUCH
#DAMAGES IN ADVANCE.
#--------------------------------------------------#

~VERSION INFORMATION
VERS. 2.0 : CWLS LOG ASCII STANDARD - VERSION 2.0
WRAP. NO : ONE LINE PER DEPTH STEP
~WELL INFORMATION
#MNEMONIC     .UNIT              VALUE :DESCRIPTION
STRT       .FT                7.00000 :START DEPTH
STOP       .FT                16581.00000 :STOP DEPTH
STEP       .FT                0.50000 :STEP
NULL       .                -999.25000 :NULL VALUE
UWI       .                42389300260000 :UNIQUE WELL ID
API       .                42389300260000 :API NUMBER
COMP       .                 :COMPANY
WELL       .                 :WELL
FLD       .                 :FIELD
LOC       .                 :LOCATION
CNTY       .                 :COUNTY
STAT       .                 :STATE
CTRY       .                 :COUNTRY
SRVC       .                 :SERVICE COMPANY
DATE       .                 :DATE
~CURVE INFORMATION
#MNEMONIC     .UNIT      API CODE :CURVE DESCRIPTION
DEPTH       .FT                      :MEASURED DEPTH
CAL       .IN        UNKNOWN   :CAL
DT       .US/FT        UNKNOWN   :DT
GR       .GAPI        UNKNOWN   :GR
~A    DEPTH    CAL    DT    GR
# ...
5131.00000    -999.25000    -999.25000    21.44802
5131.50000    -999.25000    -999.25000    22.03693
5132.00000    -999.25000    -999.25000    22.62584
5132.50000    -999.25000    -999.25000    23.21475
5133.00000    -999.25000    -999.25000    24.71604
5133.50000    -999.25000    -999.25000    26.56901
5134.00000    -999.25000    -999.25000    28.42197
5134.50000    -999.25000    -999.25000    30.27494
5135.00000    -999.25000    -999.25000    32.12791
5135.50000    -999.25000    -999.25000    33.98087
5136.00000    -999.25000    -999.25000    31.88847
5136.50000    -999.25000    -999.25000    29.67725
5137.00000    -999.25000    -999.25000    27.46603
5137.50000    -999.25000    -999.25000    25.25481
5138.00000    -999.25000    -999.25000    23.04359
5138.50000    -999.25000    -999.25000    22.13056
5139.00000    -999.25000    -999.25000    21.85836
5139.50000    -999.25000    -999.25000    23.37820
5140.00000    -999.25000    -999.25000    23.37817
5140.50000    -999.25000    -999.25000    22.32206
5141.00000    -999.25000    -999.25000    20.97155
5141.50000    -999.25000    -999.25000    19.62104
5142.00000    -999.25000    -999.25000    18.27053
5142.50000    -999.25000    -999.25000    18.81180
5143.00000    -999.25000    -999.25000    19.72121
5143.50000    -999.25000    -999.25000    20.63061
5144.00000    -999.25000    -999.25000    21.54002
5144.50000    -999.25000    -999.25000    22.44943
5145.00000    -999.25000    -999.25000    23.35883
5145.50000    -999.25000    -999.25000    23.27639
5146.00000    -999.25000    -999.25000    21.65899
5146.50000    -999.25000    -999.25000    20.04160
5147.00000    -999.25000    -999.25000    18.42420
5147.50000    -999.25000    -999.25000    16.80681
5148.00000    -999.25000    -999.25000    17.42110
5148.50000    -999.25000    -999.25000    18.66494
5149.00000    -999.25000    -999.25000    19.90879
5149.50000    -999.25000    -999.25000    21.15263
5150.00000    -999.25000    -999.25000    22.39647
5150.50000    -999.25000    -999.25000    21.52151
5151.00000    -999.25000    -999.25000    19.45073
5151.50000    -999.25000    -999.25000    17.37995
5152.00000    -999.25000    -999.25000    15.30917
5152.50000    -999.25000    -999.25000    13.26192
5153.00000    -999.25000    52.46725    14.33356
5153.50000    -999.25000    52.28571    15.40521
5154.00000    -999.25000    52.10416    16.47685
5154.50000    -999.25000    52.00506    17.54850
5155.00000    -999.25000    52.27999    18.62014
5155.50000    -999.25000    52.55492    19.69179
5156.00000    -999.25000    52.82985    20.76344
5156.50000    -999.25000    53.09521    21.83508
5157.00000    -999.25000    53.11828    22.90673
5157.50000    -999.25000    53.14135    23.97837
5158.00000    -999.25000    53.16441    25.14023
5158.50000    -999.25000    53.18748    27.50042
5159.00000    -999.25000    53.40206    29.86060
5159.50000    -999.25000    53.78906    32.22079
5160.00000    -999.25000    54.17606    34.58098
5160.50000    -999.25000    54.56306    36.94117
5161.00000    -999.25000    54.52862    39.30135
5161.50000    -999.25000    54.37628    41.72317
5162.00000    -999.25000    54.22394    44.92986
5162.50000    -999.25000    54.07161    48.13654
5163.00000    -999.25000    54.67758    51.34323
5163.50000    -999.25000    55.59612    54.54991
5164.00000    -999.25000    56.51467    57.75660
5164.50000    -999.25000    57.43321    60.96328
5165.00000    -999.25000    58.37247    64.16997
5165.50000    -999.25000    59.94433    67.37665
5166.00000    -999.25000    68.47863    70.58334
5166.50000    -999.25000    79.78582    73.79002
5167.00000    -999.25000    83.50124    76.99671
5167.50000    -999.25000    82.49365    80.20339
5168.00000    -999.25000    79.61215    81.13632
5168.50000    -999.25000    76.72018    79.25447
5169.00000    -999.25000    73.82822    77.37261
5169.50000    -999.25000    70.93626    75.49075
5170.00000    -999.25000    70.83382    74.25468
5170.50000    -999.25000    72.79228    73.71072
5171.00000    -999.25000    74.75074    70.82812
5171.50000    -999.25000    76.70919    65.81727
5172.00000    -999.25000    71.03503    60.80641
5172.50000    -999.25000    73.16137    56.53888
5173.00000    -999.25000    75.28770    57.64316
5173.50000    -999.25000    77.41403    58.74743
5174.00000    -999.25000    78.58732    59.85170
5174.50000    -999.25000    78.53877    61.49711
5175.00000    -999.25000    78.49022    64.66011
5175.50000    -999.25000    78.44167    67.82311
5176.00000    -999.25000    78.39311    70.98610
5176.50000    -999.25000    77.97160    74.14910
5177.00000    -999.25000    74.76197    75.85305
5177.50000    -999.25000    71.55233    72.08952
5178.00000    -999.25000    70.43446    68.32599
5178.50000    -999.25000    70.88913    69.95426
5179.00000    -999.25000    71.34381    76.53017
5179.50000    -999.25000    71.79849    83.10608
5180.00000    -999.25000    72.25317    89.68199
5180.50000    -999.25000    71.99198    94.07473
5181.00000    -999.25000    71.17283    91.08164
5181.50000    -999.25000    70.35368    88.08855
5182.00000    -999.25000    70.88987    88.37680
5182.50000    -999.25000    71.80217    91.26260
5183.00000    -999.25000    72.71446    94.14841
5183.50000    -999.25000    73.26884    97.03422
5184.00000    -999.25000    73.23731    98.94908
5184.50000    -999.25000    73.64183    94.23754
5185.00000    -999.25000    74.19741    89.52600
5185.50000    -999.25000    74.75298    84.81445
5186.00000    -999.25000    75.30856    80.10291
5186.50000    -999.25000    75.20204    75.39137
5187.00000    -999.25000    74.55503    71.17454
5187.50000    -999.25000    74.70923    88.92350
5188.00000    -999.25000    75.51545    98.86448
5188.50000    -999.25000    76.32167    93.73512
5189.00000    -999.25000    77.12789    88.60577
5189.50000    -999.25000    77.93411    83.47641
5190.00000    -999.25000    78.74033    78.34706
5190.50000    -999.25000    78.66652    73.21770
5191.00000    -999.25000    75.68206    69.30047
5191.50000    -999.25000    77.49638    69.84964
5192.00000    -999.25000    78.43817    70.39881
5192.50000    -999.25000    77.80548    70.94797
5193.00000    -999.25000    77.17278    71.49714
5193.50000    -999.25000    76.54009    72.04631
5194.00000    -999.25000    76.89975    74.41452
5194.50000    -999.25000    77.57458    79.56161
5195.00000    -999.25000    78.24941    85.01839
5195.50000    -999.25000    78.05234    91.05075
5196.00000    -999.25000    76.46218    92.85659
5196.50000    -999.25000    74.97399    94.66244
5197.00000    -999.25000    74.74470    96.46828
5197.50000    -999.25000    74.41507    105.77698
5198.00000    -999.25000    71.95328    123.35422
5198.50000    -999.25000    70.96091    137.65633
5199.00000    -999.25000    71.15784    141.18191
5199.50000    -999.25000    71.35478    144.70748
5200.00000    -999.25000    72.22989    148.23306
5200.50000    -999.25000    73.45305    143.63309
5201.00000    -999.25000    74.22891    129.34327
5201.50000    -999.25000    74.56313    115.05345
5202.00000    -999.25000    74.89736    100.76363
5202.50000    -999.25000    75.23158    86.47381
5203.00000    -999.25000    75.56581    81.13571
5203.50000    -999.25000    75.90004    75.95571
5204.00000    -999.25000    76.23426    70.77572
5204.50000    -999.25000    76.56848    65.59573
5205.00000    -999.25000    76.41770    60.41574
5205.50000    -999.25000    75.95150    58.69593
5206.00000    -999.25000    75.48529    60.02320
5206.50000    -999.25000    75.49080    61.35047
5207.00000    -999.25000    76.24008    61.64593
5207.50000    -999.25000    76.98936    59.76460
5208.00000    -999.25000    77.74065    57.88327
5208.50000    -999.25000    79.00380    56.00194
5209.00000    -999.25000    80.26696    55.01330
5209.50000    -999.25000    81.53012    55.63159
5210.00000    -999.25000    79.14925    56.24989
5210.50000    -999.25000    76.66498    56.86818
5211.00000    -999.25000    76.02900    57.48647
5211.50000    -999.25000    76.02910    58.46491
