~VERSION INFORMATION
 VERS.                2.0:   CWLS LOG ASCII STANDARD - VERSION 2.0
 WRAP.                 NO:   ONE LINE PER DEPTH STEP
~WELL INFORMATION
#MNEM.UNIT      DATA TYPE    INFORMATION
#----------   ------------   ------------------------------
 STRT.FT           0.0000:   START DEPTH
 STOP.FT        7147.0000:   STOP DEPTH
 STEP.FT           0.5000:   STEP LENGTH
 NULL.          -999.2500:   NULL VALUE
 COMP. MOBIL PRODUCING TEXAS & NEW MEEXICO INC:   COMPANY
 WELL. SCHLOSER FRED ESTATE B #2:   WELL
 FLD .      ROJO CABALLOS:   FIELD
 LOC .                   :   LOCATION
 CNTY.              PECOS:   COUNTY
 STAT.              TEXAS:   STATE
 CTRY. UNITED STATES OF AMERICA:   COUNTRY
 SRVC.       Schlumberger:   SERVICE COMPANY
 DATE.        10-Jun-1980:   LOGDATE
 API .     42371330900000:   API NUMBER
~CURVE INFORMATION
#MNEM.UNIT       API CODE    CURVE DESCRIPTION
#----------   ------------   ------------------------------
 DEPT.F                  :   
 GRD .GAPI   45 310 01 00:   GAMMA RAY FROM DENSITY LOG
 GRR .GAPI   11 310 01 00:   GAMMA RAY FROM RESISTIVITY LOG
 GRS .GAPI   60 310 01 00:   GAMMA RAY FROM SONIC LOG
 DT  .US/F   60 500 00 00:   DELTA-T (INTERVAL TRANSIT TIME)
 CALD.IN     45 280 60 00:   CALIPER FROM DENSITY LOG
 CORR.G/C3   45 356 01 00:   DENSITY CORRECTION
 RHOB.G/C3   45 350 01 00:   BULK DENSITY
 NPHI_LS.DEC 42 890 01 00:   NEUTRON POROSITY LIMESTONE
 DPHI_LS.DEC 45 890 10 00:   DENSITY POROSITY LIMESTONE
 LLD .OHMM   11 220 10 00:   LATEROLOG DEEP RESISTIVITY
 LLS .OHMM   11 220 09 00:   LATEROLOG SHALLOW RESISTIVITY
~PARAMETER INFORMATION
#MNEM.UNIT          VALUE    DESCRIPTION
#----------   ------------   ------------------------------
 PD  .                 GL:   PERMANENT DATUM
 EPD .FT             2752:   ELEVATION PERMANENT DATUM
 LMF .                 KB:   LOG MEASURED FROM
 DAPD.FT               13:   FEET ABOVE PERMANENT DATUM
 DMF .                 KB:   DRILLING MEASURED FROM
 EKB .FT             2765:   KELLY BUSHING
 EDF .FT             2764:   DRILLING FLOOR
 EGL .FT             2752:   GROUND LEVEL
 DATE.           06/10/80:   RUN DATE
 RUN .                  1:   RUN NUMBER
 DD  .FT             7150:   DEPTH DRILLER
 DL  .FT             7150:   DEPTH LOGGER
 BLI .FT             7147:   BOTTOM LOG INTERVAL
 TLI .FT             5000:   TOP LOG INTERVAL
 CS  .IN            8.625:   CASING SIZE
 CBD .FT             1919:   CASING BOTTOM DRILLER
 CBL .FT             1904:   CASING BOTTOM LOGGER
 BS  .IN            7.875:   BIT SIZE
 BSD .FT             7150:   BIT SIZE AT DEPTH
 DFT .              BRINE:   DRILLING FLUID TYPE
 DFD .                 10:   DRILLING FLUID DENSITY
 DFV .                 35:   DRILLING FLUID VISCOSITY
 DFPH.                9.5:   DRILLING FLUID PH
 DFL .                 20:   DRILLING FLUID LOSS
 MSS .               CIRC:   MUD SAMPLE SOURCE
 RMS .OHMM           .055:   RESISTIVITY MUD SAMPLE
 MST .DEGF             73:   MUD SAMPLE TEMPERATURE
 RMF .OHMM           .055:   RESISTIVITY MUD FILTRATE SAMPLE
 MFST.DEGF             73:   MUD FILTRATE SAMPLE TEMPERATURE
 MFSS.                  M:   MUD FILTRATE SAMPLE SOURCE
 RMB .OHMM            .03:   RESISTIVITY MUD AT BHT
 BHT .DEGF            107:   BOTTOM HOLE TEMPERATURE
 TCS .HRS            1615:   TIME CIRCULATED STOPPED
 TLAB.HRS            0300:   TIME LOGGER AT BOTTOM
 MRT .DEGF            107:   MAXIMUM RECORDED TEMPERATURE
 LUN .               8024:   LOGGING UNIT NUMBER
 LUL .               MONA:   LOGGING UNIT LOCATION
 ENGI.           MC BRIDE:   RECORDING ENGINEER
 CLNT.            :   CLIENT CODE
 ORIG.      1" 2.5" PRINT:   ORIGIN OF DATA
 UWI .     42371330900000:   UNIQUE WELL ID
 
~OTHER INFORMATION
~A    DEPT     GRD        GRR         GRS        DT       CALD       CORR       RHOB      NPHI_LS    DPHI_LS      LLD        LLS   
# ...
 6679.5000    48.3665    43.4849    50.1440    70.6140    10.1620     0.0003     2.4110     0.1705     0.1408     2.3759     1.7480
 6680.0000    48.1074    47.0679    49.9804    68.5971    10.1531     0.0102     2.4258     0.1556     0.1283     2.8154     1.9286
 6680.5000    46.4371    48.7195    48.1705    69.7602    10.1442     0.0204     2.4405     0.1465     0.1408     3.1593     2.2542
 6681.0000    44.7312    49.9937    46.3606    71.1053    10.1353     0.0123     2.4552     0.1596     0.1537     3.0899     2.3013
 6681.5000    44.7427    48.8145    45.2914    71.5059    10.1264     0.0041     2.4688     0.1703     0.1653     2.9137     2.2104
 6682.0000    45.5457    47.5198    45.7210    70.2404    10.1175     0.0004     2.4792     0.1827     0.1590     2.7910     2.0596
 6682.5000    47.6152    46.7850    47.7426    67.7057    10.1086     0.0029     2.4896     0.1840     0.1410     2.9874     2.0166
 6683.0000    49.4594    46.5451    49.6607    64.9113    10.0996     0.0111     2.5024     0.1766     0.1253     3.2307     2.3061
 6683.5000    50.0367    47.1278    50.6676    64.1906    10.0882     0.0192     2.5200     0.1667     0.1116     3.5994     2.4704
 6684.0000    49.5815    48.0982    50.0576    64.9762    10.0767     0.0274     2.5358     0.1642     0.1041     3.8778     2.5735
 6684.5000    48.7740    48.2727    49.1983    66.0967    10.0651     0.0348     2.5459     0.1653     0.1036     3.6271     2.3748
 6685.0000    46.2383    46.3425    48.8674    67.3923    10.0536     0.0326     2.5449     0.1746     0.1148     3.0067     1.9781
 6685.5000    46.0033    43.9689    47.3243    67.8710    10.0421     0.0218     2.5170     0.1832     0.1295     2.5304     1.7746
 6686.0000    46.7076    42.2705    46.0915    68.6625    10.0325     0.0118     2.4951     0.1883     0.1369     2.3982     1.6076
 6686.5000    48.0245    44.5782    45.6516    69.9766    10.0254     0.0111     2.4873     0.1935     0.1404     2.2955     1.5166
 6687.0000    49.0265    47.8750    47.0623    71.8651    10.0182     0.0111     2.4761     0.1994     0.1573     2.2059     1.4669
 6687.5000    50.9938    51.3667    49.1688    73.8587    10.0111     0.0112     2.4134     0.2123     0.1808     1.9741     1.3603
 6688.0000    51.6585    53.9915    50.3607    76.0017    10.0039     0.0183     2.3847     0.2355     0.2041     1.8211     1.2212
 6688.5000    51.4594    55.1432    51.5527    77.2242     9.9968     0.0254     2.3741     0.2514     0.2124     1.6154     1.0692
 6689.0000    50.8536    56.4520    54.5738    77.2740     9.9896     0.0325     2.3691     0.2590     0.2108     1.4905     1.0202
 6689.5000    50.6423    57.9028    58.6834    77.1838     9.9825     0.0348     2.3691     0.2668     0.2081     1.4410     0.9994
 6690.0000    52.2132    57.8800    62.6822    76.8736     9.9715     0.0244     2.3717     0.2796     0.2075     1.4279     0.9959
 6690.5000    52.8447    56.1317    63.6059    76.2889     9.9489     0.0141     2.3746     0.2745     0.2084     1.4451     0.9924
 6691.0000    52.8499    53.5244    59.3094    75.8417     9.9263     0.0037     2.3776     0.2514     0.2092     1.4850     1.0030
 6691.5000    51.5372    50.5459    55.7803    74.6643     9.9037     0.0012     2.3813     0.2295     0.2078     1.5315     1.0455
 6692.0000    50.5109    47.4880    52.2512    72.9625     9.8811     0.0109     2.3857     0.2183     0.2006     1.6712     1.1197
 6692.5000    49.4885    47.4580    48.7222    70.2617     9.8585     0.0207     2.4014     0.2123     0.1885     1.8671     1.2721
 6693.0000    49.5122    49.3678    47.3616    69.5872     9.8336     0.0304     2.4259     0.2114     0.1744     2.0442     1.3780
 6693.5000    49.8773    52.1168    47.2529    70.1837     9.8062     0.0372     2.4520     0.2132     0.1580     2.0901     1.4351
 6694.0000    49.6764    52.7793    47.9467    72.0952     9.7788     0.0378     2.4740     0.2263     0.1487     1.9453     1.3584
 6694.5000    48.3153    52.7148    49.4107    73.6586     9.7514     0.0308     2.4707     0.2422     0.1575     1.6592     1.2054
 6695.0000    46.9451    51.7821    49.3553    73.7087     9.7240     0.0245     2.4358     0.2418     0.1735     1.5146     1.1287
 6695.5000    45.5843    51.5524    49.0237    73.0013     9.6966     0.0184     2.4098     0.2259     0.1863     1.4520     1.0842
 6696.0000    44.4296    51.0807    47.2942    72.3361     9.6692     0.0123     2.4152     0.2110     0.1873     1.5570     1.1201
 6696.5000    44.5077    48.8438    45.3449    72.2277     9.6418     0.0097     2.4205     0.1990     0.1818     1.6878     1.2088
 6697.0000    44.6901    46.6660    44.1456    72.6689     9.6144     0.0073     2.4211     0.2016     0.1823     1.7151     1.2436
 6697.5000    44.4905    45.0655    43.7126    73.5938     9.5870     0.0035     2.4110     0.2130     0.1897     1.6820     1.2597
 6698.0000    44.0194    45.1911    44.4198    74.8219     9.5596    -0.0004     2.3951     0.2235     0.1997     1.6207     1.2584
 6698.5000    43.2449    46.0772    45.1737    75.1376     9.5322     0.0026     2.3909     0.2296     0.2033     1.5701     1.2406
 6699.0000    44.2602    47.5083    45.1638    75.1442     9.5028     0.0056     2.3868     0.2260     0.2037     1.5616     1.2654
 6699.5000    45.5905    47.8646    44.3405    75.0341     9.4729     0.0085     2.3826     0.2201     0.2050     1.5572     1.2896
 6700.0000    47.9475    48.5284    44.4020    74.5291     9.4431     0.0019     2.3785     0.2135     0.2069     1.5572     1.2993
 6700.5000    50.0530    48.9975    45.4735    73.9997     9.4132    -0.0056     2.3744     0.2121     0.2063     1.5571     1.3087
 6701.0000    51.4961    50.8057    47.8033    73.1872     9.3834    -0.0060     2.3945     0.2146     0.2020     1.5569     1.3751
 6701.5000    52.0947    53.2094    52.1282    71.7671     9.3535    -0.0021     2.4226     0.2152     0.1865     1.7236     1.7232
 6702.0000    51.8431    55.6175    54.3894    70.2301     9.3237     0.0018     2.4484     0.2071     0.1625     2.1980     2.1374
 6702.5000    51.4679    56.7221    54.6227    68.8401     9.3054     0.0056     2.4779     0.1917     0.1367     2.8042     2.6911
 6703.0000    56.0379    55.1124    55.5497    68.5020     9.3074     0.0066     2.5084     0.1770     0.1195     3.5774     3.4354
 6703.5000    66.1850    55.1245    59.5814    68.3615     9.2854     0.0046     2.5266     0.1653     0.1161     4.4117     4.3552
 6704.0000    77.7058    67.3422    68.2866    68.5997     9.2634     0.0022     2.5177     0.1699     0.1245     5.0625     5.1730
 6704.5000    91.2869    80.3005    80.4927    69.9843     9.2414     0.0002     2.5087     0.1905     0.1309     5.9116     6.1443
 6705.0000   104.8681    90.9720    94.1210    71.6849     9.2194    -0.0016     2.5122     0.2116     0.1220     7.1400     7.2980
 6705.5000   118.4493   105.7483   108.7630    73.9362     9.2062    -0.0033     2.5235     0.2448     0.1140     9.4516     9.8217
 6706.0000   126.6981   120.5198   119.5145    75.1822     9.2015    -0.0050     2.5348     0.2703     0.1079    15.1841    16.4708
 6706.5000   133.5714   131.9744   130.2659    75.9427     9.1968    -0.0022     2.5472     0.2832     0.1014    29.6976    31.2774
 6707.0000   132.9245   138.4762   134.7398    75.0945     9.1699     0.0186     2.5602     0.2654     0.0900    45.1283    46.2251
 6707.5000   126.0511   138.1403   138.8092    73.6896     9.1642     0.0458     2.5731     0.2476     0.0784    56.4244    57.7929
 6708.0000   120.9078   123.3637   124.3730    71.8343     9.1598     0.2019     2.5796     0.2314     0.0874    72.1489    74.6195
 6708.5000   107.6553   115.9885   109.9367    70.7603     9.1555     0.2018     2.5494     0.2167     0.1134    83.9867    84.6038
 6709.0000    97.4396   107.6083   100.3270    69.4829     9.1559     0.1982     2.5192     0.2076     0.1331    85.0158    85.4336
 6709.5000    91.3348    99.8308    96.6938    68.5507     9.1580     0.1583     2.4934     0.2019     0.1360    82.1403    82.7004
