#--------------------------------------------------#
#-------------------ENVERUS, INC.------------------#
#------------------WWW.ENVERUS.COM-----------------#
#------------------COPYRIGHT 2020------------------#
#--------------------------------------------------#
#THIS FILE MAY BE USED ONLY IN ACCORDANCE WITH A CURRENT SUBSCRIPTION AGREEMENT BETWEEN
#THE USER AND ENVERUS, INC. NO PART OF THIS FILE MAY BE REPRODUCED, USED, COPIED,
#MODIFIED, PROPAGATED, OR DISTRIBUTED EXCEPT IN ACCORDANCE WITH THE SUBSCRIPTION
#AGREEMENT. UNAUTHORIZED USE OR DISTRIBUTION OF ALL OR ANY PART OF THIS FILE MAY VIOLATE
#COPYRIGHT, TRADEMARK, AND/OR OTHER LAWS AND IS SUBJECT TO CIVIL AS WELL AS CRIMINAL
#SANCTIONS.
#--------------------------------------------------#
#THIS FILE IS PROVIDED "AS-IS" AND ALL WARRANTIES ARE EXPRESSLY DISCLAIMED, WHETHER
#EXPRESS, ORAL, IMPLIED, STATUTORY OR OTHERWISE, INCLUDING ANY IMPLIED WARRANTY OF FITNESS
#FOR A PARTICULAR PURPOSE, MERCHANTABILITY, TITLE OR NON-INFRINGEMENT, AND ANY WARRANTIES
#ARISING BY VIRTUE OF CUSTOM OF TRADE OR COURSE OF DEALING.  FURTHER, ENVERUS, INC.
#AND ITS LICENSORS DO NOT REPRESENT OR WARRANT THAT THIS FILE WILL MEET USER'S
#REQUIREMENTS OR ARE SUITABLE FOR USER'S NEEDS OR THAT THE DATA OR RESULTS PROVIDED IN
#CONJUNCTION THEREWITH ARE CORRECT, ACCURATE, TIMELY OR RELIABLE. THESE DISCLAIMERS SHALL
#APPLY REGARDLESS OF ANY FAILURE OF ESSENTIAL PURPOSE OF ANY LIMITED REMEDY.  SOME
#JURISDICTIONS DO NOT ALLOW THE EXCLUSION OF CERTAIN WARRANTIES SO SOME OF THE ABOVE
#EXCLUSIONS MAY NOT APPLY. IN NO EVENT SHALL ENVERUS, INC. OR ANY OF ITS AFFILIATES
#BE LIABLE UNDER ANY LEGAL THEORY, WHETHER IN TORT (INCLUDING WITHOUT LIMITATION
#NEGLIGENCE), CONTRACT, STRICT LIABILITY, STATUTORY OR OTHERWISE, FOR ANY SPECIAL,
#INCIDENTAL, CONSEQUENTIAL, EXEMPLARY, PUNITIVE OR INDIRECT DAMAGE OF ANY KIND, INCLUDING
#WITHOUT LIMITATION LOSS OF REVENUE, PROFITS, GOODWILL, USE, AND/OR DATA OR THE COST OF
#PROCUREMENT OF SUBSTITUTE GOODS OR SERVICES, EVEN IF APPRISED OF THE POSSIBILITY OF SUCH
#DAMAGES IN ADVANCE.
#--------------------------------------------------#

~VERSION INFORMATION
VERS. 2.0 : CWLS LOG ASCII STANDARD - VERSION 2.0
WRAP.  NO : ONE LINE PER DEPTH STEP
~WELL INFORMATION
#MNEMONIC     .UNIT              VALUE :DESCRIPTION
STRT       .FT                75 :START DEPTH
STOP       .FT                5648 :STOP DEPTH
STEP       .FT                   0.500 :STEP
NULL       .                  -999.990 :NULL
UWI        .              42371363570000 :UNIQUE WELL ID
API        .              42371363570000 :API NUMBER
COMP       .         APACHE CORPORATION :COMPANY
WELL       .        SCHLOSSER, FRED ESTATE -B-  13 :WELL
DATE       .                16-MAY-1992 :LOG DATE
~CURVE INFORMATION
#MNEMONIC     .UNIT      API CODE :CURVE DESCRIPTION
DEPTH       .FT                      :MEASURED DEPTH
DT.US/FT        UNKNOWN   :DT
GR.API        UNKNOWN   :GR
~A    DEPTH    DT    GR
# ...
 2934.5     64.337   5.043
 2935     65.045   5.696
 2935.5     65.752   6.349
 2936     66.46   7.002
 2936.5     67.168   6.783
 2937     63.389   6.538
 2937.5     64.121   6.294
 2938     64.651   6.049
 2938.5     65.077   5.805
 2939     65.532   5.56
 2939.5     66.178   5.316
 2940     66.824   5.072
 2940.5     67.47   4.827
 2941     64.214   5.128
 2941.5     63.173   5.437
 2942     62.132   5.746
 2942.5     61.413   6.055
 2943     64.21   6.365
 2943.5     67.006   6.665
 2944     65.397   6.097
 2944.5     63.418   5.53
 2945     63.067   4.963
 2945.5     63.603   4.557
 2946     64.138   5.047
 2946.5     60.07   5.537
 2947     53.915   6.027
 2947.5     51.517   6.516
 2948     50.848   7.006
 2948.5     52.116   7.153
 2949     49.697   7.224
 2949.5     45.923   7.296
 2950     45.851   6.813
 2950.5     45.779   6.217
 2951     48.342   5.783
 2951.5     56.403   5.814
 2952     58.411   5.845
 2952.5     61.104   5.875
 2953     62.069   5.484
 2953.5     61.962   5.012
 2954     61.855   4.57
 2954.5     63.265   4.654
 2955     63.25   4.738
 2955.5     62.233   4.821
 2956     61.228   4.905
 2956.5     60.44   4.989
 2957     59.652   5.552
 2957.5     61.01   6.153
 2958     62.899   6.754
 2958.5     66.331   6.907
 2959     65.591   6.033
 2959.5     64.851   5.16
 2960     64.111   4.606
 2960.5     63.371   4.8
 2961     62.632   4.993
 2961.5     62.97   5.186
 2962     64.144   5.38
 2962.5     64.058   5.023
 2963     61.781   4.542
 2963.5     59.958   4.06
 2964     63.161   3.796
 2964.5     64.147   4.564
 2965     63.275   5.847
 2965.5     62.403   7.19
 2966     61.602   8.319
 2966.5     66.246   8.077
 2967     65.743   7.835
 2967.5     63.972   7.594
 2968     62.202   7.035
 2968.5     60.431   6.155
 2969     61.385   5.421
 2969.5     64.271   5.611
 2970     67.157   5.801
 2970.5     65.79   5.991
 2971     61.179   5.776
 2971.5     62.087   5.404
 2972     62.995   5.031
 2972.5     63.902   4.659
 2973     64.81   4.301
 2973.5     65.718   5.325
 2974     65.679   6.349
 2974.5     60.84   6.74
 2975     63.343   7.045
 2975.5     64.626   6.68
 2976     64.045   6.088
 2976.5     63.464   5.495
 2977     62.883   4.903
 2977.5     63.102   4.311
 2978     63.571   4.13
 2978.5     64.041   4.593
 2979     64.511   5.057
 2979.5     63.58   5.521
 2980     61.611   5.984
 2980.5     63.15   5.917
 2981     64.689   5.617
 2981.5     66.229   5.318
 2982     67.768   5.019
 2982.5     64.419   4.72
 2983     62.448   4.421
 2983.5     64.13   4.122
 2984     65.811   3.823
 2984.5     62.291   4.582
 2985     62.175   5.35
 2985.5     63.24   6.11
 2986     64.305   6.227
 2986.5     65.37   6.344
 2987     64.412   6.136
 2987.5     63.654   4.866
 2988     64.346   4.865
 2988.5     63.341   4.943
 2989     60.772   5.134
 2989.5     59.493   5.901
 2990     62.581   6.255
 2990.5     65.669   6.122
 2991     62.505   5.99
 2991.5     64.5   5.858
 2992     66.495   5.726
 2992.5     64.127   5.594
 2993     64.067   5.461
 2993.5     63.623   5.329
 2994     62.418   5.197
 2994.5     61.214   5.226
 2995     60.01   5.7
 2995.5     63.242   6.173
 2996     66.027   6.424
 2996.5     64.463   6.098
 2997     62.916   5.772
 2997.5     63.203   6.273
 2998     63.491   6.834
 2998.5     63.778   6.357
 2999     64.204   5.88
 2999.5     64.76   5.403
 3000     65.315   5.843
 3000.5     63.06   6.525
 3001     63.677   7.207
 3001.5     63.529   6.917
 3002     63.382   5.971
 3002.5     63.06   5.025
 3003     62.031   5.084
 3003.5     63.184   5.838
 3004     65.699   6.592
 3004.5     65.038   7.346
 3005     64.378   7.387
 3005.5     63.717   6.83
 3006     63.057   6.287
 3006.5     61.808   5.807
 3007     60.098   5.328
 3007.5     62.727   4.848
 3008     64.506   4.842
 3008.5     65.821   4.987
 3009     67.136   5.132
 3009.5     66.044   5.277
 3010     63.168   5.342
 3010.5     62.164   5.194
 3011     66.149   5.047
 3011.5     66.901   4.9
 3012     63.653   4.752
 3012.5     61.109   4.605
 3013     63.038   4.677
 3013.5     62.402   5.302
 3014     60.81   5.926
 3014.5     61.666   6.551
 3015     62.522   6.176
 3015.5     63.378   4.828
 3016     64.234   4.883
 3016.5     64.78   4.938
 3017     64.299   4.994
 3017.5     63.818   5.163
 3018     63.337   5.588
 3018.5     63.033   6.013
 3019     64.927   6.439
 3019.5     66.043   6.864
 3020     64.135   7.19
 3020.5     62.227   7.096
 3021     68.519   7.002
 3021.5     67.07   6.907
 3022     65.621   6.813
 3022.5     64.173   6.379
 3023     63.885   5.587
 3023.5     69.208   4.794
 3024     66.276   4.001
 3024.5     65.141   3.679
 3025     65.101   3.643
 3025.5     62.804   3.608
 3026     60.34   3.772
 3026.5     63.82   4.215
 3027     66.298   4.659
 3027.5     65.901   5.103
 3028     65.504   5.547
 3028.5     64.881   5.48
 3029     61.431   4.923
 3029.5     64.233   4.514
 3030     67.036   4.939
 3030.5     68.294   5.364
 3031     65.797   5.789
 3031.5     63.3   5.945
 3032     61.698   5.507
 3032.5     62.16   5.068
 3033     63.208   4.899
 3033.5     64.256   5.319
 3034     63.994   5.739
 3034.5     63.94   6.159
 3035     64.708   5.956
 3035.5     65.476   5.469
 3036     66.244   4.982
 3036.5     66.327   4.495
 3037     63.372   4.149
 3037.5     60.417   4.411
 3038     62.228   4.673
 3038.5     67.893   4.935
 3039     68.563   5.197
 3039.5     67.645   5.459
 3040     64.452   5.72
 3040.5     67.571   5.989
 3041     64.357   6.299
 3041.5     64.574   6.609
 3042     65.374   6.919
 3042.5     66.174   7.229
 3043     66.111   7.277
 3043.5     65.036   6.461
 3044     63.911   5.717
 3044.5     62.6   5.715
 3045     61.288   5.714
 3045.5     63.097   5.908
 3046     62.556   6.282
 3046.5     62.132   6.656
 3047     62.811   6.809
 3047.5     63.491   6.498
 3048     62.994   6.187
 3048.5     63.119   5.875
 3049     65.191   5.564
 3049.5     66.918   5.253
 3050     65.853   5.845
 3050.5     64.788   7.103
 3051     63.723   7.071
 3051.5     64.461   7.04
 3052     66.568   7.008
 3052.5     68.675   6.642
 3053     65.088   6.216
 3053.5     59.824   5.789
 3054     61.969   5.363
 3054.5     66.622   4.936
 3055     66.282   4.785
 3055.5     62.998   4.747
 3056     61.058   4.709
 3056.5     61.97   5.063
 3057     62.883   5.573
 3057.5     63.796   6.084
 3058     64.708   5.919
 3058.5     65.621   5.714
 3059     66.534   5.508
 3059.5     67.446   5.302
 3060     67.934   5.096
 3060.5     65.691   5.278
 3061     63.448   5.727
 3061.5     61.206   6.176
 3062     61.721   6.625
 3062.5     62.632   7.074
 3063     63.544   7.286
 3063.5     64.113   6.819
 3064     64.189   6.352
 3064.5     64.265   5.886
 3065     66.277   5.419
 3065.5     68.585   5.277
 3066     65.528   5.787
 3066.5     60.16   6.298
 3067     54.792   6.808
 3067.5     52.647   7.319
 3068     50.515   7.46
 3068.5     48.794   7.394
 3069     47.231   6.716
 3069.5     45.98   5.991
 3070     46.696   5.266
 3070.5     47.412   4.541
 3071     48.064   4.505
 3071.5     48.673   4.585
 3072     48.275   4.666
 3072.5     47.476   4.747
 3073     47.704   4.828
 3073.5     48.204   4.909
 3074     48.705   5.037
 3074.5     48.456   5.325
 3075     48.161   5.612
 3075.5     47.892   5.9
 3076     47.953   6.188
 3076.5     48.014   6.318
 3077     48.075   6.112
 3077.5     47.58   5.907
 3078     47.923   5.746
 3078.5     48.305   5.943
 3079     48.064   6.141
 3079.5     48.054   6.338
 3080     48.334   6.392
 3080.5     48.615   6.05
 3081     48.895   5.709
 3081.5     48.996   5.368
 3082     48.715   5.166
 3082.5     48.433   5.164
 3083     48.323   5.163
 3083.5     48.422   5.243
 3084     48.521   5.438
 3084.5     48.62   5.634
 3085     48.719   5.454
 3085.5     48.74   5.065
 3086     48.629   4.676
 3086.5     48.518   4.287
 3087     48.407   3.898
 3087.5     48.358   3.62
 3088     48.517   3.619
 3088.5     48.676   4.123
 3089     48.835   5.513
 3089.5     48.976   6.903
