#--------------------------------------------------#
#-------------------ENVERUS, INC.------------------#
#------------------WWW.ENVERUS.COM-----------------#
#------------------COPYRIGHT 2020------------------#
#--------------------------------------------------#
#THIS FILE MAY BE USED ONLY IN ACCORDANCE WITH A CURRENT SUBSCRIPTION AGREEMENT BETWEEN
#THE USER AND ENVERUS, INC. NO PART OF THIS FILE MAY BE REPRODUCED, USED, COPIED,
#MODIFIED, PROPAGATED, OR DISTRIBUTED EXCEPT IN ACCORDANCE WITH THE SUBSCRIPTION
#AGREEMENT. UNAUTHORIZED USE OR DISTRIBUTION OF ALL OR ANY PART OF THIS FILE MAY VIOLATE
#COPYRIGHT, TRADEMARK, AND/OR OTHER LAWS AND IS SUBJECT TO CIVIL AS WELL AS CRIMINAL
#SANCTIONS.
#--------------------------------------------------#
#THIS FILE IS PROVIDED "AS-IS" AND ALL WARRANTIES ARE EXPRESSLY DISCLAIMED, WHETHER
#EXPRESS, ORAL, IMPLIED, STATUTORY OR OTHERWISE, INCLUDING ANY IMPLIED WARRANTY OF FITNESS
#FOR A PARTICULAR PURPOSE, MERCHANTABILITY, TITLE OR NON-INFRINGEMENT, AND ANY WARRANTIES
#ARISING BY VIRTUE OF CUSTOM OF TRADE OR COURSE OF DEALING.  FURTHER, ENVERUS, INC.
#AND ITS LICENSORS DO NOT REPRESENT OR WARRANT THAT THIS FILE WILL MEET USER'S
#REQUIREMENTS OR ARE SUITABLE FOR USER'S NEEDS OR THAT THE DATA OR RESULTS PROVIDED IN
#CONJUNCTION THEREWITH ARE CORRECT, ACCURATE, TIMELY OR RELIABLE. THESE DISCLAIMERS SHALL
#APPLY REGARDLESS OF ANY FAILURE OF ESSENTIAL PURPOSE OF ANY LIMITED REMEDY.  SOME
#JURISDICTIONS DO NOT ALLOW THE EXCLUSION OF CERTAIN WARRANTIES SO SOME OF THE ABOVE
#EXCLUSIONS MAY NOT APPLY. IN NO EVENT SHALL ENVERUS, INC. OR ANY OF ITS AFFILIATES
#BE LIABLE UNDER ANY LEGAL THEORY, WHETHER IN TORT (INCLUDING WITHOUT LIMITATION
#NEGLIGENCE), CONTRACT, STRICT LIABILITY, STATUTORY OR OTHERWISE, FOR ANY SPECIAL,
#INCIDENTAL, CONSEQUENTIAL, EXEMPLARY, PUNITIVE OR INDIRECT DAMAGE OF ANY KIND, INCLUDING
#WITHOUT LIMITATION LOSS OF REVENUE, PROFITS, GOODWILL, USE, AND/OR DATA OR THE COST OF
#PROCUREMENT OF SUBSTITUTE GOODS OR SERVICES, EVEN IF APPRISED OF THE POSSIBILITY OF SUCH
#DAMAGES IN ADVANCE.
#--------------------------------------------------#

~VERSION INFORMATION
VERS. 2.0 : CWLS LOG ASCII STANDARD - VERSION 2.0
WRAP.  NO : ONE LINE PER DEPTH STEP
~WELL INFORMATION
#MNEMONIC     .UNIT              VALUE :DESCRIPTION
STRT       .FT                50 :START DEPTH
STOP       .FT                6118 :STOP DEPTH
STEP       .FT                   0.500 :STEP
NULL       .                  -999.990 :NULL
UWI        .              42389003090000 :UNIQUE WELL ID
API        .              42389003090000 :API NUMBER
COMP       .         :COMPANY
WELL       .         1, :WELL
DATE       .                            :LOG DATE
~CURVE INFORMATION
#MNEMONIC     .UNIT      API CODE :CURVE DESCRIPTION
DEPTH       .FT                      :MEASURED DEPTH
NEUT.API        UNKNOWN   :NEUT
GR.API        UNKNOWN   :GR
DT.US/FT        UNKNOWN   :DT
~A    DEPTH    NEUT    GR    DT
# ...
 4151     -999.990   9.812   49.751
 4151.5     -999.990   10.368   49.513
 4152     -999.990   10.924   49.196
 4152.5     -999.990   11.48   48.88
 4153     -999.990   12.035   48.455
 4153.5     -999.990   12.591   47.603
 4154     -999.990   13.147   48.478
 4154.5     -999.990   13.903   49.678
 4155     -999.990   14.665   49.34
 4155.5     -999.990   15.427   49.002
 4156     -999.990   16.19   49.336
 4156.5     -999.990   16.552   49.751
 4157     -999.990   16.36   49.54
 4157.5     -999.990   16.167   49.3
 4158     -999.990   15.975   49.06
 4158.5     -999.990   15.783   48.82
 4159     -999.990   15.59   49.214
 4159.5     -999.990   14.727   49.715
 4160     -999.990   12.536   50.215
 4160.5     -999.990   10.446   49.84
 4161     -999.990   10.698   49.154
 4161.5     -999.990   10.951   48.662
 4162     -999.990   11.203   48.949
 4162.5     -999.990   11.456   49.237
 4163     -999.990   11.708   47.802
 4163.5     -999.990   11.961   46.858
 4164     -999.990   12.213   49.274
 4164.5     -999.990   12.466   49.465
 4165     -999.990   12.718   49.244
 4165.5     -999.990   12.954   49.024
 4166     -999.990   13.105   49.123
 4166.5     -999.990   13.255   49.273
 4167     -999.990   13.406   49.245
 4167.5     -999.990   13.095   49.209
 4168     -999.990   11.996   49.173
 4168.5     -999.990   10.896   49.137
 4169     -999.990   9.797   49.101
 4169.5     -999.990   8.697   49.065
 4170     -999.990   9.875   49.029
 4170.5     -999.990   11.645   49.169
 4171     -999.990   13.415   49.561
 4171.5     -999.990   15.185   49.953
 4172     -999.990   16.955   50.345
 4172.5     -999.990   18.435   50.767
 4173     -999.990   17.875   51.214
 4173.5     -999.990   17.315   51.545
 4174     -999.990   16.755   51.438
 4174.5     -999.990   15.509   51.33
 4175     -999.990   12.787   51.223
 4175.5     -999.990   10.898   51.116
 4176     -999.990   10.255   51.009
 4176.5     -999.990   9.613   50.902
 4177     -999.990   8.97   50.795
 4177.5     -999.990   8.328   50.687
 4178     -999.990   7.685   50.91
 4178.5     -999.990   7.043   51.149
 4179     -999.990   6.784   51.388
 4179.5     -999.990   8.469   51.627
 4180     -999.990   10.154   51.867
 4180.5     -999.990   11.839   51.138
 4181     -999.990   12.498   49.711
 4181.5     -999.990   11.526   51.457
 4182     -999.990   10.553   51.563
 4182.5     -999.990   9.581   51.433
 4183     -999.990   8.608   51.303
 4183.5     -999.990   9.152   51.173
 4184     -999.990   10.052   51.043
 4184.5     -999.990   10.953   50.913
 4185     -999.990   11.853   50.783
 4185.5     -999.990   12.753   50.653
 4186     -999.990   12.828   50.509
 4186.5     -999.990   12.794   50.336
 4187     -999.990   12.761   50.164
 4187.5     -999.990   12.727   50.035
 4188     -999.990   12.693   49.991
 4188.5     -999.990   12.66   49.946
 4189     -999.990   11.459   49.902
 4189.5     -999.990   9.975   49.935
 4190     -999.990   8.491   50.29
 4190.5     -999.990   7.007   50.646
 4191     -999.990   5.522   51.001
 4191.5     -999.990   4.276   49.884
 4192     -999.990   6.049   49.553
 4192.5     -999.990   7.823   49.846
 4193     -999.990   9.596   50.138
 4193.5     -999.990   11.369   50.431
 4194     -999.990   13.142   50.452
 4194.5     -999.990   14.915   50.151
 4195     -999.990   20.166   49.849
 4195.5     -999.990   18.839   49.86
 4196     -999.990   17.513   50.199
 4196.5     -999.990   16.186   50.537
 4197     -999.990   14.86   50.649
 4197.5     -999.990   13.534   50.42
 4198     -999.990   12.207   50.191
 4198.5     -999.990   10.881   49.963
 4199     -999.990   9.807   49.734
 4199.5     -999.990   9.406   49.505
 4200     -999.990   9.006   49.463
 4200.5     -999.990   8.606   49.663
 4201     -999.990   8.206   49.862
 4201.5     -999.990   7.805   50.062
 4202     -999.990   10.69   50.162
 4202.5     -999.990   11.006   50.2
 4203     -999.990   10.7   50.237
 4203.5     -999.990   10.394   50.064
 4204     -999.990   10.088   49.882
 4204.5     -999.990   9.782   49.7
 4205     -999.990   9.562   49.064
 4205.5     -999.990   10.043   48.121
 4206     -999.990   10.523   47.177
 4206.5     -999.990   11.004   48.068
 4207     -999.990   11.485   49.617
 4207.5     -999.990   11.965   49.991
 4208     -999.990   12.446   49.737
 4208.5     -999.990   12.927   49.484
 4209     -999.990   15.19   49.563
 4209.5     -999.990   17.59   49.803
 4210     -999.990   16.737   50.042
 4210.5     -999.990   15.885   50.281
 4211     -999.990   15.033   50.521
 4211.5     -999.990   14.18   50.525
 4212     -999.990   13.328   50.423
 4212.5     -999.990   12.475   50.321
 4213     -999.990   11.623   50.219
 4213.5     -999.990   10.77   50.218
 4214     -999.990   9.918   50.296
 4214.5     -999.990   9.737   50.375
 4215     -999.990   10.267   50.453
 4215.5     -999.990   10.796   50.532
 4216     -999.990   11.326   50.289
 4216.5     -999.990   11.856   49.852
 4217     -999.990   12.386   49.92
 4217.5     -999.990   12.915   50.128
 4218     -999.990   13.445   50.336
 4218.5     -999.990   13.975   50.392
 4219     -999.990   13.059   50.148
 4219.5     -999.990   11.692   49.904
 4220     -999.990   10.326   49.66
 4220.5     -999.990   8.959   49.416
 4221     -999.990   10.083   49.368
 4221.5     -999.990   11.358   49.517
 4222     -999.990   12.633   49.666
 4222.5     -999.990   13.909   49.815
 4223     -999.990   15.184   49.965
 4223.5     -999.990   16.459   50.114
 4224     -999.990   15.018   50.263
 4224.5     -999.990   13.252   50.412
 4225     -999.990   12.453   50.561
 4225.5     -999.990   12.313   50.71
 4226     -999.990   12.173   50.811
 4226.5     -999.990   12.033   50.717
 4227     -999.990   12.462   50.624
 4227.5     -999.990   13.7   50.531
 4228     -999.990   14.939   50.437
 4228.5     -999.990   16.177   50.344
 4229     -999.990   17.416   50.279
 4229.5     -999.990   18.335   50.336
 4230     -999.990   16.886   50.393
 4230.5     -999.990   15.437   50.451
 4231     -999.990   13.988   50.396
 4231.5     -999.990   12.539   50.309
 4232     -999.990   11.09   50.223
 4232.5     -999.990   10.277   50.136
 4233     -999.990   10.485   50.049
 4233.5     -999.990   10.692   49.962
 4234     -999.990   10.9   49.876
 4234.5     -999.990   11.108   49.789
 4235     -999.990   11.316   49.702
 4235.5     -999.990   11.524   49.615
 4236     -999.990   11.106   49.529
 4236.5     -999.990   10.64   49.442
 4237     -999.990   10.174   49.462
 4237.5     -999.990   9.708   49.663
 4238     -999.990   9.727   49.863
 4238.5     -999.990   10.619   50.064
 4239     -999.990   11.51   50.264
 4239.5     -999.990   12.401   50.465
 4240     -999.990   13.292   50.393
 4240.5     -999.990   12.748   50.165
 4241     -999.990   11.879   49.936
 4241.5     -999.990   11.235   49.708
 4242     -999.990   11.929   49.778
 4242.5     -999.990   12.623   49.878
 4243     -999.990   13.316   49.978
 4243.5     -999.990   14.01   50.079
 4244     -999.990   13.467   50.179
 4244.5     -999.990   12.895   50.279
 4245     -999.990   12.324   50.38
 4245.5     -999.990   11.753   50.345
 4246     -999.990   11.181   50.248
 4246.5     -999.990   10.61   50.151
 4247     -999.990   10.039   50.053
 4247.5     -999.990   9.467   49.956
 4248     -999.990   8.896   49.859
 4248.5     -999.990   10.348   49.762
 4249     -999.990   12.21   49.665
 4249.5     -999.990   14.072   49.567
 4250     -999.990   15.934   49.47
 4250.5     -999.990   15.77   49.618
 4251     -999.990   14.686   49.972
 4251.5     -999.990   13.602   50.326
 4252     -999.990   12.518   50.339
 4252.5     -999.990   11.434   50.286
 4253     -999.990   10.835   50.233
 4253.5     -999.990   11.184   50.18
 4254     -999.990   11.532   50.128
 4254.5     -999.990   11.88   50.075
 4255     -999.990   12.229   50.022
 4255.5     -999.990   12.577   49.969
 4256     -999.990   12.704   50.106
 4256.5     -999.990   12.224   50.258
 4257     -999.990   11.744   50.41
