~VERSION INFORMATION
VERS.           1.2   :CWLS Log ASCII Standard - VERSION 1.2
WRAP.           NO    :One Line per depth step
PROD.  Schlumberger   :LAS Producer
PROG.  DLIS to ASCII 17C0-152                          :LAS Program name and version
CREA.        2014/05/28 16:07                          :LAS Creation date {YYYY/MM/DD hh:mm}
DLIS_CREA.  2014-May-27 22:17                          :DLIS Creation date and time {YYYY-MMM-DD hh:mm}
SOURCE.     db5fefe1-f67d-4e3f-8816-ab53d5f8be46       :DLIS File Name
#--------------------------------------------------
~WELL INFORMATION
#MNEM.UNIT      DATA             DESCRIPTION
#---- ------ --------------   -----------------------------
# Enverus has updated the API/UWI.  The previous names are renamed to  PREV_API / PREV_UWI
API.  API (14 Digits with Dashes) : 42-389-34023-90-00
UWI.              UNIQUE WELL ID : 42389340239000

STRT .F      9586.5000       :START DEPTH     
STOP .F      10811.5000      :STOP DEPTH     
STEP .F       0.5000         :STEP       
NULL .          -999.25      :NULL VALUE
COMP .                 COMPANY:  J. Cleo Thompson                   
WELL .                    WELL:  Okapi State Unit B35 #2H           
FLD  .                   FIELD:  Wolfbone (Trend Area)              
LOC  .                LOCATION:  260' FNL & 500' FEL                
CNTY .                  COUNTY:  Reeves                             
STAT .                   STATE:  Texas                              
CTRY .                 COUNTRY:                                     
SRVC .         SERVICE COMPANY:  Schlumberger                       
LATI .DEG             LATITUDE:  31.112200 degrees                  
LONG .DEG            LONGITUDE:  -103.28900 degrees                 
PREV_API  .              API NUMBER:  42-389-34023                       
DATE .                LOG DATE:  27-May-2014
PREV_UWI  .          UNIQUE WELL ID:                                     
#-----------------------------------------------------------------------------
~PARAMETER INFORMATION
#MNEM.UNIT    VALUE                      DESCRIPTION
#---- -----   --------------------       ------------------------
CN   .        J. Cleo Thompson           :Company Name
WN   .        Okapi State Unit B35 #2H   :Well Name
FN   .        Wolfbone (Trend Area)      :Field Name
FL   .        260' FNL & 500' FEL        :Field Location
FL1  .        Section  35  Block  50 T8S  Abstract 4369 :Field Location, Line 1
COUN .        Reeves                     :County or Parish
STAT .        Texas                      :State or Province
NATI .                                   :Nation
DATE .        27-May-2014                :Tools Above Rotary Table Date
APIN .        42-389-34023               :API Well Number
SECT .        35                         :Section
TOWN .        50 T8S                     :Township
RANG .        4369                       :Range
DMF  .        KB                         :Drilling Measured From (Name of Drilling Elevation Reference)
LMF  .        KB                         :Logging Measured From (Name of Logging Elevation Reference)
PDAT .        GL                         :Permanent Datum
ENGI .        AJ Massis                  :Engineer s Name
WITN .        Bennie McNett              :Witness s Name
LATI .        31.112200 degrees          :Latitude
LONG .        -103.28900 degrees         :Longitude
LUL  .        Midland                    :Logging Unit Location
LUN  .        9105                       :Logging Unit Number
RUN  .        1B                         :Run Number
SON  .                                   :Service Order Number
BHT  .DEGF     162.00000                 :Bottom Hole Temperature
BS   .IN         8.50000                 :Bit Size
MDEN .G/C3       2.71000                 :Matrix Density for Density Porosity
DFD  .LB/G      10.70000                 :Drilling Fluid Density
DFV  .S         46.00000                 :Drilling Fluid Viscosity
DFL  .C3        10.00000                 :Drilling Fluid Loss
RMFS .OHMM       0.30000                 :Resistivity of Mud Filtrate Sample
EKB  .F       2829.00000                 :Elevation of Kelly Bushing
EGL  .F       2807.00000                 :Elevation of Ground Level
BLI  .F       11012.00000                :Bottom Log Interval
BSAL .PPM     132000.00000               :Borehole Salinity
FLEV .F          8.00000                 :Depth of Drilling Fluid Level to LMF (Log Measured From)
MCST .DEGF      68.00000                 :Mudcake Sample Temperature
MFST .DEGF      80.20000                 :Mud Filtrate Sample Temperature
MRT  .DEGF     162.00000                 :Maximum Recorded Temperature
MST  .DEGF      80.20000                 :Mud Sample Temperature
RMCS .OHMM    -999.25000                 :Resistivity of Mud Cake Sample
RMS  .OHMM       0.30000                 :Resistivity of Mud Sample
RW   .OHMM       1.00000                 :Connate Water Resistivity
TDD  .F       11012.00000                :Driller Total Depth
TDL  .F       11012.00000                :Logger Total Depth
TLI  .F       9676.00000                 :Top Log Interval
HIDE .        Wolfbone (Trend Area)      :Header Identifier
MATR .        LIME                       :Rock Matrix for Neutron Porosity Corrections
FNUM .           1.00000                 :F-Numerator for Formation Factor Formula
FEXP .           2.00000                 :Exponent "m" for Formation Factor Formula
DFT  .        Salt Brine                 :Drilling Fluid Type
DFPH .           9.00000                 :Drilling Fluid pH
MCSS .                                   :Mudcake Sample Source
MFSS .                                   :Mud Filtrate Sample Source
FD   .G/C3       1.10000                 :Fluid Density
MSS  .        Active Tank                :Mud Sample Source
OS1  .                                   :Other Services Line 1
OS2  .                                   :Other Services Line 2
OS3  .                                   :Other Services Line 3
OS4  .                                   :Other Services Line 4
OS5  .                                   :Other Services Line 5
R1   .        Tools run as per toolsketch :Remarks Line 1
R2   .        Logs performed on a Limestone matrix (2.71

g/cc  47.6 us/ft ). Mud Properties  MW =

10.7 g/cc  FD = 1.1 g/cc. :Remarks Line 2
R3   .        Max recorded temperature from downhole

thermometer = 162 degF. :Remarks Line 3
R4   .        Logs run from TD to casing. GR & Neutron

logged from casing to 200ft as per client

request. :Remarks Line 4
R5   .        Tools got stuck near TD and calipers had to be closed in order to get free. :Remarks Line 5
R6   .        Well was washed out for many intervals. :Remarks Line 6
R7   .        Repeat done at casing due to getting stuck at TD :Remarks Line 7
R8   .                                   :Remarks Line 8
TCS  .        18 00 00                   :Time Circulation Stopped
TLAB .        16 19 01                   :Time Logger At Bottom
EPD  .C3         2807.000000             :Elevation of Permanent Datum above Mean Sea Level
APD  .F          22.000000               :Elevation of Depth Reference (LMF) above Permanent Datum
#-----------------------------------------------------------------------------
~CURVE INFORMATION
#MNEM.UNIT   API CODE                                  DESCRIPTION
#---- -----  --------                                  -----------------------
DEPT .F                                                :DEPTH (BOREHOLE) {F12.4}
CDF  .LBF                                              :Calibrated Downhole Force {F11.4}
CTEM .DEGF                                             :Cartridge Temperature {F11.4}
DCAL .IN                                               :Differential Caliper {F11.4}
DTCO .US/F                                             :Delta-T Compressional {F11.4}
DTSM .US/F                                             :Delta-T Shear {F11.4}
ED   .F                                                :East Departure {F11.4}
GR_EDTC.GAPI                                           :Gamma Ray {F11.4}
GTEM .DEGF                                             :Generalized Borehole Temperature {F11.4}
HAZI .DEG                                              :Hole Azimuth Relative to True North {F11.4}
HAZIM.DEG                                              :Memorized Hole Azimuth {F11.4}
ITT  .S                                                :Integrated Transit Time {F11.4}
ND   .F                                                :North Departure {F11.4}
P1AZ .DEG                                              :Pad 1 Azimuth in Horizontal Plane (0 = True North) {F11.4}
PR   .                                                 :Poisson s Ratio {F11.4}
RB   .DEG                                              :Relative Bearing {F11.4}
SDEV .DEG                                              :Sonde Deviation {F11.4}
SDEVM.DEG                                              :Memorized Sonde Deviation {F11.4}
SPHI .CFCF                                             :Sonic Porosity {F11.4}
STIT .F                                                :Stuck Tool Indicator, Total {F11.4}
TENS .LBF                                              :Cable Tension {F11.4}
#-----------------------------------------------------------------------------
# 
#      DEPT        CDF        CTEM       DCAL       DTCO       DTSM        ED      GR_EDTC      GTEM       HAZI      HAZIM       ITT         ND        P1AZ        PR         RB        SDEV      SDEVM       SPHI       STIT       TENS
#
~A  
# ...
  10636.5000  1257.7858   161.6000     0.1596    79.5730   127.8689     0.0000    65.2430   158.7947   273.3566   280.9285     0.0100     0.0000   182.9078     0.1840   269.5508     1.5000     1.4327     0.2261     0.0000  4204.3335
  10637.0000  1260.2970   161.6000     0.1596    79.6603   127.9223     0.0000    65.0996   158.7990   274.5854   281.0438     0.0100     0.0000   179.7140     0.1833   265.1268     1.4776     1.4391     0.2267     0.0000  4226.0000
  10637.5000  1259.6671   161.6000     0.1596    79.4059   128.0181     0.0000    60.8711   158.8032   276.0143   280.6108     0.0099     0.0000   176.8126     0.1873   260.7955     1.4635     1.4377     0.2249     0.0000  4169.0000
  10638.0000  1259.8101   161.6000     0.1819    79.2909   128.0834     0.0000    62.5927   158.8075   277.1833   279.9112     0.0099     0.0000   174.1438     0.1893   256.9565     1.4595     1.4285     0.2241     0.0000  4169.6665
  10638.5000  1257.2731   161.6000     0.1596    78.7415   127.6217     0.0000    59.6343   158.8118   277.7511   279.3225     0.0098     0.0000   171.4422     0.1927   253.6863     1.4633     1.4141     0.2202     0.0000  4182.5000
  10639.0000  1255.5461   161.6000     0.1596    78.6857   127.1094     0.0000    61.5025   158.8160   277.6098   279.1757     0.0098     0.0000   168.8722     0.1894   251.2567     1.4697     1.3991     0.2198     0.0000  4162.2500
  10639.5000  1253.0665   161.6000     0.1708    78.9337   126.5453     0.0000    57.6990   158.8203   276.9059   279.6619     0.0098     0.0000   166.3358     0.1816   249.4236     1.4741     1.3889     0.2216     0.0000  4175.6665
  10640.0000  1251.5289   161.6000     0.1708    78.2200   125.4813     0.0000    56.8400   158.8246   275.9692   280.7201     0.0097     0.0000   163.7222     0.1822   247.7461     1.4724     1.3890     0.2165     0.0000  4143.0000
  10640.5000  1253.1243   161.6000     0.1708    76.4194   124.5890     0.0000    57.0986   158.8288   275.1047   282.0508     0.0097     0.0000   160.4954     0.1984   245.3840     1.4608     1.4010     0.2038     0.0000  4161.3335
  10641.0000  1249.5070   161.6000     0.1708    75.2083   123.7387     0.0000    60.6060   158.8331   274.9916   283.2614     0.0096     0.0000   157.8673     0.2071   242.8686     1.4448     1.4220     0.1952     0.0000  4180.0000
  10641.5000  1248.8716   161.6000     0.1708    72.3036   121.0413     0.0000    64.3770   158.8373   275.6102   284.1348     0.0096     0.0000   155.0631     0.2226   239.4449     1.4276     1.4481     0.1747     0.0000  4169.2500
  10642.0000  1252.9731   161.6000     0.1708    69.5463   117.4637     0.0000    64.5672   158.8416   276.8799   284.2861     0.0096     0.0000   152.1685     0.2301   235.2807     1.4156     1.4595     0.1552     0.0000  4161.3335
  10642.5000  1253.0309   161.6000     0.1708    68.9464   116.0615     0.0000    55.6620   158.8459   278.4618   284.0180     0.0095     0.0000   149.3186     0.2273   230.8480     1.4133     1.4558     0.1510     0.0000  4162.6670
  10643.0000  1254.8792   161.6000     0.1708    68.1361   115.2554     0.0000    45.0615   158.8502   279.8986   283.5273     0.0095     0.0000   146.2040     0.2314   226.2968     1.4201     1.4378     0.1452     0.0000  4164.0000
  10643.5000  1255.7949   161.6000     0.1708    68.3626   116.0475     0.0000    37.2636   158.8544   280.8238   283.0667     0.0095     0.0000   143.0065     0.2343   222.1738     1.4308     1.4109     0.1468     0.0000  4174.3330
  10644.0000  1246.6981   161.6000     0.1708    68.2212   117.4241     0.0000    40.2231   158.8587   281.0700   282.8947     0.0094     0.0000   140.2524     0.2452   219.1735     1.4385     1.3834     0.1458     0.0000  4149.3335
  10644.5000  1246.1445   161.6000     0.1708    69.6990   118.3015     0.0000    49.6968   158.8630   280.7245   283.1552     0.0094     0.0000   137.7313     0.2342   216.9979     1.4388     1.3642     0.1563     0.0000  4159.0000
  10645.0000  1247.3595   161.6000     0.1708    70.9155   119.1725     0.0000    63.1791   158.8672   280.0545   283.8150     0.0094     0.0000   134.9418     0.2259   214.8787     1.4312     1.3598     0.1649     0.0000  4176.6670
  10645.5000  1248.3800   161.6000     0.1708    72.8629   120.9914     0.0000    73.2405   158.8715   279.3225   284.6409     0.0093     0.0000   131.4530     0.2155   212.1226     1.4141     1.3727     0.1787     0.0000  4161.6665
  10646.0000  1250.4240   161.6000     0.1708    76.0519   123.5052     0.0000    79.5363   158.8758   279.1757   285.3314     0.0093     0.0000   128.3642     0.1946   209.1810     1.3991     1.3992     0.2012     0.0000  4161.0000
  10646.5000  1244.3986   161.6000     0.1708    76.9326   124.7530     0.0000    76.9334   158.8800   279.6619   285.6912     0.0093     0.0000   125.5239     0.1932   205.8553     1.3889     1.4304     0.2074     0.0000  4160.6670
  10647.0000  1243.8945   161.6000     0.1708    79.0638   128.2458     0.0000    75.5553   158.8843   280.7201   285.6897     0.0092     0.0000   122.8774     0.1935   202.1512     1.3890     1.4563     0.2225     0.0000  4159.3335
  10647.5000  1245.7379   161.3560     0.1708    80.5429   131.6678     0.0000    68.8349   158.8886   282.0508   285.4662     0.0092     0.0000   120.1780     0.2010   198.1224     1.4010     1.4686     0.2330     0.0000  4187.7500
  10648.0000  1250.2170   161.3282     0.1485    80.5592   134.1448     0.0000    71.6177   158.8928   283.2614   285.2175     0.0091     0.0000   117.2131     0.2180   193.9474     1.4220     1.4644     0.2331     0.0000  4205.2500
  10648.5000  1248.4260   161.0632     0.1708    80.9041   134.5659     0.0000    74.2111   158.8971   284.0428   285.0926     0.0091     0.0000   114.3250     0.2170   190.2792     1.4443     1.4470     0.2355     0.0000  4189.0005
  10649.0000  1248.8716   160.8528     0.1485    81.4702   135.2764     0.0000    78.1992   158.9014   284.2953   285.2802     0.0091     0.0000   111.5068     0.2154   187.2094     1.4582     1.4195     0.2395     0.0000  4185.6670
  10649.5000  1246.7296   160.6859     0.1597    83.2445   136.0889     0.0000    75.8213   158.9056   284.0964   285.7399     0.0090     0.0000   108.6254     0.2011   184.5271     1.4577     1.4022     0.2521     0.0000  4181.2500
  10650.0000  1241.8157   160.5636     0.1931    82.9835   136.3653     0.0000    75.5656   158.9099   283.6293   286.3521     0.0090     0.0000   105.8559     0.2059   182.2261     1.4420     1.3984     0.2502     0.0000  4178.0000
  10650.5000  1243.2188   160.5751     0.1931    83.4972   136.0369     0.0000    76.5247   158.9142   283.1408   286.9023     0.0089     0.0000   103.1997     0.1978   180.0588     1.4164     1.4104     0.2539     0.0000  4187.6670
  10651.0000  1244.4050   160.6859     0.1485    81.2301   135.1959     0.0000    79.1764   158.9185   282.8947   287.1667     0.0089     0.0000    99.7005     0.2175   176.8069     1.3834     1.4355     0.2378     0.0000  4188.3335
  10651.5000  1249.9469   160.3311     0.1485    83.9652   132.1753     0.0000    77.8811   158.9227   283.0669   287.0526     0.0088     0.0000    97.2163     0.1617   174.1511     1.3667     1.4657     0.2572     0.0000  4175.3335
  10652.0000  1244.8396   160.0188     0.1485    70.8188   128.8803     0.0000    80.3449   158.9270   283.8150   286.6398     0.0088     0.0000    93.7652     0.2837   169.9525     1.3598     1.4912     0.1642     0.0000  4159.3335
  10652.5000  1251.4193   160.1359     0.1485    69.6529   125.1185     0.0000    76.9870   158.9313   284.6409   286.1427     0.0088     0.0000    91.0327     0.2755   166.3954     1.3727     1.5047     0.1560     0.0000  4198.6665
  10653.0000  1255.7949   159.7211     0.1485    67.7189   124.3981     0.0000    65.0926   158.9355   285.3314   285.7932     0.0087     0.0000    87.9410     0.2894   162.6148     1.3992     1.5026     0.1423     0.0000  4201.6670
  10653.5000  1261.1161   159.6235     0.1485    64.0542   123.3021     0.0000    50.6081   158.9398   285.6912   285.7846     0.0087     0.0000    84.8397     0.3152   159.1547     1.4304     1.4868     0.1164     0.0000  4163.6665
