~Version Information Block
 VERS.                2.00:     CWLS LOG ASCII STANDARD - VERSION 2.000000
 WRAP.                  NO:     One Line Per Depth Step
#
~Well Information Block
#MNEM.UNIT                     Data                         Information
#----------   ------------------------------------------   ----------------
 STRT.FT                                     1000.0000:     START DEPTH
 STOP.FT                                    15733.0000:     STOP DEPTH
 STEP.FT                                        0.5000:     STEP
 NULL.                                       -999.0000:     NULL VALUE
 COMP.                                 MOBIL PRODUCING:     COMPANY
 WELL.                                    IB-WEATHERBY:     WELL
 FLD .                                   ROJO CABALLOS:     FIELD
 LOC .                                         UNKNOWN:     LOCATION
 LONG.                                 -103.1458890000:     LONGITUDE
 LATI.                                   31.1330510000:     LATITUDE
 CNTY.                                           PECOS:     COUNTY
 STAT.                                           TEXAS:     STATE
 CTRY.                                           U.S.A:     COUNTRY
 SRVC.                                         UNKNOWN:     SERVICE COMPANY
 DATE.                                         UNKNOWN:     DATE
 API .                                  42371057360000:     API NUMBER
 UWI .                                  42371057360000:     UWI NUMBER
 SLAT.                                       31.133051:     Surface latitude
 SLON.                                     -103.145889:     surface longitude
 TVD .                                              NO:     TVD flag
 WSTA.                                             LOC:     Well status
#
~Curve Information Block
#MNEM.UNIT       API CODE      Curve Description
#----------    -------------   -------------------
 DEPT.FT                   :   Depth in Feet
 DT  .UNKNOWN          UNKNOWN:   DT-Load
 DTedit.ft/s          UNKNOWN:   DT-Load
 GR  .UNKNOWN          UNKNOWN:   GR-Load
 GR_org.UNKNOWN          UNKNOWN:   GR_org-Load
#
~Parameter Information Block
#MNEM.UNIT            Value               Description
#----------    --------------------    -------------------
 RUN .                         ONE:    Run Number
 PDAT.                          GL:    Permanent Datum
 EPD .FT                          :    Elevation Of Perm. Datum
 LMF .               KELLY BUSHING:    Log Measured From
 EKB .FT                          :    Elevation Of Kelly Bushing
 DF .FT                           :    Elevation Of Derrick Floor
 GL .FT                           :    Elevation Of Ground Level
 TD  .FT                          :    Total Depth
 CSGD.FT                          :    Casing Bottom (Driller) 1
 CSGL.FT                          :    Casing Bottom (Logger) 1
 MUD .                            :    Drilling Fluid Type
 MUDV .CP                         :    Drilling Fluid Viscosity
 MUDD .LB/USG                     :    Drilling Fluid Density
 FL .ML/30MIN                     :    Drilling Fluid Loss
 PH.                              :    Drilling Fluid Ph
 MUDS .                           :    Mud Sample Source
 RM .OHMM                         :    Resistivity Of Mud Sample
 RMT .DEGF                        :    Mud Sample Temperature
 RMF .OHMM                        :    Mud Filtrate Resistivity
 RMFT.DEGF                        :    Mud Filtrate Sample Temperature
 RMC .OHMM                        :    Mud Cake Resistivity
 RMCT.DEGF                        :    Mud Cake Sample Temperature
 RMB .OHMM                        :    Mud Resistivity At Bht
 TMAX .DEGF                       :    Bottom Hole Temperature
#
~Other Information Block
<DescLogPlotStart>   NEURALOG PLOT DEFINITION
PLOTDEFVERSION: 3
LASFILE: E:\Nair Innovations\42_TEXAS\371_Pecos\Mobil_IB-Weatherby 1 Pecos_1.la
DEPTHSCALE: 239.999996
RESOLUTION: 200
DEPTHLABELFREQ: 100.000000
HEAVYGRIDFREQ: 50.000000
MEDIUMGRIDFREQ: 50.000000
LIGHTGRIDFREQ: 10.000000
#
#   TRACK 1
#
STARTTRACK: 
 LEFTX: 0.500000 inch
 RIGHTX: 3.000000 inch
 SCALETYPE: Linear
 NUMCHARTDIVISIONS: 10
CURVE: GR    0.000000   150.000000 (255,0,0)      Short_Dash        4     N    
CURVE: DTedit 6637.927700 24453.046900 (0,131,131)    Solid             2     N
CURVE: GR_org -999.990000 109.000000 (255,0,255)    Solid             2     N  
ENDTRACK: 
#
#   TRACK 2
#
STARTTRACK: 
 LEFTX: 3.750000 inch
 RIGHTX: 6.250000 inch
 SCALETYPE: Linear
 NUMCHARTDIVISIONS: 10
ENDTRACK: 
#
#   TRACK 3
#
STARTTRACK: 
 LEFTX: 6.250000 inch
 RIGHTX: 8.750000 inch
 SCALETYPE: Linear
 NUMCHARTDIVISIONS: 10
CURVE: DT    190.000000 50.000000  (255,0,131)    Solid             2     N    
ENDTRACK: 
<DescLogPlotEnd>
<DepthTrack type='Reference' track='1' Label='0' color='0' hor='0' />
<Reference font='144,0,-900,0,500,0,16777216,Arial' />
~A DEPTH     DT               DTedit             GR               GR_org            
# ...
   14761.000 81.54160000      12263.67870000   -999.99000000    -999.99000000   
   14761.500 81.54160000      12263.67870000   -999.99000000    -999.99000000   
   14762.000 81.50000000      12269.93850000   -999.99000000    -999.99000000   
   14762.500 81.50000000      12269.93850000   -999.99000000    -999.99000000   
   14763.000 84.59520000      11821.00200000   -999.99000000    -999.99000000   
   14763.500 84.59520000      11821.00200000   -999.99000000    -999.99000000   
   14764.000 87.55650000      11421.19630000   -999.99000000    -999.99000000   
   14764.500 87.55650000      11421.19630000   -999.99000000    -999.99000000   
   14765.000 81.19040000      12316.72750000   -999.99000000    -999.99000000   
   14765.500 81.19040000      12316.72750000   -999.99000000    -999.99000000   
   14766.000 81.38390000      12287.44240000   -999.99000000    -999.99000000   
   14766.500 81.38390000      12287.44240000   -999.99000000    -999.99000000   
   14767.000 80.28580000      12455.50290000   -999.99000000    -999.99000000   
   14767.500 80.28580000      12455.50290000   -999.99000000    -999.99000000   
   14768.000 89.01780000      11233.70800000   -999.99000000    -999.99000000   
   14768.500 89.01780000      11233.70800000   -999.99000000    -999.99000000   
   14769.000 81.50000000      12269.93850000   -999.99000000    -999.99000000   
   14769.500 81.50000000      12269.93850000   -999.99000000    -999.99000000   
   14770.000 85.36900000      11713.85350000   -999.99000000    -999.99000000   
   14770.500 85.36900000      11713.85350000   -999.99000000    -999.99000000   
   14771.000 84.23800000      11871.12700000   -999.99000000    -999.99000000   
   14771.500 84.23800000      11871.12700000   -999.99000000    -999.99000000   
   14772.000 81.26780000      12304.99710000   -999.99000000    -999.99000000   
   14772.500 81.26780000      12304.99710000   -999.99000000    -999.99000000   
   14773.000 87.39880000      11441.80470000   -999.99000000    -999.99000000   
   14773.500 87.39880000      11441.80470000   -999.99000000    -999.99000000   
   14774.000 75.20840000      13296.38770000   -999.99000000    -999.99000000   
   14774.500 75.20840000      13296.38770000   -999.99000000    -999.99000000   
   14775.000 81.19350000      12316.25780000   -999.99000000    -999.99000000   
   14775.500 81.19350000      12316.25780000   -999.99000000    -999.99000000   
   14776.000 80.72620000      12387.55270000   -999.99000000    -999.99000000   
   14776.500 80.72620000      12387.55270000   -999.99000000    -999.99000000   
   14777.000 82.88100000      12065.49220000   -999.99000000    -999.99000000   
   14777.500 82.88100000      12065.49220000   -999.99000000    -999.99000000   
   14778.000 78.76200000      12696.47750000   -999.99000000    -999.99000000   
   14778.500 78.76200000      12696.47750000   -999.99000000    -999.99000000   
   14779.000 88.78560000      11263.08790000   -999.99000000    -999.99000000   
   14779.500 88.78560000      11263.08790000   -999.99000000    -999.99000000   
   14780.000 79.72620000      12542.92870000   -999.99000000    -999.99000000   
   14780.500 79.72620000      12542.92870000   -999.99000000    -999.99000000   
   14781.000 86.45240000      11567.05860000   -999.99000000    -999.99000000   
   14781.500 86.45240000      11567.05860000   -999.99000000    -999.99000000   
   14782.000 80.42860000      12433.38870000   -999.99000000    -999.99000000   
   14782.500 80.42860000      12433.38870000   -999.99000000    -999.99000000   
   14783.000 81.94040000      12203.99220000   -999.99000000    -999.99000000   
   14783.500 81.94040000      12203.99220000   -999.99000000    -999.99000000   
   14784.000 86.63090000      11543.22560000   -999.99000000    -999.99000000   
   14784.500 86.63090000      11543.22560000   -999.99000000    -999.99000000   
   14785.000 76.66670000      13043.47270000   -999.99000000    -999.99000000   
   14785.500 76.66670000      13043.47270000   -999.99000000    -999.99000000   
   14786.000 74.16670000      13483.13960000   -999.99000000    -999.99000000   
   14786.500 74.16670000      13483.13960000   -999.99000000    -999.99000000   
   14787.000 85.15480000      11743.31930000   -999.99000000    -999.99000000   
   14787.500 85.15480000      11743.31930000   -999.99000000    -999.99000000   
   14788.000 89.51180000      11171.71090000   -999.99000000    -999.99000000   
   14788.500 89.51180000      11171.71090000   -999.99000000    -999.99000000   
   14789.000 80.54160000      12415.94340000   -999.99000000    -999.99000000   
   14789.500 80.54160000      12415.94340000   -999.99000000    -999.99000000   
   14790.000 76.84830000      13012.65040000   -999.99000000    -999.99000000   
   14790.500 76.84830000      13012.65040000   -999.99000000    -999.99000000   
   14791.000 79.66370000      12552.76950000   -999.99000000    -999.99000000   
   14791.500 79.66370000      12552.76950000   -999.99000000    -999.99000000   
   14792.000 80.60120000      12406.76370000   -999.99000000    -999.99000000   
   14792.500 80.60120000      12406.76370000   -999.99000000    -999.99000000   
   14793.000 83.65170000      11954.32910000   -999.99000000    -999.99000000   
   14793.500 83.65170000      11954.32910000   -999.99000000    -999.99000000   
   14794.000 82.57140000      12110.73050000   -999.99000000    -999.99000000   
   14794.500 82.57140000      12110.73050000   -999.99000000    -999.99000000   
   14795.000 75.55070000      13236.14550000   -999.99000000    -999.99000000   
   14795.500 75.55070000      13236.14550000   -999.99000000    -999.99000000   
   14796.000 80.76200000      12382.06050000   -999.99000000    -999.99000000   
   14796.500 80.76200000      12382.06050000   -999.99000000    -999.99000000   
   14797.000 82.33030000      12146.19630000   -999.99000000    -999.99000000   
   14797.500 82.33030000      12146.19630000   -999.99000000    -999.99000000   
   14798.000 85.20240000      11736.75880000   -999.99000000    -999.99000000   
   14798.500 85.20240000      11736.75880000   -999.99000000    -999.99000000   
   14799.000 89.61160000      11159.26950000   -999.99000000    -999.99000000   
   14799.500 89.61160000      11159.26950000   -999.99000000    -999.99000000   
   14800.000 82.27670000      12154.10840000   -999.99000000    -999.99000000   
   14800.500 82.27670000      12154.10840000   -999.99000000    -999.99000000   
   14801.000 79.89440000      12516.52150000   -999.99000000    -999.99000000   
   14801.500 79.89440000      12516.52150000   -999.99000000    -999.99000000   
   14802.000 82.68150000      12094.60350000   -999.99000000    -999.99000000   
   14802.500 82.68150000      12094.60350000   -999.99000000    -999.99000000   
   14803.000 81.02380000      12342.05180000   -999.99000000    -999.99000000   
   14803.500 81.02380000      12342.05180000   -999.99000000    -999.99000000   
   14804.000 76.61910000      13051.57520000   -999.99000000    -999.99000000   
   14804.500 76.61910000      13051.57520000   -999.99000000    -999.99000000   
   14805.000 79.40480000      12593.69730000   -999.99000000    -999.99000000   
   14805.500 79.40480000      12593.69730000   -999.99000000    -999.99000000   
   14806.000 71.52390000      13981.33980000   -999.99000000    -999.99000000   
   14806.500 71.52390000      13981.33980000   -999.99000000    -999.99000000   
   14807.000 82.32740000      12146.62400000   -999.99000000    -999.99000000   
   14807.500 82.32740000      12146.62400000   -999.99000000    -999.99000000   
   14808.000 71.47630000      13990.65040000   -999.99000000    -999.99000000   
   14808.500 71.47630000      13990.65040000   -999.99000000    -999.99000000   
   14809.000 81.35720000      12291.47460000   -999.99000000    -999.99000000   
   14809.500 81.35720000      12291.47460000   -999.99000000    -999.99000000   
   14810.000 70.40490000      14203.55660000   -999.99000000    -999.99000000   
