#--------------------------------------------------#
#-------------------ENVERUS, INC.------------------#
#------------------WWW.ENVERUS.COM-----------------#
#------------------COPYRIGHT 2020------------------#
#--------------------------------------------------#
#THIS FILE MAY BE USED ONLY IN ACCORDANCE WITH A CURRENT SUBSCRIPTION AGREEMENT BETWEEN
#THE USER AND ENVERUS, INC. NO PART OF THIS FILE MAY BE REPRODUCED, USED, COPIED,
#MODIFIED, PROPAGATED, OR DISTRIBUTED EXCEPT IN ACCORDANCE WITH THE SUBSCRIPTION
#AGREEMENT. UNAUTHORIZED USE OR DISTRIBUTION OF ALL OR ANY PART OF THIS FILE MAY VIOLATE
#COPYRIGHT, TRADEMARK, AND/OR OTHER LAWS AND IS SUBJECT TO CIVIL AS WELL AS CRIMINAL
#SANCTIONS.
#--------------------------------------------------#
#THIS FILE IS PROVIDED "AS-IS" AND ALL WARRANTIES ARE EXPRESSLY DISCLAIMED, WHETHER
#EXPRESS, ORAL, IMPLIED, STATUTORY OR OTHERWISE, INCLUDING ANY IMPLIED WARRANTY OF FITNESS
#FOR A PARTICULAR PURPOSE, MERCHANTABILITY, TITLE OR NON-INFRINGEMENT, AND ANY WARRANTIES
#ARISING BY VIRTUE OF CUSTOM OF TRADE OR COURSE OF DEALING.  FURTHER, ENVERUS, INC.
#AND ITS LICENSORS DO NOT REPRESENT OR WARRANT THAT THIS FILE WILL MEET USER'S
#REQUIREMENTS OR ARE SUITABLE FOR USER'S NEEDS OR THAT THE DATA OR RESULTS PROVIDED IN
#CONJUNCTION THEREWITH ARE CORRECT, ACCURATE, TIMELY OR RELIABLE. THESE DISCLAIMERS SHALL
#APPLY REGARDLESS OF ANY FAILURE OF ESSENTIAL PURPOSE OF ANY LIMITED REMEDY.  SOME
#JURISDICTIONS DO NOT ALLOW THE EXCLUSION OF CERTAIN WARRANTIES SO SOME OF THE ABOVE
#EXCLUSIONS MAY NOT APPLY. IN NO EVENT SHALL ENVERUS, INC. OR ANY OF ITS AFFILIATES
#BE LIABLE UNDER ANY LEGAL THEORY, WHETHER IN TORT (INCLUDING WITHOUT LIMITATION
#NEGLIGENCE), CONTRACT, STRICT LIABILITY, STATUTORY OR OTHERWISE, FOR ANY SPECIAL,
#INCIDENTAL, CONSEQUENTIAL, EXEMPLARY, PUNITIVE OR INDIRECT DAMAGE OF ANY KIND, INCLUDING
#WITHOUT LIMITATION LOSS OF REVENUE, PROFITS, GOODWILL, USE, AND/OR DATA OR THE COST OF
#PROCUREMENT OF SUBSTITUTE GOODS OR SERVICES, EVEN IF APPRISED OF THE POSSIBILITY OF SUCH
#DAMAGES IN ADVANCE.
#--------------------------------------------------#

~VERSION INFORMATION
VERS. 2.0 : CWLS LOG ASCII STANDARD - VERSION 2.0
WRAP. NO : ONE LINE PER DEPTH STEP
~WELL INFORMATION
#MNEMONIC     .UNIT              VALUE :DESCRIPTION
STRT       .FT                101.00000 :START DEPTH
STOP       .FT                5802.00000 :STOP DEPTH
STEP       .FT                0.50000 :STEP
NULL       .                -999.25000 :NULL VALUE
UWI       .                42389010150000 :UNIQUE WELL ID
API       .                42389010150000 :API NUMBER
COMP       .                 :COMPANY
WELL       .                 :WELL
FLD       .                 :FIELD
LOC       .                 :LOCATION
CNTY       .                 :COUNTY
STAT       .                 :STATE
CTRY       .                 :COUNTRY
SRVC       .                 :SERVICE COMPANY
DATE       .                 :DATE
~CURVE INFORMATION
#MNEMONIC     .UNIT      API CODE :CURVE DESCRIPTION
DEPTH       .FT                      :MEASURED DEPTH
DT       .US/FT        UNKNOWN   :DT
GR       .GAPI        UNKNOWN   :GR
~A    DEPTH    DT    GR
# ...
435.50000    -999.25000    28.78336
436.00000    -999.25000    29.15690
436.50000    -999.25000    29.53044
437.00000    -999.25000    29.47520
437.50000    -999.25000    28.93830
438.00000    -999.25000    28.40140
438.50000    -999.25000    28.07092
439.00000    -999.25000    28.27725
439.50000    -999.25000    28.48358
440.00000    -999.25000    28.68990
440.50000    -999.25000    28.89623
441.00000    -999.25000    29.10256
441.50000    -999.25000    29.30888
442.00000    -999.25000    29.51521
442.50000    -999.25000    29.72153
443.00000    -999.25000    29.92786
443.50000    -999.25000    29.67795
444.00000    -999.25000    29.18636
444.50000    -999.25000    28.69478
445.00000    -999.25000    28.20319
445.50000    -999.25000    27.71161
446.00000    -999.25000    27.22002
446.50000    -999.25000    27.33577
447.00000    -999.25000    27.74082
447.50000    -999.25000    28.14588
448.00000    -999.25000    28.55093
448.50000    -999.25000    28.95598
449.00000    -999.25000    29.36104
449.50000    -999.25000    28.95423
450.00000    -999.25000    27.95405
450.50000    -999.25000    27.09707
451.00000    -999.25000    27.24391
451.50000    -999.25000    27.39074
452.00000    -999.25000    27.53757
452.50000    -999.25000    27.68440
453.00000    -999.25000    26.41406
453.50000    -999.25000    24.94808
454.00000    -999.25000    23.48211
454.50000    -999.25000    22.29343
455.00000    -999.25000    23.32012
455.50000    -999.25000    24.34680
456.00000    -999.25000    25.37349
456.50000    -999.25000    26.40018
457.00000    -999.25000    27.42686
457.50000    -999.25000    28.45355
458.00000    -999.25000    29.48024
458.50000    -999.25000    30.50692
459.00000    -999.25000    30.31954
459.50000    -999.25000    29.30744
460.00000    -999.25000    28.29534
460.50000    -999.25000    27.28324
461.00000    -999.25000    26.27113
461.50000    -999.25000    25.25903
462.00000    -999.25000    24.32630
462.50000    -999.25000    24.84453
463.00000    -999.25000    25.36276
463.50000    -999.25000    25.88100
464.00000    -999.25000    26.39923
464.50000    -999.25000    26.91746
465.00000    -999.25000    27.43569
465.50000    -999.25000    27.95392
466.00000    -999.25000    28.47216
466.50000    -999.25000    28.99039
467.00000    -999.25000    29.50862
467.50000    -999.25000    29.23378
468.00000    -999.25000    28.77897
468.50000    -999.25000    28.32416
469.00000    -999.25000    27.86935
469.50000    -999.25000    27.41454
470.00000    -999.25000    26.95973
470.50000    -999.25000    26.50492
471.00000    -999.25000    26.05011
471.50000    -999.25000    25.59530
472.00000    -999.25000    25.61841
472.50000    -999.25000    25.87646
473.00000    -999.25000    26.13451
473.50000    -999.25000    26.39256
474.00000    -999.25000    26.65061
474.50000    -999.25000    26.90865
475.00000    -999.25000    25.39654
475.50000    -999.25000    23.71201
476.00000    -999.25000    22.02748
476.50000    -999.25000    20.34295
477.00000    -999.25000    19.19102
477.50000    -999.25000    19.64953
478.00000    -999.25000    20.10805
478.50000    -999.25000    20.56656
479.00000    -999.25000    21.02508
479.50000    -999.25000    21.48359
480.00000    -999.25000    21.94210
480.50000    -999.25000    23.01503
481.00000    -999.25000    24.25389
481.50000    -999.25000    25.49275
482.00000    -999.25000    26.73161
482.50000    -999.25000    27.97048
483.00000    -999.25000    29.20934
483.50000    -999.25000    28.38551
484.00000    -999.25000    27.39736
484.50000    -999.25000    26.40921
485.00000    -999.25000    25.42106
485.50000    -999.25000    24.43291
486.00000    -999.25000    23.44476
486.50000    -999.25000    22.45660
487.00000    -999.25000    23.30881
487.50000    -999.25000    24.20239
488.00000    -999.25000    25.09598
488.50000    -999.25000    25.77301
489.00000    -999.25000    25.82512
489.50000    -999.25000    25.87723
490.00000    -999.25000    25.92934
490.50000    -999.25000    25.98145
491.00000    -999.25000    26.03356
491.50000    -999.25000    26.08567
492.00000    -999.25000    26.13778
492.50000    -999.25000    24.17415
493.00000    -999.25000    23.69429
493.50000    -999.25000    23.90944
494.00000    -999.25000    23.91766
494.50000    -999.25000    23.41915
495.00000    -999.25000    22.92064
495.50000    -999.25000    22.60742
496.00000    -999.25000    23.95870
496.50000    -999.25000    25.30999
497.00000    -999.25000    25.58030
497.50000    -999.25000    24.96940
498.00000    -999.25000    24.35850
498.50000    -999.25000    24.22264
499.00000    -999.25000    25.11996
499.50000    -999.25000    26.08903
500.00000    -999.25000    26.78688
500.50000    -999.25000    26.96895
501.00000    -999.25000    26.65979
501.50000    -999.25000    26.35064
502.00000    -999.25000    26.04147
502.50000    -999.25000    25.73232
503.00000    -999.25000    25.97567
503.50000    -999.25000    26.80038
504.00000    -999.25000    27.62510
504.50000    -999.25000    28.44981
505.00000    -999.25000    29.25063
505.50000    -999.25000    26.90144
506.00000    -999.25000    24.55226
506.50000    -999.25000    22.20307
507.00000    -999.25000    22.39306
507.50000    -999.25000    22.78942
508.00000    -999.25000    23.18578
508.50000    -999.25000    23.44217
509.00000    -999.25000    23.55640
509.50000    -999.25000    23.67063
510.00000    -999.25000    23.78486
510.50000    -999.25000    23.89909
511.00000    -999.25000    24.01331
511.50000    -999.25000    24.12754
512.00000    -999.25000    24.63954
512.50000    -999.25000    25.18292
513.00000    -999.25000    25.72631
513.50000    -999.25000    26.26969
514.00000    -999.25000    26.81307
514.50000    -999.25000    27.35645
515.00000    -999.25000    27.79008
515.50000    -999.25000    27.40458
516.00000    -999.25000    27.01908
516.50000    -999.25000    26.63358
517.00000    -999.25000    27.29898
517.50000    -999.25000    27.91894
518.00000    -999.25000    27.23400
518.50000    -999.25000    26.93443
519.00000    -999.25000    27.08136
519.50000    -999.25000    27.22829
520.00000    -999.25000    27.37522
520.50000    -999.25000    27.38802
521.00000    -999.25000    26.92702
521.50000    -999.25000    26.46602
522.00000    -999.25000    26.00503
522.50000    -999.25000    25.81446
523.00000    -999.25000    26.46988
523.50000    -999.25000    27.12530
524.00000    -999.25000    27.78072
524.50000    -999.25000    28.00778
525.00000    -999.25000    27.77568
525.50000    -999.25000    27.54358
526.00000    -999.25000    27.31148
526.50000    -999.25000    27.07938
527.00000    -999.25000    27.46798
527.50000    -999.25000    28.04868
528.00000    -999.25000    28.62938
528.50000    -999.25000    28.56037
529.00000    -999.25000    27.37413
529.50000    -999.25000    26.18789
530.00000    -999.25000    25.97207
530.50000    -999.25000    25.87991
531.00000    -999.25000    25.78775
531.50000    -999.25000    25.69559
532.00000    -999.25000    23.80223
532.50000    -999.25000    22.57876
533.00000    -999.25000    23.33380
533.50000    -999.25000    24.08884
534.00000    -999.25000    24.84388
534.50000    -999.25000    25.59893
535.00000    -999.25000    26.35397
535.50000    -999.25000    27.10901
536.00000    -999.25000    26.90657
536.50000    -999.25000    26.59751
537.00000    -999.25000    26.28845
537.50000    -999.25000    25.97939
538.00000    -999.25000    25.67033
538.50000    -999.25000    25.36127
539.00000    -999.25000    26.17708
539.50000    -999.25000    27.01613
540.00000    -999.25000    27.85517
540.50000    -999.25000    28.69421
541.00000    -999.25000    29.26035
541.50000    -999.25000    28.11421
542.00000    -999.25000    26.96808
542.50000    -999.25000    25.98749
543.00000    -999.25000    25.50507
543.50000    -999.25000    25.02264
544.00000    -999.25000    24.49358
544.50000    -999.25000    23.91009
545.00000    -999.25000    23.32660
545.50000    -999.25000    22.74312
546.00000    -999.25000    22.22705
546.50000    -999.25000    22.81516
