~Version Information Block
 VERS.                2.00:     CWLS LOG ASCII STANDARD - VERSION 2.000000
 WRAP.                  NO:     One Line Per Depth Step
#
~Well Information Block
#MNEM.UNIT                     Data                         Information
#----------   ------------------------------------------   ----------------
# Enverus has updated the API/UWI.  The previous names are renamed to  PREV_API / PREV_UWI
API.                             42-371-39483-90-00 : API (14 Digits with Dashes)
UWI.                                 42371394839000 : UNIQUE WELL ID

 STRT.FT                                    10010.0000:     START DEPTH
 STOP.FT                                    11812.0000:     STOP DEPTH
 STEP.FT                                        0.5000:     STEP
 NULL.                                       -999.2500:     NULL VALUE
 COMP.                           PATRIOT RESOURCES INC:     COMPANY
 WELL.                        ROOSTERFISH UNIT 22NE 1H:     WELL
 FLD .                             WOLFBONE TREND AREA:     FIELD
 LOC .                                                :     LOCATION
 SEC .                                              22:     SECTION
 CNTY.                                          PEACOS:     COUNTY
 STAT.                                           TEXAS:     STATE
 CTRY.                                           U.S.A:     COUNTRY
 SRVC.                                    SCHLUMBERGER:     SERVICE COMPANY
 DATE.                                      03/18/2017:     DATE
PREV_APII .                                  42371394830000:     API NUMBER
 PREV_UWI .                                  42371394830000:     UWI NUMBER
 TVD .                                              NO:     TVD flag
 WSTA.                                             LOC:     Well status
#
~Curve Information Block
#MNEM.UNIT       API CODE      Curve Description
#----------    -------------   -------------------
 DEPT.FT                   :   Depth in Feet
 ECGR.GAPI     35 310 01 01:   Environmentally Corrected Gamma Ray
 CALI.IN       70 280 01 01:   Caliper
 TENS.LBS                  :   Tension
 SPHI_476.V/V  61 890 01 01:   Sonic Porosity 47.6 Matrix
 DT  .US/F     60 520 08 01:   Delta-T
 DTSM.US/F                 :   Delta-T Shear Measurement
 STIT.FT/H                 :   STIT
#
~Parameter Information Block
#MNEM.UNIT            Value               Description
#----------    --------------------    -------------------
 RUN .                         ONE:    Run Number
 PDAT.                          GL:    Permanent Datum
 EPD .FT                        25:    Elevation Of Perm. Datum
 LMF .               KELLY BUSHING:    Log Measured From
 EKB .FT                          :    Elevation Of Kelly Bushing
 DF .FT                           :    Elevation Of Derrick Floor
 GL .FT                         25:    Elevation Of Ground Level
 TD  .FT                     18979:    Total Depth
 CSGD.FT                      5100:    Casing Bottom (Driller) 1
 CSGL.FT                     18979:    Casing Bottom (Logger) 1
 MUD .                   OIL BASED:    Drilling Fluid Type
 MUDV .CP                      102:    Drilling Fluid Viscosity
 MUDD .LB/USG                 13.0:    Drilling Fluid Density
 FL .ML/30MIN                     :    Drilling Fluid Loss
 PH.                           8.8:    Drilling Fluid Ph
 MUDS .                           :    Mud Sample Source
 RM .OHMM                         :    Resistivity Of Mud Sample
 RMT .DEGF                        :    Mud Sample Temperature
 RMF .OHMM                        :    Mud Filtrate Resistivity
 RMFT.DEGF                        :    Mud Filtrate Sample Temperature
 RMC .OHMM                        :    Mud Cake Resistivity
 RMCT.DEGF                        :    Mud Cake Sample Temperature
 RMB .OHMM                        :    Mud Resistivity At Bht
 TMAX .DEGF                    152:    Bottom Hole Temperature
#
~Other Information Block
<DescLogPlotStart>   NEURALOG PLOT DEFINITION
PLOTDEFVERSION: 3
LASFILE: D:\nds\projects\poojawells\December data\PoojaWells Digitizing_Cassidy
DEPTHSCALE: 240.000000
RESOLUTION: 144
DEPTHLABELFREQ: 100.000000
HEAVYGRIDFREQ: 100.000000
MEDIUMGRIDFREQ: 50.000000
LIGHTGRIDFREQ: 10.000000
#
#   TRACK 1
#
STARTTRACK: 
 LEFTX: 0.500000 inch
 RIGHTX: 3.000000 inch
 SCALETYPE: Linear
 NUMCHARTDIVISIONS: 10
CURVE: ECGR  0.000000   150.000000 (0,0,255)      Solid             2     Y    
BACKUP: 150.000000 300.000000 (0,0,255)      Solid             2    
CURVE: CALI  6.000000   16.000000  (0,131,131)    Dot               2     Y    
BACKUP: -4.000000  6.000000   (0,131,131)    Dot               2    
CURVE: TENS  10000.000000 0.000000   (255,0,255)    Short_Dash        2     N  
ENDTRACK: 
#
#   TRACK 2
#
STARTTRACK: 
 LEFTX: 3.500000 inch
 RIGHTX: 8.500000 inch
 SCALETYPE: Linear
 NUMCHARTDIVISIONS: 10
CURVE: SPHI_476 0.300000   -0.100000  (255,0,0)      Solid             2     N 
CURVE: DT    140.000000 40.000000  (255,131,0)    Dot               2     N    
CURVE: DTSM  240.000000 40.000000  (255,255,0)    Short_Dash        2     N    
ENDTRACK: 
#
#   TRACK 3
#
STARTTRACK: 
 LEFTX: 8.500000 inch
 RIGHTX: 9.256944 inch
 SCALETYPE: Linear
 NUMCHARTDIVISIONS: 10
CURVE: STIT  0.000000   50.000000  (0,0,255)      Solid             2     N    
ENDTRACK: 
<DescLogPlotEnd>
~A DEPTH     ECGR             CALI             TENS             SPHI_476             DT               DTSM             STIT            
# ...
   10833.500 85.03731299      8.25357183       4522.71968844    0.25293872       83.21925985      135.12534819     0.34907168      
   10834.000 81.17646528      8.24815099       4525.36018818    0.25322563       83.24512535      135.12534819     0.34951704      
   10834.500 82.30428977      8.24269389       4528.01280071    0.25242340       83.10584958      135.12534819     0.34996239      
   10835.000 84.24955960      8.23716347       4530.66030833    0.25069638       82.87372331      134.94627935     0.35040775      
   10835.500 81.18849217      8.23298779       4533.36703899    0.24902507       82.54874652      134.51651413     0.35085310      
   10836.000 77.55548620      8.23308913       4535.89405765    0.24997214       82.76114206      134.22204536     0.35129846      
   10836.500 75.21984969      8.23303163       4538.77162046    0.25181058       83.10584958      134.07879029     0.35174381      
   10837.000 75.65160865      8.23843074       4530.03464686    0.25239554       82.96657382      134.56824513     0.35218917      
   10837.500 77.08100637      8.24856379       4518.93234016    0.25473538       83.48885794      134.28969359     0.35263452      
   10838.000 79.29556750      8.25864083       4503.49162011    0.25626741       83.66295265      134.98050139     0.35307988      
   10838.500 80.26991165      8.26868708       4478.35195531    0.25626741       83.66295265      135.34470752     0.35352523      
   10839.000 82.29681395      8.27871748       4455.30726257    0.25566388       83.66295265      135.21935933     0.35397059      
   10839.500 82.55273529      8.28841035       4477.09497207    0.25399257       83.38440111      135.09401114     0.35441594      
   10840.000 81.17625553      8.27515723       4497.20670391    0.25069638       82.81569174      134.96866295     0.35486130      
   10840.500 74.97019230      8.26160792       4517.31843575    0.24607242       82.16434540      134.84679666     0.35530665      
   10841.000 68.37601436      8.26131358       4539.10614525    0.24044568       81.29526462      132.97452059     0.35575201      
   10841.500 69.18846429      8.26130018       4524.92479587    0.23732591       80.87743733      131.33140234     0.35619736      
   10842.000 74.97310631      8.26127173       4509.45423292    0.22920613       79.77715877      130.11944723     0.35664272      
   10842.500 79.03680769      8.26124631       4493.98366996    0.22618384       79.20612813      130.10072323     0.35708807      
   10843.000 80.89927497      8.26123596       4503.72439479    0.22696379       79.42200557      129.85943757     0.35753343      
   10843.500 75.67386610      8.26123596       4539.10614525    0.22841226       79.75816662      129.55008078     0.35797878      
   10844.000 75.83006954      8.26123596       4539.10614525    0.23057719       80.12281590      129.91643454     0.35842414      
   10844.500 71.85847040      8.26123596       4536.31284916    0.23416668       80.48746518      131.31615599     0.35886949      
   10845.000 72.40284869      8.26123596       4525.15484571    0.24089307       81.54397135      133.07103064     0.35931485      
   10845.500 77.41454756      8.26123596       4513.95756972    0.25099723       82.90489455      134.82590529     0.35976020      
   10846.000 82.04359039      8.26123596       4511.20104724    0.25727447       83.81963788      136.58077994     0.36020556      
   10846.500 83.99824589      8.26123596       4511.15849863    0.26161560       84.40111421      138.21613321     0.36065091      
   10847.000 87.56514443      8.26123596       4511.13422751    0.26441504       84.72609099      139.41454866     0.36109627      
   10847.500 88.51201548      8.26123596       4511.23947981    0.26622563       85.03830084      139.88572025     0.36154162      
   10848.000 95.03329785      8.26123596       4503.67594481    0.26772981       85.23676880      140.29567603     0.36198698      
   10848.500 96.85897476      8.26123596       4491.43550659    0.26852368       85.30839634      140.70421098     0.36243233      
   10849.000 101.21849134     8.26124014       4488.17656629    0.26560996       85.00835655      140.66454437     0.36287769      
   10849.500 96.64341200      8.26124937       4503.02499630    0.26057880       84.08077994      139.80501393     0.36332304      
   10850.000 91.75620530      8.26126345       4515.82867784    0.25793952       83.83704735      139.22005571     0.36376840      
   10850.500 88.31308121      8.26127729       4527.00186220    0.25605172       83.58635097      139.02506964     0.36421375      
   10851.000 86.30121034      8.26138560       4539.10614525    0.25343162       83.24512535      137.91086351     0.36465911      
   10851.500 86.44604973      8.26675012       4512.76935355    0.25311421       83.24512535      137.70861773     0.36510446      
   10852.000 84.23009183      8.27266248       4483.24022346    0.25292479       83.33863908      137.81552008     0.36554982      
   10852.500 88.61705051      8.27855161       4494.10304159    0.25961003       84.26979706      138.17293939     0.36599517      
   10853.000 93.09546981      8.28431945       4505.27622595    0.26629526       85.12070566      139.80719810     0.36644053      
   10853.500 94.74510037      8.28756101       4516.44941030    0.27075209       85.75208914      141.78874575     0.36688588      
   10854.000 92.51771719      8.27726534       4527.62259466    0.27205283       85.89136490      142.38509749     0.36733124      
   10854.500 91.33103345      8.26710091       4539.10614525    0.27322638       85.93314763      143.01183844     0.36777659      
   10855.000 95.13364348      8.26103552       4525.13966480    0.27420374       86.39623955      144.45682451     0.36822195      
   10855.500 96.84937965      8.26118492       4511.17318436    0.28126703       87.12047354      145.94011142     0.36866730      
   10856.000 97.36372138      8.26122253       4511.17318436    0.28250290       87.40389972      146.69220056     0.36911266      
   10856.500 97.03105601      8.26122863       4511.17318436    0.28189415       87.30362117      147.38161560     0.36955801      
   10857.000 100.53680479     8.26129631       4520.17380509    0.28098687       87.10461158      147.05571031     0.37000336      
   10857.500 105.70012085     8.26502874       4531.34698945    0.27926781       86.88177035      146.75487465     0.37044872      
   10858.000 106.47788145     8.27555125       4534.89521681    0.27679666       86.54317549      146.23955432     0.37089407      
   10858.500 106.72843740     8.28605297       4520.31274953    0.27307799       85.89136490      145.15320334     0.37133943      
   10859.000 99.35317279      8.28693314       4511.14483533    0.26947075       85.58495822      144.92339833     0.37178478      
   10859.500 96.79973060      8.28341154       4511.21677443    0.26796657       85.33426184      144.38997214     0.37223014      
   10860.000 95.04393156      8.27980515       4511.13477318    0.26740947       85.19498607      143.78830084     0.37267549      
   10860.500 97.88473728      8.27619625       4511.15431169    0.26740947       85.19498607      143.20334262     0.37312085      
   10861.000 93.08810429      8.27260772       4511.13528620    0.26816156       85.35614803      143.20334262     0.37356620      
   10861.500 92.90387369      8.26902970       4511.24828248    0.26980501       85.57103064      143.20334262     0.37401156      
   10862.000 92.98179125      8.26543903       4510.98413848    0.27256665       86.01671309      144.07845868     0.37445691      
   10862.500 97.61695058      8.26163306       4511.47112900    0.27600478       86.58774373      145.16480966     0.37490227      
   10863.000 96.72800418      8.27055587       4527.20672997    0.27860724       86.77963479      146.25116063     0.37534762      
   10863.500 98.16340916      8.28109856       4536.99871631    0.28035283       87.00247601      147.21912721     0.37579298      
