#--------------------------------------------------#
#-------------------ENVERUS, INC.------------------#
#------------------WWW.ENVERUS.COM-----------------#
#------------------COPYRIGHT 2020------------------#
#--------------------------------------------------#
#THIS FILE MAY BE USED ONLY IN ACCORDANCE WITH A CURRENT SUBSCRIPTION AGREEMENT BETWEEN
#THE USER AND ENVERUS, INC. NO PART OF THIS FILE MAY BE REPRODUCED, USED, COPIED,
#MODIFIED, PROPAGATED, OR DISTRIBUTED EXCEPT IN ACCORDANCE WITH THE SUBSCRIPTION
#AGREEMENT. UNAUTHORIZED USE OR DISTRIBUTION OF ALL OR ANY PART OF THIS FILE MAY VIOLATE
#COPYRIGHT, TRADEMARK, AND/OR OTHER LAWS AND IS SUBJECT TO CIVIL AS WELL AS CRIMINAL
#SANCTIONS.
#--------------------------------------------------#
#THIS FILE IS PROVIDED "AS-IS" AND ALL WARRANTIES ARE EXPRESSLY DISCLAIMED, WHETHER
#EXPRESS, ORAL, IMPLIED, STATUTORY OR OTHERWISE, INCLUDING ANY IMPLIED WARRANTY OF FITNESS
#FOR A PARTICULAR PURPOSE, MERCHANTABILITY, TITLE OR NON-INFRINGEMENT, AND ANY WARRANTIES
#ARISING BY VIRTUE OF CUSTOM OF TRADE OR COURSE OF DEALING.  FURTHER, ENVERUS, INC.
#AND ITS LICENSORS DO NOT REPRESENT OR WARRANT THAT THIS FILE WILL MEET USER'S
#REQUIREMENTS OR ARE SUITABLE FOR USER'S NEEDS OR THAT THE DATA OR RESULTS PROVIDED IN
#CONJUNCTION THEREWITH ARE CORRECT, ACCURATE, TIMELY OR RELIABLE. THESE DISCLAIMERS SHALL
#APPLY REGARDLESS OF ANY FAILURE OF ESSENTIAL PURPOSE OF ANY LIMITED REMEDY.  SOME
#JURISDICTIONS DO NOT ALLOW THE EXCLUSION OF CERTAIN WARRANTIES SO SOME OF THE ABOVE
#EXCLUSIONS MAY NOT APPLY. IN NO EVENT SHALL ENVERUS, INC. OR ANY OF ITS AFFILIATES
#BE LIABLE UNDER ANY LEGAL THEORY, WHETHER IN TORT (INCLUDING WITHOUT LIMITATION
#NEGLIGENCE), CONTRACT, STRICT LIABILITY, STATUTORY OR OTHERWISE, FOR ANY SPECIAL,
#INCIDENTAL, CONSEQUENTIAL, EXEMPLARY, PUNITIVE OR INDIRECT DAMAGE OF ANY KIND, INCLUDING
#WITHOUT LIMITATION LOSS OF REVENUE, PROFITS, GOODWILL, USE, AND/OR DATA OR THE COST OF
#PROCUREMENT OF SUBSTITUTE GOODS OR SERVICES, EVEN IF APPRISED OF THE POSSIBILITY OF SUCH
#DAMAGES IN ADVANCE.
#--------------------------------------------------#

~VERSION INFORMATION
VERS. 2.0 : CWLS LOG ASCII STANDARD - VERSION 2.0
WRAP.  NO : ONE LINE PER DEPTH STEP
~WELL INFORMATION
#MNEMONIC     .UNIT              VALUE :DESCRIPTION
STRT       .FT                10841 :START DEPTH
STOP       .FT                18209 :STOP DEPTH
STEP       .FT                   0.500 :STEP
NULL       .                  -999.99 :NULL
UWI        .                42371326180000 :UNIQUE WELL ID
API        .                42371326180000 :API NUMBER
COMP       .         :COMPANY
WELL       .        :WELL
DATE       .                 :LOG DATE
FLD       .                 :FIELD NAME
LOC       .                  UNK :LOCATION
CNTY       .                 UNK :COUNTY
STAT       .                 UNK :STATE
CTRY       .                 UNK :COUNTY
SRVC       .                 UNK :SERVICE COMPANY
~CURVE INFORMATION
#MNEMONIC     .UNIT      API CODE :CURVE DESCRIPTION
DEPTH       .FT                      :MEASURED DEPTH
CAL.IN        UNKNOWN   :CAL
DT.MSEC/FT        UNKNOWN   :DT
GR.API        UNKNOWN   :GR
ILD.OHM        UNKNOWN   :ILD
ILS.OHM        UNKNOWN   :ILS
SP.MV        UNKNOWN   :SP
~A    DEPTH    CAL    DT    GR    ILD    ILS    SP
# ...
 17142.5     10.46263   79.1078   82.67441   15.30279   22.61843   -16.05332
 17143     10.46258   78.93246   79.12626   15.78114   25.97933   -16.05732
 17143.5     10.46252   77.12323   74.67675   16.27187   29.34024   -16.06132
 17144     10.46246   74.40226   71.7015   16.76261   31.12807   -16.06532
 17144.5     10.47161   72.78725   70.66429   16.84827   28.97596   -16.06932
 17145     10.48754   72.63735   72.3131   16.77555   26.82386   -16.07332
 17145.5     10.50347   74.07002   74.37104   16.11066   24.67175   -15.62227
 17146     10.5194   76.36043   74.39361   15.34761   22.51964   -15.63821
 17146.5     10.53532   79.2282   75.28818   14.58457   20.36753   -15.97968
 17147     10.55125   82.66238   79.04048   13.82152   18.21543   -16.32116
 17147.5     10.56718   85.06443   84.19482   13.05847   16.06332   -16.66263
 17148     10.58311   85.9413   86.35165   12.12446   14.68741   -16.7645
 17148.5     10.59904   86.10152   86.68548   11.18925   14.123   -16.67071
 17149     10.61468   86.127   84.65411   10.25405   13.24197   -16.57692
 17149.5     10.62996   86.6958   82.59275   9.76219   11.67853   -16.48313
 17150     10.64523   87.83988   81.21926   9.36727   10.30644   -16.38934
 17150.5     10.66051   88.48284   82.72934   8.97234   9.31575   -16.29555
 17151     10.67579   88.74238   85.52939   8.701   9.32356   -16.20176
 17151.5     10.69106   88.1425   88.28957   8.72855   10.28787   -16.10509
 17152     10.70634   87.41036   89.65156   8.7561   11.25219   -15.99533
 17152.5     10.72162   86.82099   90.51565   8.78366   12.2165   -15.88557
 17153     10.73689   86.33839   91.10524   8.81121   12.87794   -15.7758
 17153.5     10.75217   85.85579   92.79234   8.83876   13.33816   -15.66604
 17154     10.76745   85.40457   93.44847   8.86631   13.46529   -15.55627
 17154.5     10.78272   85.01754   89.24883   8.88865   13.00936   -15.44651
 17155     10.78864   83.99284   83.03739   8.88731   12.23365   -15.33675
 17155.5     10.75507   83.40817   78.4319   8.88597   11.45793   -15.22698
 17156     10.72149   83.28199   80.46372   8.88463   10.91974   -15.11722
 17156.5     10.68792   83.30986   84.26836   8.88329   11.14275   -15.03153
 17157     10.68058   84.2952   85.1081   8.88195   11.36575   -14.95784
 17157.5     10.70465   85.88048   85.4651   9.03399   11.49285   -14.88415
 17158     10.72871   87.65267   88.14464   9.19676   11.53945   -14.81045
 17158.5     10.75278   89.86334   99.60685   9.35953   11.78634   -14.73676
 17159     10.77685   91.9194   106.53664   9.5223   12.12106   -14.66307
 17159.5     10.79187   93.42681   111.89799   9.68507   13.01785   -14.58938
 17160     10.78176   93.26794   113.33297   9.78186   14.4711   -14.51568
 17160.5     10.77165   91.80593   107.22389   9.53988   15.92434   -14.44199
 17161     10.76153   90.3265   99.89856   9.29789   16.4992   -14.42615
 17161.5     10.75142   88.54092   93.77232   9.05591   15.52382   -14.49917
 17162     10.74131   87.85432   97.6553   8.81392   13.37293   -14.57219
 17162.5     10.732   88.63751   104.12682   8.57194   10.2158   -14.64521
 17163     10.74386   90.17033   108.6156   8.32996   8.9867   -14.71824
 17163.5     10.75573   91.27325   110.43592   8.08797   9.77336   -14.79126
 17164     10.76759   91.35238   108.91083   7.84599   10.56003   -14.86428
 17164.5     10.77945   90.30817   106.51718   7.68829   11.34669   -14.9373
 17165     10.79131   89.81079   104.66159   7.6551   11.65894   -15.01032
 17165.5     10.80318   89.73929   103.83408   7.62192   11.29547   -15.08335
 17166     10.81504   90.08528   102.7236   7.58873   10.64178   -15.15637
 17166.5     10.8269   91.86514   101.08782   7.54916   10.04803   -15.70022
 17167     10.83876   93.46811   100.78337   7.50663   9.53785   -16.24197
 17167.5     10.85063   94.6491   101.07685   7.4641   9.41828   -16.01852
 17168     10.86249   95.67006   100.368   7.42158   9.33464   -15.79507
 17168.5     10.87435   96.07987   99.17907   7.49071   9.25099   -15.57162
 17169     10.87932   95.61639   99.90622   7.69273   9.63864   -15.34817
 17169.5     10.88245   94.21013   100.44502   7.89474   10.75825   -15.16052
 17170     10.88558   93.08478   98.83265   8.09676   11.87785   -15.06355
 17170.5     10.88871   92.57602   96.00807   8.52342   12.75754   -14.96658
 17171     10.89184   92.61702   96.25103   8.97905   13.14516   -14.86961
 17171.5     10.89496   93.32343   99.61057   9.05257   13.53277   -14.77264
 17172     10.89809   94.53353   104.01423   9.05118   13.92039   -14.67568
 17172.5     10.90122   95.77841   104.1104   8.70768   13.3678   -14.57871
 17173     10.90435   96.88459   98.60955   8.35548   12.23523   -14.49682
 17173.5     10.90747   97.40959   93.71523   8.00327   11.10267   -14.50092
 17174     10.9106   96.43003   91.32766   7.65842   9.9701   -14.50501
 17174.5     10.91373   94.40979   92.73108   7.31396   9.03428   -14.50911
 17175     10.91686   92.64995   93.87551   6.9695   8.54411   -14.51321
 17175.5     10.87811   91.38897   91.73425   6.83348   8.27599   -14.51731
 17176     10.82223   91.98022   87.70797   6.84116   8.13316   -14.52141
 17176.5     10.76634   93.719   84.09991   6.84884   7.99033   -14.52551
 17177     10.71045   95.53435   84.25773   6.85652   9.17792   -14.52962
 17177.5     10.76313   97.01021   87.2834   6.8642   10.42569   -14.54306
 17178     10.80728   97.40151   90.20593   6.87187   11.37108   -14.56292
 17178.5     10.75138   96.73015   92.63832   6.89458   10.85782   -14.58279
 17179     10.69547   95.85893   95.0707   6.93246   9.69454   -14.60266
 17179.5     10.63956   95.31826   97.14752   6.97034   8.53127   -14.62253
 17180     10.60267   94.59197   97.85049   7.00821   8.44002   -14.64239
 17180.5     10.59843   94.05557   96.57594   7.04609   8.72753   -14.66226
 17181     10.5942   93.88713   94.81362   7.08396   9.09284   -14.68213
 17181.5     10.58996   94.19055   92.73178   7.2228   9.75491   -14.70199
 17182     10.58572   94.41296   90.64993   7.37203   10.41698   -14.72186
 17182.5     10.57502   94.10709   86.40142   7.52126   10.82654   -14.74173
 17183     10.55402   92.81999   82.14519   7.67049   10.71604   -14.7616
 17183.5     10.53302   92.201   79.04448   7.81973   10.60554   -14.78146
 17184     10.51202   92.24573   79.90376   7.82653   10.49504   -14.80133
 17184.5     10.49102   91.89085   81.43952   7.67403   10.38454   -14.8212
 17185     10.52405   91.6662   81.61043   7.52153   9.88484   -14.84107
 17185.5     10.637   92.11348   80.21966   7.36903   9.28675   -14.86093
 17186     10.74995   92.64231   80.43981   7.21652   8.68865   -14.8808
 17186.5     10.85431   93.01195   84.16204   7.06709   8.68101   -14.90067
 17187     10.86117   92.59498   87.25147   6.95477   9.01534   -14.92054
 17187.5     10.86804   91.80734   89.59262   6.84244   9.34967   -14.9404
 17188     10.8749   90.66335   88.15209   6.73011   9.6324   -14.96027
 17188.5     10.88177   89.2961   85.70703   6.74192   9.37987   -14.98014
 17189     10.88864   88.83453   84.25968   6.80671   8.6009   -15.01492
 17189.5     10.89507   89.44478   87.05551   6.8715   7.77422   -15.05404
 17190     10.89501   90.49042   97.77611   6.88793   7.99056   -15.09316
 17190.5     10.89495   91.8261   106.74627   6.85176   9.59484   -15.13229
 17191     10.89488   93.24655   112.05797   6.8156   11.19912   -15.17141
 17191.5     10.89482   94.01698   108.97581   6.91613   11.24414   -15.21053
 17192     10.89476   93.88661   105.35851   7.19397   10.08603   -15.24965
 17192.5     10.90376   95.59652   106.18767   7.47181   8.92793   -15.28877
 17193     10.9141   99.20646   119.45978   7.70599   8.56546   -15.32789
 17193.5     10.92443   101.27071   128.03369   7.76438   9.22844   -15.36702
 17194     10.93477   103.48947   132.10353   7.82278   10.49908   -15.40614
 17194.5     10.94511   102.39837   130.47913   7.96959   11.76973   -15.44526
 17195     10.95544   99.86841   123.63567   8.62337   13.04037   -15.48438
 17195.5     10.95693   97.71431   118.82173   9.27715   13.48716   -15.5235
