#--------------------------------------------------#
#-------------------ENVERUS, INC.------------------#
#------------------WWW.ENVERUS.COM-----------------#
#------------------COPYRIGHT 2020------------------#
#--------------------------------------------------#
#THIS FILE MAY BE USED ONLY IN ACCORDANCE WITH A CURRENT SUBSCRIPTION AGREEMENT BETWEEN
#THE USER AND ENVERUS, INC. NO PART OF THIS FILE MAY BE REPRODUCED, USED, COPIED,
#MODIFIED, PROPAGATED, OR DISTRIBUTED EXCEPT IN ACCORDANCE WITH THE SUBSCRIPTION
#AGREEMENT. UNAUTHORIZED USE OR DISTRIBUTION OF ALL OR ANY PART OF THIS FILE MAY VIOLATE
#COPYRIGHT, TRADEMARK, AND/OR OTHER LAWS AND IS SUBJECT TO CIVIL AS WELL AS CRIMINAL
#SANCTIONS.
#--------------------------------------------------#
#THIS FILE IS PROVIDED "AS-IS" AND ALL WARRANTIES ARE EXPRESSLY DISCLAIMED, WHETHER
#EXPRESS, ORAL, IMPLIED, STATUTORY OR OTHERWISE, INCLUDING ANY IMPLIED WARRANTY OF FITNESS
#FOR A PARTICULAR PURPOSE, MERCHANTABILITY, TITLE OR NON-INFRINGEMENT, AND ANY WARRANTIES
#ARISING BY VIRTUE OF CUSTOM OF TRADE OR COURSE OF DEALING.  FURTHER, ENVERUS, INC.
#AND ITS LICENSORS DO NOT REPRESENT OR WARRANT THAT THIS FILE WILL MEET USER'S
#REQUIREMENTS OR ARE SUITABLE FOR USER'S NEEDS OR THAT THE DATA OR RESULTS PROVIDED IN
#CONJUNCTION THEREWITH ARE CORRECT, ACCURATE, TIMELY OR RELIABLE. THESE DISCLAIMERS SHALL
#APPLY REGARDLESS OF ANY FAILURE OF ESSENTIAL PURPOSE OF ANY LIMITED REMEDY.  SOME
#JURISDICTIONS DO NOT ALLOW THE EXCLUSION OF CERTAIN WARRANTIES SO SOME OF THE ABOVE
#EXCLUSIONS MAY NOT APPLY. IN NO EVENT SHALL ENVERUS, INC. OR ANY OF ITS AFFILIATES
#BE LIABLE UNDER ANY LEGAL THEORY, WHETHER IN TORT (INCLUDING WITHOUT LIMITATION
#NEGLIGENCE), CONTRACT, STRICT LIABILITY, STATUTORY OR OTHERWISE, FOR ANY SPECIAL,
#INCIDENTAL, CONSEQUENTIAL, EXEMPLARY, PUNITIVE OR INDIRECT DAMAGE OF ANY KIND, INCLUDING
#WITHOUT LIMITATION LOSS OF REVENUE, PROFITS, GOODWILL, USE, AND/OR DATA OR THE COST OF
#PROCUREMENT OF SUBSTITUTE GOODS OR SERVICES, EVEN IF APPRISED OF THE POSSIBILITY OF SUCH
#DAMAGES IN ADVANCE.
#--------------------------------------------------#

~VERSION INFORMATION
VERS. 2.0 : CWLS LOG ASCII STANDARD - VERSION 2.0
WRAP.  NO : ONE LINE PER DEPTH STEP
~WELL INFORMATION
#MNEMONIC     .UNIT              VALUE :DESCRIPTION
STRT       .FT                101 :START DEPTH
STOP       .FT                5444 :STOP DEPTH
STEP       .FT                   0.500 :STEP
NULL       .                  -999.99 :NULL
UWI        .                42389004350000 :UNIQUE WELL ID
API        .                42389004350000 :API NUMBER
COMP       .         :COMPANY
WELL       .        :WELL
DATE       .                 :LOG DATE
FLD       .                 :FIELD NAME
LOC       .                  UNK :LOCATION
CNTY       .                 UNK :COUNTY
STAT       .                 UNK :STATE
CTRY       .                 UNK :COUNTY
SRVC       .                 UNK :SERVICE COMPANY
~CURVE INFORMATION
#MNEMONIC     .UNIT      API CODE :CURVE DESCRIPTION
DEPTH       .FT                      :MEASURED DEPTH
DT.MSEC/FT        UNKNOWN   :DT
GR.API        UNKNOWN   :GR
~A    DEPTH    DT    GR
# ...
 4016     67.66463   3.22434
 4016.5     67.74437   2.9573
 4017     68.33417   2.69026
 4017.5     68.92398   2.42322
 4018     69.51378   2.15618
 4018.5     70.10359   1.88914
 4019     70.69339   2.25352
 4019.5     70.41416   3.33589
 4020     65.15152   3.44111
 4020.5     59.88887   3.39378
 4021     54.62623   3.34645
 4021.5     49.36359   3.29911
 4022     48.52678   3.25178
 4022.5     49.23089   3.20444
 4023     49.93501   3.17307
 4023.5     50.63912   3.63573
 4024     51.07558   4.09838
 4024.5     51.2419   4.56104
 4025     51.40821   5.0237
 4025.5     51.57453   6.34235
 4026     51.48984   10.03203
 4026.5     50.77157   11.0007
 4027     50.0533   10.13096
 4027.5     49.33503   9.26122
 4028     48.61676   8.39148
 4028.5     48.40804   7.52173
 4029     48.54123   6.65199
 4029.5     48.67442   5.78225
 4030     48.80762   5.28516
 4030.5     48.94081   5.55992
 4031     48.94904   5.83469
 4031.5     48.70693   6.10946
 4032     48.46482   6.38423
 4032.5     48.22271   6.65899
 4033     48.22257   6.93376
 4033.5     48.34372   6.78592
 4034     48.46488   6.14098
 4034.5     48.58603   5.49603
 4035     48.70719   4.85109
 4035.5     48.82834   4.42803
 4036     48.9495   4.54675
 4036.5     49.07065   4.66546
 4037     49.19181   4.78418
 4037.5     49.2532   4.90289
 4038     49.05976   5.02984
 4038.5     48.86632   5.54322
 4039     48.67288   6.05659
 4039.5     48.47944   6.56996
 4040     48.286   7.08334
 4040.5     48.47602   7.59671
 4041     48.68744   7.94936
 4041.5     48.89886   7.62156
 4042     49.11027   7.29375
 4042.5     49.06435   6.96595
 4043     48.92353   6.63814
 4043.5     48.78271   6.31034
 4044     48.64189   5.98253
 4044.5     48.50107   6.22287
 4045     48.36025   6.52042
 4045.5     48.35497   6.42108
 4046     48.52569   6.21932
 4046.5     48.69641   6.01757
 4047     48.86713   5.81582
 4047.5     49.03785   5.66656
 4048     49.20857   6.17185
 4048.5     49.37929   6.67715
 4049     49.55001   7.18244
 4049.5     49.72073   7.68774
 4050     49.69398   8.19303
 4050.5     49.4519   7.75019
 4051     49.20981   7.03245
 4051.5     48.96773   6.31471
 4052     48.72564   5.59696
 4052.5     48.48356   4.87922
 4053     48.24148   4.21457
 4053.5     48.06642   4.61121
 4054     48.29074   5.00785
 4054.5     48.51505   5.40449
 4055     48.73937   4.92517
 4055.5     48.80263   4.31851
 4056     48.67192   3.71185
 4056.5     48.54121   4.09883
 4057     48.4105   4.82639
 4057.5     48.27979   5.55396
 4058     48.14908   6.28153
 4058.5     48.08153   7.00909
 4059     48.35294   7.73666
 4059.5     48.62435   7.52834
 4060     48.89575   7.21141
 4060.5     49.16716   6.89448
 4061     49.05104   6.57755
 4061.5     48.90839   6.26061
 4062     48.76574   5.94368
 4062.5     48.6231   5.62675
 4063     48.48045   5.30982
 4063.5     48.3776   4.99289
 4064     48.47579   4.67595
 4064.5     48.57397   4.35902
 4065     48.67216   5.04559
 4065.5     48.77035   5.84527
 4066     48.86854   6.64494
 4066.5     48.96673   7.44462
 4067     49.06492   8.24429
 4067.5     49.16311   8.72559
 4068     49.2613   8.97353
 4068.5     49.35949   9.22147
 4069     49.39784   8.82011
 4069.5     48.96064   7.48123
 4070     48.52343   6.14235
 4070.5     48.08622   4.80347
 4071     47.64901   3.97548
 4071.5     47.2118   4.46375
 4072     47.46078   4.95203
 4072.5     47.79813   5.44031
 4073     48.13548   5.92858
 4073.5     48.47283   6.41686
 4074     48.81018   6.90514
 4074.5     49.14753   7.39341
 4075     49.48488   7.36521
 4075.5     49.82223   7.25481
 4076     49.60067   7.1444
 4076.5     49.35859   7.034
 4077     49.11652   6.92359
 4077.5     48.87444   6.8331
 4078     49.099   6.9567
 4078.5     49.46029   7.0803
 4079     49.82159   7.2039
 4079.5     50.18289   7.3275
 4080     50.2261   7.4511
 4080.5     50.00617   7.5747
 4081     49.78625   7.43549
 4081.5     49.56632   7.21365
 4082     49.3464   6.99182
 4082.5     49.12647   6.76998
 4083     48.90655   6.54814
 4083.5     48.68662   6.32631
 4084     48.46669   6.10447
 4084.5     48.24677   5.88263
 4085     48.02684   6.15848
 4085.5     47.81409   6.49316
 4086     48.01947   6.82783
 4086.5     48.22485   7.1625
 4087     48.43024   7.49718
 4087.5     48.63562   7.83185
 4088     48.841   8.16652
 4088.5     48.7476   8.5012
 4089     48.55233   7.98682
 4089.5     48.35706   6.37429
 4090     48.16179   5.51057
 4090.5     47.96653   5.87173
 4091     47.77126   6.23288
 4091.5     47.57599   6.59403
 4092     47.7588   6.95518
 4092.5     47.97017   7.31634
 4093     48.18154   7.67749
 4093.5     48.39291   8.03864
 4094     48.60429   7.45621
 4094.5     48.81566   6.85
 4095     49.02703   6.24378
 4095.5     49.2384   5.63757
 4096     49.44977   6.03751
 4096.5     49.66115   6.68472
 4097     49.73519   7.33192
 4097.5     49.59036   7.97913
 4098     49.44553   8.62634
 4098.5     49.3007   9.27354
 4099     49.15587   7.21527
 4099.5     49.04924   5.05057
 4100     49.17965   5.212
 4100.5     49.31005   5.5755
 4101     49.44046   5.93899
 4101.5     49.57086   6.30249
 4102     49.70127   6.66598
 4102.5     49.83167   7.02948
 4103     49.85838   7.39297
 4103.5     49.63371   7.75647
 4104     49.40904   8.11997
 4104.5     49.18436   8.03311
 4105     48.95969   7.27413
 4105.5     48.73502   6.51515
 4106     48.51035   5.75617
 4106.5     48.28568   5.11569
 4107     48.36708   4.85656
 4107.5     48.46285   4.59743
 4108     48.55862   4.33829
 4108.5     48.6544   4.52705
 4109     48.75017   5.05744
 4109.5     48.84594   5.58783
 4110     48.94172   6.11821
 4110.5     49.03749   6.6486
 4111     49.13326   7.17899
 4111.5     49.22904   7.70937
 4112     49.00259   8.09334
 4112.5     48.76057   7.62567
 4113     48.51855   7.158
 4113.5     48.27653   6.69033
 4114     48.03451   6.22266
 4114.5     47.79249   5.75499
 4115     47.83487   5.73232
 4115.5     48.01971   6.3847
 4116     48.20454   7.03707
 4116.5     48.38938   6.88743
 4117     48.57422   6.45892
 4117.5     48.75906   6.03042
 4118     48.9439   5.60191
 4118.5     49.12874   5.17341
 4119     49.31358   4.74491
 4119.5     48.72054   4.09097
 4120     47.80297   3.17869
 4120.5     46.82052   2.82038
 4121     46.01497   3.33522
 4121.5     47.89897   3.85007
 4122     48.901   4.36491
 4122.5     48.84653   4.87976
 4123     48.79206   5.3946
 4123.5     48.73758   5.90945
 4124     48.68311   6.42429
 4124.5     48.62863   7.13486
 4125     48.71995   8.09497
 4125.5     48.88121   8.40588
 4126     49.04246   7.24693
 4126.5     49.20372   6.08798
 4127     49.36497   6.31854
 4127.5     49.25054   7.09584
 4128     49.1165   7.87313
 4128.5     48.98246   8.65043
 4129     48.84842   7.92075
 4129.5     48.79352   5.43811
 4130     49.03494   4.00286
 4130.5     49.27636   3.96708
 4131     49.5019   3.93129
 4131.5     49.40155   3.89551
 4132     49.30119   3.85973
 4132.5     49.20083   3.82394
 4133     49.10047   3.78816
 4133.5     49.00011   3.75238
 4134     48.89975   3.71659
 4134.5     48.96471   3.68081
 4135     49.08583   3.64503
 4135.5     49.20696   3.60924
 4136     49.32809   3.57346
 4136.5     49.44922   3.53768
 4137     49.57034   3.6936
 4137.5     49.69147   3.91161
 4138     49.8126   4.12961
 4138.5     49.93373   4.34761
 4139     49.86883   4.56562
 4139.5     49.7554   4.78362
 4140     49.64198   5.00162
 4140.5     49.52855   5.21963
 4141     49.41512   4.98128
 4141.5     49.30169   4.65586
 4142     49.18827   4.33044
 4142.5     49.07484   4.00502
 4143     48.96141   3.6796
 4143.5     49.07524   3.35418
 4144     49.22311   3.04732
 4144.5     49.37098   3.34464
 4145     49.51885   3.64196
 4145.5     49.62196   3.93928
 4146     49.42049   4.02666
 4146.5     49.21902   3.69093
 4147     49.01755   3.35521
 4147.5     48.81608   3.01949
 4148     48.81704   2.68376
 4148.5     49.10979   3.03112
 4149     49.40254   3.80121
 4149.5     49.69529   4.57131
 4150     49.58017   4.07003
