~VERSION INFORMATION
 VERS.                2.0:   CWLS LOG ASCII STANDARD - VERSION 2.0
 WRAP.                 NO:   ONE LINE PER DEPTH STEP
~WELL INFORMATION
#MNEM.UNIT      DATA TYPE    INFORMATION
#----------   ------------   ------------------------------
 STRT.FT          50.0000:   START DEPTH
 STOP.FT        5375.0000:   STOP DEPTH
 STEP.FT           0.5000:   STEP LENGTH
 NULL.          -999.2500:   NULL VALUE
 COMP.  A.N. NORWOOD, INC:   COMPANY
 WELL.        MCINTYRE #1:   WELL
 FLD .  ROJO CABALLOS, S.:   FIELD
 LOC .                   :   LOCATION
 CNTY.              PECOS:   COUNTY
 STAT.              TEXAS:   STATE
 CTRY. UNITED STATES OF AMERICA:   COUNTRY
 SRVC.              Welex:   SERVICE COMPANY
 DATE.        06-May-1983:   LOGDATE
 API .     42371342980000:   API NUMBER
~CURVE INFORMATION
#MNEM.UNIT       API CODE    CURVE DESCRIPTION
#----------   ------------   ------------------------------
 DEPT.F      0   1   0  0:   1 MEASURED DEPTH
 GRD .GAPI   45 310 01 00:   GAMMA RAY FROM DENSITY LOG
 NPOR_LS.DEC 42 890 01 00:   NEUTRON POROSITY LIMESTONE
 CALD.IN     45 280 60 00:   CALIPER FROM DENSITY LOG
 CORR.G/C3   45 356 01 00:   DENSITY CORRECTION
 RHOB.G/C3   45 350 01 00:   BULK DENSITY
 DPOR_LS.DEC 45 890 10 00:   DENSITY POROSITY LIMESTONE
 DT  .US/F   60 500 00 00:   DELTA-T (INTERVAL TRANSIT TIME)
 SPR .MV     07 010 01 00:   SPONTANEOUS POTENTIAL FROM RESISTIVITY LOG
 ILD .OHMM   07 120 46 00:   INDUCTION DEEP RESISTIVITY
 ILM .OHMM   07 120 44 00:   INDUCTION MEDIUM RESISTIVITY
~PARAMETER INFORMATION
#MNEM.UNIT          VALUE    DESCRIPTION
#----------   ------------   ------------------------------
 PD  .                 GL:   PERMANENT DATUM
 EPD .FT             2768:   ELEVATION PERMANENT DATUM
 LMF .                 KB:   LOG MEASURED FROM
 DAPD.FT               10:   FEET ABOVE PERMANENT DATUM
 DMF .                 KB:   DRILLING MEASURED FROM
 EKB .FT             2778:   KELLY BUSHING
 EDF .FT             2777:   DRILLING FLOOR
 EGL .FT             2768:   GROUND LEVEL
 DATE.           05/06/83:   RUN DATE
 RUN .                  1:   RUN NUMBER
 DD  .FT             5380:   DEPTH DRILLER
 DL  .FT             5377:   DEPTH LOGGER
 BLI .FT             5375:   BOTTOM LOG INTERVAL
 TLI .FT               50:   TOP LOG INTERVAL
 CS  .IN            8.625:   CASING SIZE
 CBD .FT             1596:   CASING BOTTOM DRILLER
 CBL .FT             1613:   CASING BOTTOM LOGGER
 BS  .IN             7.75:   BIT SIZE
 BSD .FT             5380:   BIT SIZE AT DEPTH
 DFT .           SALT GEL:   DRILLING FLUID TYPE
 DFD .               10.2:   DRILLING FLUID DENSITY
 DFV .                 33:   DRILLING FLUID VISCOSITY
 DFPH.                9.5:   DRILLING FLUID PH
 DFL .                 18:   DRILLING FLUID LOSS
 MSS .               CIRC:   MUD SAMPLE SOURCE
 RMS .OHMM           0.09:   RESISTIVITY MUD SAMPLE
 MST .DEGF             72:   MUD SAMPLE TEMPERATURE
 RMF .OHMM           0.08:   RESISTIVITY MUD FILTRATE SAMPLE
 MFST.DEGF             72:   MUD FILTRATE SAMPLE TEMPERATURE
 MFSS.               MEAS:   MUD FILTRATE SAMPLE SOURCE
 MCSS.               MEAS:   MUD CAKE SAMPLE SOURCE
 RMB .OHMM          0.059:   RESISTIVITY MUD AT BHT
 BHT .DEGF            112:   BOTTOM HOLE TEMPERATURE
 TCS .HRS               4:   TIME CIRCULATED STOPPED
 MRT .DEGF            112:   MAXIMUM RECORDED TEMPERATURE
 LUN .               3415:   LOGGING UNIT NUMBER
 LUL .             ODESSA:   LOGGING UNIT LOCATION
 ENGI.             LAWSON:   RECORDING ENGINEER
 WITN.            NORWOOD:   WITNESSED BY
 ORIG.      1" 2.5" PRINT:   ORIGIN OF DATA
 UWI .     42371342980000:   UNIQUE WELL ID
~OTHER INFORMATION
~A    DEPT        GRD      NPOR_LS      CALD        CORR        RHOB       DPOR_LS        DT         SPR         ILD         ILM    
# ...
  4076.0000      2.9495     -0.0147     10.9861     -0.0138      2.0281      0.3910     67.4034     -3.0333     36.0578      7.2635 
  4076.5000      2.4607     -0.0147     10.9824     -0.0208      2.0113      0.4171     67.1887     -3.0008     22.4819      6.5892 
  4077.0000      2.3127     -0.0148     10.9771     -0.0245      1.9854      0.4244     66.4307     -2.9683     21.7207      6.2937 
  4077.5000      2.2077     -0.0142     10.9206      0.0042      1.9892      0.4242     64.6011     -2.9535     21.7935      6.2908 
  4078.0000      2.4843     -0.0120     10.6760      0.0259      2.0013      0.3712     60.5925     -2.9828     22.4932      6.9291 
  4078.5000      2.8108     -0.0099     10.4474      0.0402      2.0134      0.3212     56.5080     -3.0016     31.9918      7.9541 
  4079.0000      3.1730     -0.0078     10.2478      0.0470      2.1182      0.2713     52.1351     -3.0040     45.1691     11.3388 
  4079.5000      3.8180     -0.0073      9.9950      0.0471      2.3885      0.2242     50.8989     -3.1193     63.7741     17.5566 
  4080.0000      5.0617     -0.0075      9.8003      0.0471      2.8346      0.1349     50.3956     -3.2824    100.3336     33.4831 
  4080.5000      6.3053     -0.0080      9.6872      0.0459      2.8314     -0.0345     50.0562     -3.3854    158.6018     39.8512 
  4081.0000      7.6513     -0.0081      9.6317      0.0379      2.8188     -0.0743     49.9564     -3.2206    276.5255     39.7542 
  4081.5000     11.1766     -0.0079      9.5914      0.0300      2.8068     -0.0696     49.8807     -2.7803    664.0631     20.4514 
  4082.0000     12.9101     -0.0078      9.5592      0.0220      2.7948     -0.0522     49.7806     -2.7188   1594.7163     14.7854 
  4082.5000     12.9101     -0.0076      9.5408      0.0140      2.7866     -0.0476     49.6675     -3.2162   1977.3876     13.4408 
  4083.0000     12.5079     -0.0076      9.5155      0.0003      2.7857     -0.0351     49.6391     -3.7341   1989.6661     12.8716 
  4083.5000     10.6536     -0.0080      9.4953     -0.0101      2.7908     -0.0338     49.6791     -3.7740   1989.6661     12.3436 
  4084.0000      8.8507     -0.0088      9.4823     -0.0069      2.8440     -0.0588     49.8113     -3.8320   1985.6451     11.9497 
  4084.5000      8.2069     -0.0097      9.4741     -0.0007      2.8828     -0.0886     50.0638     -3.7516   1970.3549     11.6774 
  4085.0000      8.1393     -0.0102      9.4627      0.0055      2.9104     -0.0976     50.1226     -3.8131   1955.1814     11.9730 
  4085.5000      8.1670     -0.0103      9.4532      0.0115      2.9154     -0.0985     50.1937     -3.8555   1936.6769     12.2761 
  4086.0000      8.1946     -0.0103      9.4537      0.0174      2.9040     -0.0995     50.3160     -3.8677   1907.1215     13.0036 
  4086.5000      8.2222     -0.0101      9.4543      0.0180      2.8817     -0.0996     50.3952     -3.8720   1293.1262     13.7312 
  4087.0000      8.2499     -0.0102      9.4481      0.0125      2.8617     -0.0996     50.2793     -3.8761    806.4653     13.8428 
  4087.5000      8.2946     -0.0103      9.4403      0.0071      2.8558     -0.0946     50.1460     -3.9268    502.9568     13.9316 
  4088.0000      8.2623     -0.0103      9.4387     -0.0092      2.8499     -0.0794     49.9313     -4.1062    459.9735     13.9197 
  4088.5000      8.2182     -0.0103      9.4372     -0.0112      2.8460     -0.0775     49.9626     -4.1183    459.9735     13.9357 
  4089.0000      8.1897     -0.0104      9.4356     -0.0017      2.8433     -0.0811     50.1331     -4.2299    468.3056     14.2618 
  4089.5000      8.0774     -0.0107      9.4341      0.0078      2.8428     -0.0851     50.3036     -4.3054    506.5110     15.3207 
  4090.0000      8.0126     -0.0106      9.4140      0.0130      2.8503     -0.0887     50.3679     -4.3808    560.1528     17.3694 
  4090.5000      7.8528     -0.0105      9.3926      0.0126      2.8601     -0.0899     50.4032     -4.6166    610.8823     18.8706 
  4091.0000      7.4636     -0.0106      9.3671      0.0070      2.8563     -0.0890     50.4032     -4.9252    618.7617     22.9723 
  4091.5000      7.1800     -0.0104      9.3393     -0.0147      2.8366     -0.0809     50.4032     -5.1413    605.8799     24.5917 
  4092.0000      7.2124     -0.0100      9.3241     -0.0209      2.8269     -0.0663     50.3198     -5.2314    518.2002     25.3269 
  4092.5000      7.2133     -0.0097      9.3464     -0.0188      2.8354     -0.0647     50.1866     -5.3215    443.2093     25.7232 
  4093.0000      7.1041     -0.0096      9.3332     -0.0067      2.8622     -0.0770     50.0827     -5.4116    412.6843     25.4955 
  4093.5000      6.9090     -0.0098      9.3019      0.0106      2.8890     -0.0900     49.9327     -5.5569    445.9895     25.2697 
  4094.0000      6.8656     -0.0096      9.2748      0.0279      2.9070     -0.0965     49.9619     -5.9121    516.0078     25.2951 
  4094.5000      7.0558     -0.0094      9.2837      0.0453      2.9103     -0.0978     50.0396     -6.1278    536.3875     25.3595 
  4095.0000      7.4057     -0.0094      9.2840      0.0531      2.9096     -0.0988     50.1447     -6.2081    463.9455     25.4241 
  4095.5000      7.2958     -0.0094      9.2834      0.0571      2.9084     -0.0998     50.1571     -6.4582    389.8325     25.5478 
  4096.0000      6.9987     -0.0094      9.2741      0.0574      2.8988     -0.0993     50.1140     -6.7083    336.0840     25.5947 
  4096.5000      6.5235     -0.0094      9.2709      0.0539      2.8789     -0.0970     50.0509     -6.7007    289.7459     25.5093 
  4097.0000      6.1099     -0.0093      9.2720      0.0499      2.8591     -0.0844     49.8956     -6.8235    274.7506     25.4391 
  4097.5000      5.8864     -0.0093      9.2769      0.0363      2.8527     -0.0782     49.7408     -7.0300    297.7597     25.7285 
  4098.0000      6.2477     -0.0093      9.2755      0.0221      2.8585     -0.0774     49.6811     -7.1746    346.5147     26.1121 
  4098.5000      7.0133     -0.0093      9.2691      0.0234      2.8857     -0.0885     49.6200     -7.3037    404.3380     26.7348 
  4099.0000      7.7864     -0.0093      9.2705      0.0278      2.9129     -0.0959     49.6725     -7.4327    450.5011     27.1629 
  4099.5000      8.5594     -0.0093      9.2790      0.0459      2.9401     -0.0974     49.7276     -7.6141    474.4807     28.1526 
  4100.0000      9.2754     -0.0094      9.2607      0.0606      2.9673     -0.0978     49.8086     -7.8527    507.0179     28.0135 
  4100.5000      9.8107     -0.0094      9.2661      0.0606      2.9729     -0.0982     49.8847     -8.0912    594.9818     26.8402 
  4101.0000      9.5126     -0.0094      9.2715      0.0571      2.9616     -0.0986     49.9683     -8.2313    732.9062     25.9879 
  4101.5000      8.0465     -0.0091      9.2964      0.0356      2.9241     -0.0990     50.1859     -8.2725    925.5811     25.7941 
  4102.0000      6.8215     -0.0089      9.3176      0.0249      2.8866     -0.0983     50.3350     -8.4069   1018.4659     25.6689 
  4102.5000      5.5966     -0.0090      9.3387      0.0187      2.8611     -0.0845     50.4032     -8.5299    939.6368     25.4409 
  4103.0000      5.1247     -0.0091      9.3596      0.0125      2.8407     -0.0741     50.4032     -8.5753    679.5852     25.3079 
  4103.5000      5.4449     -0.0092      9.3804      0.0064      2.8244     -0.0667     50.4032     -8.6070    474.9537     25.3101 
  4104.0000      6.3681     -0.0091      9.3990      0.0002      2.8218     -0.0586     50.3030     -8.6387    308.3333     25.3124 
  4104.5000      6.3581     -0.0091      9.4081     -0.0026      2.8206     -0.0620     50.2142     -8.5675    232.1129     25.3547 
  4105.0000      6.4756     -0.0091      9.4171     -0.0049      2.8235     -0.0659     50.1495     -8.5310    217.6976     25.7174 
  4105.5000      6.7142     -0.0093      9.4243     -0.0045      2.8524     -0.0771     50.1076     -8.5704    204.1777     26.0106 
  4106.0000      6.9529     -0.0095      9.4275     -0.0012      2.8775     -0.0924     50.2020     -8.6099    196.0675     27.0197 
