#--------------------------------------------------#
#-------------------ENVERUS, INC.------------------#
#------------------WWW.ENVERUS.COM-----------------#
#------------------COPYRIGHT 2020------------------#
#--------------------------------------------------#
#THIS FILE MAY BE USED ONLY IN ACCORDANCE WITH A CURRENT SUBSCRIPTION AGREEMENT BETWEEN
#THE USER AND ENVERUS, INC. NO PART OF THIS FILE MAY BE REPRODUCED, USED, COPIED,
#MODIFIED, PROPAGATED, OR DISTRIBUTED EXCEPT IN ACCORDANCE WITH THE SUBSCRIPTION
#AGREEMENT. UNAUTHORIZED USE OR DISTRIBUTION OF ALL OR ANY PART OF THIS FILE MAY VIOLATE
#COPYRIGHT, TRADEMARK, AND/OR OTHER LAWS AND IS SUBJECT TO CIVIL AS WELL AS CRIMINAL
#SANCTIONS.
#--------------------------------------------------#
#THIS FILE IS PROVIDED "AS-IS" AND ALL WARRANTIES ARE EXPRESSLY DISCLAIMED, WHETHER
#EXPRESS, ORAL, IMPLIED, STATUTORY OR OTHERWISE, INCLUDING ANY IMPLIED WARRANTY OF FITNESS
#FOR A PARTICULAR PURPOSE, MERCHANTABILITY, TITLE OR NON-INFRINGEMENT, AND ANY WARRANTIES
#ARISING BY VIRTUE OF CUSTOM OF TRADE OR COURSE OF DEALING.  FURTHER, ENVERUS, INC.
#AND ITS LICENSORS DO NOT REPRESENT OR WARRANT THAT THIS FILE WILL MEET USER'S
#REQUIREMENTS OR ARE SUITABLE FOR USER'S NEEDS OR THAT THE DATA OR RESULTS PROVIDED IN
#CONJUNCTION THEREWITH ARE CORRECT, ACCURATE, TIMELY OR RELIABLE. THESE DISCLAIMERS SHALL
#APPLY REGARDLESS OF ANY FAILURE OF ESSENTIAL PURPOSE OF ANY LIMITED REMEDY.  SOME
#JURISDICTIONS DO NOT ALLOW THE EXCLUSION OF CERTAIN WARRANTIES SO SOME OF THE ABOVE
#EXCLUSIONS MAY NOT APPLY. IN NO EVENT SHALL ENVERUS, INC. OR ANY OF ITS AFFILIATES
#BE LIABLE UNDER ANY LEGAL THEORY, WHETHER IN TORT (INCLUDING WITHOUT LIMITATION
#NEGLIGENCE), CONTRACT, STRICT LIABILITY, STATUTORY OR OTHERWISE, FOR ANY SPECIAL,
#INCIDENTAL, CONSEQUENTIAL, EXEMPLARY, PUNITIVE OR INDIRECT DAMAGE OF ANY KIND, INCLUDING
#WITHOUT LIMITATION LOSS OF REVENUE, PROFITS, GOODWILL, USE, AND/OR DATA OR THE COST OF
#PROCUREMENT OF SUBSTITUTE GOODS OR SERVICES, EVEN IF APPRISED OF THE POSSIBILITY OF SUCH
#DAMAGES IN ADVANCE.
#--------------------------------------------------#

~VERSION INFORMATION
VERS. 2.0 : CWLS LOG ASCII STANDARD - VERSION 2.0
WRAP.  NO : ONE LINE PER DEPTH STEP
~WELL INFORMATION
#MNEMONIC     .UNIT              VALUE :DESCRIPTION
STRT       .FT                86 :START DEPTH
STOP       .FT                5215 :STOP DEPTH
STEP       .FT                   0.500 :STEP
NULL       .                  -999.990 :NULL
UWI        .              42389101440000 :UNIQUE WELL ID
API        .              42389101440000 :API NUMBER
COMP       .         :COMPANY
WELL       .         1, :WELL
DATE       .                            :LOG DATE
~CURVE INFORMATION
#MNEMONIC     .UNIT      API CODE :CURVE DESCRIPTION
DEPTH       .FT                      :MEASURED DEPTH
DT.US/FT        UNKNOWN   :DT
GR.API        UNKNOWN   :GR
~A    DEPTH    DT    GR
# ...
 3658     50.246   7.509
 3658.5     50.002   6.986
 3659     49.758   6.464
 3659.5     49.513   5.963
 3660     49.269   6.774
 3660.5     49.26   7.585
 3661     49.722   8.396
 3661.5     50.185   9.207
 3662     50.647   8.908
 3662.5     50.226   8.309
 3663     49.797   7.71
 3663.5     49.507   7.11
 3664     49.816   7.697
 3664.5     50.125   8.305
 3665     50.435   8.912
 3665.5     50.489   9.52
 3666     50.5   10.127
 3666.5     50.512   10.734
 3667     50.524   11.163
 3667.5     50.507   11.315
 3668     50.3   11.467
 3668.5     50.094   11.619
 3669     49.887   11.401
 3669.5     49.681   10.948
 3670     49.475   10.495
 3670.5     49.289   10.041
 3671     49.816   9.588
 3671.5     50.343   9.135
 3672     50.087   8.682
 3672.5     49.712   9.147
 3673     50.333   10.573
 3673.5     50.954   11.999
 3674     50.588   13.424
 3674.5     50.047   14.85
 3675     49.338   12.103
 3675.5     48.471   8.4
 3676     46.024   8.273
 3676.5     42.796   8.723
 3677     44.525   9.173
 3677.5     46.72   9.622
 3678     48.916   10.072
 3678.5     51.112   10.522
 3679     54.748   10.971
 3679.5     60.286   11.421
 3680     65.825   11.56
 3680.5     76.576   11.183
 3681     72.776   10.807
 3681.5     68.976   10.431
 3682     64.564   10.054
 3682.5     60.026   9.678
 3683     55.487   9.301
 3683.5     51.046   8.925
 3684     51.158   9.131
 3684.5     51.271   10.645
 3685     51.384   12.158
 3685.5     51.496   13.564
 3686     51.609   12.173
 3686.5     51.722   10.783
 3687     51.834   9.392
 3687.5     51.647   8.384
 3688     51.434   8.829
 3688.5     51.22   9.274
 3689     51.007   9.719
 3689.5     50.793   10.164
 3690     50.694   9.8
 3690.5     50.881   8.606
 3691     51.069   7.569
 3691.5     51.256   7.873
 3692     51.437   8.416
 3692.5     51.214   9.818
 3693     50.99   11.221
 3693.5     50.766   12.623
 3694     50.543   13.996
 3694.5     50.319   11.761
 3695     49.584   9.343
 3695.5     48.018   10.445
 3696     46.452   11.548
 3696.5     44.886   12.65
 3697     44.964   11.774
 3697.5     49.12   10.384
 3698     53.276   11.578
 3698.5     57.432   13.127
 3699     61.589   12.723
 3699.5     67.542   10.681
 3700     75.045   8.64
 3700.5     52.579   8.469
 3701     71.729   9.28
 3701.5     71.556   10.091
 3702     71.384   10.342
 3702.5     71.211   9.623
 3703     71.038   8.905
 3703.5     70.866   9.896
 3704     71.012   10.911
 3704.5     71.22   11.926
 3705     71.428   12.941
 3705.5     71.636   13.305
 3706     71.843   12.111
 3706.5     71.559   10.918
 3707     70.964   10.873
 3707.5     70.368   12.299
 3708     70.585   11.105
 3708.5     70.974   9.912
 3709     70.813   10.09
 3709.5     70.602   11.054
 3710     70.39   12.018
 3710.5     70.178   12.982
 3711     69.966   11.47
 3711.5     69.754   9.624
 3712     69.542   7.777
 3712.5     69.33   8.716
 3713     69.118   9.663
 3713.5     69.268   10.205
 3714     69.421   8.913
 3714.5     69.573   8.135
 3715     69.726   8.761
 3715.5     69.879   9.386
 3716     70.031   10.012
 3716.5     70.184   10.638
 3717     70.096   11.125
 3717.5     69.974   10.214
 3718     69.852   9.303
 3718.5     69.73   8.392
 3719     69.609   9.706
 3719.5     69.487   11.752
 3720     69.365   10.502
 3720.5     69.243   8.85
 3721     69.368   7.229
 3721.5     69.529   7.931
 3722     69.689   8.634
 3722.5     69.85   9.336
 3723     70.011   10.038
 3723.5     70.111   10.74
 3724     69.934   11.442
 3724.5     69.758   12.144
 3725     69.582   11.697
 3725.5     69.406   11.197
 3726     69.595   10.697
 3726.5     69.803   10.198
 3727     70.01   9.698
 3727.5     70.218   9.498
 3728     70.426   10.174
 3728.5     70.395   10.849
 3729     70.274   10.93
 3729.5     70.152   10.231
 3730     70.03   9.533
 3730.5     69.908   8.834
 3731     69.786   9.051
 3731.5     69.665   9.816
 3732     69.543   10.582
 3732.5     69.421   11.347
 3733     69.02   11.513
 3733.5     68.54   10.755
 3734     68.06   9.997
 3734.5     67.581   9.238
 3735     67.101   8.48
 3735.5     66.621   8.341
 3736     66.141   8.562
 3736.5     65.662   8.782
 3737     65.182   9.003
 3737.5     64.702   9.224
 3738     67.07   9.88
 3738.5     69.454   11.1
 3739     71.838   12.32
 3739.5     74.222   12.007
 3740     70.985   10.778
 3740.5     67.376   9.549
 3741     63.768   8.32
 3741.5     57.252   7.091
 3742     51.231   6.66
 3742.5     50.739   7.606
 3743     50.248   8.553
 3743.5     49.757   9.5
 3744     49.981   10.446
 3744.5     53.218   11.393
 3745     56.455   11.019
 3745.5     59.691   10.165
 3746     62.928   9.31
 3746.5     65.458   9.141
 3747     67.348   10.01
 3747.5     69.238   10.879
 3748     69.959   11.471
 3748.5     69.633   9.807
 3749     69.307   8.143
 3749.5     73.988   8.525
 3750     74.479   9.745
 3750.5     69.873   10.965
 3751     69.667   12.184
 3751.5     70.05   13.404
 3752     70.433   15.02
 3752.5     70.816   19.302
 3753     71.116   17.409
 3753.5     70.702   15.516
 3754     70.288   13.624
 3754.5     69.874   11.731
 3755     69.719   9.838
 3755.5     70.004   7.945
 3756     70.289   7.24
 3756.5     70.574   7.96
 3757     70.196   8.68
 3757.5     69.294   9.4
 3758     69.433   10.459
 3758.5     69.981   12.714
 3759     70.137   14.969
 3759.5     69.448   15.435
 3760     68.759   13.576
 3760.5     68.141   11.716
 3761     68.381   9.857
 3761.5     68.622   7.998
 3762     68.862   7.574
 3762.5     69.102   8.001
 3763     69.118   8.428
 3763.5     68.651   8.855
 3764     68.183   9.282
 3764.5     68.882   9.709
 3765     69.524   10.136
 3765.5     69.057   10.563
 3766     68.59   10.811
 3766.5     68.606   9.969
 3767     68.802   9.128
 3767.5     68.997   8.286
 3768     69.192   7.444
 3768.5     68.704   8.054
 3769     68.162   8.915
 3769.5     67.189   9.777
 3770     65.933   10.459
 3770.5     66.031   9.398
 3771     66.508   9.627
 3771.5     65.747   10.519
 3772     65.696   10.809
 3772.5     66.6   9.774
 3773     67.503   8.739
 3773.5     64.203   9.063
 3774     63.897   9.496
 3774.5     65.309   9.93
 3775     66.72   10.363
 3775.5     74.955   10.796
 3776     71.083   11.23
 3776.5     67.21   11.319
 3777     70.832   10.692
 3777.5     60.055   10.064
 3778     56.322   9.437
 3778.5     52.59   8.81
 3779     51.401   8.182
 3779.5     51.235   7.555
 3780     51.069   7.677
 3780.5     50.903   8.177
 3781     50.737   8.676
 3781.5     50.453   9.176
 3782     50.07   9.676
 3782.5     49.687   10.176
 3783     49.304   10.675
 3783.5     49.466   11.175
 3784     49.761   10.762
 3784.5     50.055   9.866
 3785     50.35   8.969
 3785.5     50.645   8.072
 3786     50.635   8.17
 3786.5     50.391   8.459
 3787     50.147   8.748
 3787.5     49.903   9.037
 3788     49.658   9.326
 3788.5     50.045   9.615
 3789     50.523   9.904
 3789.5     54.422   10.193
 3790     53.04   10.481
 3790.5     50.409   10.77
 3791     49.782   10.238
 3791.5     50.094   9.639
 3792     50.175   9.186
 3792.5     49.715   10.61
 3793     49.618   12.035
 3793.5     49.997   13.46
 3794     50.377   14.884
 3794.5     50.314   16.489
 3795     49.916   18.368
 3795.5     49.518   19.967
 3796     49.119   17.555
 3796.5     49.612   15.514
 3797     50.285   13.772
 3797.5     50.959   12.029
 3798     50.405   12.565
 3798.5     49.777   11.454
 3799     49.149   12.329
 3799.5     48.522   14.612
 3800     47.894   16.896
 3800.5     54.11   17.081
 3801     53.618   16.141
 3801.5     53.127   17.442
 3802     55.3   18.744
 3802.5     61.663   17.094
 3803     67.642   14.731
 3803.5     66.449   12.368
 3804     65.255   10.005
 3804.5     65.131   10.73
 3805     67.305   11.643
 3805.5     67.788   12.555
 3806     64.148   13.101
 3806.5     65.429   12.039
 3807     67.147   13.241
 3807.5     65.775   15.182
 3808     64.404   13.894
 3808.5     64.15   12.211
 3809     66.313   10.528
 3809.5     68.476   8.949
 3810     69.882   9.308
