###############################################
##         ENVERUS                           ##
##         ESS - Open Hole                   ##
##         PERMIAN / DELAWARE                ##
##         Nov 04 2023  V4.0                 ##
##         42-371-36358-00-00                ##
###############################################
## Copyright 2017-2023  ENVERUS.  All Rights Reserved. 
## Confidential - Property of ENVERUS, use governed by terms and 
## conditions found within the existing Information Services Subscription Agreement 
## (as may be amended, the “ISSA”) between Customer and ENVERUS. 
## 
~VERSION INFORMATION
# MNEM.UNIT                               DATA : DESCRIPTION OF MNEMONIC
#-----.-----     ----------------------------- : -----------------------------
VERS.                                     2.00 : CWLS LOG ASCII STANDARD - VERSION 2.00
WRAP.                                       NO : MULTIPLE LINES PER DEPTH STEP
VEND.                                  ENVERUS : VENDOR
TYPE.                          ESS - OPEN HOLE : ENVERUS ESSENTIAL CURVES – ACCESSIBLE THROUGH ENVERUS PRISM(TM)
DOC.                                  32044985 : ENVERUS HEADER RAW DOCUMENT ID
#___________________________________________________________________________________________________ 
~WELL INFORMATION 
# 9/F+NtSLBEAIaZM9LpLMxALTyCH3LMfPBQiNKTeSadJ6NAezaEZy+3+OEP8rVGNvVB4ifWNnxSKvs1BiqqZA9A== 
# MNEM.UNIT                                              DATA : DESCRIPTION OF MNEMONIC 
#-----.-----                    ----------------------------- : ----------------------------- 
CNTY.                                                   PECOS : COUNTY 
STATE.                                                  TEXAS : STATE 
CNTRY.                                                    USA : COUNTRY 
API.                                             42-371-36358 : API (10 Digit) 
API_14.                                    42-371-36358-00-00 : API (14 Digits) 
API_14_std.                                 42-371-36358-0000 : API (14 Digits Standard) 
UWI.                                           42371363580000 : UNIQUE WELL ID 
WELL.                           SCHLOSSER, FRED ESTATE -B-  9 : WELL NAME
STRT.FT                                                 151.0 : START DEPTH
STOP.FT                                                5707.0 : STOP DEPTH
STEP.FT                                                   0.5 : STEP BETWEEN DEPTHS
NULL.                                                 -999.25 : NULL VALUE
COMP.                                      APACHE CORPORATION : COMPANY 
DATE.                                             07-JUN-1992 : LOG DATE
#___________________________________________________________________________________________________ 
~CURVE INFORMATION 
# MNEM.UNIT           : CURVE DESCRIPTION 
#-----.-----          : ----------------------------- 
 DEPT.FT               : MEASURED DEPTH 
 GR.API                : GAMMA RAY (GR) 
 DT.US/FT              : SONIC DELTA TRANSIT TIME (DT) 
 #___________________________________________________________________________________________________ 
~A         DEPT             GR             DT
# ...
         3109.0          3.467         69.254
         3109.5          3.460         69.254
         3110.0          3.454         69.254
         3110.5          3.447         69.253
         3111.0          3.440         69.253
         3111.5          3.475         69.253
         3112.0          3.545         69.253
         3112.5          3.615         69.252
         3113.0          3.685         69.252
         3113.5          3.754         69.252
         3114.0          3.824         69.241
         3114.5          3.894         69.228
         3115.0          4.072         69.215
         3115.5          4.262         69.202
         3116.0          4.452         69.129
         3116.5          4.642         69.054
         3117.0          4.724         68.978
         3117.5          3.212         68.903
         3118.0          2.183         68.828
         3118.5          2.623         68.752
         3119.0          3.063         68.656
         3119.5          3.503         68.560
         3120.0          3.943         68.464
         3120.5          4.383         68.368
         3121.0          4.823         68.282
         3121.5          5.056         68.266
         3122.0          4.804         68.251
         3122.5          4.553         68.236
         3123.0          4.301         68.157
         3123.5          4.049         68.102
         3124.0          3.798         68.189
         3124.5          3.602         68.276
         3125.0          3.572         68.272
         3125.5          3.542         68.262
         3126.0          3.511         68.349
         3126.5          3.481         68.544
         3127.0          3.451         68.703
         3127.5          3.421         68.713
         3128.0          3.391         68.723
         3128.5          3.361         68.801
         3129.0          3.331         68.904
         3129.5          3.301         69.008
         3130.0          3.271         69.111
         3130.5          3.241         69.192
         3131.0          3.211         69.182
         3131.5          3.181         69.172
         3132.0          3.151         68.963
         3132.5          3.121         68.684
         3133.0          3.091         68.406
         3133.5          3.060         68.337
         3134.0          3.030         68.293
         3134.5          3.000         68.348
         3135.0          2.970         68.458
         3135.5          2.940         68.568
         3136.0          2.910         68.478
         3136.5          2.880         68.379
         3137.0          2.864         68.410
         3137.5          2.865         68.494
         3138.0          2.866         68.579
         3138.5          2.867         68.608
         3139.0          3.003         68.425
         3139.5          3.165         68.243
         3140.0          3.328         68.061
         3140.5          3.490         68.240
         3141.0          3.653         68.252
         3141.5          3.815         68.188
         3142.0          3.978         68.123
         3142.5          3.973         68.201
         3143.0          3.545         68.360
         3143.5          3.116         68.520
         3144.0          2.688         68.575
         3144.5          2.259         68.503
         3145.0          1.831         68.109
         3145.5          1.638         67.821
         3146.0          2.207         67.804
         3146.5          2.776         67.788
         3147.0          3.345         67.771
         3147.5          3.915         67.754
         3148.0          4.204         67.738
         3148.5          4.079         67.721
         3149.0          3.953         67.704
         3149.5          3.827         67.688
         3150.0          3.702         67.739
         3150.5          3.882         67.990
         3151.0          4.296         68.182
         3151.5          4.710         68.114
         3152.0          4.914         67.987
         3152.5          4.460         67.890
         3153.0          4.007         68.099
         3153.5          3.683         68.308
         3154.0          3.829         68.341
         3154.5          3.974         68.341
         3155.0          4.119         68.201
         3155.5          4.264         68.023
         3156.0          4.409         67.897
         3156.5          4.554         68.092
         3157.0          4.699         68.286
         3157.5          4.844         68.481
         3158.0          4.990         68.524
         3158.5          5.135         67.986
         3159.0          4.950         67.764
         3159.5          4.582         67.756
         3160.0          4.214         67.747
         3160.5          3.846         67.542
         3161.0          3.478         67.263
         3161.5          3.109         66.985
         3162.0          2.741         66.958
         3162.5          2.373         66.965
         3163.0          2.883         66.973
         3163.5          3.642         67.178
         3164.0          3.581         67.516
         3164.5          3.493         67.854
         3165.0          3.404         68.092
         3165.5          3.316         68.318
         3166.0          3.228         68.545
         3166.5          3.597         68.771
         3167.0          4.061         64.134
         3167.5          4.525         61.030
         3168.0          4.823         60.520
         3168.5          4.468         62.760
         3169.0          4.112         65.018
         3169.5          3.756         67.276
         3170.0          3.400         68.267
         3170.5          3.068         68.159
         3171.0          3.098         68.227
         3171.5          3.127         68.367
         3172.0          3.157         68.644
         3172.5          3.187         68.793
         3173.0          3.216         68.564
         3173.5          3.246         68.335
         3174.0          3.275         68.106
         3174.5          3.305         67.877
         3175.0          3.334         67.719
         3175.5          3.364         67.908
         3176.0          3.532         68.098
         3176.5          3.849         67.947
         3177.0          4.166         67.642
         3177.5          4.482         67.424
         3178.0          4.799         67.464
         3178.5          4.860         67.504
         3179.0          4.783         67.543
         3179.5          4.706         67.583
         3180.0          4.628         67.619
         3180.5          4.219         67.647
         3181.0          3.678         67.674
         3181.5          3.138         67.684
         3182.0          2.598         67.571
         3182.5          2.680         67.038
         3183.0          3.422         66.805
         3183.5          4.165         67.020
         3184.0          4.907         67.234
         3184.5          5.650         67.449
         3185.0          5.640         67.069
         3185.5          5.594         65.005
         3186.0          5.549         65.122
         3186.5          5.504         65.402
         3187.0          5.458         65.682
         3187.5          5.413         65.962
         3188.0          5.542         63.838
         3188.5          6.066         60.961
         3189.0          6.591         58.046
         3189.5          7.115         55.131
         3190.0          7.640         53.703
         3190.5          8.165         52.438
         3191.0          8.689         52.407
         3191.5          9.214         52.449
         3192.0          9.739         52.491
         3192.5         10.248         52.533
         3193.0         11.012         52.622
         3193.5         12.277         52.720
         3194.0         13.543         52.819
         3194.5         12.560         52.809
         3195.0         11.392         52.578
         3195.5         10.224         52.588
