###############################################
##         ENVERUS                           ##
##         ESS - Open Hole                   ##
##         PERMIAN / DELAWARE                ##
##         Nov 04 2023  V4.0                 ##
##         42-371-36358-00-00                ##
###############################################
## Copyright 2017-2023  ENVERUS.  All Rights Reserved. 
## Confidential - Property of ENVERUS, use governed by terms and 
## conditions found within the existing Information Services Subscription Agreement 
## (as may be amended, the “ISSA”) between Customer and ENVERUS. 
## 
~VERSION INFORMATION
# MNEM.UNIT                               DATA : DESCRIPTION OF MNEMONIC
#-----.-----     ----------------------------- : -----------------------------
VERS.                                     2.00 : CWLS LOG ASCII STANDARD - VERSION 2.00
WRAP.                                       NO : MULTIPLE LINES PER DEPTH STEP
VEND.                                  ENVERUS : VENDOR
TYPE.                          ESS - OPEN HOLE : ENVERUS ESSENTIAL CURVES – ACCESSIBLE THROUGH ENVERUS PRISM(TM)
DOC.                                  32044985 : ENVERUS HEADER RAW DOCUMENT ID
#___________________________________________________________________________________________________ 
~WELL INFORMATION 
# 9/F+NtSLBEAIaZM9LpLMxALTyCH3LMfPBQiNKTeSadJ6NAezaEZy+3+OEP8rVGNvVB4ifWNnxSKvs1BiqqZA9A== 
# MNEM.UNIT                                              DATA : DESCRIPTION OF MNEMONIC 
#-----.-----                    ----------------------------- : ----------------------------- 
CNTY.                                                   PECOS : COUNTY 
STATE.                                                  TEXAS : STATE 
CNTRY.                                                    USA : COUNTRY 
API.                                             42-371-36358 : API (10 Digit) 
API_14.                                    42-371-36358-00-00 : API (14 Digits) 
API_14_std.                                 42-371-36358-0000 : API (14 Digits Standard) 
UWI.                                           42371363580000 : UNIQUE WELL ID 
WELL.                           SCHLOSSER, FRED ESTATE -B-  9 : WELL NAME
STRT.FT                                                 151.0 : START DEPTH
STOP.FT                                                5707.0 : STOP DEPTH
STEP.FT                                                   0.5 : STEP BETWEEN DEPTHS
NULL.                                                 -999.25 : NULL VALUE
COMP.                                      APACHE CORPORATION : COMPANY 
DATE.                                             07-JUN-1992 : LOG DATE
#___________________________________________________________________________________________________ 
~CURVE INFORMATION 
# MNEM.UNIT           : CURVE DESCRIPTION 
#-----.-----          : ----------------------------- 
 DEPT.FT               : MEASURED DEPTH 
 GR.API                : GAMMA RAY (GR) 
 DT.US/FT              : SONIC DELTA TRANSIT TIME (DT) 
 #___________________________________________________________________________________________________ 
~A         DEPT             GR             DT
# ...
         1282.0         35.642       -999.250
         1282.5         37.173       -999.250
         1283.0         38.770       -999.250
         1283.5         40.366       -999.250
         1284.0         41.963       -999.250
         1284.5         43.560       -999.250
         1285.0         44.424       -999.250
         1285.5         41.317       -999.250
         1286.0         41.570       -999.250
         1286.5         41.822       -999.250
         1287.0         42.075       -999.250
         1287.5         40.853       -999.250
         1288.0         34.528       -999.250
         1288.5         28.203       -999.250
         1289.0         21.877       -999.250
         1289.5         21.657       -999.250
         1290.0         22.931       -999.250
         1290.5         24.206       -999.250
         1291.0         25.454       -999.250
         1291.5         26.171       -999.250
         1292.0         26.889       -999.250
         1292.5         27.809       -999.250
         1293.0         29.884       -999.250
         1293.5         31.951       -999.250
         1294.0         33.832       -999.250
         1294.5         35.714       -999.250
         1295.0         37.596       -999.250
         1295.5         39.477       -999.250
         1296.0         41.359       -999.250
         1296.5         43.241       -999.250
         1297.0         43.275       -999.250
         1297.5         42.662       -999.250
         1298.0         42.048       -999.250
         1298.5         41.435       -999.250
         1299.0         39.577       -999.250
         1299.5         37.850       -999.250
         1300.0         35.340       -999.250
         1300.5         30.847       -999.250
         1301.0         30.267       -999.250
         1301.5         30.375       -999.250
         1302.0         30.484       -999.250
         1302.5         30.592       -999.250
         1303.0         29.616       -999.250
         1303.5         27.949       -999.250
         1304.0         26.282       -999.250
         1304.5         24.947       -999.250
         1305.0         23.631       -999.250
         1305.5         22.316       -999.250
         1306.0         21.000       -999.250
         1306.5         19.685       -999.250
         1307.0         18.403       -999.250
         1307.5         17.144       -999.250
         1308.0         15.886       -999.250
         1308.5         15.629       -999.250
         1309.0         15.474       -999.250
         1309.5         15.318       -999.250
         1310.0         15.162       -999.250
         1310.5         16.627       -999.250
         1311.0         18.120       -999.250
         1311.5         19.613       -999.250
         1312.0         21.106       -999.250
         1312.5         22.599       -999.250
         1313.0         21.422       -999.250
         1313.5         19.345       -999.250
         1314.0         17.267       -999.250
         1314.5         16.387       -999.250
         1315.0         16.690       -999.250
         1315.5         16.993       -999.250
         1316.0         19.748       -999.250
         1316.5         25.295       -999.250
         1317.0         30.842       -999.250
         1317.5         36.389       -999.250
         1318.0         33.379       -999.250
         1318.5         29.457       -999.250
         1319.0         25.536       -999.250
         1319.5         21.614       -999.250
         1320.0         17.693       -999.250
         1320.5         13.771       -999.250
         1321.0         11.406       -999.250
         1321.5         13.433       -999.250
         1322.0         15.460       -999.250
         1322.5         17.830       -999.250
         1323.0         21.968       -999.250
         1323.5         26.106       -999.250
         1324.0         30.244       -999.250
         1324.5         34.382       -999.250
         1325.0         38.520       -999.250
         1325.5         35.285       -999.250
         1326.0         29.671       -999.250
         1326.5         24.058       -999.250
         1327.0         18.784       -999.250
         1327.5         17.921       -999.250
         1328.0         17.058       -999.250
         1328.5         16.194       -999.250
         1329.0         15.331       -999.250
         1329.5         17.451       -999.250
         1330.0         27.170       -999.250
         1330.5         36.888       -999.250
         1331.0         44.611       -999.250
         1331.5         44.728       -999.250
         1332.0         44.845       -999.250
         1332.5         44.962       -999.250
         1333.0         43.829       -999.250
         1333.5         39.368       -999.250
         1334.0         34.907       -999.250
         1334.5         30.447       -999.250
         1335.0         25.986       -999.250
         1335.5         21.525       -999.250
         1336.0         19.242       -999.250
         1336.5         17.461       -999.250
         1337.0         15.680       -999.250
         1337.5         13.899       -999.250
         1338.0         12.118       -999.250
         1338.5         12.120       -999.250
         1339.0         14.046       -999.250
         1339.5         15.973       -999.250
         1340.0         17.899       -999.250
         1340.5         19.826       -999.250
         1341.0         21.752       -999.250
         1341.5         21.665       -999.250
         1342.0         21.388       -999.250
         1342.5         21.112       -999.250
         1343.0         19.764       -999.250
         1343.5         17.689       -999.250
         1344.0         15.615       -999.250
         1344.5         13.541       -999.250
         1345.0         11.466       -999.250
         1345.5          9.392       -999.250
         1346.0          7.317       -999.250
         1346.5          7.745       -999.250
         1347.0          9.108       -999.250
         1347.5         10.470       -999.250
         1348.0         11.833       -999.250
         1348.5         13.196       -999.250
         1349.0         12.715       -999.250
         1349.5         12.008       -999.250
         1350.0         11.302       -999.250
         1350.5         10.595       -999.250
         1351.0         10.812       -999.250
         1351.5         11.037       -999.250
         1352.0         11.646       -999.250
         1352.5         13.335       -999.250
         1353.0         15.024       -999.250
         1353.5         16.411       -999.250
         1354.0         16.411       -999.250
         1354.5         16.412       -999.250
         1355.0         16.412       -999.250
         1355.5         16.412       -999.250
         1356.0         16.095       -999.250
         1356.5         15.162       -999.250
         1357.0         14.229       -999.250
         1357.5         13.296       -999.250
         1358.0         12.363       -999.250
         1358.5         11.381       -999.250
         1359.0         10.253       -999.250
         1359.5         12.504       -999.250
         1360.0         15.822       -999.250
         1360.5         19.140       -999.250
         1361.0         19.949       -999.250
         1361.5         19.226       -999.250
         1362.0         18.504       -999.250
         1362.5         17.741       -999.250
         1363.0         14.956       -999.250
         1363.5         12.786       -999.250
         1364.0         12.362       -999.250
         1364.5         11.938       -999.250
         1365.0         11.515       -999.250
         1365.5         11.091       -999.250
         1366.0         10.667       -999.250
         1366.5         10.244       -999.250
         1367.0          9.820       -999.250
         1367.5          9.396       -999.250
         1368.0          9.285       -999.250
         1368.5         10.211       -999.250
