#--------------------------------------------------#
#-------------------ENVERUS, INC.------------------#
#------------------WWW.ENVERUS.COM-----------------#
#------------------COPYRIGHT 2020------------------#
#--------------------------------------------------#
#THIS FILE MAY BE USED ONLY IN ACCORDANCE WITH A CURRENT SUBSCRIPTION AGREEMENT BETWEEN
#THE USER AND ENVERUS, INC. NO PART OF THIS FILE MAY BE REPRODUCED, USED, COPIED,
#MODIFIED, PROPAGATED, OR DISTRIBUTED EXCEPT IN ACCORDANCE WITH THE SUBSCRIPTION
#AGREEMENT. UNAUTHORIZED USE OR DISTRIBUTION OF ALL OR ANY PART OF THIS FILE MAY VIOLATE
#COPYRIGHT, TRADEMARK, AND/OR OTHER LAWS AND IS SUBJECT TO CIVIL AS WELL AS CRIMINAL
#SANCTIONS.
#--------------------------------------------------#
#THIS FILE IS PROVIDED "AS-IS" AND ALL WARRANTIES ARE EXPRESSLY DISCLAIMED, WHETHER
#EXPRESS, ORAL, IMPLIED, STATUTORY OR OTHERWISE, INCLUDING ANY IMPLIED WARRANTY OF FITNESS
#FOR A PARTICULAR PURPOSE, MERCHANTABILITY, TITLE OR NON-INFRINGEMENT, AND ANY WARRANTIES
#ARISING BY VIRTUE OF CUSTOM OF TRADE OR COURSE OF DEALING.  FURTHER, ENVERUS, INC.
#AND ITS LICENSORS DO NOT REPRESENT OR WARRANT THAT THIS FILE WILL MEET USER'S
#REQUIREMENTS OR ARE SUITABLE FOR USER'S NEEDS OR THAT THE DATA OR RESULTS PROVIDED IN
#CONJUNCTION THEREWITH ARE CORRECT, ACCURATE, TIMELY OR RELIABLE. THESE DISCLAIMERS SHALL
#APPLY REGARDLESS OF ANY FAILURE OF ESSENTIAL PURPOSE OF ANY LIMITED REMEDY.  SOME
#JURISDICTIONS DO NOT ALLOW THE EXCLUSION OF CERTAIN WARRANTIES SO SOME OF THE ABOVE
#EXCLUSIONS MAY NOT APPLY. IN NO EVENT SHALL ENVERUS, INC. OR ANY OF ITS AFFILIATES
#BE LIABLE UNDER ANY LEGAL THEORY, WHETHER IN TORT (INCLUDING WITHOUT LIMITATION
#NEGLIGENCE), CONTRACT, STRICT LIABILITY, STATUTORY OR OTHERWISE, FOR ANY SPECIAL,
#INCIDENTAL, CONSEQUENTIAL, EXEMPLARY, PUNITIVE OR INDIRECT DAMAGE OF ANY KIND, INCLUDING
#WITHOUT LIMITATION LOSS OF REVENUE, PROFITS, GOODWILL, USE, AND/OR DATA OR THE COST OF
#PROCUREMENT OF SUBSTITUTE GOODS OR SERVICES, EVEN IF APPRISED OF THE POSSIBILITY OF SUCH
#DAMAGES IN ADVANCE.
#--------------------------------------------------#

~VERSION INFORMATION
VERS. 2.0 : CWLS LOG ASCII STANDARD - VERSION 2.0
WRAP.  NO : ONE LINE PER DEPTH STEP
~WELL INFORMATION
#MNEMONIC     .UNIT              VALUE :DESCRIPTION
STRT       .FT                102 :START DEPTH
STOP       .FT                5463 :STOP DEPTH
STEP       .FT                   0.500 :STEP
NULL       .                  -999.990 :NULL
UWI        .              42371363560000 :UNIQUE WELL ID
API        .              42371363560000 :API NUMBER
COMP       .         APACHE CORPORATION :COMPANY
WELL       .        SCHLOSSER, FRED ESTATE -B-  11 :WELL
DATE       .                22-JUN-1992 :LOG DATE
~CURVE INFORMATION
#MNEMONIC     .UNIT      API CODE :CURVE DESCRIPTION
DEPTH       .FT                      :MEASURED DEPTH
DT.US/FT        UNKNOWN   :DT
GR.API        UNKNOWN   :GR
~A    DEPTH    DT    GR
# ...
 4297.5     49.339   5.696
 4298     49.404   6.336
 4298.5     49.542   7.032
 4299     49.68   7.727
 4299.5     49.785   8.057
 4300     49.213   7.911
 4300.5     48.834   7.765
 4301     49.123   7.619
 4301.5     49.412   7.473
 4302     49.701   7.327
 4302.5     49.99   7.181
 4303     49.71   7.035
 4303.5     49.311   6.889
 4304     49.095   6.743
 4304.5     49.095   6.597
 4305     49.095   7.096
 4305.5     49.095   8.275
 4306     49.292   9.187
 4306.5     49.582   9.187
 4307     49.872   9.117
 4307.5     50.162   8.556
 4308     50.452   7.994
 4308.5     50.349   7.433
 4309     50.104   6.972
 4309.5     49.859   6.604
 4310     49.565   6.237
 4310.5     49.147   5.869
 4311     48.807   5.501
 4311.5     48.835   5.134
 4312     48.864   4.766
 4312.5     48.892   4.398
 4313     48.921   5.134
 4313.5     48.949   6.353
 4314     48.977   7.571
 4314.5     49.006   8.79
 4315     49.034   10.008
 4315.5     49.063   9.149
 4316     48.951   8.23
 4316.5     48.837   7.311
 4317     48.723   6.393
 4317.5     48.609   6.449
 4318     48.705   6.599
 4318.5     48.893   6.749
 4319     48.712   6.898
 4319.5     48.431   7.048
 4320     48.774   7.198
 4320.5     49.163   7.348
 4321     49.489   7.12
 4321.5     49.505   6.794
 4322     49.52   6.468
 4322.5     49.535   6.217
 4323     49.55   6.263
 4323.5     49.285   6.309
 4324     48.968   6.356
 4324.5     49.122   6.402
 4325     49.279   6.764
 4325.5     49.436   7.351
 4326     49.593   7.937
 4326.5     49.701   8.524
 4327     49.781   9.385
 4327.5     49.809   11.202
 4328     49.616   13.02
 4328.5     49.422   14.478
 4329     49.229   14.226
 4329.5     49.463   13.973
 4330     49.701   13.721
 4330.5     49.881   13.469
 4331     49.887   7.104
 4331.5     49.894   7.206
 4332     49.901   7.308
 4332.5     49.907   7.41
 4333     49.766   7.369
 4333.5     49.395   6.83
 4334     49.225   6.291
 4334.5     49.563   6.02
 4335     49.76   6.533
 4335.5     49.699   7.045
 4336     49.639   7.247
 4336.5     49.566   6.853
 4337     49.414   6.459
 4337.5     49.262   6.064
 4338     49.109   5.67
 4338.5     48.957   6.126
 4339     48.805   7.515
 4339.5     49.094   9.143
 4340     49.506   10.897
 4340.5     49.917   10.129
 4341     50.329   9.362
 4341.5     49.84   8.594
 4342     49.255   8.755
 4342.5     49.227   9.132
 4343     49.63   9.508
 4343.5     49.778   9.885
 4344     49.771   9.487
 4344.5     49.764   8.952
 4345     49.758   8.416
 4345.5     49.751   8.505
 4346     49.842   8.906
 4346.5     49.962   9.308
 4347     50.055   7.078
 4347.5     49.653   6.46
 4348     49.686   6.252
 4348.5     49.665   6.044
 4349     49.204   6.341
 4349.5     49.341   7.973
 4350     49.478   8.135
 4350.5     49.614   7.477
 4351     49.751   6.819
 4351.5     49.888   6.32
 4352     49.775   6.32
 4352.5     49.18   6.32
 4353     48.822   6.32
 4353.5     49.138   6.32
 4354     49.454   6.937
 4354.5     49.77   7.931
 4355     50.026   8.925
 4355.5     49.891   9.045
 4356     49.755   8.773
 4356.5     49.871   7.555
 4357     50.083   6.337
 4357.5     50.163   6.106
 4358     49.872   5.986
 4358.5     49.582   5.865
 4359     49.434   5.744
 4359.5     49.554   6.347
 4360     49.674   7.734
 4360.5     49.764   9.121
 4361     49.534   9.822
 4361.5     49.305   9.519
 4362     49.075   9.019
 4362.5     48.846   8.048
 4363     48.971   7.077
 4363.5     49.17   6.106
 4364     49.369   5.543
 4364.5     49.453   6.315
 4365     49.445   7.087
 4365.5     49.436   7.045
 4366     49.428   6.71
 4366.5     48.961   6.041
 4367     48.655   5.516
 4367.5     48.71   5.838
 4368     48.984   6.161
 4368.5     49.257   6.483
 4369     49.531   6.853
 4369.5     49.804   7.443
 4370     50.078   8.033
 4370.5     50.352   8.623
 4371     50.298   9.188
 4371.5     50.168   8.61
 4372     50.038   8.033
 4372.5     49.921   7.455
 4373     50.014   6.878
 4373.5     50.106   6.749
 4374     50.198   6.749
 4374.5     50.082   7.239
 4375     49.784   9.151
 4375.5     49.817   11.064
 4376     50.008   11.919
 4376.5     50.199   11.274
 4377     50.39   10.629
 4377.5     50.418   9.229
 4378     50.33   6.867
 4378.5     50.242   6.999
 4379     50.076   7.392
 4379.5     49.865   7.786
 4380     49.653   8.179
 4380.5     49.169   8.572
 4381     48.919   8.792
 4381.5     49.196   8.826
 4382     49.473   8.86
 4382.5     49.75   8.388
 4383     50.028   6.948
 4383.5     49.799   6.545
 4384     48.975   6.142
 4384.5     48.845   5.739
 4385     48.778   7.39
 4385.5     48.855   7.39
 4386     49.079   7.39
 4386.5     49.302   8.558
 4387     49.526   10.124
 4387.5     49.701   10.342
 4388     49.532   9.994
 4388.5     49.364   9.645
 4389     49.195   8.351
 4389.5     49.77   7.012
 4390     50.32   7.468
 4390.5     49.313   8.358
 4391     49.023   8.7
 4391.5     49.661   8.556
 4392     49.584   8.411
 4392.5     49.27   8.266
 4393     49.15   8.122
 4393.5     49.364   7.977
 4394     49.579   9.26
 4394.5     49.761   10.843
 4395     49.923   10.54
 4395.5     50.085   10.237
 4396     50.247   9.871
 4396.5     50.629   8.302
 4397     51.624   6.732
 4397.5     55.693   5.438
 4398     64.394   4.277
 4398.5     66.098   3.807
 4399     66.247   3.574
 4399.5     65.62   3.341
 4400     65.522   3.146
 4400.5     67.37   2.952
 4401     67.314   2.758
 4401.5     67.257   2.564
 4402     67.201   2.369
 4402.5     66.802   2.365
 4403     64.972   2.535
 4403.5     63.143   3.24
 4404     50.499   4.249
 4404.5     49.424   5.258
 4405     49.911   6.266
 4405.5     50.398   6.986
 4406     50.101   7.049
 4406.5     49.886   7.113
 4407     50.627   7.176
 4407.5     50.469   7.24
 4408     49.186   7.303
 4408.5     50.175   7.367
 4409     50.801   7.431
 4409.5     49.159   7.494
 4410     47.943   7.558
 4410.5     48.748   8.017
 4411     49.552   9.76
 4411.5     49.858   11.503
 4412     49.195   13.246
 4412.5     50.404   14.989
 4413     51.101   15.79
 4413.5     49.909   14.794
 4414     48.717   13.797
 4414.5     47.58   12.8
 4415     50.047   11.183
 4415.5     60.692   9.515
 4416     63.907   7.711
 4416.5     68.534   4.82
 4417     67.426   4.276
 4417.5     66.319   4.377
 4418     66.107   4.479
 4418.5     66.72   4.337
 4419     67.332   4.06
 4419.5     67.945   3.782
 4420     68.25   3.504
 4420.5     67.897   3.016
 4421     67.545   2.238
 4421.5     67.192   1.913
 4422     67.189   2.037
 4422.5     67.398   2.16
 4423     67.43   2.284
 4423.5     67.234   2.408
 4424     67.039   2.531
 4424.5     67.368   2.655
 4425     67.854   2.779
 4425.5     67.878   2.684
 4426     67.803   2.515
 4426.5     67.728   2.346
 4427     66.95   2.178
 4427.5     64.767   2.009
 4428     62.184   2.711
 4428.5     57.845   3.798
 4429     60.489   4.021
 4429.5     63.898   3.743
 4430     68.736   3.465
 4430.5     68.705   3.188
 4431     68.675   2.911
 4431.5     68.914   2.635
 4432     69.609   2.378
 4432.5     70.137   2.308
 4433     69.445   2.238
 4433.5     69.224   2.168
 4434     69.364   2.098
 4434.5     69.504   2.028
 4435     69.413   1.958
 4435.5     68.786   2.055
 4436     68.597   2.153
 4436.5     68.877   2.251
 4437     69.158   2.348
 4437.5     69.439   2.446
 4438     69.719   2.372
 4438.5     70   2.153
 4439     69.512   1.934
 4439.5     68.07   1.715
 4440     65.511   1.496
 4440.5     70.397   1.277
 4441     74.155   1.305
 4441.5     71.751   2.221
 4442     68.44   3.137
 4442.5     64.207   4.053
 4443     59.644   5.17
 4443.5     63.187   6.491
 4444     64.428   7.238
 4444.5     65.669   6.117
 4445     66.911   4.997
 4445.5     65.719   3.85
 4446     66.447   2.689
 4446.5     68.028   2.47
 4447     67.522   2.586
 4447.5     65.75   2.701
 4448     67.439   2.817
 4448.5     69.459   2.871
 4449     66.994   2.499
 4449.5     67.199   2.127
 4450     69.402   1.756
 4450.5     63.165   1.573
 4451     53.815   2.916
 4451.5     53.454   4.259
 4452     52.169   5.602
