###############################################
##         ENVERUS                           ##
##         ESS - Open Hole                   ##
##         PERMIAN / DELAWARE                ##
##         Nov 04 2023  V4.0                 ##
##         42-389-00931-00-00                ##
###############################################
## Copyright 2017-2023  ENVERUS.  All Rights Reserved. 
## Confidential - Property of ENVERUS, use governed by terms and 
## conditions found within the existing Information Services Subscription Agreement 
## (as may be amended, the “ISSA”) between Customer and ENVERUS. 
## 
~VERSION INFORMATION
# MNEM.UNIT                               DATA : DESCRIPTION OF MNEMONIC
#-----.-----     ----------------------------- : -----------------------------
VERS.                                     2.00 : CWLS LOG ASCII STANDARD - VERSION 2.00
WRAP.                                       NO : MULTIPLE LINES PER DEPTH STEP
VEND.                                  ENVERUS : VENDOR
TYPE.                          ESS - OPEN HOLE : ENVERUS ESSENTIAL CURVES – ACCESSIBLE THROUGH ENVERUS PRISM(TM)
DOC.                                  31935239 : ENVERUS HEADER RAW DOCUMENT ID
#___________________________________________________________________________________________________ 
~WELL INFORMATION 
# S9zL0tdqvH3y2XIpNbXcuKF0SeIoK+7NE6VaQ02nn2+shQHF2oZWL/5TS96hefD+9qjP/MIJWV/WOidK809eGw== 
# MNEM.UNIT                                              DATA : DESCRIPTION OF MNEMONIC 
#-----.-----                    ----------------------------- : ----------------------------- 
CNTY.                                                  REEVES : COUNTY 
STATE.                                                  TEXAS : STATE 
CNTRY.                                                    USA : COUNTRY 
API.                                             42-389-00931 : API (10 Digit) 
API_14.                                    42-389-00931-00-00 : API (14 Digits) 
API_14_std.                                 42-389-00931-0000 : API (14 Digits Standard) 
UWI.                                           42389009310000 : UNIQUE WELL ID 
WELL.                                                      1, : WELL NAME
STRT.FT                                                 101.0 : START DEPTH
STOP.FT                                                5373.0 : STOP DEPTH
STEP.FT                                                   0.5 : STEP BETWEEN DEPTHS
NULL.                                                 -999.25 : NULL VALUE
#___________________________________________________________________________________________________ 
~CURVE INFORMATION 
# MNEM.UNIT           : CURVE DESCRIPTION 
#-----.-----          : ----------------------------- 
 DEPT.FT               : MEASURED DEPTH 
 GR.API                : GAMMA RAY (GR) 
 DT.US/FT              : SONIC DELTA TRANSIT TIME (DT) 
 #___________________________________________________________________________________________________ 
~A         DEPT             GR             DT
# ...
         2885.0          5.851         67.927
         2885.5          5.968         67.945
         2886.0          6.085         67.962
         2886.5          6.201         67.980
         2887.0          6.318         67.997
         2887.5          6.127         68.014
         2888.0          5.623         68.045
         2888.5          5.120         68.079
         2889.0          4.616         68.113
         2889.5          4.224         68.147
         2890.0          5.176         68.181
         2890.5          6.127         68.215
         2891.0          7.078         68.250
         2891.5          8.029         68.284
         2892.0          8.804         68.318
         2892.5          8.200         68.251
         2893.0          7.595         68.180
         2893.5          6.991         68.110
         2894.0          6.387         68.039
         2894.5          5.783         67.968
         2895.0          5.179         67.898
         2895.5          4.575         67.827
         2896.0          4.008         67.757
         2896.5          4.279         67.686
         2897.0          4.550         67.615
         2897.5          4.821         67.564
         2898.0          5.091         67.530
         2898.5          5.362         67.495
         2899.0          5.633         67.460
         2899.5          5.904         67.425
         2900.0          6.176         67.390
         2900.5          6.530         67.355
         2901.0          6.883         67.320
         2901.5          7.237         67.418
         2902.0          7.590         67.539
         2902.5          7.944         67.659
         2903.0          8.297         67.779
         2903.5          8.605         67.899
         2904.0          8.332         68.019
         2904.5          8.060         68.139
         2905.0          7.788         68.231
         2905.5          7.516         68.013
         2906.0          7.244         67.796
         2906.5          6.972         67.578
         2907.0          6.741         67.363
         2907.5          6.980         67.501
         2908.0          7.219         67.639
         2908.5          7.458         67.778
         2909.0          7.697         67.916
         2909.5          7.677         68.054
         2910.0          7.430         68.192
         2910.5          7.182         68.330
         2911.0          6.934         68.468
         2911.5          6.687         68.606
         2912.0          6.439         68.744
         2912.5          6.192         68.605
         2913.0          6.083         68.362
         2913.5          6.422         68.120
         2914.0          6.760         67.877
         2914.5          7.099         67.652
         2915.0          7.437         67.681
         2915.5          7.776         67.710
         2916.0          8.114         67.739
         2916.5          8.453         67.768
         2917.0          8.792         67.798
         2917.5          8.613         67.827
         2918.0          8.340         67.856
         2918.5          8.066         67.885
         2919.0          7.793         67.915
         2919.5          7.520         67.944
         2920.0          7.247         67.973
         2920.5          6.973         67.860
         2921.0          6.700         67.713
         2921.5          6.427         67.566
         2922.0          6.154         67.419
         2922.5          5.880         67.272
         2923.0          5.692         67.197
         2923.5          5.891         67.254
         2924.0          6.089         67.311
         2924.5          6.288         67.368
         2925.0          6.487         67.425
         2925.5          6.686         67.482
         2926.0          6.881         67.539
         2926.5          6.934         67.596
         2927.0          6.987         67.653
         2927.5          7.040         67.711
         2928.0          7.093         67.768
         2928.5          7.145         66.471
         2929.0          7.198         64.215
         2929.5          7.251         61.960
         2930.0          7.785         59.704
         2930.5          9.747         57.448
         2931.0         11.710         55.192
         2931.5         13.673         52.937
         2932.0         15.635         52.024
         2932.5         17.598         54.205
         2933.0         19.561         56.386
         2933.5         17.883         58.567
         2934.0         15.778         60.749
         2934.5         13.672         62.930
         2935.0         11.567         65.111
         2935.5          9.461         66.795
         2936.0          7.356         67.497
         2936.5          6.635         67.392
         2937.0          6.658         67.187
         2937.5          6.680         66.982
         2938.0          6.703         67.148
         2938.5          6.725         67.532
         2939.0          6.748         67.739
         2939.5          6.770         67.644
         2940.0          6.793         67.549
         2940.5          6.816         67.454
         2941.0          6.838         67.359
         2941.5          6.861         67.338
         2942.0          6.883         67.410
         2942.5          6.797         67.481
         2943.0          6.482         67.553
         2943.5          6.167         67.625
         2944.0          5.851         67.697
         2944.5          5.536         67.769
         2945.0          5.221         67.753
         2945.5          4.906         67.706
         2946.0          5.017         67.659
         2946.5          5.187         67.612
         2947.0          5.356         67.565
         2947.5          5.525         67.518
         2948.0          5.695         67.472
         2948.5          5.864         67.425
         2949.0          6.033         67.494
         2949.5          6.203         67.563
         2950.0          6.372         67.631
         2950.5          6.541         67.700
         2951.0          6.711         67.769
         2951.5          6.880         67.838
         2952.0          6.815         67.907
         2952.5          6.701         67.975
         2953.0          6.588         67.850
         2953.5          6.474         67.596
         2954.0          6.360         67.343
         2954.5          6.247         67.090
         2955.0          6.133         66.836
         2955.5          6.020         66.583
         2956.0          6.069         66.330
         2956.5          6.273         66.076
         2957.0          6.476         65.823
         2957.5          6.679         65.570
         2958.0          6.882         65.329
         2958.5          7.022         65.479
         2959.0          6.836         65.629
         2959.5          6.651         65.778
         2960.0          6.465         65.928
         2960.5          6.279         65.498
         2961.0          6.094         62.835
         2961.5          5.908         60.171
         2962.0          5.722         57.508
         2962.5          5.537         54.844
         2963.0          5.351         52.181
         2963.5          5.166         51.748
         2964.0          8.388         52.746
         2964.5         11.729         53.744
         2965.0         15.071         53.989
         2965.5         18.412         53.189
         2966.0         21.753         52.388
         2966.5         25.095         51.588
         2967.0         23.524         50.788
         2967.5         21.525         49.987
         2968.0         19.526         49.187
         2968.5         17.527         48.387
         2969.0         15.527         49.205
         2969.5         13.528         51.915
         2970.0         12.321         54.626
         2970.5         11.483         57.336
         2971.0         10.644         60.047
         2971.5          9.806         62.757
