#--------------------------------------------------#
#-------------------ENVERUS, INC.------------------#
#------------------WWW.ENVERUS.COM-----------------#
#------------------COPYRIGHT 2020------------------#
#--------------------------------------------------#
#THIS FILE MAY BE USED ONLY IN ACCORDANCE WITH A CURRENT SUBSCRIPTION AGREEMENT BETWEEN
#THE USER AND ENVERUS, INC. NO PART OF THIS FILE MAY BE REPRODUCED, USED, COPIED,
#MODIFIED, PROPAGATED, OR DISTRIBUTED EXCEPT IN ACCORDANCE WITH THE SUBSCRIPTION
#AGREEMENT. UNAUTHORIZED USE OR DISTRIBUTION OF ALL OR ANY PART OF THIS FILE MAY VIOLATE
#COPYRIGHT, TRADEMARK, AND/OR OTHER LAWS AND IS SUBJECT TO CIVIL AS WELL AS CRIMINAL
#SANCTIONS.
#--------------------------------------------------#
#THIS FILE IS PROVIDED "AS-IS" AND ALL WARRANTIES ARE EXPRESSLY DISCLAIMED, WHETHER
#EXPRESS, ORAL, IMPLIED, STATUTORY OR OTHERWISE, INCLUDING ANY IMPLIED WARRANTY OF FITNESS
#FOR A PARTICULAR PURPOSE, MERCHANTABILITY, TITLE OR NON-INFRINGEMENT, AND ANY WARRANTIES
#ARISING BY VIRTUE OF CUSTOM OF TRADE OR COURSE OF DEALING.  FURTHER, ENVERUS, INC.
#AND ITS LICENSORS DO NOT REPRESENT OR WARRANT THAT THIS FILE WILL MEET USER'S
#REQUIREMENTS OR ARE SUITABLE FOR USER'S NEEDS OR THAT THE DATA OR RESULTS PROVIDED IN
#CONJUNCTION THEREWITH ARE CORRECT, ACCURATE, TIMELY OR RELIABLE. THESE DISCLAIMERS SHALL
#APPLY REGARDLESS OF ANY FAILURE OF ESSENTIAL PURPOSE OF ANY LIMITED REMEDY.  SOME
#JURISDICTIONS DO NOT ALLOW THE EXCLUSION OF CERTAIN WARRANTIES SO SOME OF THE ABOVE
#EXCLUSIONS MAY NOT APPLY. IN NO EVENT SHALL ENVERUS, INC. OR ANY OF ITS AFFILIATES
#BE LIABLE UNDER ANY LEGAL THEORY, WHETHER IN TORT (INCLUDING WITHOUT LIMITATION
#NEGLIGENCE), CONTRACT, STRICT LIABILITY, STATUTORY OR OTHERWISE, FOR ANY SPECIAL,
#INCIDENTAL, CONSEQUENTIAL, EXEMPLARY, PUNITIVE OR INDIRECT DAMAGE OF ANY KIND, INCLUDING
#WITHOUT LIMITATION LOSS OF REVENUE, PROFITS, GOODWILL, USE, AND/OR DATA OR THE COST OF
#PROCUREMENT OF SUBSTITUTE GOODS OR SERVICES, EVEN IF APPRISED OF THE POSSIBILITY OF SUCH
#DAMAGES IN ADVANCE.
#--------------------------------------------------#

~VERSION INFORMATION
VERS. 2.0 : CWLS LOG ASCII STANDARD - VERSION 2.0
WRAP. NO : ONE LINE PER DEPTH STEP
~WELL INFORMATION
#MNEMONIC     .UNIT              VALUE :DESCRIPTION
STRT       .FT                101.00000 :START DEPTH
STOP       .FT                5802.00000 :STOP DEPTH
STEP       .FT                0.50000 :STEP
NULL       .                -999.25000 :NULL VALUE
UWI       .                42389010150000 :UNIQUE WELL ID
API       .                42389010150000 :API NUMBER
COMP       .                 :COMPANY
WELL       .                 :WELL
FLD       .                 :FIELD
LOC       .                 :LOCATION
CNTY       .                 :COUNTY
STAT       .                 :STATE
CTRY       .                 :COUNTRY
SRVC       .                 :SERVICE COMPANY
DATE       .                 :DATE
~CURVE INFORMATION
#MNEMONIC     .UNIT      API CODE :CURVE DESCRIPTION
DEPTH       .FT                      :MEASURED DEPTH
DT       .US/FT        UNKNOWN   :DT
GR       .GAPI        UNKNOWN   :GR
~A    DEPTH    DT    GR
# ...
3877.50000    48.81747    5.44116
3878.00000    49.30926    5.73896
3878.50000    49.80106    6.03676
3879.00000    50.20867    6.33457
3879.50000    49.77504    6.63237
3880.00000    49.34140    6.93017
3880.50000    48.90777    6.78808
3881.00000    48.95986    6.49681
3881.50000    49.55186    6.20554
3882.00000    50.14387    5.91428
3882.50000    50.15619    5.62301
3883.00000    49.86152    5.74404
3883.50000    49.56685    6.02532
3884.00000    49.27219    6.30660
3884.50000    48.97752    6.58788
3885.00000    48.87185    6.86917
3885.50000    49.16018    7.15045
3886.00000    49.44851    7.43173
3886.50000    49.73685    7.36146
3887.00000    50.02518    6.69810
3887.50000    49.88304    5.90526
3888.00000    49.66508    5.55415
3888.50000    49.44711    5.63541
3889.00000    49.22914    5.77976
3889.50000    49.01118    5.92411
3890.00000    49.31779    6.06846
3890.50000    49.69956    6.21281
3891.00000    50.08133    6.35715
3891.50000    50.46310    6.30863
3892.00000    50.11292    5.97008
3892.50000    49.56630    5.63153
3893.00000    49.01967    5.29298
3893.50000    48.47305    5.47232
3894.00000    47.92642    5.68629
3894.50000    48.07364    5.90027
3895.00000    48.60011    6.11425
3895.50000    49.12659    6.32823
3896.00000    49.65306    6.54221
3896.50000    50.17954    6.75619
3897.00000    50.19757    6.72072
3897.50000    49.77190    6.49648
3898.00000    49.41917    6.27223
3898.50000    49.60198    6.04799
3899.00000    49.78479    5.82374
3899.50000    49.96761    5.59950
3900.00000    50.15042    5.37525
3900.50000    50.33323    5.15100
3901.00000    50.02543    5.33042
3901.50000    49.62335    5.65255
3902.00000    49.22126    5.97468
3902.50000    48.81918    6.29681
3903.00000    48.41709    6.61894
3903.50000    48.70632    6.94107
3904.00000    48.99787    6.76688
3904.50000    49.28942    6.34885
3905.00000    49.02314    6.00898
3905.50000    48.66788    5.66911
3906.00000    48.31261    5.32924
3906.50000    48.05472    4.98938
3907.00000    48.16930    4.64951
3907.50000    48.28388    4.30964
3908.00000    48.39846    4.25817
3908.50000    48.51304    4.30145
3909.00000    48.62763    4.34473
3909.50000    48.74221    4.38801
3910.00000    48.60168    4.44991
3910.50000    48.33861    4.65625
3911.00000    48.07554    4.86259
3911.50000    47.81247    5.06893
3912.00000    48.46309    5.27527
3912.50000    48.65607    5.48161
3913.00000    48.43814    5.68795
3913.50000    48.24041    5.89429
3914.00000    48.38733    6.10063
3914.50000    48.53424    6.16633
3915.00000    48.68116    6.10160
3915.50000    48.82808    6.03686
3916.00000    48.62566    5.97213
3916.50000    48.25894    5.90739
3917.00000    47.89222    5.84266
3917.50000    48.05946    5.77792
3918.00000    48.91820    5.71988
3918.50000    49.77694    5.76418
3919.00000    50.02137    5.80848
3919.50000    49.61935    5.85279
3920.00000    49.21733    5.89709
3920.50000    49.49037    5.94139
3921.00000    50.10654    5.98570
3921.50000    50.39936    5.86716
3922.00000    49.94953    5.28042
3922.50000    49.49970    4.69367
3923.00000    49.04987    4.10692
3923.50000    48.60004    4.10714
3924.00000    48.40027    4.29725
3924.50000    48.45398    4.48736
3925.00000    48.50769    4.67747
3925.50000    48.56141    4.86758
3926.00000    48.61512    5.05769
3926.50000    48.66883    5.24780
3927.00000    48.72255    5.43791
3927.50000    48.55345    5.57421
3928.00000    48.23301    5.64843
3928.50000    47.91258    5.72264
3929.00000    47.59214    5.79686
3929.50000    47.27170    5.68654
3930.00000    47.61797    5.35203
3930.50000    48.25060    5.01752
3931.00000    48.88323    4.68301
3931.50000    49.51585    4.63997
3932.00000    49.71198    5.11378
3932.50000    49.35948    5.58759
3933.00000    49.00697    6.06140
3933.50000    48.65446    6.53521
3934.00000    48.30196    7.00902
3934.50000    47.94945    7.48283
3935.00000    47.59694    7.95664
3935.50000    47.53320    7.90422
3936.00000    47.71619    7.29060
3936.50000    47.89917    6.67697
3937.00000    48.08215    6.06335
3937.50000    48.26514    5.63049
3938.00000    48.52234    5.55261
3938.50000    48.98992    5.47473
3939.00000    49.45750    5.39684
3939.50000    49.92508    4.95779
3940.00000    50.39267    4.29297
3940.50000    59.72327    4.76676
3941.00000    96.33812    5.24055
3941.50000    84.02403    5.71434
3942.00000    84.09800    6.13375
3942.50000    84.17197    5.83370
3943.00000    84.24593    5.53366
3943.50000    84.31990    5.23361
3944.00000    79.74335    4.93357
3944.50000    74.53876    4.63352
3945.00000    69.33418    4.33348
3945.50000    64.12959    4.03343
3946.00000    41.69477    3.73339
3946.50000    45.93701    3.62441
3947.00000    46.73161    4.01674
3947.50000    47.52620    4.40908
3948.00000    48.16130    4.80142
3948.50000    48.13665    5.18696
3949.00000    48.11201    5.23481
3949.50000    48.08737    5.28267
3950.00000    48.06273    5.33052
3950.50000    48.03809    5.37837
3951.00000    48.01345    5.42622
3951.50000    48.20186    5.47407
3952.00000    48.74125    5.52193
3952.50000    48.69280    5.56978
3953.00000    48.63254    5.73378
3953.50000    48.57228    5.95268
3954.00000    48.51201    6.17159
3954.50000    48.45175    6.39049
3955.00000    48.39149    6.60940
3955.50000    48.97253    6.82830
3956.00000    56.50936    7.04720
3956.50000    68.04445    6.03597
3957.00000    79.57955    4.94575
3957.50000    80.20398    3.85553
3958.00000    76.42159    3.17450
3958.50000    72.63920    3.26357
3959.00000    68.85681    3.35265
3959.50000    65.07443    3.44173
3960.00000    61.29204    3.53080
3960.50000    57.50965    3.61988
3961.00000    64.16209    3.65327
3961.50000    72.25097    3.67272
3962.00000    69.05686    3.69217
3962.50000    65.86276    3.71162
3963.00000    62.66865    3.73107
3963.50000    59.47454    3.74038
3964.00000    59.84229    3.74113
3964.50000    61.78889    3.74189
3965.00000    63.73549    3.74264
3965.50000    65.68209    3.74340
3966.00000    67.62868    3.74415
3966.50000    69.57528    3.74490
3967.00000    69.33562    3.74566
3967.50000    67.78958    3.78701
3968.00000    66.24355    4.00591
3968.50000    64.69752    4.22482
3969.00000    63.61293    4.44372
3969.50000    65.86464    4.66262
3970.00000    68.11636    4.88152
3970.50000    70.36807    5.10043
3971.00000    72.61978    5.12938
3971.50000    74.87149    4.92559
3972.00000    73.59489    4.72180
3972.50000    72.12201    4.51801
3973.00000    70.64913    4.31422
3973.50000    69.17626    4.11043
3974.00000    67.70338    3.90665
3974.50000    66.23050    3.78993
3975.00000    64.75763    3.91804
3975.50000    65.30643    4.04615
3976.00000    71.94297    4.17427
3976.50000    72.52520    4.30238
3977.00000    69.93127    4.43049
3977.50000    67.33734    4.53788
3978.00000    64.74341    4.48118
3978.50000    65.12995    4.42447
3979.00000    67.04750    4.36777
3979.50000    68.96506    4.31106
3980.00000    70.88262    4.25436
3980.50000    72.80018    4.19766
3981.00000    74.71773    4.19530
3981.50000    76.63529    4.32724
3982.00000    76.52512    4.45918
3982.50000    74.02978    4.59112
3983.00000    71.53445    4.72305
3983.50000    69.03911    4.83862
3984.00000    64.07819    4.70805
3984.50000    55.62503    4.57747
3985.00000    47.17186    4.44690
3985.50000    39.57415    4.52722
3986.00000    50.05755    5.04384
3986.50000    50.33478    5.56045
3987.00000    50.61201    6.07707
3987.50000    50.88924    6.59368
3988.00000    51.16647    6.90340
3988.50000    52.02150    6.37469
3989.00000    53.03469    5.84598
3989.50000    54.04788    5.57437
3990.00000    55.06107    5.30917
3990.50000    54.31809    5.04397
3991.00000    52.96719    4.77877
3991.50000    51.61629    4.51358
3992.00000    51.09324    4.24838
3992.50000    50.65524    4.18022
3993.00000    50.21724    4.19250
3993.50000    49.77924    4.20477
3994.00000    49.42334    4.21705
3994.50000    49.83668    4.22933
3995.00000    50.25002    4.24161
