###############################################
##         ENVERUS                           ##
##         ESS - Open Hole                   ##
##         PERMIAN / DELAWARE                ##
##         Nov 04 2023  V4.0                 ##
##         42-389-00931-00-00                ##
###############################################
## Copyright 2017-2023  ENVERUS.  All Rights Reserved. 
## Confidential - Property of ENVERUS, use governed by terms and 
## conditions found within the existing Information Services Subscription Agreement 
## (as may be amended, the “ISSA”) between Customer and ENVERUS. 
## 
~VERSION INFORMATION
# MNEM.UNIT                               DATA : DESCRIPTION OF MNEMONIC
#-----.-----     ----------------------------- : -----------------------------
VERS.                                     2.00 : CWLS LOG ASCII STANDARD - VERSION 2.00
WRAP.                                       NO : MULTIPLE LINES PER DEPTH STEP
VEND.                                  ENVERUS : VENDOR
TYPE.                          ESS - OPEN HOLE : ENVERUS ESSENTIAL CURVES – ACCESSIBLE THROUGH ENVERUS PRISM(TM)
DOC.                                  31935239 : ENVERUS HEADER RAW DOCUMENT ID
#___________________________________________________________________________________________________ 
~WELL INFORMATION 
# S9zL0tdqvH3y2XIpNbXcuKF0SeIoK+7NE6VaQ02nn2+shQHF2oZWL/5TS96hefD+9qjP/MIJWV/WOidK809eGw== 
# MNEM.UNIT                                              DATA : DESCRIPTION OF MNEMONIC 
#-----.-----                    ----------------------------- : ----------------------------- 
CNTY.                                                  REEVES : COUNTY 
STATE.                                                  TEXAS : STATE 
CNTRY.                                                    USA : COUNTRY 
API.                                             42-389-00931 : API (10 Digit) 
API_14.                                    42-389-00931-00-00 : API (14 Digits) 
API_14_std.                                 42-389-00931-0000 : API (14 Digits Standard) 
UWI.                                           42389009310000 : UNIQUE WELL ID 
WELL.                                                      1, : WELL NAME
STRT.FT                                                 101.0 : START DEPTH
STOP.FT                                                5373.0 : STOP DEPTH
STEP.FT                                                   0.5 : STEP BETWEEN DEPTHS
NULL.                                                 -999.25 : NULL VALUE
#___________________________________________________________________________________________________ 
~CURVE INFORMATION 
# MNEM.UNIT           : CURVE DESCRIPTION 
#-----.-----          : ----------------------------- 
 DEPT.FT               : MEASURED DEPTH 
 GR.API                : GAMMA RAY (GR) 
 DT.US/FT              : SONIC DELTA TRANSIT TIME (DT) 
 #___________________________________________________________________________________________________ 
~A         DEPT             GR             DT
# ...
         4277.0          9.596         49.274
         4277.5          9.275         49.329
         4278.0          8.955         49.383
         4278.5          8.634         49.437
         4279.0          9.305         49.492
         4279.5         10.188         49.546
         4280.0         11.071         49.513
         4280.5         11.954         49.460
         4281.0         12.076         49.406
         4281.5          9.727         49.353
         4282.0          9.538         49.300
         4282.5          9.564         49.247
         4283.0          9.590         49.194
         4283.5          9.616         49.141
         4284.0          9.599         49.088
         4284.5          9.033         49.035
         4285.0          8.467         48.982
         4285.5          7.902         48.929
         4286.0          7.336         48.876
         4286.5          6.771         48.823
         4287.0          6.205         48.770
         4287.5          5.786         48.717
         4288.0          6.556         48.663
         4288.5          7.326         48.610
         4289.0          8.096         48.557
         4289.5          8.866         48.504
         4290.0          9.636         48.653
         4290.5         10.406         49.051
         4291.0         11.028         49.448
         4291.5         10.268         49.846
         4292.0          9.973         50.244
         4292.5         10.162         52.369
         4293.0         10.351         55.257
         4293.5         10.540         58.145
         4294.0         10.729         60.463
         4294.5         10.918         61.426
         4295.0         11.106         62.389
         4295.5         11.295         63.352
         4296.0         10.862         64.315
         4296.5         10.153         65.250
         4297.0          9.450         63.656
         4297.5          9.155         62.062
         4298.0          8.860         60.468
         4298.5          8.565         58.874
         4299.0          8.270         57.280
         4299.5          7.975         55.686
         4300.0          7.680         54.092
         4300.5          7.385         52.498
         4301.0          7.090         50.904
         4301.5          8.325         49.518
         4302.0         10.210         49.650
         4302.5         12.096         49.781
         4303.0         13.981         49.913
         4303.5         13.333         50.044
         4304.0         12.409         50.176
         4304.5         11.485         50.307
         4305.0         10.561         50.439
         4305.5          9.637         50.465
         4306.0          8.713         50.302
         4306.5          7.789         50.139
         4307.0          7.656         49.976
         4307.5          8.629         49.813
         4308.0          9.601         49.650
         4308.5         10.573         49.487
         4309.0         11.546         49.324
         4309.5         13.506         49.161
         4310.0         16.256         48.998
         4310.5         19.006         48.835
         4311.0         19.341         48.672
         4311.5         17.751         49.497
         4312.0         16.162         52.155
         4312.5         14.573         54.813
         4313.0         12.983         57.470
         4313.5         11.394         60.128
         4314.0          9.940         62.786
         4314.5          9.179         63.775
         4315.0          8.419         63.911
         4315.5          7.658         64.048
         4316.0          7.305         64.184
         4316.5          7.518         64.321
         4317.0          7.732         64.457
         4317.5          7.945         64.594
         4318.0          8.159         64.730
         4318.5          8.373         64.867
         4319.0          8.586         65.003
         4319.5          8.800         65.140
         4320.0          8.325         65.359
         4320.5          7.761         65.591
         4321.0          7.198         65.824
         4321.5          6.635         66.056
         4322.0          6.101         66.288
         4322.5          5.991         66.516
         4323.0          5.881         66.736
         4323.5          5.771         66.956
         4324.0          5.661         67.176
         4324.5          5.552         67.395
         4325.0          5.442         67.615
         4325.5          5.332         67.643
         4326.0          5.455         67.644
         4326.5          5.772         67.644
         4327.0          6.088         67.645
         4327.5          6.404         67.645
         4328.0          6.721         67.646
         4328.5          7.037         67.646
         4329.0          7.354         67.659
         4329.5          7.670         67.743
         4330.0          7.579         67.828
         4330.5          7.036         67.913
         4331.0          6.493         67.997
         4331.5          5.950         68.082
         4332.0          5.407         68.167
         4332.5          4.864         68.251
         4333.0          4.321         68.214
         4333.5          3.778         68.174
         4334.0          5.219         68.134
         4334.5          6.716         68.094
         4335.0          8.212         68.054
         4335.5          8.100         68.014
         4336.0          7.371         67.974
         4336.5          6.643         67.934
         4337.0          5.914         67.894
         4337.5          5.185         67.859
         4338.0          4.457         67.970
         4338.5          3.728         68.082
         4339.0          2.999         68.193
         4339.5          2.594         68.304
         4340.0          3.892         68.415
         4340.5          5.190         68.527
         4341.0          6.488         68.638
         4341.5          7.481         67.895
         4342.0          5.764         67.043
         4342.5          4.046         66.191
         4343.0          4.530         65.339
         4343.5          5.077         64.487
         4344.0          5.624         63.635
         4344.5          6.171         62.783
         4345.0          6.718         61.931
         4345.5          7.265         61.708
         4346.0          7.812         62.596
         4346.5          8.359         63.484
         4347.0          8.731         64.372
         4347.5          8.776         65.259
         4348.0          8.822         66.147
         4348.5          8.867         67.035
         4349.0          8.912         66.238
         4349.5          8.957         65.237
         4350.0          9.003         64.236
         4350.5          9.048         63.235
         4351.0          9.093         62.234
         4351.5          8.786         61.233
         4352.0          9.203         60.232
         4352.5          9.620         55.690
         4353.0         10.036         49.637
         4353.5         10.453         49.730
         4354.0         10.870         49.823
         4354.5         11.286         49.916
         4355.0         11.732         50.009
         4355.5         12.186         50.102
         4356.0         12.641         50.195
         4356.5         12.588         50.288
         4357.0         12.400         50.372
         4357.5         12.213         50.230
         4358.0         12.025         50.087
         4358.5         11.837         49.945
         4359.0         11.584         49.802
         4359.5         11.302         49.660
         4360.0         11.020         49.517
         4360.5         10.738         49.375
         4361.0         10.455         49.232
         4361.5         11.179         49.090
         4362.0         12.063         49.260
         4362.5         12.948         50.695
         4363.0         13.833         52.131
         4363.5         14.717         53.567
