~Version Information Block
 VERS.                2.00:     CWLS LOG ASCII STANDARD - VERSION 2.000000
 WRAP.                  NO:     One Line Per Depth Step
#
~Well Information Block
#MNEM.UNIT                     Data                         Information
#----------   ------------------------------------------   ----------------
 STRT.FT                                     1000.0000:     START DEPTH
 STOP.FT                                    15733.0000:     STOP DEPTH
 STEP.FT                                        0.5000:     STEP
 NULL.                                       -999.0000:     NULL VALUE
 COMP.                                 MOBIL PRODUCING:     COMPANY
 WELL.                                    IB-WEATHERBY:     WELL
 FLD .                                   ROJO CABALLOS:     FIELD
 LOC .                                         UNKNOWN:     LOCATION
 LONG.                                 -103.1458890000:     LONGITUDE
 LATI.                                   31.1330510000:     LATITUDE
 CNTY.                                           PECOS:     COUNTY
 STAT.                                           TEXAS:     STATE
 CTRY.                                           U.S.A:     COUNTRY
 SRVC.                                         UNKNOWN:     SERVICE COMPANY
 DATE.                                         UNKNOWN:     DATE
 API .                                  42371057360000:     API NUMBER
 UWI .                                  42371057360000:     UWI NUMBER
 SLAT.                                       31.133051:     Surface latitude
 SLON.                                     -103.145889:     surface longitude
 TVD .                                              NO:     TVD flag
 WSTA.                                             LOC:     Well status
#
~Curve Information Block
#MNEM.UNIT       API CODE      Curve Description
#----------    -------------   -------------------
 DEPT.FT                   :   Depth in Feet
 DT  .UNKNOWN          UNKNOWN:   DT-Load
 DTedit.ft/s          UNKNOWN:   DT-Load
 GR  .UNKNOWN          UNKNOWN:   GR-Load
 GR_org.UNKNOWN          UNKNOWN:   GR_org-Load
#
~Parameter Information Block
#MNEM.UNIT            Value               Description
#----------    --------------------    -------------------
 RUN .                         ONE:    Run Number
 PDAT.                          GL:    Permanent Datum
 EPD .FT                          :    Elevation Of Perm. Datum
 LMF .               KELLY BUSHING:    Log Measured From
 EKB .FT                          :    Elevation Of Kelly Bushing
 DF .FT                           :    Elevation Of Derrick Floor
 GL .FT                           :    Elevation Of Ground Level
 TD  .FT                          :    Total Depth
 CSGD.FT                          :    Casing Bottom (Driller) 1
 CSGL.FT                          :    Casing Bottom (Logger) 1
 MUD .                            :    Drilling Fluid Type
 MUDV .CP                         :    Drilling Fluid Viscosity
 MUDD .LB/USG                     :    Drilling Fluid Density
 FL .ML/30MIN                     :    Drilling Fluid Loss
 PH.                              :    Drilling Fluid Ph
 MUDS .                           :    Mud Sample Source
 RM .OHMM                         :    Resistivity Of Mud Sample
 RMT .DEGF                        :    Mud Sample Temperature
 RMF .OHMM                        :    Mud Filtrate Resistivity
 RMFT.DEGF                        :    Mud Filtrate Sample Temperature
 RMC .OHMM                        :    Mud Cake Resistivity
 RMCT.DEGF                        :    Mud Cake Sample Temperature
 RMB .OHMM                        :    Mud Resistivity At Bht
 TMAX .DEGF                       :    Bottom Hole Temperature
#
~Other Information Block
<DescLogPlotStart>   NEURALOG PLOT DEFINITION
PLOTDEFVERSION: 3
LASFILE: E:\Nair Innovations\42_TEXAS\371_Pecos\Mobil_IB-Weatherby 1 Pecos_1.la
DEPTHSCALE: 239.999996
RESOLUTION: 200
DEPTHLABELFREQ: 100.000000
HEAVYGRIDFREQ: 50.000000
MEDIUMGRIDFREQ: 50.000000
LIGHTGRIDFREQ: 10.000000
#
#   TRACK 1
#
STARTTRACK: 
 LEFTX: 0.500000 inch
 RIGHTX: 3.000000 inch
 SCALETYPE: Linear
 NUMCHARTDIVISIONS: 10
CURVE: GR    0.000000   150.000000 (255,0,0)      Short_Dash        4     N    
CURVE: DTedit 6637.927700 24453.046900 (0,131,131)    Solid             2     N
CURVE: GR_org -999.990000 109.000000 (255,0,255)    Solid             2     N  
ENDTRACK: 
#
#   TRACK 2
#
STARTTRACK: 
 LEFTX: 3.750000 inch
 RIGHTX: 6.250000 inch
 SCALETYPE: Linear
 NUMCHARTDIVISIONS: 10
ENDTRACK: 
#
#   TRACK 3
#
STARTTRACK: 
 LEFTX: 6.250000 inch
 RIGHTX: 8.750000 inch
 SCALETYPE: Linear
 NUMCHARTDIVISIONS: 10
CURVE: DT    190.000000 50.000000  (255,0,131)    Solid             2     N    
ENDTRACK: 
<DescLogPlotEnd>
<DepthTrack type='Reference' track='1' Label='0' color='0' hor='0' />
<Reference font='144,0,-900,0,500,0,16777216,Arial' />
~A DEPTH     DT               DTedit             GR               GR_org            
# ...
    9761.500 79.15450000      12633.52050000   26.85460000      26.85460000     
    9762.000 77.93440000      12831.30370000   26.85390000      26.85390000     
    9762.500 77.93440000      12831.30370000   26.61160000      26.61160000     
    9763.000 78.66300000      12712.45700000   26.06940000      26.06940000     
    9763.500 78.66300000      12712.45700000   25.76210000      25.76210000     
    9764.000 78.19560000      12788.44340000   25.90640000      25.90640000     
    9764.500 78.19560000      12788.44340000   26.10490000      26.10490000     
    9765.000 77.25450000      12944.22950000   26.54490000      26.54490000     
    9765.500 77.25450000      12944.22950000   26.98490000      26.98490000     
    9766.000 75.68770000      13212.18650000   26.92170000      26.92170000     
    9766.500 75.68770000      13212.18650000   26.82380000      26.82380000     
    9767.000 74.25760000      13466.63570000   26.17900000      26.17900000     
    9767.500 74.25760000      13466.63570000   27.08650000      27.08650000     
    9768.000 80.37460000      12441.74120000   28.71690000      28.71690000     
    9768.500 80.37460000      12441.74120000   30.22520000      30.22520000     
    9769.000 79.16580000      12631.71680000   30.49090000      30.49090000     
    9769.500 79.16580000      12631.71680000   30.26390000      30.26390000     
    9770.000 78.88440000      12676.77730000   30.68140000      30.68140000     
    9770.500 78.88440000      12676.77730000   33.16690000      33.16690000     
    9771.000 82.34360000      12144.23540000   35.44810000      35.44810000     
    9771.500 82.34360000      12144.23540000   36.30070000      36.30070000     
    9772.000 84.14600000      11884.10550000   35.98530000      35.98530000     
    9772.500 84.14600000      11884.10550000   34.79990000      34.79990000     
    9773.000 84.12650000      11886.86040000   33.15390000      33.15390000     
    9773.500 84.12650000      11886.86040000   33.33520000      33.33520000     
    9774.000 83.11880000      12030.97270000   32.72070000      32.72070000     
    9774.500 83.11880000      12030.97270000   31.36700000      31.36700000     
    9775.000 83.96670000      11909.48340000   29.87120000      29.87120000     
    9775.500 83.96670000      11909.48340000   28.47260000      28.47260000     
    9776.000 75.44310000      13255.02250000   27.26720000      27.26720000     
    9776.500 75.44310000      13255.02250000   26.90950000      26.90950000     
    9777.000 64.51770000      15499.62210000   29.09340000      29.09340000     
    9777.500 64.51770000      15499.62210000   29.76460000      29.76460000     
    9778.000 76.43360000      13083.25100000   29.49220000      29.49220000     
    9778.500 76.43360000      13083.25100000   29.58820000      29.58820000     
    9779.000 79.57320000      12567.04590000   29.88740000      29.88740000     
    9779.500 79.57320000      12567.04590000   30.10680000      30.10680000     
    9780.000 83.35360000      11997.08200000   30.30690000      30.30690000     
    9780.500 83.35360000      11997.08200000   30.20990000      30.20990000     
    9781.000 85.04940000      11757.87210000   30.05540000      30.05540000     
    9781.500 85.04940000      11757.87210000   29.62810000      29.62810000     
    9782.000 76.63480000      13048.90140000   28.65460000      28.65460000     
    9782.500 76.63480000      13048.90140000   26.95620000      26.95620000     
    9783.000 73.49220000      13606.88570000   26.45200000      26.45200000     
    9783.500 73.49220000      13606.88570000   26.38320000      26.38320000     
    9784.000 73.90260000      13531.32320000   26.40080000      26.40080000     
    9784.500 73.90260000      13531.32320000   24.97990000      24.97990000     
    9785.000 74.92920000      13345.93160000   23.79200000      23.79200000     
    9785.500 74.92920000      13345.93160000   22.67890000      22.67890000     
    9786.000 73.62720000      13581.93750000   21.69540000      21.69540000     
    9786.500 73.62720000      13581.93750000   21.02440000      21.02440000     
    9787.000 74.53060000      13417.30760000   21.22700000      21.22700000     
    9787.500 74.53060000      13417.30760000   21.91230000      21.91230000     
    9788.000 74.05350000      13503.75100000   22.63650000      22.63650000     
    9788.500 74.05350000      13503.75100000   24.49630000      24.49630000     
    9789.000 71.34460000      14016.47850000   26.69010000      26.69010000     
    9789.500 71.34460000      14016.47850000   27.67360000      27.67360000     
    9790.000 78.99100000      12659.67090000   28.24610000      28.24610000     
    9790.500 78.99100000      12659.67090000   28.44180000      28.44180000     
    9791.000 77.42710000      12915.37400000   28.84340000      28.84340000     
    9791.500 77.42710000      12915.37400000   29.41620000      29.41620000     
    9792.000 79.88990000      12517.22660000   29.52720000      29.52720000     
    9792.500 79.88990000      12517.22660000   28.16600000      28.16600000     
    9793.000 76.82980000      13015.78220000   26.69510000      26.69510000     
    9793.500 76.82980000      13015.78220000   26.15660000      26.15660000     
    9794.000 74.42260000      13436.77830000   25.60940000      25.60940000     
    9794.500 74.42260000      13436.77830000   25.02110000      25.02110000     
    9795.000 73.27760000      13646.73440000   24.26440000      24.26440000     
    9795.500 73.27760000      13646.73440000   23.95030000      23.95030000     
    9796.000 73.25210000      13651.48630000   24.42680000      24.42680000     
    9796.500 73.25210000      13651.48630000   24.53740000      24.53740000     
    9797.000 72.29760000      13831.71780000   25.00490000      25.00490000     
    9797.500 72.29760000      13831.71780000   25.54330000      25.54330000     
    9798.000 72.48220000      13796.49020000   26.02200000      26.02200000     
    9798.500 72.48220000      13796.49020000   25.62060000      25.62060000     
    9799.000 76.90190000      13003.58010000   24.27940000      24.27940000     
    9799.500 76.90190000      13003.58010000   23.57890000      23.57890000     
    9800.000 67.83130000      14742.45700000   23.89920000      23.89920000     
    9800.500 67.83130000      14742.45700000   27.85680000      27.85680000     
    9801.000 61.16050000      16350.42290000   30.13050000      30.13050000     
    9801.500 61.16050000      16350.42290000   30.58670000      30.58670000     
    9802.000 68.45570000      14607.98630000   31.24920000      31.24920000     
    9802.500 68.45570000      14607.98630000   31.10150000      31.10150000     
    9803.000 83.90970000      11917.57320000   30.28010000      30.28010000     
    9803.500 83.90970000      11917.57320000   29.67180000      29.67180000     
    9804.000 78.12650000      12799.75390000   30.04570000      30.04570000     
    9804.500 78.12650000      12799.75390000   31.22990000      31.22990000     
    9805.000 74.84440000      13361.05370000   31.80120000      31.80120000     
    9805.500 74.84440000      13361.05370000   31.80020000      31.80020000     
    9806.000 76.92590000      12999.52250000   32.16600000      32.16600000     
    9806.500 76.92590000      12999.52250000   31.57140000      31.57140000     
    9807.000 79.29550000      12611.05570000   28.98870000      28.98870000     
    9807.500 79.29550000      12611.05570000   26.44580000      26.44580000     
    9808.000 82.00890000      12193.79790000   24.80290000      24.80290000     
    9808.500 82.00890000      12193.79790000   23.95900000      23.95900000     
    9809.000 82.26260000      12156.19240000   23.44240000      23.44240000     
    9809.500 82.26260000      12156.19240000   23.20070000      23.20070000     
    9810.000 74.80980000      13367.23240000   24.41650000      24.41650000     
    9810.500 74.80980000      13367.23240000   24.85900000      24.85900000     
