#--------------------------------------------------#
#-------------------ENVERUS, INC.------------------#
#------------------WWW.ENVERUS.COM-----------------#
#------------------COPYRIGHT 2020------------------#
#--------------------------------------------------#
#THIS FILE MAY BE USED ONLY IN ACCORDANCE WITH A CURRENT SUBSCRIPTION AGREEMENT BETWEEN
#THE USER AND ENVERUS, INC. NO PART OF THIS FILE MAY BE REPRODUCED, USED, COPIED,
#MODIFIED, PROPAGATED, OR DISTRIBUTED EXCEPT IN ACCORDANCE WITH THE SUBSCRIPTION
#AGREEMENT. UNAUTHORIZED USE OR DISTRIBUTION OF ALL OR ANY PART OF THIS FILE MAY VIOLATE
#COPYRIGHT, TRADEMARK, AND/OR OTHER LAWS AND IS SUBJECT TO CIVIL AS WELL AS CRIMINAL
#SANCTIONS.
#--------------------------------------------------#
#THIS FILE IS PROVIDED "AS-IS" AND ALL WARRANTIES ARE EXPRESSLY DISCLAIMED, WHETHER
#EXPRESS, ORAL, IMPLIED, STATUTORY OR OTHERWISE, INCLUDING ANY IMPLIED WARRANTY OF FITNESS
#FOR A PARTICULAR PURPOSE, MERCHANTABILITY, TITLE OR NON-INFRINGEMENT, AND ANY WARRANTIES
#ARISING BY VIRTUE OF CUSTOM OF TRADE OR COURSE OF DEALING.  FURTHER, ENVERUS, INC.
#AND ITS LICENSORS DO NOT REPRESENT OR WARRANT THAT THIS FILE WILL MEET USER'S
#REQUIREMENTS OR ARE SUITABLE FOR USER'S NEEDS OR THAT THE DATA OR RESULTS PROVIDED IN
#CONJUNCTION THEREWITH ARE CORRECT, ACCURATE, TIMELY OR RELIABLE. THESE DISCLAIMERS SHALL
#APPLY REGARDLESS OF ANY FAILURE OF ESSENTIAL PURPOSE OF ANY LIMITED REMEDY.  SOME
#JURISDICTIONS DO NOT ALLOW THE EXCLUSION OF CERTAIN WARRANTIES SO SOME OF THE ABOVE
#EXCLUSIONS MAY NOT APPLY. IN NO EVENT SHALL ENVERUS, INC. OR ANY OF ITS AFFILIATES
#BE LIABLE UNDER ANY LEGAL THEORY, WHETHER IN TORT (INCLUDING WITHOUT LIMITATION
#NEGLIGENCE), CONTRACT, STRICT LIABILITY, STATUTORY OR OTHERWISE, FOR ANY SPECIAL,
#INCIDENTAL, CONSEQUENTIAL, EXEMPLARY, PUNITIVE OR INDIRECT DAMAGE OF ANY KIND, INCLUDING
#WITHOUT LIMITATION LOSS OF REVENUE, PROFITS, GOODWILL, USE, AND/OR DATA OR THE COST OF
#PROCUREMENT OF SUBSTITUTE GOODS OR SERVICES, EVEN IF APPRISED OF THE POSSIBILITY OF SUCH
#DAMAGES IN ADVANCE.
#--------------------------------------------------#

~VERSION INFORMATION
VERS. 2.0 : CWLS LOG ASCII STANDARD - VERSION 2.0
WRAP. NO : ONE LINE PER DEPTH STEP
~WELL INFORMATION
#MNEMONIC     .UNIT              VALUE :DESCRIPTION
STRT       .FT                38.00000 :START DEPTH
STOP       .FT                20083.00000 :STOP DEPTH
STEP       .FT                0.50000 :STEP
NULL       .                -999.25000 :NULL VALUE
UWI       .                42389302750000 :UNIQUE WELL ID
API       .                42389302750000 :API NUMBER
COMP       .                 :COMPANY
WELL       .                 :WELL
FLD       .                 :FIELD
LOC       .                 :LOCATION
CNTY       .                 :COUNTY
STAT       .                 :STATE
CTRY       .                 :COUNTRY
SRVC       .                 :SERVICE COMPANY
DATE       .                 :DATE
~CURVE INFORMATION
#MNEMONIC     .UNIT      API CODE :CURVE DESCRIPTION
DEPTH       .FT                      :MEASURED DEPTH
CAL       .IN        UNKNOWN   :CAL
DT       .US/FT        UNKNOWN   :DT
GR       .GAPI        UNKNOWN   :GR
~A    DEPTH    CAL    DT    GR
# ...
11200.50000    13.53604    83.93754    73.53120
11201.00000    13.36490    81.19005    70.40029
11201.50000    13.35035    78.44255    67.26938
11202.00000    13.35026    75.69505    64.13848
11202.50000    13.35017    72.94756    61.00757
11203.00000    13.44273    70.20006    57.87666
11203.50000    13.67574    73.16707    54.74575
11204.00000    13.90876    78.51348    51.61484
11204.50000    14.14177    83.85989    50.57870
11205.00000    14.37478    89.20631    55.67331
11205.50000    13.77001    96.95915    60.76792
11206.00000    13.04568    100.73000    65.86253
11206.50000    13.12509    98.12343    70.95714
11207.00000    13.30353    95.51686    68.65237
11207.50000    13.48197    92.55050    66.16599
11208.00000    13.66042    89.38067    63.67960
11208.50000    13.67835    86.21084    61.19322
11209.00000    13.36703    83.04100    58.70684
11209.50000    13.05571    79.87117    57.40519
11210.00000    13.10738    81.57866    59.29094
11210.50000    13.21601    84.61014    61.17669
11211.00000    13.32463    87.64163    63.06244
11211.50000    13.43326    90.67311    64.94820
11212.00000    13.54189    93.70459    66.83395
11212.50000    13.65051    95.14477    68.71970
11213.00000    13.75914    89.66828    69.69438
11213.50000    13.70857    84.19179    63.65719
11214.00000    13.38804    78.71530    57.62000
11214.50000    13.06751    73.23881    51.74990
11215.00000    13.13845    75.91005    53.95802
11215.50000    13.25130    99.23083    56.16613
11216.00000    13.36414    98.29654    58.37425
11216.50000    13.47698    96.98515    60.58237
11217.00000    13.58982    95.64995    62.79048
11217.50000    13.70266    94.31475    63.26848
11218.00000    13.81551    92.97955    63.43935
11218.50000    13.92835    91.64435    64.55814
11219.00000    13.78804    90.30914    65.87351
11219.50000    13.59940    88.97394    67.18887
11220.00000    13.49375    87.63874    68.50424
11220.50000    13.50048    87.83323    69.81961
11221.00000    13.50722    89.11664    69.94212
11221.50000    13.51396    90.40005    69.15135
11222.00000    13.52069    91.68345    68.36058
11222.50000    13.52743    92.96686    67.56982
11223.00000    13.53417    94.25027    66.77905
11223.50000    13.54091    94.52492    65.43825
11224.00000    13.54764    91.77713    63.91689
11224.50000    13.55438    89.02933    62.39552
11225.00000    13.56111    86.28153    60.87416
11225.50000    13.50959    83.53374    59.35280
11226.00000    13.45058    80.78594    57.83143
11226.50000    13.39157    78.03815    56.31007
11227.00000    13.33256    75.78947    54.78870
11227.50000    13.27354    78.82089    53.26734
11228.00000    13.21453    81.85231    51.74597
11228.50000    13.29622    84.88373    55.73703
11229.00000    13.61138    87.91515    59.87029
11229.50000    13.92654    90.94657    64.00354
11230.00000    14.22835    93.97799    68.13680
11230.50000    14.10141    97.00941    69.07594
11231.00000    13.97448    96.25566    68.07415
11231.50000    13.84754    95.00027    67.07237
11232.00000    13.76073    93.74487    66.07058
11232.50000    13.72506    92.48948    64.49756
11233.00000    13.68939    91.23409    62.30044
11233.50000    13.65372    91.15893    60.10332
11234.00000    13.61805    92.32882    59.57838
11234.50000    13.63489    93.49872    59.98003
11235.00000    13.67186    92.64534    60.38168
11235.50000    13.70883    90.89733    60.78333
11236.00000    13.74579    89.14932    61.18497
11236.50000    13.78276    87.40132    61.58662
11237.00000    13.81973    85.65331    60.50453
11237.50000    13.76885    97.98965    58.47604
11238.00000    13.70800    103.75717    56.44755
11238.50000    13.64715    106.23376    54.41907
11239.00000    13.65315    103.36728    52.39058
11239.50000    13.78546    100.50081    52.96489
11240.00000    13.91778    97.63433    54.85266
11240.50000    14.05009    94.76785    56.74043
11241.00000    14.04915    91.90137    58.62819
11241.50000    14.03425    92.63630    60.51596
11242.00000    14.01934    98.26492    62.40372
11242.50000    14.00443    90.77123    64.29149
11243.00000    13.98952    90.56775    64.99074
11243.50000    13.97461    92.12396    64.57575
11244.00000    13.96625    93.68017    64.16076
11244.50000    13.96617    95.23638    63.74577
11245.00000    13.96609    96.79259    63.33079
11245.50000    13.96601    98.34879    62.91580
11246.00000    13.96593    99.90500    62.50081
11246.50000    13.96585    101.46121    62.10539
11247.00000    13.96577    102.18760    63.01838
11247.50000    13.96569    99.62878    63.93137
11248.00000    13.96561    97.06996    64.84435
11248.50000    13.96552    94.51113    65.75734
11249.00000    13.96544    91.95231    66.67033
11249.50000    14.02146    90.39102    66.03442
11250.00000    14.20422    93.16935    64.76214
11250.50000    14.23370    95.94767    63.48987
11251.00000    14.16174    95.23160    62.21759
11251.50000    14.08977    93.82292    60.94532
11252.00000    14.01781    92.41424    59.67304
11252.50000    13.94584    95.68283    60.00512
11253.00000    13.90979    104.46459    62.25938
11253.50000    13.97406    101.78360    64.51364
11254.00000    14.03834    99.10262    65.91560
11254.50000    14.10261    96.42163    64.48877
11255.00000    14.16688    93.74065    63.06193
11255.50000    14.22315    91.05966    61.63510
11256.00000    14.11259    88.37867    60.20826
11256.50000    14.00203    86.66331    58.78143
11257.00000    14.03262    89.08204    60.01245
11257.50000    14.13660    91.50078    62.64846
11258.00000    14.24057    93.91951    65.28446
11258.50000    14.30186    96.33825    67.92046
11259.00000    14.19262    96.02109    70.55647
11259.50000    14.08339    93.94822    69.90223
11260.00000    13.97415    91.87534    66.38610
11260.50000    13.86993    89.80247    62.86997
11261.00000    13.96336    87.82834    59.35384
11261.50000    14.05680    88.70161    55.83771
11262.00000    14.15023    89.57488    55.16820
11262.50000    14.24366    90.44815    58.45672
11263.00000    14.00558    91.32142    61.74524
11263.50000    13.77509    92.19469    65.03377
11264.00000    13.74781    93.06795    68.32229
11264.50000    13.72054    93.94122    71.61081
11265.00000    13.71807    94.81449    74.06835
11265.50000    13.81035    95.68776    69.45844
11266.00000    13.90262    96.56103    64.84852
11266.50000    13.99490    97.43430    67.38743
11267.00000    14.08717    98.30757    71.15224
11267.50000    14.17696    96.32263    74.91705
11268.00000    14.05654    93.18429    72.20447
11268.50000    13.93611    90.04595    67.08374
11269.00000    14.02161    86.90761    61.96302
11269.50000    14.23357    84.69769    56.84229
11270.00000    14.44553    83.90934    51.72156
11270.50000    14.57397    83.12099    46.60083
11271.00000    14.41447    82.33264    51.24804
11271.50000    14.25498    81.54429    61.19357
11272.00000    14.09549    80.75594    59.57973
11272.50000    13.93599    79.96759    57.71275
11273.00000    13.90158    80.37302    55.84578
11273.50000    14.04838    81.50616    53.97880
11274.00000    14.19518    82.63930    52.11183
11274.50000    14.34197    83.77244    50.24486
11275.00000    14.48877    84.90558    48.37788
11275.50000    14.28496    86.03872    49.14166
11276.00000    14.01134    87.17186    50.08183
11276.50000    14.10699    88.30500    51.02200
11277.00000    14.20577    85.29596    51.96216
11277.50000    14.30455    82.09099    52.90233
11278.00000    14.40333    79.70529    53.84250
11278.50000    14.38961    79.54517    54.21570
11279.00000    14.19159    79.38505    53.33705
11279.50000    13.99357    79.22493    52.45841
11280.00000    13.85636    79.06481    51.57976
11280.50000    13.83295    78.90469    50.70112
11281.00000    13.80954    78.74457    49.82247
11281.50000    13.78614    78.58445    52.21412
11282.00000    13.75933    78.42433    55.42118
11282.50000    13.72126    90.94330    58.62825
11283.00000    13.68319    93.39165    61.83531
11283.50000    13.64512    95.83999    65.04238
