#--------------------------------------------------#
#-------------------ENVERUS, INC.------------------#
#------------------WWW.ENVERUS.COM-----------------#
#------------------COPYRIGHT 2020------------------#
#--------------------------------------------------#
#THIS FILE MAY BE USED ONLY IN ACCORDANCE WITH A CURRENT SUBSCRIPTION AGREEMENT BETWEEN
#THE USER AND ENVERUS, INC. NO PART OF THIS FILE MAY BE REPRODUCED, USED, COPIED,
#MODIFIED, PROPAGATED, OR DISTRIBUTED EXCEPT IN ACCORDANCE WITH THE SUBSCRIPTION
#AGREEMENT. UNAUTHORIZED USE OR DISTRIBUTION OF ALL OR ANY PART OF THIS FILE MAY VIOLATE
#COPYRIGHT, TRADEMARK, AND/OR OTHER LAWS AND IS SUBJECT TO CIVIL AS WELL AS CRIMINAL
#SANCTIONS.
#--------------------------------------------------#
#THIS FILE IS PROVIDED "AS-IS" AND ALL WARRANTIES ARE EXPRESSLY DISCLAIMED, WHETHER
#EXPRESS, ORAL, IMPLIED, STATUTORY OR OTHERWISE, INCLUDING ANY IMPLIED WARRANTY OF FITNESS
#FOR A PARTICULAR PURPOSE, MERCHANTABILITY, TITLE OR NON-INFRINGEMENT, AND ANY WARRANTIES
#ARISING BY VIRTUE OF CUSTOM OF TRADE OR COURSE OF DEALING.  FURTHER, ENVERUS, INC.
#AND ITS LICENSORS DO NOT REPRESENT OR WARRANT THAT THIS FILE WILL MEET USER'S
#REQUIREMENTS OR ARE SUITABLE FOR USER'S NEEDS OR THAT THE DATA OR RESULTS PROVIDED IN
#CONJUNCTION THEREWITH ARE CORRECT, ACCURATE, TIMELY OR RELIABLE. THESE DISCLAIMERS SHALL
#APPLY REGARDLESS OF ANY FAILURE OF ESSENTIAL PURPOSE OF ANY LIMITED REMEDY.  SOME
#JURISDICTIONS DO NOT ALLOW THE EXCLUSION OF CERTAIN WARRANTIES SO SOME OF THE ABOVE
#EXCLUSIONS MAY NOT APPLY. IN NO EVENT SHALL ENVERUS, INC. OR ANY OF ITS AFFILIATES
#BE LIABLE UNDER ANY LEGAL THEORY, WHETHER IN TORT (INCLUDING WITHOUT LIMITATION
#NEGLIGENCE), CONTRACT, STRICT LIABILITY, STATUTORY OR OTHERWISE, FOR ANY SPECIAL,
#INCIDENTAL, CONSEQUENTIAL, EXEMPLARY, PUNITIVE OR INDIRECT DAMAGE OF ANY KIND, INCLUDING
#WITHOUT LIMITATION LOSS OF REVENUE, PROFITS, GOODWILL, USE, AND/OR DATA OR THE COST OF
#PROCUREMENT OF SUBSTITUTE GOODS OR SERVICES, EVEN IF APPRISED OF THE POSSIBILITY OF SUCH
#DAMAGES IN ADVANCE.
#--------------------------------------------------#

# EXPORTED FROM DI TRANSFORM
# DI TRANSFORM - A PRODUCT OF DRILLINGINFO, INC. - WWW.DRILLINGINFO.COM
#
~VERSION INFORMATION
 VERS.        2.0 : LAS ASCII STANDARD - VERSION 2.0
 WRAP.         NO : ONE LINE PER DEPTH STEP

~WELL INFORMATION
#MNEM.UNIT       DATA TYPE       INFORMATION
#---------       ---------       -----------
 STRT.FT           100 : START DEPTH
 STOP.FT         18040 : STOP DEPTH
 STEP.FT           0.5 : STEP LENGTH
 NULL.         -999.25 : NULL VALUE
 UWI.   42371302980000 : UNIQUE WELL ID
 API.   42371302980000 : WELL IDENTIFIER
 COMP.                 : COMPANY
 WELL.          DRD_55 : WELL NAME
 FLD.                  : FIELD NAME
 LOC.                  : WELL LOCATION
 CNTY.                 : COUNTY
 STAT.                 : STATE OR PROVINCE
 CTRY.                 : COUNTRY
 SRVC.                 : SERVICE COMPANY
 DATE.                 : DATE

~CURVE INFORMATION
#MNEM.UNIT       API CODE       CURVE DESCRIPTION
#---------       --------       -----------------
 DEPT.FT        : <MEASURED DEPTH>
 CAL.IN         : CALIPER
 DT.US/FT       : SONIC
 GR.GAPI        : GAMMA RAY

~PARAMETER INFORMATION
#MNEM.UNIT       VALUE       DESCRIPTION
#---------       -----       -----------

~A       DEPT         CAL          DT          GR
# ...
         9540     13.7733     72.9489     93.0324
       9540.5     13.7733      73.685     89.2929
         9541     13.7733      75.258     88.2591
       9541.5     13.7733     77.3187     91.5105
         9542     13.7733     79.3378    100.3484
       9542.5     13.7733     80.0421    105.4813
         9543     13.7964      80.084    107.9237
       9543.5     13.8543     79.6517    110.3321
         9544     13.8821     79.6875    111.0572
       9544.5     13.9352      81.484    108.2017
         9545     14.0083      81.501     104.363
       9545.5     14.0309     81.2684    102.2456
         9546     14.0567     78.8237    104.9516
       9546.5     14.1377     74.6539    107.2725
         9547     14.1377     70.3771    105.9834
       9547.5     14.1377     68.5764    100.0438
         9548      14.225     69.4038     93.7155
       9548.5     14.2591     71.9051     87.5322
         9549     14.3107     74.4935       85.83
       9549.5     14.3064     76.7848     87.2804
         9550     14.2996     78.2601     93.6285
       9550.5     14.2996     79.1765     95.9313
         9551     14.2996     78.2406     96.9671
       9551.5     14.2591      76.129     97.5709
         9552     14.2996     73.4295     97.1907
       9552.5     14.2996     71.6224     95.4718
         9553     14.2996     73.1576     92.5732
       9553.5     14.2996      76.294     90.0234
         9554     14.2996     78.9663     93.3244
       9554.5     14.2996     80.5076     99.0508
         9555     14.2996     80.6518    109.6574
       9555.5     14.3401      79.523    110.4971
         9556     14.3844     78.3252    108.9069
       9556.5     14.4211     77.6536    108.2376
         9557     14.4125     77.4848    106.2513
       9557.5     14.3806     78.0095    102.2102
         9558     14.3401     78.4584    103.2336
       9558.5     14.3401     78.4584    107.1282
         9559     14.3401     78.4584      111.99
       9559.5     14.3401     78.5801    114.5711
         9560     14.3401     78.5801    113.0182
       9560.5     14.3401     78.4584    107.5936
         9561     14.3401     78.4584    103.6832
       9561.5     14.3304     78.4293    102.1695
         9562     14.2591     78.0085    105.1379
       9562.5     14.2591     77.6848    109.0068
         9563     14.2961     77.0291     111.336
       9563.5     14.3997     76.5752    107.8204
         9564     14.4211     76.0852    105.2633
       9564.5     14.4211      76.583    105.4361
         9565     14.4211     76.7818    106.7776
       9565.5     14.3924     77.4567    107.1442
         9566     14.3806     77.8499    105.0475
       9566.5     14.3401     77.7495    103.7146
         9567     14.3401     77.6065    103.0836
       9567.5     14.3401     77.8428    101.4639
         9568     14.4211     78.2456     98.4808
       9568.5     14.4211     78.5801     96.7371
         9569      14.396      78.777     96.2016
       9569.5     14.3806     79.4535     97.4756
         9570     14.3806     79.7649    102.6366
       9570.5     14.3806     79.9189    107.1315
         9571     14.3806     79.8152    111.2762
       9571.5     14.3806     77.7075    108.7658
         9572     14.3413     75.3792    105.6991
       9572.5     14.3401     74.5892    102.8114
         9573     14.3401     74.8945     99.2351
       9573.5     14.3401     76.5916     95.3116
         9574     14.3401     78.3615    100.6333
       9574.5     14.3401     78.4584    114.5282
         9575     14.3271     78.5801    116.6793
       9575.5     14.2591     79.6094    110.9413
         9576     14.2591     80.6189    103.2757
       9576.5     14.2591     81.5608    100.0041
         9577     14.2591     80.5614     98.1558
       9577.5     14.2545      79.674     97.9297
         9578     14.2186       78.62     96.8938
       9578.5     14.2186     78.3367     96.3563
         9579     14.2506     78.4328      95.472
       9579.5     14.2996     78.5008     92.8266
         9580     14.2996     78.6905     88.7962
       9580.5     14.2996     78.7669     89.2572
         9581     14.2996     78.8206     91.5076
       9581.5     14.2996     78.7018     92.0719
         9582     14.2996     78.5801     90.6909
       9582.5     14.2996     78.4584     87.9759
         9583     14.2891     78.4898     87.5539
       9583.5      14.226     78.5801     89.2511
         9584     14.2186     79.3714     90.1314
       9584.5     14.2186     80.0285     89.0956
         9585     14.2186     80.4656     88.8634
       9585.5     14.2186     80.3293      90.112
         9586     14.1781     79.4262     91.7892
       9586.5     14.1781     78.1536     94.8731
         9587     14.1781     77.2636     97.2944
       9587.5     14.1377     76.6069     97.4553
         9588     14.1377     77.9146     96.7611
       9588.5     14.1377     78.4102     96.5193
         9589     14.1377     78.4679     99.8899
       9589.5     14.1377     78.1494    102.5184
         9590     14.1377     77.1376     100.528
       9590.5     14.1377     75.8139     98.1962
         9591     14.1377     75.0759     96.9681
       9591.5     14.1071     75.0667     93.8707
         9592     14.0972     75.4539     90.6501
       9592.5     14.0972     76.5623     89.0167
         9593     14.0972     75.6069     92.7445
       9593.5     14.0972     74.6919    100.7816
         9594     14.0567      73.363     96.8874
       9594.5     14.0567     73.8337     93.0105
         9595     14.0567     74.5221     88.4661
       9595.5     14.0072     75.2131     87.8543
         9596     13.9036      76.013     89.4105
       9596.5     13.8543     78.3427     91.2307
         9597     13.8179     80.5141     92.6304
       9597.5     13.7548     82.5598     95.1995
         9598     13.7328     84.1814     96.3563
       9598.5     13.7328     84.9009     96.5888
         9599     13.7382     84.2436     98.0422
       9599.5     13.7733     82.5084    101.6194
         9600     13.7733     79.7363    101.1134
       9600.5     13.7733     78.8701    100.7322
         9601     13.7733     78.9053    101.0659
       9601.5     13.7733     83.2181     99.6553
         9602     13.7328     84.6494     98.3806
       9602.5     13.7328     81.0568    100.2632
         9603     13.6923     82.7913    102.0243
       9603.5     13.6923     83.7745    102.0243
         9604     13.6923     88.8772    102.0243
       9604.5     13.6923     79.6459    101.5072
         9605     13.6923     74.6238      98.444
       9605.5     13.6359     70.7174     93.6562
         9606     13.6113     72.0926     87.1492
       9606.5     13.6113     74.5073     86.8468
         9607     13.6113     74.7902     87.7939
       9607.5     13.6113     73.9692     91.8798
         9608     13.6038     72.2326      93.636
       9608.5     13.5709     70.5063     95.0388
         9609     13.5709     68.9205     95.0184
       9609.5     13.5709     67.9035     93.4307
         9610     13.5709     68.5014     84.0472
       9610.5     13.5709      70.044     75.9669
         9611     13.5709      73.792     74.3072
       9611.5     13.5447     75.4751      79.974
         9612     13.4494     77.0739     86.8794
       9612.5     13.4494     78.0108     93.0601
         9613     13.4494     78.9151    102.7441
       9613.5     13.4494     79.8981    108.7687
         9614     13.4089     80.7983    113.2493
       9614.5     13.4089     81.5221    118.4787
         9615     13.4089     81.6218      124.71
       9615.5     13.4089     80.9051    127.4425
         9616     13.4089     78.8239    125.6838
       9616.5     13.4089     77.0274    118.7756
         9617     13.4089     74.4923    112.8417
       9617.5     13.4089     73.6267    102.9544
         9618     13.4089     72.9287     96.9168
       9618.5     13.4089     72.0991     93.9772
         9619     13.4089      71.133     92.9246
       9619.5     13.4089      71.744     93.1385
