~Version Information Block
 VERS.                2.00:     CWLS LOG ASCII STANDARD - VERSION 2.000000
 WRAP.                  NO:     One Line Per Depth Step
#
~Well Information Block
#MNEM.UNIT                     Data                         Information
#----------   ------------------------------------------   ----------------
 STRT.FT                                     1000.0000:     START DEPTH
 STOP.FT                                    15733.0000:     STOP DEPTH
 STEP.FT                                        0.5000:     STEP
 NULL.                                       -999.0000:     NULL VALUE
 COMP.                                 MOBIL PRODUCING:     COMPANY
 WELL.                                    IB-WEATHERBY:     WELL
 FLD .                                   ROJO CABALLOS:     FIELD
 LOC .                                         UNKNOWN:     LOCATION
 LONG.                                 -103.1458890000:     LONGITUDE
 LATI.                                   31.1330510000:     LATITUDE
 CNTY.                                           PECOS:     COUNTY
 STAT.                                           TEXAS:     STATE
 CTRY.                                           U.S.A:     COUNTRY
 SRVC.                                         UNKNOWN:     SERVICE COMPANY
 DATE.                                         UNKNOWN:     DATE
 API .                                  42371057360000:     API NUMBER
 UWI .                                  42371057360000:     UWI NUMBER
 SLAT.                                       31.133051:     Surface latitude
 SLON.                                     -103.145889:     surface longitude
 TVD .                                              NO:     TVD flag
 WSTA.                                             LOC:     Well status
#
~Curve Information Block
#MNEM.UNIT       API CODE      Curve Description
#----------    -------------   -------------------
 DEPT.FT                   :   Depth in Feet
 DT  .UNKNOWN          UNKNOWN:   DT-Load
 DTedit.ft/s          UNKNOWN:   DT-Load
 GR  .UNKNOWN          UNKNOWN:   GR-Load
 GR_org.UNKNOWN          UNKNOWN:   GR_org-Load
#
~Parameter Information Block
#MNEM.UNIT            Value               Description
#----------    --------------------    -------------------
 RUN .                         ONE:    Run Number
 PDAT.                          GL:    Permanent Datum
 EPD .FT                          :    Elevation Of Perm. Datum
 LMF .               KELLY BUSHING:    Log Measured From
 EKB .FT                          :    Elevation Of Kelly Bushing
 DF .FT                           :    Elevation Of Derrick Floor
 GL .FT                           :    Elevation Of Ground Level
 TD  .FT                          :    Total Depth
 CSGD.FT                          :    Casing Bottom (Driller) 1
 CSGL.FT                          :    Casing Bottom (Logger) 1
 MUD .                            :    Drilling Fluid Type
 MUDV .CP                         :    Drilling Fluid Viscosity
 MUDD .LB/USG                     :    Drilling Fluid Density
 FL .ML/30MIN                     :    Drilling Fluid Loss
 PH.                              :    Drilling Fluid Ph
 MUDS .                           :    Mud Sample Source
 RM .OHMM                         :    Resistivity Of Mud Sample
 RMT .DEGF                        :    Mud Sample Temperature
 RMF .OHMM                        :    Mud Filtrate Resistivity
 RMFT.DEGF                        :    Mud Filtrate Sample Temperature
 RMC .OHMM                        :    Mud Cake Resistivity
 RMCT.DEGF                        :    Mud Cake Sample Temperature
 RMB .OHMM                        :    Mud Resistivity At Bht
 TMAX .DEGF                       :    Bottom Hole Temperature
#
~Other Information Block
<DescLogPlotStart>   NEURALOG PLOT DEFINITION
PLOTDEFVERSION: 3
LASFILE: E:\Nair Innovations\42_TEXAS\371_Pecos\Mobil_IB-Weatherby 1 Pecos_1.la
DEPTHSCALE: 239.999996
RESOLUTION: 200
DEPTHLABELFREQ: 100.000000
HEAVYGRIDFREQ: 50.000000
MEDIUMGRIDFREQ: 50.000000
LIGHTGRIDFREQ: 10.000000
#
#   TRACK 1
#
STARTTRACK: 
 LEFTX: 0.500000 inch
 RIGHTX: 3.000000 inch
 SCALETYPE: Linear
 NUMCHARTDIVISIONS: 10
CURVE: GR    0.000000   150.000000 (255,0,0)      Short_Dash        4     N    
CURVE: DTedit 6637.927700 24453.046900 (0,131,131)    Solid             2     N
CURVE: GR_org -999.990000 109.000000 (255,0,255)    Solid             2     N  
ENDTRACK: 
#
#   TRACK 2
#
STARTTRACK: 
 LEFTX: 3.750000 inch
 RIGHTX: 6.250000 inch
 SCALETYPE: Linear
 NUMCHARTDIVISIONS: 10
ENDTRACK: 
#
#   TRACK 3
#
STARTTRACK: 
 LEFTX: 6.250000 inch
 RIGHTX: 8.750000 inch
 SCALETYPE: Linear
 NUMCHARTDIVISIONS: 10
CURVE: DT    190.000000 50.000000  (255,0,131)    Solid             2     N    
ENDTRACK: 
<DescLogPlotEnd>
<DepthTrack type='Reference' track='1' Label='0' color='0' hor='0' />
<Reference font='144,0,-900,0,500,0,16777216,Arial' />
~A DEPTH     DT               DTedit             GR               GR_org            
# ...
   11642.500 -999.99000000    9683.89650000    26.15370000      26.15370000     
   11643.000 -999.99000000    9684.15920000    25.29360000      25.29360000     
   11643.500 -999.99000000    9684.42190000    24.54220000      24.54220000     
   11644.000 -999.99000000    9684.68460000    23.97300000      23.97300000     
   11644.500 -999.99000000    9684.94730000    23.51860000      23.51860000     
   11645.000 -999.99000000    9685.21000000    23.16280000      23.16280000     
   11645.500 -999.99000000    9685.47270000    22.24910000      22.24910000     
   11646.000 -999.99000000    9685.73540000    20.59640000      20.59640000     
   11646.500 -999.99000000    9685.99800000    18.35700000      18.35700000     
   11647.000 -999.99000000    9686.26070000    17.15120000      17.15120000     
   11647.500 -999.99000000    9686.52340000    16.29990000      16.29990000     
   11648.000 -999.99000000    9686.78520000    15.51850000      15.51850000     
   11648.500 -999.99000000    9687.04880000    14.90430000      14.90430000     
   11649.000 -999.99000000    9687.31050000    14.67960000      14.67960000     
   11649.500 -999.99000000    9687.57420000    16.65940000      16.65940000     
   11650.000 -999.99000000    9687.83590000    18.59920000      18.59920000     
   11650.500 -999.99000000    9688.09960000    21.29050000      21.29050000     
   11651.000 -999.99000000    9688.36130000    24.01670000      24.01670000     
   11651.500 -999.99000000    9688.62500000    26.23360000      26.23360000     
   11652.000 -999.99000000    9688.88670000    28.05480000      28.05480000     
   11652.500 -999.99000000    9689.15040000    27.86630000      27.86630000     
   11653.000 -999.99000000    9689.41210000    26.46330000      26.46330000     
   11653.500 -999.99000000    9689.67580000    24.62580000      24.62580000     
   11654.000 -999.99000000    9689.93750000    22.65610000      22.65610000     
   11654.500 -999.99000000    9690.20120000    23.71210000      23.71210000     
   11655.000 -999.99000000    9690.46290000    24.43860000      24.43860000     
   11655.500 -999.99000000    9690.72560000    24.98530000      24.98530000     
   11656.000 -999.99000000    9690.98830000    25.80670000      25.80670000     
   11656.500 -999.99000000    9691.25100000    26.56000000      26.56000000     
   11657.000 -999.99000000    9691.51370000    26.97940000      26.97940000     
   11657.500 -999.99000000    9691.77640000    26.93330000      26.93330000     
   11658.000 -999.99000000    9692.03910000    26.66740000      26.66740000     
   11658.500 -999.99000000    9692.30180000    26.87270000      26.87270000     
   11659.000 -999.99000000    9692.56450000    26.96180000      26.96180000     
   11659.500 -999.99000000    9692.82710000    26.85710000      26.85710000     
   11660.000 -999.99000000    9693.08980000    27.14420000      27.14420000     
   11660.500 -999.99000000    9693.35250000    27.37830000      27.37830000     
   11661.000 -999.99000000    9693.61520000    27.10740000      27.10740000     
   11661.500 -999.99000000    9693.87790000    26.32600000      26.32600000     
   11662.000 -999.99000000    9694.14060000    24.92290000      24.92290000     
   11662.500 -999.99000000    9694.40330000    24.57090000      24.57090000     
   11663.000 -999.99000000    9694.66600000    25.43470000      25.43470000     
   11663.500 -999.99000000    9694.92870000    26.00700000      26.00700000     
   11664.000 -999.99000000    9695.19140000    26.20080000      26.20080000     
   11664.500 -999.99000000    9695.45410000    26.08630000      26.08630000     
   11665.000 -999.99000000    9695.71680000    25.13510000      25.13510000     
   11665.500 -999.99000000    9695.97950000    24.26690000      24.26690000     
   11666.000 -999.99000000    9696.24220000    23.87560000      23.87560000     
   11666.500 -999.99000000    9696.50490000    25.38730000      25.38730000     
   11667.000 -999.99000000    9696.76760000    25.30990000      25.30990000     
   11667.500 -999.99000000    9697.03030000    24.87050000      24.87050000     
   11668.000 -999.99000000    9697.29300000    24.99000000      24.99000000     
   11668.500 -999.99000000    9697.55570000    25.13600000      25.13600000     
   11669.000 -999.99000000    9697.81840000    25.28310000      25.28310000     
   11669.500 -999.99000000    9698.08110000    24.46360000      24.46360000     
   11670.000 -999.99000000    9698.34380000    23.95930000      23.95930000     
   11670.500 -999.99000000    9698.60640000    24.46790000      24.46790000     
   11671.000 -999.99000000    9698.86910000    24.76130000      24.76130000     
   11671.500 -999.99000000    9699.13180000    24.58090000      24.58090000     
   11672.000 -999.99000000    9699.39450000    23.14660000      23.14660000     
   11672.500 -999.99000000    9699.65720000    22.36270000      22.36270000     
   11673.000 -999.99000000    9699.91990000    21.79850000      21.79850000     
   11673.500 -999.99000000    9700.18260000    21.42840000      21.42840000     
   11674.000 -999.99000000    9700.44530000    21.05830000      21.05830000     
   11674.500 -999.99000000    9700.70800000    20.63390000      20.63390000     
   11675.000 -999.99000000    9700.97070000    20.20200000      20.20200000     
   11675.500 -999.99000000    9701.23340000    20.56890000      20.56890000     
   11676.000 -999.99000000    9701.49610000    21.97700000      21.97700000     
   11676.500 -999.99000000    9701.75780000    22.89820000      22.89820000     
   11677.000 -999.99000000    9702.02150000    22.65850000      22.65850000     
   11677.500 -999.99000000    9702.28320000    21.75230000      21.75230000     
   11678.000 -999.99000000    9702.54690000    20.56400000      20.56400000     
   11678.500 -999.99000000    9702.80860000    19.15840000      19.15840000     
   11679.000 -999.99000000    9703.07230000    17.57060000      17.57060000     
   11679.500 -999.99000000    9703.33400000    16.75170000      16.75170000     
   11680.000 -999.99000000    9703.59770000    16.22930000      16.22930000     
   11680.500 -999.99000000    9703.85940000    16.23000000      16.23000000     
   11681.000 -999.99000000    9704.12300000    17.90770000      17.90770000     
   11681.500 -999.99000000    9704.38480000    19.15090000      19.15090000     
   11682.000 -999.99000000    9704.64840000    19.88370000      19.88370000     
   11682.500 -999.99000000    9704.91020000    19.73010000      19.73010000     
   11683.000 -999.99000000    9705.17380000    18.79890000      18.79890000     
   11683.500 -999.99000000    9705.43550000    18.42450000      18.42450000     
   11684.000 -999.99000000    9705.69920000    18.44560000      18.44560000     
   11684.500 -999.99000000    9705.96090000    19.32820000      19.32820000     
   11685.000 -999.99000000    9706.22360000    20.02100000      20.02100000     
   11685.500 -999.99000000    9706.48630000    20.29930000      20.29930000     
   11686.000 -999.99000000    9706.74900000    20.10830000      20.10830000     
   11686.500 -999.99000000    9707.01170000    19.45920000      19.45920000     
   11687.000 -999.99000000    9707.27440000    18.97530000      18.97530000     
   11687.500 -999.99000000    9707.53710000    19.51790000      19.51790000     
   11688.000 -999.99000000    9707.79980000    21.25800000      21.25800000     
   11688.500 -999.99000000    9708.06250000    22.29160000      22.29160000     
   11689.000 -999.99000000    9708.32520000    22.65260000      22.65260000     
   11689.500 -999.99000000    9708.58790000    22.84270000      22.84270000     
   11690.000 -999.99000000    9708.85060000    22.83520000      22.83520000     
   11690.500 -999.99000000    9709.11330000    22.79650000      22.79650000     
   11691.000 -999.99000000    9709.37600000    22.59610000      22.59610000     
   11691.500 -999.99000000    9709.63870000    21.50520000      21.50520000     
