~Version Information Block
 VERS.                2.00:     CWLS LOG ASCII STANDARD - VERSION 2.000000
 WRAP.                  NO:     One Line Per Depth Step
#
~Well Information Block
#MNEM.UNIT                     Data                         Information
#----------   ------------------------------------------   ----------------
 STRT.FT                                     5200.0000:     START DEPTH
 STOP.FT                                    11550.0000:     STOP DEPTH
 STEP.FT                                        0.5000:     STEP
 NULL.                                       -999.2500:     NULL VALUE
 COMP.               AMERICAN QUASAR PETROLEUM COMPANY:     COMPANY
 WELL.                               MCCARTER # 1 - 31:     WELL
 FLD .                                         WILDCAT:     FIELD
 LOC .                                                :     LOCATION
 CNTY.                                          REEVES:     COUNTY
 STAT.                                           TEXAS:     STATE
 CTRY.                                             USA:     COUNTRY
 SRVC.                                                :     SERVICE COMPANY
 DATE.                                      08/07/2015:     DATE
 API .                                  42389311800000:     API NUMBER
 UWI .                                  42389311800000:     UWI NUMBER
 TVD .                                              NO:     TVD flag
 WSTA.                                             LOC:     Well status
#
~Curve Information Block
#MNEM.UNIT       API CODE      Curve Description
#----------    -------------   -------------------
 DEPT.FT                   :   Depth in Feet
 GR  .GAPI                 :   Gamma Ray
 LLD .OHMM                 :   Latero-Log Deep (Resistivity)
 CALI.IN                   :   Caliper
 DT  .US/F                 :   Delta-T
#
~Parameter Information Block
#MNEM.UNIT            Value               Description
#----------    --------------------    -------------------
 RUN .                         ONE:    Run Number
 PDAT.                          GL:    Permanent Datum
 EPD .FT                          :    Elevation Of Perm. Datum
 LMF .               KELLY BUSHING:    Log Measured From
 EKB .FT                          :    Elevation Of Kelly Bushing
 DF .FT                           :    Elevation Of Derrick Floor
 GL .FT                           :    Elevation Of Ground Level
 TD  .FT                          :    Total Depth
 CSGD.FT                          :    Casing Bottom (Driller) 1
 CSGL.FT                          :    Casing Bottom (Logger) 1
 MUD .                            :    Drilling Fluid Type
 MUDV .CP                         :    Drilling Fluid Viscosity
 MUDD .LB/USG                     :    Drilling Fluid Density
 FL .ML/30MIN                     :    Drilling Fluid Loss
 PH.                              :    Drilling Fluid Ph
 MUDS .                           :    Mud Sample Source
 RM .OHMM                         :    Resistivity Of Mud Sample
 RMT .DEGF                        :    Mud Sample Temperature
 RMF .OHMM                        :    Mud Filtrate Resistivity
 RMFT.DEGF                        :    Mud Filtrate Sample Temperature
 RMC .OHMM                        :    Mud Cake Resistivity
 RMCT.DEGF                        :    Mud Cake Sample Temperature
 RMB .OHMM                        :    Mud Resistivity At Bht
 TMAX .DEGF                       :    Bottom Hole Temperature    
#
~Other Information Block
<DescLogPlotStart>   NEURALOG PLOT DEFINITION
PLOTDEFVERSION: 3
LASFILE: E:\Nair Innovations\Texas - NII\Shivam\42389311800000\42389311800000_G
DEPTHSCALE: 239.999996
RESOLUTION: 200
DEPTHLABELFREQ: 100.000000
HEAVYGRIDFREQ: 100.000000
MEDIUMGRIDFREQ: 50.000000
LIGHTGRIDFREQ: 10.000000
#
#   TRACK 1
#
STARTTRACK: 
 LEFTX: 0.500000 inch
 RIGHTX: 3.000000 inch
 SCALETYPE: Linear
 NUMCHARTDIVISIONS: 10
CURVE: GR    0.000000   125.000000 (0,0,255)      Solid             2     Y    
BACKUP: 125.000000 250.000000 (0,0,255)      Solid             2    
CURVE: CALI  6.000000   16.000000  (0,0,255)      Solid             2     N    
ENDTRACK: 
#
#   TRACK 2
#
STARTTRACK: 
 LEFTX: 3.500000 inch
 RIGHTX: 8.500000 inch
 SCALETYPE: Log
 NUMCYCLES: 4
 STARTCYCLE: 2
CURVE: LLD   0.200000   2000.000000 (0,131,131)    Solid             2     Y   
BACKUP: 2000.000000 20000000.000000 (0,131,131)    Solid             2    
ENDTRACK: 
#
#   TRACK 3
#
STARTTRACK: 
 LEFTX: 3.500000 inch
 RIGHTX: 8.500000 inch
 SCALETYPE: Linear
 NUMCHARTDIVISIONS: 10
CURVE: DT    100.000000 40.000000  (0,131,131)    Solid             2     Y    
BACKUP: 160.000000 100.000000 (0,131,131)    Solid             2    
BACKUP: 40.000000  -20.000000 (0,131,131)    Solid             2    
ENDTRACK: 
<DescLogPlotEnd>
<DepthTrack type='Reference' track='1' Label='0' color='0' hor='0' />
<Reference font='144,0,-900,0,500,0,16777216,Arial' />
~A DEPTH     GR               LLD              CALI             DT              
# ...
    7279.000 143.86349411     71.80260754      12.69951716      78.57142857     
    7279.500 144.36664243     73.39716650      12.70074625      78.99100899     
    7280.000 105.15948226     85.56428404      12.70197533      75.94905095     
    7280.500 124.04285083     120.79771514     12.70320441      70.66233766     
    7281.000 88.28117188      174.31869136     12.70443350      65.37562438     
    7281.500 55.74391816      210.45257511     12.70566258      60.10989011     
    7282.000 51.77330803      254.23679937     12.70689166      59.03096903     
    7282.500 72.98542741      248.55286484     12.70812075      64.96397720     
    7283.000 94.92404757      238.33196862     12.70934983      69.17557736     
    7283.500 109.27348139     202.13765825     12.71057892      73.36130218     
    7284.000 116.07252566     178.18439837     12.71180800      82.12888782     
    7284.500 118.48914908     139.71351289     12.71303708      81.84754930     
    7285.000 120.12935155     109.54868026     12.71426617      82.20379620     
    7285.500 119.18519026     98.26814573      12.71549525      82.40759241     
    7286.000 113.64683934     82.50892667      12.71672433      79.35424575     
    7286.500 105.50436902     80.59359652      12.71795342      75.42697303     
    7287.000 97.48931722      80.21145762      12.71918250      71.49970030     
    7287.500 81.96542954      71.80260754      12.72041158      71.13886114     
    7288.000 64.57184409      68.56462987      12.72164067      68.28861139     
    7288.500 51.42542566      47.60871575      12.72286975      65.69560440     
    7289.000 53.36982627      33.10559690      12.72409883      64.40699301     
    7289.500 49.92657306      23.02058623      12.72532792      64.46857143     
    7290.000 56.85464191      15.66093081      12.72655700      66.30069930     
    7290.500 62.19647551      15.15140271      12.72778609      67.86153846     
    7291.000 67.44624417      14.54633023      12.72901517      69.38651362     
    7291.500 69.82349020      14.68119674      12.73024425      69.74788378     
    7292.000 68.43994896      13.89035555      12.73147334      69.82083277     
    7292.500 65.17732052      12.18281675      12.73270290      69.82017982     
    7293.000 62.46524884      10.73195272      12.73393431      69.82017982     
    7293.500 60.45285070      9.77273835       12.73514219      69.82017982     
    7294.000 55.24068123      9.77549176       12.73637953      68.94309227     
    7294.500 49.78558642      10.89688934      12.73668943      66.74559761     
    7295.000 46.47385489      12.20678058      12.74719795      64.54981656     
    7295.500 44.06239812      14.01914018      12.72520984      64.24575425     
    7296.000 43.95958510      14.01914018      12.73622200      64.98807859     
    7296.500 45.52748265      12.24909898      12.73606158      66.56570097     
    7297.000 48.02428604      10.92710070      12.73612246      69.58281718     
    7297.500 50.84451936      9.78157419       12.73611111      70.57062937     
    7298.000 52.27296630      9.34046878       12.73611111      70.94501499     
    7298.500 51.29607908      9.38886646       12.73611111      70.91480519     
    7299.000 48.97358649      9.02929001       12.73611111      70.93949307     
    7299.500 46.05652344      8.67262661       12.73611111      71.02055377     
    7300.000 46.25578182      8.73947894       12.73611111      71.10351254     
    7300.500 49.96355832      8.83490969       12.73611111      71.18521645     
    7301.000 52.95649138      9.00195026       12.73611111      71.21461871     
    7301.500 53.43899896      9.60268585       12.73611111      70.79711955     
    7302.000 53.16103384      9.78157419       12.73611111      70.37962038     
    7302.500 53.97516726      10.92962210      12.73611111      69.96212121     
    7303.000 55.27684313      12.52343259      12.73611111      69.64380619     
    7303.500 56.34247369      14.41270264      12.73611111      69.64035964     
    7304.000 57.76701844      14.81731367      12.73611111      69.34065934     
    7304.500 63.69993389      15.49059401      12.73611111      72.80300876     
    7305.000 72.99265047      16.22738098      12.73611111      75.43344546     
    7305.500 83.80503094      18.60575210      12.73611111      78.19734207     
    7306.000 93.26540859      43.41600935      12.73611111      78.28750943     
    7306.500 102.88998241     88.78193063      12.73611111      78.30690559     
    7307.000 105.53489084     85.12630680      12.73611111      77.85334665     
    7307.500 98.76353446      86.17051919      12.73611111      75.99400599     
    7308.000 89.59462425      85.56428404      12.73611111      71.21094824     
    7308.500 83.06016812      69.81130995      12.73611111      70.21392830     
    7309.000 80.40391261      67.50043145      12.73611111      69.53203122     
    7309.500 81.56520463      66.69236032      12.73611111      69.39940060     
    7310.000 90.05379614      71.28639887      12.73611111      70.30369630     
    7310.500 98.71132130      71.89121654      12.73611111      71.70649351     
    7311.000 108.16623285     72.46832647      12.73611111      73.25024975     
    7311.500 107.42830144     66.07970140      12.73611111      75.17762238     
    7312.000 110.55265964     68.56462987      12.73611111      75.81418581     
    7312.500 95.65602701      32.38132972      12.73611111      73.06743257     
    7313.000 77.76605934      18.66250235      12.73611111      70.71928072     
    7313.500 63.81828775      22.86368500      12.73611111      70.83916084     
    7314.000 59.53151248      14.95469261      12.73611111      69.25794206     
    7314.500 54.45024461      13.50731642      12.73611111      68.80704296     
    7315.000 50.06137459      12.43418057      12.73611111      68.50449550     
    7315.500 49.16585777      11.98353934      12.73611111      68.20179820     
    7316.000 48.94854935      11.69725894      12.73611111      68.12147852     
    7316.500 48.14428045      11.16615734      12.73611111      68.22167832     
    7317.000 47.16715599      10.62871832      12.73611111      68.48251748     
    7317.500 47.22215972      10.42931385      12.73611111      68.80119880     
    7318.000 50.50858000      10.44485841      12.73611111      68.93466533     
    7318.500 59.79541144      10.49947335      12.73611111      68.96806527     
    7319.000 72.14017544      11.11116136      12.73611111      68.86113886     
    7319.500 77.13392990      12.90176818      12.73611111      68.86623377     
    7320.000 78.52731778      17.36818768      12.73611111      68.70263070     
    7320.500 73.01962184      26.44958582      12.73611111      68.43293769     
    7321.000 62.62441989      40.30052853      12.73611111      67.87373350     
    7321.500 50.84627167      61.37983429      12.73611546      63.62610120     
    7322.000 35.17043852      93.87763732      12.73609417      60.14808049     
    7322.500 23.72716548      143.52820872     12.73623363      56.64824461     
    7323.000 18.25948281      219.43827398     12.72921336      55.31468531     
    7323.500 17.91429490      335.49611269     12.71938150      54.53546454     
    7324.000 20.22078876      405.63282370     12.70941276      53.92287712     
    7324.500 26.84426869      449.75741981     12.69944711      53.62227772     
    7325.000 43.21256583      476.19354348     12.68947686      54.47552448     
    7325.500 61.07429395      225.20306537     12.67908519      54.05594406     
    7326.000 78.93443541      129.61027766     12.67661126      58.79120879     
    7326.500 81.29585580      94.59669557      12.67655669      69.84373626     
    7327.000 82.30096434      76.10648581      12.67658234      70.71928072     
    7327.500 81.48896333      72.52545844      12.67661198      71.85814186     
    7328.000 80.14699315      73.99904574      12.67557777      71.73826174     
