~VERSION INFORMATION
 VERS.                2.0:   CWLS LOG ASCII STANDARD - VERSION 2.0
 WRAP.                 NO:   ONE LINE PER DEPTH STEP
~WELL INFORMATION
#MNEM.UNIT      DATA TYPE    INFORMATION
#----------   ------------   ------------------------------
 STRT.FT          50.0000:   START DEPTH
 STOP.FT        5375.0000:   STOP DEPTH
 STEP.FT           0.5000:   STEP LENGTH
 NULL.          -999.2500:   NULL VALUE
 COMP.  A.N. NORWOOD, INC:   COMPANY
 WELL.        MCINTYRE #1:   WELL
 FLD .  ROJO CABALLOS, S.:   FIELD
 LOC .                   :   LOCATION
 CNTY.              PECOS:   COUNTY
 STAT.              TEXAS:   STATE
 CTRY. UNITED STATES OF AMERICA:   COUNTRY
 SRVC.              Welex:   SERVICE COMPANY
 DATE.        06-May-1983:   LOGDATE
 API .     42371342980000:   API NUMBER
~CURVE INFORMATION
#MNEM.UNIT       API CODE    CURVE DESCRIPTION
#----------   ------------   ------------------------------
 DEPT.F      0   1   0  0:   1 MEASURED DEPTH
 GRD .GAPI   45 310 01 00:   GAMMA RAY FROM DENSITY LOG
 NPOR_LS.DEC 42 890 01 00:   NEUTRON POROSITY LIMESTONE
 CALD.IN     45 280 60 00:   CALIPER FROM DENSITY LOG
 CORR.G/C3   45 356 01 00:   DENSITY CORRECTION
 RHOB.G/C3   45 350 01 00:   BULK DENSITY
 DPOR_LS.DEC 45 890 10 00:   DENSITY POROSITY LIMESTONE
 DT  .US/F   60 500 00 00:   DELTA-T (INTERVAL TRANSIT TIME)
 SPR .MV     07 010 01 00:   SPONTANEOUS POTENTIAL FROM RESISTIVITY LOG
 ILD .OHMM   07 120 46 00:   INDUCTION DEEP RESISTIVITY
 ILM .OHMM   07 120 44 00:   INDUCTION MEDIUM RESISTIVITY
~PARAMETER INFORMATION
#MNEM.UNIT          VALUE    DESCRIPTION
#----------   ------------   ------------------------------
 PD  .                 GL:   PERMANENT DATUM
 EPD .FT             2768:   ELEVATION PERMANENT DATUM
 LMF .                 KB:   LOG MEASURED FROM
 DAPD.FT               10:   FEET ABOVE PERMANENT DATUM
 DMF .                 KB:   DRILLING MEASURED FROM
 EKB .FT             2778:   KELLY BUSHING
 EDF .FT             2777:   DRILLING FLOOR
 EGL .FT             2768:   GROUND LEVEL
 DATE.           05/06/83:   RUN DATE
 RUN .                  1:   RUN NUMBER
 DD  .FT             5380:   DEPTH DRILLER
 DL  .FT             5377:   DEPTH LOGGER
 BLI .FT             5375:   BOTTOM LOG INTERVAL
 TLI .FT               50:   TOP LOG INTERVAL
 CS  .IN            8.625:   CASING SIZE
 CBD .FT             1596:   CASING BOTTOM DRILLER
 CBL .FT             1613:   CASING BOTTOM LOGGER
 BS  .IN             7.75:   BIT SIZE
 BSD .FT             5380:   BIT SIZE AT DEPTH
 DFT .           SALT GEL:   DRILLING FLUID TYPE
 DFD .               10.2:   DRILLING FLUID DENSITY
 DFV .                 33:   DRILLING FLUID VISCOSITY
 DFPH.                9.5:   DRILLING FLUID PH
 DFL .                 18:   DRILLING FLUID LOSS
 MSS .               CIRC:   MUD SAMPLE SOURCE
 RMS .OHMM           0.09:   RESISTIVITY MUD SAMPLE
 MST .DEGF             72:   MUD SAMPLE TEMPERATURE
 RMF .OHMM           0.08:   RESISTIVITY MUD FILTRATE SAMPLE
 MFST.DEGF             72:   MUD FILTRATE SAMPLE TEMPERATURE
 MFSS.               MEAS:   MUD FILTRATE SAMPLE SOURCE
 MCSS.               MEAS:   MUD CAKE SAMPLE SOURCE
 RMB .OHMM          0.059:   RESISTIVITY MUD AT BHT
 BHT .DEGF            112:   BOTTOM HOLE TEMPERATURE
 TCS .HRS               4:   TIME CIRCULATED STOPPED
 MRT .DEGF            112:   MAXIMUM RECORDED TEMPERATURE
 LUN .               3415:   LOGGING UNIT NUMBER
 LUL .             ODESSA:   LOGGING UNIT LOCATION
 ENGI.             LAWSON:   RECORDING ENGINEER
 WITN.            NORWOOD:   WITNESSED BY
 ORIG.      1" 2.5" PRINT:   ORIGIN OF DATA
 UWI .     42371342980000:   UNIQUE WELL ID
~OTHER INFORMATION
~A    DEPT        GRD      NPOR_LS      CALD        CORR        RHOB       DPOR_LS        DT         SPR         ILD         ILM    
# ...
  3527.0000      6.8685     -0.0128      9.6142      0.0209      2.8952   -999.2500     51.8378     -6.3515    519.4742     36.6390 
  3527.5000      7.3951     -0.0128      9.6490      0.0204      2.8948   -999.2500     51.5943     -6.4940    392.9888     38.4389 
  3528.0000      8.4356     -0.0128      9.6446      0.0212      2.8974   -999.2500     51.3509     -6.6034    326.2369     38.8179 
  3528.5000      9.8033     -0.0128      9.6402      0.0240      2.9049   -999.2500     51.1131     -6.6991    320.8844     39.0767 
  3529.0000      9.5549     -0.0127      9.5467      0.0446      2.9256   -999.2500     50.8400     -6.7947    337.0388     42.8253 
  3529.5000      9.0778     -0.0127      9.4461      0.0580      2.9323   -999.2500     50.3593     -6.8950    360.8604     46.6218 
  3530.0000      8.8117     -0.0127      9.4174      0.0694      2.9374   -999.2500     49.7630     -7.0220    549.7609     50.0660 
  3530.5000      8.3302     -0.0128      9.4413      0.0703      2.9378   -999.2500     49.6378     -7.3229    971.9656     60.0296 
  3531.0000      7.1720     -0.0129      9.4886      0.0707      2.9338   -999.2500     49.7359     -7.6238   1908.8528     68.3035 
  3531.5000      5.8558     -0.0132      9.5628      0.0707      2.9280   -999.2500     50.1612     -7.5232   1930.4280     79.0954 
  3532.0000      5.2956     -0.0133      9.6577      0.0682      2.9223   -999.2500     50.6409     -7.3208   1938.1510     74.9953 
  3532.5000      5.0838     -0.0134      9.7395      0.0607      2.9176   -999.2500     51.1286     -7.3264   1941.3318     51.5250 
  3533.0000      5.0741     -0.0133      9.7967      0.0508      2.9127   -999.2500     51.2124     -7.3657   1944.5178     36.2113 
  3533.5000      5.2122     -0.0131      9.8037      0.0410      2.9017   -999.2500     51.0504     -7.4069   1947.7080     30.9099 
  3534.0000      5.3793     -0.0130      9.8047      0.0361      2.8934   -999.2500     50.6776     -7.4481   1950.9044     28.8040 
  3534.5000      5.6259     -0.0129      9.8045      0.0331      2.8926   -999.2500     50.6594     -7.4893   1954.0621     29.5410 
  3535.0000      5.9822     -0.0127      9.8043      0.0301      2.8946   -999.2500     50.7927     -7.5297   1954.0621     31.1490 
  3535.5000      6.1716     -0.0129      9.7932      0.0271      2.9024   -999.2500     51.0856     -7.5702   1905.8069     32.3687 
  3536.0000      6.3100     -0.0128      9.7816      0.0241      2.9091   -999.2500     51.4937     -7.6106   1162.9404     33.8371 
  3536.5000      6.4485     -0.0126      9.7748      0.0217      2.9111   -999.2500     51.9017     -7.5132    439.4139     37.7925 
  3537.0000      6.5804     -0.0126      9.7858      0.0208      2.9132   -999.2500     52.1360     -7.1920    304.8780     38.8351 
  3537.5000      6.6032     -0.0127      9.8010      0.0213      2.9149   -999.2500     52.0569     -6.9009    306.1344     38.2931 
  3538.0000      6.4962     -0.0128      9.8061      0.0219      2.9161   -999.2500     51.9667     -6.9035    318.4339     36.2069 
  3538.5000      6.0544     -0.0129      9.8079      0.0273      2.9174   -999.2500     52.0282     -6.6262    330.2720     33.3980 
  3539.0000      5.5358     -0.0131      9.8097      0.0356      2.9187   -999.2500     52.1016     -6.2195    332.7895     30.8596 
  3539.5000      5.1588     -0.0132      9.8077      0.0440      2.9429   -999.2500     52.1418     -5.6550    282.1763     30.0972 
  3540.0000      5.1098     -0.0131      9.8027      0.0523      2.9675   -999.2500     52.0608     -5.5134    233.6274     36.2049 
  3540.5000      5.0906     -0.0129      9.7989      0.0606      2.9683   -999.2500     51.6782     -5.3843    223.6602     42.9781 
  3541.0000      5.4420     -0.0126      9.7952      0.0689      2.9686   -999.2500     51.3136     -5.2502    230.2459     44.8551 
  3541.5000      6.0795     -0.0133      9.8017      0.0731      2.9686   -999.2500     51.1100     -5.1138    259.3537     46.0631 
  3542.0000      6.3271     -0.0115      9.7679      0.0755      2.9497   -999.2500     50.9896     -4.9774    309.1232     51.0765 
  3542.5000      6.3995     -0.0120      9.7013      0.0770      2.9381   -999.2500     51.0072     -4.8409    401.4685     56.7801 
  3543.0000      6.4391     -0.0125      9.6396      0.0769      2.9291   -999.2500     51.0162     -4.6796    455.9798     57.6527 
  3543.5000      6.4729     -0.0129      9.6083      0.0693      2.9213   -999.2500     51.0560     -4.4791    456.4338     56.3220 
  3544.0000      6.3851     -0.0131      9.5769      0.0546      2.9105     -0.0999     51.0897     -4.1885    452.6010     51.3481 
  3544.5000      6.2187     -0.0128      9.5457      0.0400      2.8988     -0.0999     51.1213     -3.8017    453.4669     48.4254 
  3545.0000      5.9934     -0.0125      9.5321      0.0284      2.8860     -0.0997     51.1548     -3.4106    490.0145     45.8057 
  3545.5000      5.7682     -0.0124      9.5201      0.0234      2.8731     -0.0944     51.1799     -2.9840    638.0740     43.3278 
  3546.0000      5.4574     -0.0123      9.5132      0.0235      2.8662     -0.0904     51.1608     -2.6209    884.9106     41.6039 
  3546.5000      4.8687     -0.0122      9.4981      0.0248      2.8654     -0.0925     51.0704     -2.2422   1689.3320     41.2912 
  3547.0000      4.7536     -0.0121      9.4814      0.0262      2.8648     -0.0963     50.8266     -2.0563   1867.7845     42.1720 
  3547.5000      5.1577     -0.0119      9.4855      0.0378      2.8683     -0.0998     50.5852     -1.7295   1862.7609     43.6272 
  3548.0000      5.3731     -0.0116      9.4452      0.0427      2.8803     -0.0994     50.4958     -1.3812   1736.6993     44.8849 
  3548.5000      5.5773     -0.0115      9.3672      0.0442      2.8834     -0.0991     50.4967     -1.2255   1235.9556     44.5102 
  3549.0000      5.8201     -0.0115      9.3348      0.0418      2.8844     -0.0991     50.7574     -1.0698   1031.5634     39.1764 
  3549.5000      5.9534     -0.0117      9.3268      0.0366      2.8850     -0.0985     51.0993     -0.9140    855.5812     38.4660 
  3550.0000      5.9642     -0.0119      9.2841      0.0286      2.8850     -0.0962     51.5537     -0.8471    646.3854     40.5942 
  3550.5000      5.9548     -0.0120      9.2406      0.0206      2.8850     -0.0977     51.7927     -0.8306    542.5939     47.5387 
  3551.0000      5.8827     -0.0120      9.2003      0.0190      2.8851     -0.0997     51.8954     -0.8141    537.3771     55.7801 
  3551.5000      5.7211     -0.0118      9.1869      0.0193      2.8859     -0.1005     51.6733     -0.7977    561.7896     64.3501 
  3552.0000      6.0196     -0.0118      9.1834      0.0207      2.8868     -0.1005     51.3530     -0.7812    826.0703     70.0639 
  3552.5000      6.2915     -0.0120      9.1799      0.0232      2.8884   -999.2500     50.9637     -0.7705   1411.5123     76.2851 
  3553.0000      6.4311     -0.0120      9.1800      0.0320      2.8927   -999.2500     50.4742     -0.7651   1785.3174     79.0984 
  3553.5000      6.4682     -0.0120      9.1704      0.0409      2.9104   -999.2500     50.1747     -0.7597   1504.8339     80.1446 
  3554.0000      6.5043     -0.0119      9.1238      0.0493      2.9399   -999.2500     50.0869     -0.7543    788.1313     81.2046 
  3554.5000      6.4764     -0.0115      9.0647      0.0558      2.9547   -999.2500     50.1506     -0.7489    460.4806     82.0271 
  3555.0000      6.3387     -0.0113      9.0152      0.0622      2.9592   -999.2500     50.3777     -0.7564    388.8990     81.9868 
  3555.5000      6.1077     -0.0111      9.0099      0.0687      2.9637   -999.2500     50.4808     -0.7759    380.2530     83.4977 
  3556.0000      5.4292     -0.0110      8.9996      0.0728      2.9674   -999.2500     50.5782     -0.7953    379.4333     95.0598 
  3556.5000      4.7831     -0.0110      8.9908      0.0754      2.9695   -999.2500     50.7133     -0.7973    378.6153    109.1559 
  3557.0000      4.8044     -0.0107      8.9858      0.0780      2.9701   -999.2500     50.9113     -0.7329    384.6131    136.7027 
