###############################################
##         ENVERUS                           ##
##         ESS - Open Hole                   ##
##         PERMIAN / DELAWARE                ##
##         Nov 04 2023  V4.0                 ##
##         42-389-10119-00-00                ##
###############################################
## Copyright 2017-2023  ENVERUS.  All Rights Reserved. 
## Confidential - Property of ENVERUS, use governed by terms and 
## conditions found within the existing Information Services Subscription Agreement 
## (as may be amended, the “ISSA”) between Customer and ENVERUS. 
## 
~VERSION INFORMATION
# MNEM.UNIT                               DATA : DESCRIPTION OF MNEMONIC
#-----.-----     ----------------------------- : -----------------------------
VERS.                                     2.00 : CWLS LOG ASCII STANDARD - VERSION 2.00
WRAP.                                       NO : MULTIPLE LINES PER DEPTH STEP
VEND.                                  ENVERUS : VENDOR
TYPE.                          ESS - OPEN HOLE : ENVERUS ESSENTIAL CURVES – ACCESSIBLE THROUGH ENVERUS PRISM(TM)
DOC.                                  32008410 : ENVERUS HEADER RAW DOCUMENT ID
#___________________________________________________________________________________________________ 
~WELL INFORMATION 
# X8E3XgEZRMs+LiTqjMYqety/5rGXYLbzRNciiYBq17B6ClLelYcJjKNVvvPfWOVGxhvISow7q4Dbthq8gKP2Nw== 
# MNEM.UNIT                                              DATA : DESCRIPTION OF MNEMONIC 
#-----.-----                    ----------------------------- : ----------------------------- 
CNTY.                                                  REEVES : COUNTY 
STATE.                                                  TEXAS : STATE 
CNTRY.                                                    USA : COUNTRY 
API.                                             42-389-10119 : API (10 Digit) 
API_14.                                    42-389-10119-00-00 : API (14 Digits) 
API_14_std.                                 42-389-10119-0000 : API (14 Digits Standard) 
UWI.                                           42389101190000 : UNIQUE WELL ID 
WELL.                                                   1-40, : WELL NAME
STRT.FT                                                  58.0 : START DEPTH
STOP.FT                                                5338.0 : STOP DEPTH
STEP.FT                                                   0.5 : STEP BETWEEN DEPTHS
NULL.                                                 -999.25 : NULL VALUE
#___________________________________________________________________________________________________ 
~CURVE INFORMATION 
# MNEM.UNIT           : CURVE DESCRIPTION 
#-----.-----          : ----------------------------- 
 DEPT.FT               : MEASURED DEPTH 
 GR.API                : GAMMA RAY (GR) 
 DT.US/FT              : SONIC DELTA TRANSIT TIME (DT) 
 #___________________________________________________________________________________________________ 
~A         DEPT             GR             DT
# ...
         2146.0         10.322         50.655
         2146.5          9.679         50.754
         2147.0          9.090         50.398
         2147.5         10.132         50.129
         2148.0         11.174         50.606
         2148.5         12.216         51.084
         2149.0         13.257         51.562
         2149.5         14.299         52.040
         2150.0         15.341         52.068
         2150.5         16.383         51.811
         2151.0         17.425         51.554
         2151.5         18.467         52.189
         2152.0         21.587         53.260
         2152.5         25.590         52.904
         2153.0         25.350         52.549
         2153.5         24.270         52.193
         2154.0         23.189         51.837
         2154.5         22.108         51.482
         2155.0         21.027         51.126
         2155.5         19.946         50.770
         2156.0         18.865         50.634
         2156.5         16.753         50.669
         2157.0         14.185         50.705
         2157.5         11.805         50.740
         2158.0         11.751         50.776
         2158.5         11.696         51.399
         2159.0         11.641         52.512
         2159.5         11.587         57.902
         2160.0         12.394         57.487
         2160.5         13.854         57.073
         2161.0         15.314         56.564
         2161.5         16.076         55.099
         2162.0         13.044         53.634
         2162.5         10.012         52.224
         2163.0          6.980         52.284
         2163.5          5.680         52.343
         2164.0          6.423         52.402
         2164.5          7.165         52.451
         2165.0          7.908         52.125
         2165.5          8.650         51.799
         2166.0          9.393         51.473
         2166.5         10.135         51.148
         2167.0         10.878         51.590
         2167.5         11.523         52.032
         2168.0         10.751         52.474
         2168.5          9.980         52.916
         2169.0          9.208         53.349
         2169.5         10.558         52.935
         2170.0         13.291         52.520
         2170.5         10.449         52.106
         2171.0          7.606         51.692
         2171.5          7.809         63.692
         2172.0          8.029         71.646
         2172.5          8.248         77.249
         2173.0          8.468         82.852
         2173.5          8.687         85.642
         2174.0          8.907         82.620
         2174.5          9.126         79.597
         2175.0          9.318         76.575
         2175.5          8.339         73.552
         2176.0          7.359         70.892
         2176.5          6.380         70.183
         2177.0          5.401         69.475
         2177.5          5.528         69.380
         2178.0          5.707         69.642
         2178.5          5.886         69.772
         2179.0          6.065         69.037
         2179.5          6.244         68.302
         2180.0          6.423         67.567
         2180.5          6.602         66.832
         2181.0          7.097         67.023
         2181.5          7.600         67.863
         2182.0          8.103         68.703
         2182.5          8.606         69.544
         2183.0          9.077         70.164
         2183.5          7.501         69.122
         2184.0          5.925         68.080
         2184.5          6.051         67.038
         2185.0          6.246         67.133
         2185.5          6.441         68.095
         2186.0          6.636         68.242
         2186.5          6.831         70.565
         2187.0          7.026         70.834
         2187.5          7.221         71.102
         2188.0          7.416         71.370
         2188.5          7.611         63.515
         2189.0          7.667         59.805
         2189.5          7.721         56.096
         2190.0          7.775         55.629
         2190.5          7.829         55.451
         2191.0          7.883         73.615
         2191.5          7.937         73.868
         2192.0          7.991         74.121
         2192.5          8.045         73.092
         2193.0          8.099         71.272
         2193.5          8.153         69.452
         2194.0          8.207         67.631
         2194.5          8.261         67.095
         2195.0          8.315         67.728
         2195.5          8.369         68.362
         2196.0          9.901         68.912
         2196.5         11.434         67.508
         2197.0         12.966         66.105
         2197.5         14.726         64.701
         2198.0         18.614         63.298
         2198.5         22.501         64.141
         2199.0         26.389         67.709
         2199.5         30.277         68.907
         2200.0         23.622         68.005
         2200.5         15.341         67.103
         2201.0         11.095         73.950
         2201.5         10.150         72.089
         2202.0          9.204         70.297
         2202.5          8.259         70.957
         2203.0          7.313         71.527
         2203.5          6.368         69.866
         2204.0          5.422         68.205
         2204.5          5.485         67.374
         2205.0          6.827         66.550
         2205.5          8.170         67.217
         2206.0          9.512         67.937
         2206.5         10.854         68.017
         2207.0         12.040         68.083
         2207.5         10.581         68.149
         2208.0          9.122         68.215
         2208.5          7.663         67.750
         2209.0          6.204         66.694
         2209.5          4.745         65.638
         2210.0          4.087         66.509
         2210.5          4.520         67.521
         2211.0          4.953         67.551
         2211.5          5.385         66.418
         2212.0          5.818         69.222
         2212.5          6.250         69.035
         2213.0          6.683         68.738
         2213.5          7.116         68.442
         2214.0          7.548         68.146
         2214.5          7.981         67.849
         2215.0          8.413         68.153
         2215.5          8.846         68.499
         2216.0          9.279         68.844
         2216.5          9.711         69.189
         2217.0         10.144         69.339
         2217.5         10.576         69.246
         2218.0         11.009         69.153
         2218.5         11.441         69.061
         2219.0         11.531         68.968
         2219.5         11.333         68.293
         2220.0         11.135         67.573
         2220.5         10.937         66.853
         2221.0         10.739         66.133
         2221.5         11.316         65.950
         2222.0         12.588         66.671
         2222.5         13.859         67.392
         2223.0         14.252         68.112
         2223.5         14.027         68.418
         2224.0         13.802         68.107
         2224.5         13.577         67.796
         2225.0         13.352         67.485
         2225.5         13.170         67.174
         2226.0         13.589         66.863
         2226.5         14.007         66.551
         2227.0         14.426         66.240
         2227.5         14.844         66.597
         2228.0         15.262         68.210
         2228.5         15.394         69.822
         2229.0         13.074         71.435
         2229.5         10.753         72.645
         2230.0          8.433         73.317
         2230.5          9.039         73.990
         2231.0          9.668         70.985
         2231.5         10.298         69.352
         2232.0         10.927         70.419
         2232.5         11.557         71.486
