###############################################
##         ENVERUS                           ##
##         ESS - Open Hole                   ##
##         PERMIAN / DELAWARE                ##
##         Nov 04 2023  V4.0                 ##
##         42-389-00802-00-00                ##
###############################################
## Copyright 2017-2023  ENVERUS.  All Rights Reserved. 
## Confidential - Property of ENVERUS, use governed by terms and 
## conditions found within the existing Information Services Subscription Agreement 
## (as may be amended, the “ISSA”) between Customer and ENVERUS. 
## 
~VERSION INFORMATION
# MNEM.UNIT                               DATA : DESCRIPTION OF MNEMONIC
#-----.-----     ----------------------------- : -----------------------------
VERS.                                     2.00 : CWLS LOG ASCII STANDARD - VERSION 2.00
WRAP.                                       NO : MULTIPLE LINES PER DEPTH STEP
VEND.                                  ENVERUS : VENDOR
TYPE.                          ESS - OPEN HOLE : ENVERUS ESSENTIAL CURVES – ACCESSIBLE THROUGH ENVERUS PRISM(TM)
DOC.                                  31817456 : ENVERUS HEADER RAW DOCUMENT ID
#___________________________________________________________________________________________________ 
~WELL INFORMATION 
# RyAIq6UWQPnCIzV1aSVljU5sZzU8mzXCuHzh8Tf3VVfaeSb2oya67RMqigcBPLsftsjdPp3J13KbDcbgGgUr7w== 
# MNEM.UNIT                                              DATA : DESCRIPTION OF MNEMONIC 
#-----.-----                    ----------------------------- : ----------------------------- 
CNTY.                                                  REEVES : COUNTY 
STATE.                                                  TEXAS : STATE 
CNTRY.                                                    USA : COUNTRY 
API.                                             42-389-00802 : API (10 Digit) 
API_14.                                    42-389-00802-00-00 : API (14 Digits) 
API_14_std.                                 42-389-00802-0000 : API (14 Digits Standard) 
UWI.                                           42389008020000 : UNIQUE WELL ID 
WELL.                                                      1, : WELL NAME
STRT.FT                                                 103.0 : START DEPTH
STOP.FT                                                5419.0 : STOP DEPTH
STEP.FT                                                   0.5 : STEP BETWEEN DEPTHS
NULL.                                                 -999.25 : NULL VALUE
#___________________________________________________________________________________________________ 
~CURVE INFORMATION 
# MNEM.UNIT           : CURVE DESCRIPTION 
#-----.-----          : ----------------------------- 
 DEPT.FT               : MEASURED DEPTH 
 GR.API                : GAMMA RAY (GR) 
 DT.US/FT              : SONIC DELTA TRANSIT TIME (DT) 
 #___________________________________________________________________________________________________ 
~A         DEPT             GR             DT
# ...
         4279.0         12.570         49.321
         4279.5         11.803         49.312
         4280.0         11.733         49.303
         4280.5         11.662         49.231
         4281.0         11.592         49.149
         4281.5         11.521         49.067
         4282.0         11.450         48.985
         4282.5         11.380         48.902
         4283.0         11.309         48.820
         4283.5         11.239         48.738
         4284.0         10.827         48.656
         4284.5         10.093         48.574
         4285.0          9.359         48.492
         4285.5          8.625         48.409
         4286.0          7.891         48.327
         4286.5          9.048         48.570
         4287.0         10.267         49.118
         4287.5         11.487         49.666
         4288.0         12.706         50.214
         4288.5         13.925         50.761
         4289.0         13.733         51.099
         4289.5         11.806         50.836
         4290.0          9.878         50.573
         4290.5          7.950         50.310
         4291.0          7.801         50.048
         4291.5          7.697         49.785
         4292.0          7.593         49.522
         4292.5          7.488         49.404
         4293.0          7.384         49.378
         4293.5          7.279         49.352
         4294.0          7.731         49.326
         4294.5          8.337         49.300
         4295.0          8.943         49.274
         4295.5          9.023         49.248
         4296.0          8.436         49.222
         4296.5          7.848         49.196
         4297.0          7.260         49.170
         4297.5          6.673         49.144
         4298.0          6.085         49.118
         4298.5          5.918         49.092
         4299.0          7.403         49.067
         4299.5          8.888         49.041
         4300.0         10.373         49.015
         4300.5         11.254         48.989
         4301.0         11.029         48.963
         4301.5         10.804         48.944
         4302.0         10.579         49.110
         4302.5         10.355         49.277
         4303.0         10.130         49.443
         4303.5          9.905         49.609
         4304.0          9.696         49.775
         4304.5         10.234         49.941
         4305.0         10.773         50.031
         4305.5         11.311         49.822
         4306.0         11.849         49.613
         4306.5         12.385         49.405
         4307.0         10.644         49.196
         4307.5          8.904         48.987
         4308.0          7.164         48.811
         4308.5          5.424         48.995
         4309.0          5.121         49.179
         4309.5          7.103         49.363
         4310.0          9.085         49.524
         4310.5         11.067         49.455
         4311.0         13.049         49.386
         4311.5         13.512         49.317
         4312.0         12.261         49.249
         4312.5         11.010         49.180
         4313.0          9.759         49.111
         4313.5          8.507         49.042
         4314.0          7.256         49.088
         4314.5          6.005         49.512
         4315.0          4.753         49.678
         4315.5          4.774         49.581
         4316.0          6.326         49.485
         4316.5          7.879         49.389
         4317.0          9.431         49.292
         4317.5         10.984         49.196
         4318.0         12.536         49.100
         4318.5         14.088         49.003
         4319.0         14.745         48.907
         4319.5         13.385         48.811
         4320.0         12.024         48.714
         4320.5         10.664         48.669
         4321.0         10.874         48.748
         4321.5         11.329         48.827
         4322.0         11.783         48.906
         4322.5         12.237         48.985
         4323.0         12.691         49.064
         4323.5         13.145         49.143
         4324.0         13.321         49.222
         4324.5         12.080         49.302
         4325.0         10.839         49.381
         4325.5          9.598         49.460
         4326.0          8.357         49.539
         4326.5          7.797         49.618
         4327.0          7.721         49.697
         4327.5          7.646         49.776
         4328.0          7.570         49.855
         4328.5          7.494         49.935
         4329.0          7.419         50.014
         4329.5          7.343         50.093
         4330.0          7.267         50.172
         4330.5          8.672         50.251
         4331.0         17.110         50.330
         4331.5         16.158         50.409
         4332.0         15.206         50.488
         4332.5         14.254         50.568
         4333.0         13.301         50.647
         4333.5         13.658         50.717
         4334.0         14.875         50.759
         4334.5         16.093         50.800
         4335.0         17.310         50.842
         4335.5         18.075         50.883
         4336.0         16.819         50.924
         4336.5         15.564         50.966
         4337.0         14.308         51.007
         4337.5         13.053         51.049
         4338.0         11.797         51.090
         4338.5         10.542         51.132
         4339.0          9.286         51.173
         4339.5          8.031         51.215
         4340.0          6.775         51.256
         4340.5          5.519         51.298
         4341.0          4.264         51.339
         4341.5          5.313         51.381
         4342.0          7.202         51.422
         4342.5          9.090         51.803
         4343.0         10.978         52.320
         4343.5         12.867         52.838
         4344.0         14.755         53.355
         4344.5         16.643         53.873
         4345.0         15.549         54.391
         4345.5         12.601         53.925
         4346.0          9.652         53.339
         4346.5          7.027         52.754
         4347.0          7.450         52.168
         4347.5          7.874         51.872
         4348.0          8.297         51.825
         4348.5          8.721         51.779
         4349.0          9.144         51.732
         4349.5          9.242         51.686
         4350.0          9.023         51.640
         4350.5          8.804         51.593
         4351.0          8.584         51.592
         4351.5          8.365         51.745
         4352.0         10.985         51.897
         4352.5         13.618         52.050
         4353.0         16.251         52.202
         4353.5         18.883         52.355
         4354.0         24.556         52.271
         4354.5         26.188         51.984
         4355.0         24.675         51.698
         4355.5         23.162         51.411
         4356.0         22.767         51.125
         4356.5         22.711         50.838
         4357.0         22.655         50.757
         4357.5         22.599         50.933
         4358.0         22.543         51.108
         4358.5         22.821         51.277
         4359.0         25.133         51.168
         4359.5         27.445         51.059
         4360.0         29.756         50.949
         4360.5         32.068         50.840
         4361.0         28.793         50.730
         4361.5         23.979         50.621
         4362.0         19.165         50.512
         4362.5         15.268         50.402
         4363.0         15.994         50.293
         4363.5         16.721         50.183
         4364.0         17.447         50.074
         4364.5         18.173         49.965
         4365.0         18.900         50.083
         4365.5         18.090         50.297
