###############################################
##         ENVERUS                           ##
##         ESS - Open Hole                   ##
##         PERMIAN / DELAWARE                ##
##         Nov 04 2023  V4.0                 ##
##         42-389-00931-00-00                ##
###############################################
## Copyright 2017-2023  ENVERUS.  All Rights Reserved. 
## Confidential - Property of ENVERUS, use governed by terms and 
## conditions found within the existing Information Services Subscription Agreement 
## (as may be amended, the “ISSA”) between Customer and ENVERUS. 
## 
~VERSION INFORMATION
# MNEM.UNIT                               DATA : DESCRIPTION OF MNEMONIC
#-----.-----     ----------------------------- : -----------------------------
VERS.                                     2.00 : CWLS LOG ASCII STANDARD - VERSION 2.00
WRAP.                                       NO : MULTIPLE LINES PER DEPTH STEP
VEND.                                  ENVERUS : VENDOR
TYPE.                          ESS - OPEN HOLE : ENVERUS ESSENTIAL CURVES – ACCESSIBLE THROUGH ENVERUS PRISM(TM)
DOC.                                  31935239 : ENVERUS HEADER RAW DOCUMENT ID
#___________________________________________________________________________________________________ 
~WELL INFORMATION 
# S9zL0tdqvH3y2XIpNbXcuKF0SeIoK+7NE6VaQ02nn2+shQHF2oZWL/5TS96hefD+9qjP/MIJWV/WOidK809eGw== 
# MNEM.UNIT                                              DATA : DESCRIPTION OF MNEMONIC 
#-----.-----                    ----------------------------- : ----------------------------- 
CNTY.                                                  REEVES : COUNTY 
STATE.                                                  TEXAS : STATE 
CNTRY.                                                    USA : COUNTRY 
API.                                             42-389-00931 : API (10 Digit) 
API_14.                                    42-389-00931-00-00 : API (14 Digits) 
API_14_std.                                 42-389-00931-0000 : API (14 Digits Standard) 
UWI.                                           42389009310000 : UNIQUE WELL ID 
WELL.                                                      1, : WELL NAME
STRT.FT                                                 101.0 : START DEPTH
STOP.FT                                                5373.0 : STOP DEPTH
STEP.FT                                                   0.5 : STEP BETWEEN DEPTHS
NULL.                                                 -999.25 : NULL VALUE
#___________________________________________________________________________________________________ 
~CURVE INFORMATION 
# MNEM.UNIT           : CURVE DESCRIPTION 
#-----.-----          : ----------------------------- 
 DEPT.FT               : MEASURED DEPTH 
 GR.API                : GAMMA RAY (GR) 
 DT.US/FT              : SONIC DELTA TRANSIT TIME (DT) 
 #___________________________________________________________________________________________________ 
~A         DEPT             GR             DT
          101.0         60.905       -999.250
          101.5         59.324       -999.250
          102.0         57.641       -999.250
          102.5         55.958       -999.250
          103.0         54.275       -999.250
          103.5         52.543       -999.250
          104.0         50.707       -999.250
          104.5         48.871       -999.250
          105.0         47.035       -999.250
          105.5         45.200       -999.250
          106.0         43.364       -999.250
          106.5         42.451       -999.250
          107.0         43.820       -999.250
          107.5         45.189       -999.250
          108.0         46.557       -999.250
          108.5         47.926       -999.250
          109.0         49.295       -999.250
          109.5         50.664       -999.250
          110.0         52.033       -999.250
          110.5         53.402       -999.250
          111.0         54.770       -999.250
          111.5         54.702       -999.250
          112.0         53.200       -999.250
          112.5         51.699       -999.250
          113.0         50.197       -999.250
          113.5         48.696       -999.250
          114.0         47.194       -999.250
          114.5         45.693       -999.250
          115.0         44.194       -999.250
          115.5         42.868       -999.250
          116.0         41.784       -999.250
          116.5         39.817       -999.250
          117.0         37.849       -999.250
          117.5         35.882       -999.250
          118.0         33.914       -999.250
          118.5         33.646       -999.250
          119.0         34.757       -999.250
          119.5         35.867       -999.250
          120.0         36.978       -999.250
          120.5         38.019       -999.250
          121.0         37.487       -999.250
          121.5         36.954       -999.250
          122.0         36.422       -999.250
          122.5         35.890       -999.250
          123.0         36.524       -999.250
          123.5         37.171       -999.250
          124.0         37.723       -999.250
          124.5         36.705       -999.250
          125.0         35.686       -999.250
          125.5         34.668       -999.250
          126.0         33.649       -999.250
          126.5         32.630       -999.250
          127.0         33.442       -999.250
          127.5         35.362       -999.250
          128.0         37.282       -999.250
          128.5         39.202       -999.250
          129.0         41.121       -999.250
          129.5         43.041       -999.250
          130.0         44.961       -999.250
          130.5         43.444       -999.250
          131.0         40.999       -999.250
          131.5         39.216       -999.250
          132.0         37.548       -999.250
          132.5         35.879       -999.250
          133.0         34.211       -999.250
          133.5         32.542       -999.250
          134.0         31.050       -999.250
          134.5         30.415       -999.250
          135.0         29.298       -999.250
          135.5         29.280       -999.250
          136.0         30.960       -999.250
          136.5         32.640       -999.250
          137.0         33.442       -999.250
          137.5         33.343       -999.250
          138.0         33.244       -999.250
          138.5         33.145       -999.250
          139.0         33.046       -999.250
          139.5         33.284       -999.250
          140.0         36.109       -999.250
          140.5         38.934       -999.250
          141.0         41.760       -999.250
          141.5         44.585       -999.250
          142.0         44.357       -999.250
          142.5         43.969       -999.250
          143.0         44.451       -999.250
          143.5         45.729       -999.250
          144.0         47.007       -999.250
          144.5         48.285       -999.250
          145.0         49.564       -999.250
          145.5         50.842       -999.250
          146.0         52.120       -999.250
          146.5         51.145       -999.250
          147.0         48.896       -999.250
          147.5         46.648       -999.250
          148.0         44.399       -999.250
          148.5         42.150       -999.250
          149.0         39.901       -999.250
          149.5         37.652       -999.250
          150.0         35.403       -999.250
          150.5         37.651       -999.250
          151.0         42.347       -999.250
          151.5         41.980       -999.250
          152.0         40.802       -999.250
          152.5         39.624       -999.250
          153.0         38.445       -999.250
          153.5         38.433       -999.250
          154.0         39.556       -999.250
          154.5         40.679       -999.250
          155.0         41.802       -999.250
          155.5         42.421       -999.250
          156.0         41.441       -999.250
          156.5         40.023       -999.250
          157.0         38.604       -999.250
          157.5         37.185       -999.250
          158.0         36.785       -999.250
          158.5         36.984       -999.250
          159.0         37.183       -999.250
          159.5         37.382       -999.250
          160.0         37.580       -999.250
          160.5         37.779       -999.250
          161.0         38.813       -999.250
          161.5         40.803       -999.250
          162.0         42.793       -999.250
          162.5         44.783       -999.250
          163.0         46.773       -999.250
          163.5         48.763       -999.250
          164.0         47.949       -999.250
          164.5         45.854       -999.250
          165.0         43.760       -999.250
          165.5         41.665       -999.250
          166.0         39.571       -999.250
          166.5         40.134       -999.250
          167.0         43.805       -999.250
          167.5         47.477       -999.250
          168.0         50.619       -999.250
          168.5         49.390       -999.250
          169.0         48.161       -999.250
          169.5         46.931       -999.250
          170.0         45.702       -999.250
          170.5         44.473       -999.250
          171.0         43.244       -999.250
          171.5         49.461       -999.250
          172.0         57.049       -999.250
          172.5         65.879       -999.250
          173.0         75.481       -999.250
          173.5         85.083       -999.250
          174.0         92.420       -999.250
          174.5         91.822       -999.250
          175.0         93.083       -999.250
          175.5         94.621       -999.250
          176.0         96.160       -999.250
          176.5         97.698       -999.250
          177.0         99.236       -999.250
          177.5         96.948       -999.250
          178.0         94.005       -999.250
          178.5         91.062       -999.250
          179.0         88.119       -999.250
          179.5         85.176       -999.250
          180.0         82.120       -999.250
          180.5         73.790       -999.250
          181.0         65.460       -999.250
          181.5         62.867       -999.250
          182.0         63.347       -999.250
          182.5         63.826       -999.250
          183.0         64.306       -999.250
          183.5         64.786       -999.250
          184.0         59.563       -999.250
          184.5         53.275       -999.250
          185.0         48.602       -999.250
          185.5         49.017       -999.250
          186.0         49.433       -999.250
          186.5         49.164       -999.250
          187.0         47.308       -999.250
          187.5         45.451       -999.250
