#--------------------------------------------------#
#-------------------ENVERUS, INC.------------------#
#------------------WWW.ENVERUS.COM-----------------#
#------------------COPYRIGHT 2020------------------#
#--------------------------------------------------#
#THIS FILE MAY BE USED ONLY IN ACCORDANCE WITH A CURRENT SUBSCRIPTION AGREEMENT BETWEEN
#THE USER AND ENVERUS, INC. NO PART OF THIS FILE MAY BE REPRODUCED, USED, COPIED,
#MODIFIED, PROPAGATED, OR DISTRIBUTED EXCEPT IN ACCORDANCE WITH THE SUBSCRIPTION
#AGREEMENT. UNAUTHORIZED USE OR DISTRIBUTION OF ALL OR ANY PART OF THIS FILE MAY VIOLATE
#COPYRIGHT, TRADEMARK, AND/OR OTHER LAWS AND IS SUBJECT TO CIVIL AS WELL AS CRIMINAL
#SANCTIONS.
#--------------------------------------------------#
#THIS FILE IS PROVIDED "AS-IS" AND ALL WARRANTIES ARE EXPRESSLY DISCLAIMED, WHETHER
#EXPRESS, ORAL, IMPLIED, STATUTORY OR OTHERWISE, INCLUDING ANY IMPLIED WARRANTY OF FITNESS
#FOR A PARTICULAR PURPOSE, MERCHANTABILITY, TITLE OR NON-INFRINGEMENT, AND ANY WARRANTIES
#ARISING BY VIRTUE OF CUSTOM OF TRADE OR COURSE OF DEALING.  FURTHER, ENVERUS, INC.
#AND ITS LICENSORS DO NOT REPRESENT OR WARRANT THAT THIS FILE WILL MEET USER'S
#REQUIREMENTS OR ARE SUITABLE FOR USER'S NEEDS OR THAT THE DATA OR RESULTS PROVIDED IN
#CONJUNCTION THEREWITH ARE CORRECT, ACCURATE, TIMELY OR RELIABLE. THESE DISCLAIMERS SHALL
#APPLY REGARDLESS OF ANY FAILURE OF ESSENTIAL PURPOSE OF ANY LIMITED REMEDY.  SOME
#JURISDICTIONS DO NOT ALLOW THE EXCLUSION OF CERTAIN WARRANTIES SO SOME OF THE ABOVE
#EXCLUSIONS MAY NOT APPLY. IN NO EVENT SHALL ENVERUS, INC. OR ANY OF ITS AFFILIATES
#BE LIABLE UNDER ANY LEGAL THEORY, WHETHER IN TORT (INCLUDING WITHOUT LIMITATION
#NEGLIGENCE), CONTRACT, STRICT LIABILITY, STATUTORY OR OTHERWISE, FOR ANY SPECIAL,
#INCIDENTAL, CONSEQUENTIAL, EXEMPLARY, PUNITIVE OR INDIRECT DAMAGE OF ANY KIND, INCLUDING
#WITHOUT LIMITATION LOSS OF REVENUE, PROFITS, GOODWILL, USE, AND/OR DATA OR THE COST OF
#PROCUREMENT OF SUBSTITUTE GOODS OR SERVICES, EVEN IF APPRISED OF THE POSSIBILITY OF SUCH
#DAMAGES IN ADVANCE.
#--------------------------------------------------#

~VERSION INFORMATION
VERS. 2.0 : CWLS LOG ASCII STANDARD - VERSION 2.0
WRAP. NO : ONE LINE PER DEPTH STEP
~WELL INFORMATION
#MNEMONIC     .UNIT              VALUE :DESCRIPTION
STRT       .FT                101.00000 :START DEPTH
STOP       .FT                5802.00000 :STOP DEPTH
STEP       .FT                0.50000 :STEP
NULL       .                -999.25000 :NULL VALUE
UWI       .                42389010150000 :UNIQUE WELL ID
API       .                42389010150000 :API NUMBER
COMP       .                 :COMPANY
WELL       .                 :WELL
FLD       .                 :FIELD
LOC       .                 :LOCATION
CNTY       .                 :COUNTY
STAT       .                 :STATE
CTRY       .                 :COUNTRY
SRVC       .                 :SERVICE COMPANY
DATE       .                 :DATE
~CURVE INFORMATION
#MNEMONIC     .UNIT      API CODE :CURVE DESCRIPTION
DEPTH       .FT                      :MEASURED DEPTH
DT       .US/FT        UNKNOWN   :DT
GR       .GAPI        UNKNOWN   :GR
~A    DEPTH    DT    GR
# ...
883.00000    -999.25000    9.77754
883.50000    -999.25000    9.84389
884.00000    -999.25000    9.48169
884.50000    -999.25000    8.90587
885.00000    -999.25000    8.33005
885.50000    -999.25000    8.51846
886.00000    -999.25000    8.90204
886.50000    -999.25000    9.28562
887.00000    -999.25000    9.66921
887.50000    -999.25000    10.05279
888.00000    -999.25000    10.15368
888.50000    -999.25000    10.11411
889.00000    -999.25000    10.07453
889.50000    -999.25000    10.03496
890.00000    -999.25000    10.01102
890.50000    -999.25000    10.44672
891.00000    -999.25000    10.88243
891.50000    -999.25000    11.31813
892.00000    -999.25000    11.75383
892.50000    -999.25000    12.18954
893.00000    -999.25000    11.97857
893.50000    -999.25000    11.37014
894.00000    -999.25000    10.99478
894.50000    -999.25000    10.99744
895.00000    -999.25000    11.00009
895.50000    -999.25000    11.00275
896.00000    -999.25000    10.58819
896.50000    -999.25000    10.16933
897.00000    -999.25000    9.75047
897.50000    -999.25000    9.63087
898.00000    -999.25000    9.79338
898.50000    -999.25000    9.95589
899.00000    -999.25000    10.11840
899.50000    -999.25000    10.28091
900.00000    -999.25000    10.31912
900.50000    -999.25000    10.28386
901.00000    -999.25000    10.24861
901.50000    -999.25000    10.21335
902.00000    -999.25000    10.17809
902.50000    -999.25000    10.14284
903.00000    -999.25000    10.10758
903.50000    -999.25000    10.07232
904.00000    -999.25000    9.74411
904.50000    -999.25000    9.38496
905.00000    -999.25000    9.02581
905.50000    -999.25000    8.79589
906.00000    -999.25000    9.45652
906.50000    -999.25000    10.11715
907.00000    -999.25000    10.77777
907.50000    -999.25000    11.39687
908.00000    -999.25000    12.00927
908.50000    -999.25000    12.62168
909.00000    -999.25000    13.23409
909.50000    -999.25000    12.86021
910.00000    -999.25000    11.99659
910.50000    -999.25000    11.59316
911.00000    -999.25000    11.18974
911.50000    -999.25000    10.78632
912.00000    -999.25000    10.38289
912.50000    -999.25000    10.14146
913.00000    -999.25000    10.21652
913.50000    -999.25000    10.29157
914.00000    -999.25000    10.36663
914.50000    -999.25000    10.44168
915.00000    -999.25000    10.51673
915.50000    -999.25000    10.59178
916.00000    -999.25000    13.20142
916.50000    -999.25000    17.59845
917.00000    -999.25000    21.99547
917.50000    -999.25000    26.39250
918.00000    -999.25000    27.84460
918.50000    -999.25000    27.88064
919.00000    -999.25000    27.91668
919.50000    -999.25000    27.95271
920.00000    -999.25000    27.98875
920.50000    -999.25000    28.02479
921.00000    -999.25000    29.60259
921.50000    -999.25000    31.48731
922.00000    -999.25000    32.86199
922.50000    -999.25000    33.26125
923.00000    -999.25000    33.66052
923.50000    -999.25000    33.25178
924.00000    -999.25000    32.38089
924.50000    -999.25000    31.51000
925.00000    -999.25000    30.65177
925.50000    -999.25000    29.99469
926.00000    -999.25000    29.33761
926.50000    -999.25000    28.68053
927.00000    -999.25000    28.23578
927.50000    -999.25000    28.58520
928.00000    -999.25000    28.93463
928.50000    -999.25000    29.28406
929.00000    -999.25000    29.63349
929.50000    -999.25000    29.77218
930.00000    -999.25000    29.90794
930.50000    -999.25000    30.04369
931.00000    -999.25000    29.53627
931.50000    -999.25000    28.01670
932.00000    -999.25000    27.41506
932.50000    -999.25000    26.28770
933.00000    -999.25000    25.54978
933.50000    -999.25000    24.81186
934.00000    -999.25000    24.61655
934.50000    -999.25000    25.14238
935.00000    -999.25000    25.66822
935.50000    -999.25000    26.19405
936.00000    -999.25000    26.71988
936.50000    -999.25000    27.24571
937.00000    -999.25000    27.37027
937.50000    -999.25000    27.01840
938.00000    -999.25000    26.66652
938.50000    -999.25000    26.31464
939.00000    -999.25000    25.99615
939.50000    -999.25000    26.29577
940.00000    -999.25000    26.59540
940.50000    -999.25000    26.89503
941.00000    -999.25000    27.19465
941.50000    -999.25000    27.49428
942.00000    -999.25000    27.79390
942.50000    -999.25000    28.09353
943.00000    -999.25000    28.09606
943.50000    -999.25000    27.78762
944.00000    -999.25000    27.47918
944.50000    -999.25000    27.17073
945.00000    -999.25000    26.86229
945.50000    -999.25000    26.55384
946.00000    -999.25000    26.24540
946.50000    -999.25000    26.70078
947.00000    -999.25000    27.24125
947.50000    -999.25000    27.78173
948.00000    -999.25000    28.32221
948.50000    -999.25000    28.05772
949.00000    -999.25000    27.48651
949.50000    -999.25000    27.05608
950.00000    -999.25000    27.30487
950.50000    -999.25000    27.55365
951.00000    -999.25000    27.80243
951.50000    -999.25000    28.05121
952.00000    -999.25000    28.25775
952.50000    -999.25000    25.50123
953.00000    -999.25000    22.74471
953.50000    -999.25000    21.07939
954.00000    -999.25000    20.85477
954.50000    -999.25000    20.63015
955.00000    -999.25000    20.40553
955.50000    -999.25000    19.07810
956.00000    -999.25000    17.74716
956.50000    -999.25000    16.88883
957.00000    -999.25000    16.28018
957.50000    -999.25000    16.88279
958.00000    -999.25000    17.91681
958.50000    -999.25000    18.95083
959.00000    -999.25000    19.98484
959.50000    -999.25000    21.32789
960.00000    -999.25000    25.49755
960.50000    -999.25000    29.22677
961.00000    -999.25000    30.01889
961.50000    -999.25000    30.81101
962.00000    -999.25000    31.60312
962.50000    -999.25000    32.39524
963.00000    -999.25000    30.73247
963.50000    -999.25000    27.79122
964.00000    -999.25000    26.41942
964.50000    -999.25000    25.04762
965.00000    -999.25000    23.67582
965.50000    -999.25000    24.18712
966.00000    -999.25000    25.00096
966.50000    -999.25000    25.81479
967.00000    -999.25000    26.62863
967.50000    -999.25000    27.02485
968.00000    -999.25000    25.34658
968.50000    -999.25000    23.66831
969.00000    -999.25000    21.99005
969.50000    -999.25000    21.73166
970.00000    -999.25000    21.96837
970.50000    -999.25000    22.20507
971.00000    -999.25000    22.44177
971.50000    -999.25000    22.67848
972.00000    -999.25000    22.91518
972.50000    -999.25000    23.16691
973.00000    -999.25000    23.63305
973.50000    -999.25000    24.09918
974.00000    -999.25000    24.56532
974.50000    -999.25000    25.03146
975.00000    -999.25000    25.49760
975.50000    -999.25000    26.22800
976.00000    -999.25000    27.39259
976.50000    -999.25000    28.55718
977.00000    -999.25000    29.72177
977.50000    -999.25000    30.88636
978.00000    -999.25000    32.05095
978.50000    -999.25000    31.91205
979.00000    -999.25000    31.68308
979.50000    -999.25000    32.12796
980.00000    -999.25000    32.57283
980.50000    -999.25000    33.01771
981.00000    -999.25000    33.46258
981.50000    -999.25000    26.55834
982.00000    -999.25000    18.31679
982.50000    -999.25000    15.55752
983.00000    -999.25000    13.14734
983.50000    -999.25000    12.58093
984.00000    -999.25000    12.01451
984.50000    -999.25000    11.44810
985.00000    -999.25000    10.88169
985.50000    -999.25000    10.98626
986.00000    -999.25000    11.38219
986.50000    -999.25000    11.77812
987.00000    -999.25000    12.17405
987.50000    -999.25000    12.56998
988.00000    -999.25000    12.96591
988.50000    -999.25000    13.28064
989.00000    -999.25000    13.59419
989.50000    -999.25000    13.90775
990.00000    -999.25000    14.22131
990.50000    -999.25000    14.53487
991.00000    -999.25000    14.84843
991.50000    -999.25000    15.16199
992.00000    -999.25000    15.54140
992.50000    -999.25000    16.34830
993.00000    -999.25000    17.15520
993.50000    -999.25000    17.96210
994.00000    -999.25000    17.83270
