#--------------------------------------------------#
#-------------------ENVERUS, INC.------------------#
#------------------WWW.ENVERUS.COM-----------------#
#------------------COPYRIGHT 2020------------------#
#--------------------------------------------------#
#THIS FILE MAY BE USED ONLY IN ACCORDANCE WITH A CURRENT SUBSCRIPTION AGREEMENT BETWEEN
#THE USER AND ENVERUS, INC. NO PART OF THIS FILE MAY BE REPRODUCED, USED, COPIED,
#MODIFIED, PROPAGATED, OR DISTRIBUTED EXCEPT IN ACCORDANCE WITH THE SUBSCRIPTION
#AGREEMENT. UNAUTHORIZED USE OR DISTRIBUTION OF ALL OR ANY PART OF THIS FILE MAY VIOLATE
#COPYRIGHT, TRADEMARK, AND/OR OTHER LAWS AND IS SUBJECT TO CIVIL AS WELL AS CRIMINAL
#SANCTIONS.
#--------------------------------------------------#
#THIS FILE IS PROVIDED "AS-IS" AND ALL WARRANTIES ARE EXPRESSLY DISCLAIMED, WHETHER
#EXPRESS, ORAL, IMPLIED, STATUTORY OR OTHERWISE, INCLUDING ANY IMPLIED WARRANTY OF FITNESS
#FOR A PARTICULAR PURPOSE, MERCHANTABILITY, TITLE OR NON-INFRINGEMENT, AND ANY WARRANTIES
#ARISING BY VIRTUE OF CUSTOM OF TRADE OR COURSE OF DEALING.  FURTHER, ENVERUS, INC.
#AND ITS LICENSORS DO NOT REPRESENT OR WARRANT THAT THIS FILE WILL MEET USER'S
#REQUIREMENTS OR ARE SUITABLE FOR USER'S NEEDS OR THAT THE DATA OR RESULTS PROVIDED IN
#CONJUNCTION THEREWITH ARE CORRECT, ACCURATE, TIMELY OR RELIABLE. THESE DISCLAIMERS SHALL
#APPLY REGARDLESS OF ANY FAILURE OF ESSENTIAL PURPOSE OF ANY LIMITED REMEDY.  SOME
#JURISDICTIONS DO NOT ALLOW THE EXCLUSION OF CERTAIN WARRANTIES SO SOME OF THE ABOVE
#EXCLUSIONS MAY NOT APPLY. IN NO EVENT SHALL ENVERUS, INC. OR ANY OF ITS AFFILIATES
#BE LIABLE UNDER ANY LEGAL THEORY, WHETHER IN TORT (INCLUDING WITHOUT LIMITATION
#NEGLIGENCE), CONTRACT, STRICT LIABILITY, STATUTORY OR OTHERWISE, FOR ANY SPECIAL,
#INCIDENTAL, CONSEQUENTIAL, EXEMPLARY, PUNITIVE OR INDIRECT DAMAGE OF ANY KIND, INCLUDING
#WITHOUT LIMITATION LOSS OF REVENUE, PROFITS, GOODWILL, USE, AND/OR DATA OR THE COST OF
#PROCUREMENT OF SUBSTITUTE GOODS OR SERVICES, EVEN IF APPRISED OF THE POSSIBILITY OF SUCH
#DAMAGES IN ADVANCE.
#--------------------------------------------------#

~VERSION INFORMATION
VERS. 2.0 : CWLS LOG ASCII STANDARD - VERSION 2.0
WRAP.  NO : ONE LINE PER DEPTH STEP
~WELL INFORMATION
#MNEMONIC     .UNIT              VALUE :DESCRIPTION
STRT       .FT                50 :START DEPTH
STOP       .FT                6118 :STOP DEPTH
STEP       .FT                   0.500 :STEP
NULL       .                  -999.990 :NULL
UWI        .              42389003090000 :UNIQUE WELL ID
API        .              42389003090000 :API NUMBER
COMP       .         :COMPANY
WELL       .         1, :WELL
DATE       .                            :LOG DATE
~CURVE INFORMATION
#MNEMONIC     .UNIT      API CODE :CURVE DESCRIPTION
DEPTH       .FT                      :MEASURED DEPTH
NEUT.API        UNKNOWN   :NEUT
GR.API        UNKNOWN   :GR
DT.US/FT        UNKNOWN   :DT
~A    DEPTH    NEUT    GR    DT
# ...
 3831.5     -999.990   11.83   50.076
 3832     -999.990   12.877   49.772
 3832.5     -999.990   13.924   50.035
 3833     -999.990   14.97   50.302
 3833.5     -999.990   15.814   50.568
 3834     -999.990   14.537   50.756
 3834.5     -999.990   13.261   50.535
 3835     -999.990   12.11   50.314
 3835.5     -999.990   13.316   50.093
 3836     -999.990   14.521   50.036
 3836.5     -999.990   15.697   50.204
 3837     -999.990   14.748   50.372
 3837.5     -999.990   13.798   50.322
 3838     -999.990   13.577   49.902
 3838.5     -999.990   14.664   49.481
 3839     -999.990   15.752   49.292
 3839.5     -999.990   15.781   49.435
 3840     -999.990   15.358   49.481
 3840.5     -999.990   14.934   48.852
 3841     -999.990   14.511   48.829
 3841.5     -999.990   14.087   49.118
 3842     -999.990   13.663   49.408
 3842.5     -999.990   13.24   49.697
 3843     -999.990   12.816   49.987
 3843.5     -999.990   12.393   50.276
 3844     -999.990   11.969   50.565
 3844.5     -999.990   11.546   50.855
 3845     -999.990   11.122   51.144
 3845.5     -999.990   10.698   51.433
 3846     -999.990   10.275   51.723
 3846.5     -999.990   9.851   51.731
 3847     -999.990   10.101   51.711
 3847.5     -999.990   10.989   51.523
 3848     -999.990   11.876   51.243
 3848.5     -999.990   12.764   50.962
 3849     -999.990   13.652   50.682
 3849.5     -999.990   12.28   50.401
 3850     -999.990   10.813   50.121
 3850.5     -999.990   9.346   49.841
 3851     -999.990   10.825   49.56
 3851.5     -999.990   12.553   49.523
 3852     -999.990   14.281   49.785
 3852.5     -999.990   15.688   50.048
 3853     -999.990   14.892   50.31
 3853.5     -999.990   14.097   50.573
 3854     -999.990   13.301   50.836
 3854.5     -999.990   13.701   51.098
 3855     -999.990   14.589   51.17
 3855.5     -999.990   15.476   51.086
 3856     -999.990   15.33   51.001
 3856.5     -999.990   14.681   50.916
 3857     -999.990   14.033   50.937
 3857.5     -999.990   13.385   50.988
 3858     -999.990   12.736   51.038
 3858.5     -999.990   12.088   51.088
 3859     -999.990   13.067   51.138
 3859.5     -999.990   14.082   51.188
 3860     -999.990   14.628   51.238
 3860.5     -999.990   14.183   51.221
 3861     -999.990   13.738   50.939
 3861.5     -999.990   13.293   50.657
 3862     -999.990   12.848   50.374
 3862.5     -999.990   12.404   50.092
 3863     -999.990   11.65   49.81
 3863.5     -999.990   10.714   50.163
 3864     -999.990   9.777   50.524
 3864.5     -999.990   8.84   50.754
 3865     -999.990   8.03   50.664
 3865.5     -999.990   8.885   50.573
 3866     -999.990   9.739   50.482
 3866.5     -999.990   10.593   50.391
 3867     -999.990   11.447   50.776
 3867.5     -999.990   12.301   51.301
 3868     -999.990   13.155   53.205
 3868.5     -999.990   14.009   55.408
 3869     -999.990   13.535   57.724
 3869.5     -999.990   12.842   60.04
 3870     -999.990   12.15   59.865
 3870.5     -999.990   11.458   56.709
 3871     -999.990   10.766   53.554
 3871.5     -999.990   10.073   51.663
 3872     -999.990   9.923   52.923
 3872.5     -999.990   10.57   49.58
 3873     -999.990   11.217   48.24
 3873.5     -999.990   11.864   49.452
 3874     -999.990   12.512   50.202
 3874.5     -999.990   13.159   50.305
 3875     -999.990   13.806   50.407
 3875.5     -999.990   11.755   50.51
 3876     -999.990   11.309   50.613
 3876.5     -999.990   11.706   51.4
 3877     -999.990   12.103   52.303
 3877.5     -999.990   12.499   53.206
 3878     -999.990   12.896   55.825
 3878.5     -999.990   12.502   59.263
 3879     -999.990   11.311   62.7
 3879.5     -999.990   10.119   64.371
 3880     -999.990   8.928   63.741
 3880.5     -999.990   7.737   72.085
 3881     -999.990   11.022   69.903
 3881.5     -999.990   11.392   67.721
 3882     -999.990   10.981   65.038
 3882.5     -999.990   10.571   61.666
 3883     -999.990   10.16   58.295
 3883.5     -999.990   9.749   53.973
 3884     -999.990   9.437   49.493
 3884.5     -999.990   9.943   46.033
 3885     -999.990   10.449   43.967
 3885.5     -999.990   10.955   46.169
 3886     -999.990   11.461   48.986
 3886.5     -999.990   11.967   49.288
 3887     -999.990   12.473   49.59
 3887.5     -999.990   12.414   49.892
 3888     -999.990   12.058   50.194
 3888.5     -999.990   11.702   50.038
 3889     -999.990   11.346   49.665
 3889.5     -999.990   10.99   49.292
 3890     -999.990   11.408   48.919
 3890.5     -999.990   12.129   48.707
 3891     -999.990   12.849   49.029
 3891.5     -999.990   13.569   49.351
 3892     -999.990   14.289   49.673
 3892.5     -999.990   15.009   49.995
 3893     -999.990   15.729   50.148
 3893.5     -999.990   15.081   50.195
 3894     -999.990   13.097   50.242
 3894.5     -999.990   11.114   50.126
 3895     -999.990   9.359   49.892
 3895.5     -999.990   9.937   49.658
 3896     -999.990   10.516   49.424
 3896.5     -999.990   11.094   50.052
 3897     -999.990   11.673   50.151
 3897.5     -999.990   12.251   49.905
 3898     -999.990   11.838   49.658
 3898.5     -999.990   11.134   49.412
 3899     -999.990   10.431   50.21
 3899.5     -999.990   12.334   51.829
 3900     -999.990   15.168   58.712
 3900.5     -999.990   17.661   66.169
 3901     -999.990   16.223   71.674
 3901.5     -999.990   14.785   73.57
 3902     -999.990   13.348   74.454
 3902.5     -999.990   11.91   72.249
 3903     -999.990   12.367   70.043
 3903.5     -999.990   13.029   68.207
 3904     -999.990   13.692   67.834
 3904.5     -999.990   14.354   60.625
 3905     -999.990   15.017   56.066
 3905.5     -999.990   14.503   51.507
 3906     -999.990   13.948   47.425
 3906.5     -999.990   13.393   43.717
 3907     -999.990   12.838   42.32
 3907.5     -999.990   12.283   44.923
 3908     -999.990   11.728   47.526
 3908.5     -999.990   11.173   48.447
 3909     -999.990   10.618   48.7
 3909.5     -999.990   10.063   48.952
 3910     -999.990   11.649   49.205
 3910.5     -999.990   13.598   49.43
 3911     -999.990   14.007   49.443
 3911.5     -999.990   13.291   49.455
 3912     -999.990   12.575   49.468
 3912.5     -999.990   11.858   49.48
 3913     -999.990   11.142   49.569
 3913.5     -999.990   10.426   49.662
 3914     -999.990   11.448   49.755
 3914.5     -999.990   12.7   49.592
 3915     -999.990   13.953   49.404
 3915.5     -999.990   15.206   49.217
 3916     -999.990   16.458   49.03
 3916.5     -999.990   17.286   48.842
 3917     -999.990   16.264   48.655
 3917.5     -999.990   15.242   48.468
 3918     -999.990   14.221   48.547
 3918.5     -999.990   13.199   48.691
 3919     -999.990   12.177   48.834
 3919.5     -999.990   11.155   48.978
 3920     -999.990   10.134   49.122
 3920.5     -999.990   9.457   49.265
 3921     -999.990   10.048   49.409
 3921.5     -999.990   10.638   49.553
 3922     -999.990   11.229   49.696
 3922.5     -999.990   11.82   49.84
 3923     -999.990   12.411   49.983
 3923.5     -999.990   13.002   50.127
 3924     -999.990   12.902   50.271
 3924.5     -999.990   11.677   50.187
 3925     -999.990   12.326   49.843
 3925.5     -999.990   14.995   49.499
 3926     -999.990   14.297   49.155
 3926.5     -999.990   13.467   48.811
 3927     -999.990   12.636   48.83
 3927.5     -999.990   11.806   49.049
 3928     -999.990   10.975   48.994
 3928.5     -999.990   10.145   48.838
 3929     -999.990   10.574   48.682
 3929.5     -999.990   11.165   48.526
 3930     -999.990   11.756   49.144
 3930.5     -999.990   12.347   50.254
 3931     -999.990   12.938   51.109
 3931.5     -999.990   13.529   50.878
 3932     -999.990   14.12   50.647
 3932.5     -999.990   14.711   50.416
 3933     -999.990   15.302   50.185
 3933.5     -999.990   14.768   49.954
 3934     -999.990   13.908   49.774
 3934.5     -999.990   13.049   49.775
 3935     -999.990   12.189   49.777
 3935.5     -999.990   11.33   49.778
 3936     -999.990   10.47   49.78
 3936.5     -999.990   9.61   49.781
 3937     -999.990   8.751   49.783
 3937.5     -999.990   8.547   49.784
