###############################################
##         ENVERUS                           ##
##         EPlus - Open Hole                 ##
##         PERMIAN / DELAWARE                ##
##         Copyright ©                       ##
##         Enverus Version - V4.0            ##
##         Nov 20 2023                       ##
##         42-389-10253-00-00                ##
###############################################
## Copyright 2017-2023  ENVERUS.  All Rights Reserved. 
## Confidential - Property of ENVERUS, use governed by terms and 
## conditions found within the existing Information Services Subscription Agreement 
## (as may be amended, the “ISSA”) between Customer and ENVERUS. 
## 
#___________________________________________________________________________________________________
~VERSION INFORMATION
# MNEM.UNIT                               DATA : DESCRIPTION OF MNEMONIC
#-----.-----     ----------------------------- : -----------------------------
VERS.                                     2.00 : CWLS LOG ASCII STANDARD - VERSION 2.00
WRAP.                                       NO : MULTIPLE LINES PER DEPTH STEP
VEND.                                  ENVERUS : VENDOR
ENV_TYPE.                    EPLUS - OPEN HOLE : Enverus Essential Plus Curves – Accessible through Enverus Core(TM)
ENV_VERS.                                 V4.0 : EPlus - Open Hole Version number 
ENV_DOC.                              44178784 : ENVERUS Header Document id
ENV_REF.                               PERMIAN : ENVERUS BASIN OR PLAY APPLIED REFERENCE LIMITS 
#___________________________________________________________________________________________________ 
~WELL INFORMATION 
# uyaQ8P8kQDJ9DXFS5hR1PxmExEOYaAUkY5f3/tnOS+scoPAUWgXA1zCIHGRbWCuSuUcwDzaESCjqjWQ81XhadA== 
# MNEM.UNIT                                              DATA : DESCRIPTION OF MNEMONIC 
#-----.-----                    ----------------------------- : ----------------------------- 
CNTY.                                                  REEVES : COUNTY 
STATE.                                                  TEXAS : STATE 
CNTRY.                                                    USA : COUNTRY 
API.                                             42-389-10253 : API (10 Digit) 
API_14.                                    42-389-10253-00-00 : API (14 Digits) 
API_14_std.                                 42-389-10253-0000 : API (14 Digits Standard) 
UWI.                                           42389102530000 : UNIQUE WELL ID
STRT.FT                                                   108 : START DEPTH
STOP.FT                                                  5248 : STOP DEPTH
STEP.FT                                                   0.5 : STEP DEPTH
NULL.                                               -999.2500 : NULL VALUE
WELL.                                       A O  REEVES FEE 1 : WELL NAME 
GR_ELEV.                                                 2779 : GROUND ELEVATION 
SLAT.                                                 31.1575 : SURFACE LATITUDE 
SLONG.                                              -103.3573 : SURFACE LONGITUDE
#___________________________________________________________________________________________________ 
~CURVE INFORMATION 
# MNEM.UNIT           : CURVE DESCRIPTION 
#-----.-----          : ----------------------------- 
DEPT.FT               : MEASURED DEPTH 
GR_E.API              : ENVERUS GAMMA RAY - CLEANED BLENDED AND LUMPED 
GR_F.                 : ENVERUS GAMMA RAY - OUTLIER INDICATOR - 0=(IN BOUNDS) 1=(OUT OF BOUNDS) 2=(REPEATING) 
GR_S.                 : ENVERUS GAMMA RAY - SOURCE INDICATOR 
GR_U.                 : ENVERUS GAMMA RAY - OPTION INDICATOR - 0=(NO OPTION) 1=(OTHER OPTIONS) 
DT_E.US/FT            : ENVERUS SONIC TRAVEL TIME - CLEANED BLENDED AND LUMPED 
DT_F.                 : ENVERUS SONIC TRAVEL TIME - OUTLIER INDICATOR - 0=(IN BOUNDS) 1=(OUT OF BOUNDS) 2=(REPEATING) 
DT_S.                 : ENVERUS SONIC TRAVEL TIME - SOURCE INDICATOR 
DT_U.                 : ENVERUS SONIC TRAVEL TIME - OPTION INDICATOR - 0=(NO OPTION) 1=(OTHER OPTIONS)
#___________________________________________________________________________________________________ 
~A         DEPT           GR_E           GR_F           GR_S           GR_U           DT_E           DT_F           DT_S           DT_U
# ...
        1140.50         24.853           0.00           0.00           0.00     -999.25000        -999.25        -999.25        -999.25
        1141.00         24.593           0.00           0.00           0.00     -999.25000        -999.25        -999.25        -999.25
        1141.50         24.334           0.00           0.00           0.00     -999.25000        -999.25        -999.25        -999.25
        1142.00         24.075           0.00           0.00           0.00     -999.25000        -999.25        -999.25        -999.25
        1142.50         23.815           0.00           0.00           0.00     -999.25000        -999.25        -999.25        -999.25
        1143.00         23.556           0.00           0.00           0.00     -999.25000        -999.25        -999.25        -999.25
        1143.50         23.297           0.00           0.00           0.00     -999.25000        -999.25        -999.25        -999.25
        1144.00         23.037           0.00           0.00           0.00     -999.25000        -999.25        -999.25        -999.25
        1144.50         22.778           0.00           0.00           0.00     -999.25000        -999.25        -999.25        -999.25
        1145.00         22.518           0.00           0.00           0.00     -999.25000        -999.25        -999.25        -999.25
        1145.50         22.259           0.00           0.00           0.00     -999.25000        -999.25        -999.25        -999.25
        1146.00         22.000           0.00           0.00           0.00     -999.25000        -999.25        -999.25        -999.25
        1146.50         21.740           0.00           0.00           0.00     -999.25000        -999.25        -999.25        -999.25
        1147.00         21.481           0.00           0.00           0.00     -999.25000        -999.25        -999.25        -999.25
        1147.50         21.222           0.00           0.00           0.00     -999.25000        -999.25        -999.25        -999.25
        1148.00         20.962           0.00           0.00           0.00     -999.25000        -999.25        -999.25        -999.25
        1148.50         20.703           0.00           0.00           0.00     -999.25000        -999.25        -999.25        -999.25
        1149.00         21.053           0.00           0.00           0.00     -999.25000        -999.25        -999.25        -999.25
        1149.50         22.609           0.00           0.00           0.00     -999.25000        -999.25        -999.25        -999.25
        1150.00         24.164           0.00           0.00           0.00     -999.25000        -999.25        -999.25        -999.25
        1150.50         25.719           0.00           0.00           0.00     -999.25000        -999.25        -999.25        -999.25
        1151.00         27.274           0.00           0.00           0.00     -999.25000        -999.25        -999.25        -999.25
        1151.50         29.274           0.00           0.00           0.00     -999.25000        -999.25        -999.25        -999.25
        1152.00         32.052           0.00           0.00           0.00     -999.25000        -999.25        -999.25        -999.25
        1152.50         34.831           0.00           0.00           0.00     -999.25000        -999.25        -999.25        -999.25
        1153.00         36.933           0.00           0.00           0.00     -999.25000        -999.25        -999.25        -999.25
        1153.50         38.217           0.00           0.00           0.00     -999.25000        -999.25        -999.25        -999.25
        1154.00         39.502           0.00           0.00           0.00     -999.25000        -999.25        -999.25        -999.25
        1154.50         40.786           0.00           0.00           0.00     -999.25000        -999.25        -999.25        -999.25
        1155.00         42.071           0.00           0.00           0.00     -999.25000        -999.25        -999.25        -999.25
        1155.50         42.648           0.00           0.00           0.00     -999.25000        -999.25        -999.25        -999.25
        1156.00         42.533           0.00           0.00           0.00     -999.25000        -999.25        -999.25        -999.25
        1156.50         42.419           0.00           0.00           0.00     -999.25000        -999.25        -999.25        -999.25
        1157.00         42.304           0.00           0.00           0.00     -999.25000        -999.25        -999.25        -999.25
        1157.50         42.189           0.00           0.00           0.00     -999.25000        -999.25        -999.25        -999.25
        1158.00         42.074           0.00           0.00           0.00     -999.25000        -999.25        -999.25        -999.25
        1158.50         40.820           0.00           0.00           0.00     -999.25000        -999.25        -999.25        -999.25
        1159.00         36.990           0.00           0.00           0.00     -999.25000        -999.25        -999.25        -999.25
        1159.50         33.159           0.00           0.00           0.00     -999.25000        -999.25        -999.25        -999.25
        1160.00         29.328           0.00           0.00           0.00     -999.25000        -999.25        -999.25        -999.25
        1160.50         26.835           0.00           0.00           0.00     -999.25000        -999.25        -999.25        -999.25
        1161.00         26.073           0.00           0.00           0.00     -999.25000        -999.25        -999.25        -999.25
        1161.50         25.310           0.00           0.00           0.00     -999.25000        -999.25        -999.25        -999.25
        1162.00         24.644           0.00           0.00           0.00     -999.25000        -999.25        -999.25        -999.25
        1162.50         26.848           0.00           0.00           0.00     -999.25000        -999.25        -999.25        -999.25
        1163.00         29.053           0.00           0.00           0.00     -999.25000        -999.25        -999.25        -999.25
        1163.50         31.258           0.00           0.00           0.00     -999.25000        -999.25        -999.25        -999.25
        1164.00         33.463           0.00           0.00           0.00     -999.25000        -999.25        -999.25        -999.25
        1164.50         35.668           0.00           0.00           0.00     -999.25000        -999.25        -999.25        -999.25
        1165.00         37.873           0.00           0.00           0.00     -999.25000        -999.25        -999.25        -999.25
        1165.50         38.427           0.00           0.00           0.00     -999.25000        -999.25        -999.25        -999.25
        1166.00         37.677           0.00           0.00           0.00     -999.25000        -999.25        -999.25        -999.25
        1166.50         36.928           0.00           0.00           0.00     -999.25000        -999.25        -999.25        -999.25
        1167.00         36.179           0.00           0.00           0.00     -999.25000        -999.25        -999.25        -999.25
        1167.50         35.430           0.00           0.00           0.00     -999.25000        -999.25        -999.25        -999.25
        1168.00         34.681           0.00           0.00           0.00     -999.25000        -999.25        -999.25        -999.25
        1168.50         34.106           0.00           0.00           0.00     -999.25000        -999.25        -999.25        -999.25
        1169.00         35.274           0.00           0.00           0.00     -999.25000        -999.25        -999.25        -999.25
        1169.50         36.443           0.00           0.00           0.00     -999.25000        -999.25        -999.25        -999.25
