#--------------------------------------------------#
#-------------------ENVERUS, INC.------------------#
#------------------WWW.ENVERUS.COM-----------------#
#------------------COPYRIGHT 2020------------------#
#--------------------------------------------------#
#THIS FILE MAY BE USED ONLY IN ACCORDANCE WITH A CURRENT SUBSCRIPTION AGREEMENT BETWEEN
#THE USER AND ENVERUS, INC. NO PART OF THIS FILE MAY BE REPRODUCED, USED, COPIED,
#MODIFIED, PROPAGATED, OR DISTRIBUTED EXCEPT IN ACCORDANCE WITH THE SUBSCRIPTION
#AGREEMENT. UNAUTHORIZED USE OR DISTRIBUTION OF ALL OR ANY PART OF THIS FILE MAY VIOLATE
#COPYRIGHT, TRADEMARK, AND/OR OTHER LAWS AND IS SUBJECT TO CIVIL AS WELL AS CRIMINAL
#SANCTIONS.
#--------------------------------------------------#
#THIS FILE IS PROVIDED "AS-IS" AND ALL WARRANTIES ARE EXPRESSLY DISCLAIMED, WHETHER
#EXPRESS, ORAL, IMPLIED, STATUTORY OR OTHERWISE, INCLUDING ANY IMPLIED WARRANTY OF FITNESS
#FOR A PARTICULAR PURPOSE, MERCHANTABILITY, TITLE OR NON-INFRINGEMENT, AND ANY WARRANTIES
#ARISING BY VIRTUE OF CUSTOM OF TRADE OR COURSE OF DEALING.  FURTHER, ENVERUS, INC.
#AND ITS LICENSORS DO NOT REPRESENT OR WARRANT THAT THIS FILE WILL MEET USER'S
#REQUIREMENTS OR ARE SUITABLE FOR USER'S NEEDS OR THAT THE DATA OR RESULTS PROVIDED IN
#CONJUNCTION THEREWITH ARE CORRECT, ACCURATE, TIMELY OR RELIABLE. THESE DISCLAIMERS SHALL
#APPLY REGARDLESS OF ANY FAILURE OF ESSENTIAL PURPOSE OF ANY LIMITED REMEDY.  SOME
#JURISDICTIONS DO NOT ALLOW THE EXCLUSION OF CERTAIN WARRANTIES SO SOME OF THE ABOVE
#EXCLUSIONS MAY NOT APPLY. IN NO EVENT SHALL ENVERUS, INC. OR ANY OF ITS AFFILIATES
#BE LIABLE UNDER ANY LEGAL THEORY, WHETHER IN TORT (INCLUDING WITHOUT LIMITATION
#NEGLIGENCE), CONTRACT, STRICT LIABILITY, STATUTORY OR OTHERWISE, FOR ANY SPECIAL,
#INCIDENTAL, CONSEQUENTIAL, EXEMPLARY, PUNITIVE OR INDIRECT DAMAGE OF ANY KIND, INCLUDING
#WITHOUT LIMITATION LOSS OF REVENUE, PROFITS, GOODWILL, USE, AND/OR DATA OR THE COST OF
#PROCUREMENT OF SUBSTITUTE GOODS OR SERVICES, EVEN IF APPRISED OF THE POSSIBILITY OF SUCH
#DAMAGES IN ADVANCE.
#--------------------------------------------------#

~VERSION INFORMATION
VERS. 2.0 : CWLS LOG ASCII STANDARD - VERSION 2.0
WRAP.  NO : ONE LINE PER DEPTH STEP
~WELL INFORMATION
#MNEMONIC     .UNIT              VALUE :DESCRIPTION
STRT       .FT                86 :START DEPTH
STOP       .FT                5215 :STOP DEPTH
STEP       .FT                   0.500 :STEP
NULL       .                  -999.990 :NULL
UWI        .              42389101440000 :UNIQUE WELL ID
API        .              42389101440000 :API NUMBER
COMP       .         :COMPANY
WELL       .         1, :WELL
DATE       .                            :LOG DATE
~CURVE INFORMATION
#MNEMONIC     .UNIT      API CODE :CURVE DESCRIPTION
DEPTH       .FT                      :MEASURED DEPTH
DT.US/FT        UNKNOWN   :DT
GR.API        UNKNOWN   :GR
~A    DEPTH    DT    GR
# ...
 1972.5     54.778   11.181
 1973     52.129   9.709
 1973.5     52.354   8.237
 1974     52.579   6.765
 1974.5     52.804   7.047
 1975     52.622   7.803
 1975.5     52.181   8.559
 1976     51.937   8.754
 1976.5     52.222   8.399
 1977     52.506   8.045
 1977.5     52.791   7.69
 1978     52.54   7.604
 1978.5     51.774   8.522
 1979     53.106   9.44
 1979.5     54.437   10.358
 1980     51.901   11.276
 1980.5     51.838   12.195
 1981     50.653   11.397
 1981.5     49.469   9.449
 1982     48.285   7.501
 1982.5     47.1   6.028
 1983     46.948   6.82
 1983.5     50.318   7.612
 1984     53.689   8.404
 1984.5     57.059   9.196
 1985     60.43   9.988
 1985.5     63.8   10.78
 1986     67.766   11.572
 1986.5     70.738   12.364
 1987     70.772   9.39
 1987.5     70.249   9.012
 1988     70.379   10.158
 1988.5     71.278   10.517
 1989     66.632   9.645
 1989.5     68.099   8.774
 1990     74.203   11.642
 1990.5     74.413   11.892
 1991     73.667   12.141
 1991.5     73.862   12.39
 1992     74.057   12.639
 1992.5     74.252   12.888
 1993     73.958   13.137
 1993.5     72.785   12.042
 1994     71.612   10.859
 1994.5     70.939   9.676
 1995     70.572   8.493
 1995.5     70.205   7.31
 1996     69.837   6.564
 1996.5     69.47   8.555
 1997     70.031   10.546
 1997.5     70.648   10.393
 1998     69.388   9.824
 1998.5     68.874   9.256
 1999     71.697   11.952
 1999.5     74.521   18.086
 2000     67.518   24.22
 2000.5     66.73   30.377
 2001     67.014   37.161
 2001.5     67.298   43.946
 2002     67.25   43.962
 2002.5     64.187   36.549
 2003     63.416   29.136
 2003.5     66.42   21.723
 2004     69.424   14.817
 2004.5     70.728   10.687
 2005     71.451   9.653
 2005.5     72.173   10.431
 2006     72.896   11.209
 2006.5     71.717   11.987
 2007     70.225   12.764
 2007.5     68.733   14.578
 2008     67.96   17.529
 2008.5     69.381   20.082
 2009     68.928   21.174
 2009.5     67.863   22.267
 2010     69.259   23.359
 2010.5     70.861   24.451
 2011     72.463   25.543
 2011.5     70.575   23.067
 2012     71.3   18.422
 2012.5     72.025   13.777
 2013     71.894   11.396
 2013.5     71.214   10.923
 2014     70.534   10.45
 2014.5     72.845   9.977
 2015     72.925   9.503
 2015.5     73.006   9.03
 2016     72.808   8.557
 2016.5     72.229   8.083
 2017     71.649   11.074
 2017.5     71.07   12.158
 2018     70.49   11.325
 2018.5     69.994   10.493
 2019     69.524   9.661
 2019.5     69.053   8.828
 2020     69.71   8.817
 2020.5     70.402   9.095
 2021     71.094   9.373
 2021.5     71.506   9.652
 2022     71.712   9.93
 2022.5     71.918   10.208
 2023     72.005   10.487
 2023.5     71.699   10.655
 2024     71.394   10.336
 2024.5     71.088   10.017
 2025     71.156   9.697
 2025.5     71.599   9.378
 2026     71.057   9.058
 2026.5     70.515   8.739
 2027     70.56   8.42
 2027.5     70.85   8.1
 2028     71.141   7.781
 2028.5     71.19   8.014
 2029     70.798   8.545
 2029.5     70.406   9.076
 2030     70.014   9.607
 2030.5     69.622   10.138
 2031     69.714   10.669
 2031.5     70.039   10.714
 2032     70.365   10.337
 2032.5     70.691   9.96
 2033     71.017   9.583
 2033.5     70.897   9.206
 2034     70.133   8.829
 2034.5     70.764   8.452
 2035     70.857   8.075
 2035.5     70.53   7.699
 2036     70.204   9.004
 2036.5     69.878   10.403
 2037     69.552   10.689
 2037.5     69.226   10.317
 2038     69.392   9.944
 2038.5     69.592   9.572
 2039     69.792   9.199
 2039.5     69.992   8.827
 2040     70.435   8.454
 2040.5     71.016   8.685
 2041     71.597   9.593
 2041.5     72.178   10.5
 2042     72.758   11.408
 2042.5     71.721   11.979
 2043     71.761   11.616
 2043.5     71.801   11.253
 2044     71.818   10.891
 2044.5     71.342   10.528
 2045     70.866   10.195
 2045.5     70.39   11.531
 2046     70.211   12.579
 2046.5     70.687   12.123
 2047     71.163   11.668
 2047.5     70.735   11.212
 2048     70.212   10.756
 2048.5     69.69   10.301
 2049     69.483   9.845
 2049.5     70.756   10.334
 2050     72.029   11.881
 2050.5     73.303   13.428
 2051     67.24   14.974
 2051.5     67.677   14.779
 2052     67.322   14.064
 2052.5     66.265   13.349
 2053     65.209   12.634
 2053.5     64.153   11.919
 2054     64.945   11.204
 2054.5     68.442   10.489
 2055     68.222   10.653
 2055.5     67.072   11.468
 2056     66.264   11.88
 2056.5     70.966   10.966
 2057     68.908   10.052
 2057.5     66.395   9.138
 2058     68.252   8.225
 2058.5     71.589   7.311
 2059     74.926   6.397
 2059.5     76.364   7.049
 2060     76.263   7.737
 2060.5     76.162   8.426
 2061     56.649   9.115
 2061.5     56.588   9.804
 2062     58.587   10.493
 2062.5     60.63   10.264
 2063     62.672   9.909
 2063.5     64.715   9.554
 2064     66.757   9.199
 2064.5     68.8   9.291
 2065     68.76   9.697
 2065.5     68.464   10.102
 2066     68.167   10.508
 2066.5     69.241   10.913
 2067     69.692   10.982
 2067.5     69.076   10.554
 2068     68.995   10.127
 2068.5     70.408   9.699
 2069     71.246   9.272
 2069.5     70.579   8.845
 2070     69.912   8.417
 2070.5     76.996   8.688
 2071     74.677   9.23
 2071.5     69.433   9.771
 2072     63.897   9.646
 2072.5     54.743   9.446
 2073     53.916   9.246
 2073.5     54.096   9.047
 2074     54.484   8.847
 2074.5     54.872   8.647
 2075     55.26   8.447
 2075.5     55.648   8.247
 2076     56.092   8.407
 2076.5     57.284   9.275
 2077     58.277   10.142
 2077.5     57.45   11.01
 2078     56.624   10.981
 2078.5     55.797   10.345
 2079     54.971   10.138
 2079.5     50.649   11.65
 2080     46.092   13.161
 2080.5     47.812   12.07
 2081     50.648   9.487
 2081.5     53.483   10.041
 2082     56.319   10.595
 2082.5     59.155   11.149
 2083     61.991   11.703
 2083.5     67.622   11.812
 2084     69.306   10.408
 2084.5     68.689   9.005
 2085     69.033   7.601
 2085.5     69.784   7.605
 2086     69.092   7.895
 2086.5     68.4   8.184
 2087     69.152   8.473
 2087.5     70.231   8.763
 2088     72.835   9.052
 2088.5     75.705   9.213
 2089     78.575   8.927
 2089.5     79.408   8.642
 2090     79.432   8.357
 2090.5     72.416   8.731
 2091     60.595   9.188
 2091.5     58.123   9.644
 2092     53.993   9.99
 2092.5     53.534   9.551
 2093     53.91   9.113
 2093.5     54.285   8.674
 2094     54.293   8.235
 2094.5     53.995   8.317
 2095     53.696   9.369
 2095.5     53.398   10.421
 2096     53.297   11.057
 2096.5     53.626   7.158
 2097     53.461   5.825
 2097.5     52.551   6.446
 2098     51.64   7.067
 2098.5     50.73   7.688
 2099     47.794   8.309
 2099.5     52.983   8.929
 2100     58.172   9.55
 2100.5     63.361   10.171
 2101     68.551   10.792
 2101.5     71.914   10.52
 2102     74.969   9.762
 2102.5     78.024   9.004
 2103     77.716   8.245
 2103.5     75.995   7.487
 2104     74.274   7.309
 2104.5     71.95   8.124
 2105     64.608   8.888
 2105.5     57.781   7.834
 2106     54.756   6.78
 2106.5     54.474   5.94
 2107     54.192   6.482
 2107.5     53.91   7.023
 2108     53.628   7.565
 2108.5     53.346   8.107
 2109     53.064   8.648
 2109.5     52.782   8.15
 2110     53.287   6.663
 2110.5     53.968   7.479
 2111     53.359   8.294
 2111.5     53.1   8.87
 2112     53.388   8.624
 2112.5     53.63   8.378
 2113     53.462   8.133
 2113.5     53.294   7.887
 2114     53.125   7.641
 2114.5     52.957   7.426
 2115     52.789   7.987
 2115.5     52.62   8.548
 2116     52.862   9.109
 2116.5     53.12   9.67
 2117     53.377   10.232
 2117.5     53.635   10.793
 2118     53.892   11.354
 2118.5     54.15   11.915
 2119     54.408   12.476
 2119.5     54.665   12.677
 2120     54.923   11.108
 2120.5     51.609   9.54
 2121     52.549   9.661
 2121.5     53.038   10.382
 2122     50.038   11.102
 2122.5     52.388   11.823
 2123     54.739   12.543
 2123.5     57.09   13.264
 2124     59.44   12.794
 2124.5     61.791   11.665
 2125     64.141   10.537
