###############################################
##         ENVERUS                           ##
##         ESS - Open Hole                   ##
##         PERMIAN / DELAWARE                ##
##         Nov 04 2023  V4.0                 ##
##         42-371-32680-00-00                ##
###############################################
## Copyright 2017-2023  ENVERUS.  All Rights Reserved. 
## Confidential - Property of ENVERUS, use governed by terms and 
## conditions found within the existing Information Services Subscription Agreement 
## (as may be amended, the “ISSA”) between Customer and ENVERUS. 
## 
~VERSION INFORMATION
# MNEM.UNIT                               DATA : DESCRIPTION OF MNEMONIC
#-----.-----     ----------------------------- : -----------------------------
VERS.                                     2.00 : CWLS LOG ASCII STANDARD - VERSION 2.00
WRAP.                                       NO : MULTIPLE LINES PER DEPTH STEP
VEND.                                  ENVERUS : VENDOR
TYPE.                          ESS - OPEN HOLE : ENVERUS ESSENTIAL CURVES – ACCESSIBLE THROUGH ENVERUS PRISM(TM)
DOC.                                  31991434 : ENVERUS HEADER RAW DOCUMENT ID
#___________________________________________________________________________________________________ 
~WELL INFORMATION 
# uAv5E/S3ZwrMaovXfwZJbnQ+z8RwnTA5GIEFL0LfM7mdkMX/8iXP+LiYgCnT3sJm4ejuYgXNUZeSPI/Yhcow4w== 
# MNEM.UNIT                                              DATA : DESCRIPTION OF MNEMONIC 
#-----.-----                    ----------------------------- : ----------------------------- 
CNTY.                                                   PECOS : COUNTY 
STATE.                                                  TEXAS : STATE 
CNTRY.                                                    USA : COUNTRY 
API.                                             42-371-32680 : API (10 Digit) 
API_14.                                    42-371-32680-00-00 : API (14 Digits) 
API_14_std.                                 42-371-32680-0000 : API (14 Digits Standard) 
UWI.                                           42371326800000 : UNIQUE WELL ID 
WELL.                                     MARALO - STEWART  1 : WELL NAME
STRT.FT                                                  21.0 : START DEPTH
STOP.FT                                               21630.0 : STOP DEPTH
STEP.FT                                                   0.5 : STEP BETWEEN DEPTHS
NULL.                                                 -999.25 : NULL VALUE
COMP.                                            MARALO, INC. : COMPANY 
DATE.                                             11-DEC-1978 : LOG DATE
#___________________________________________________________________________________________________ 
~CURVE INFORMATION 
# MNEM.UNIT           : CURVE DESCRIPTION 
#-----.-----          : ----------------------------- 
 DEPT.FT               : MEASURED DEPTH 
 GR__D.API             : GAMMA RAY (GR) 
 DT__D.US/FT           : SONIC DELTA TRANSIT TIME (DT) 
 RESD__D.OHMM          : DEEP INDUCTION RESISTIVITY (ILD - ILD) 
 #___________________________________________________________________________________________________ 
~A         DEPT          GR__D          DT__D        RESD__D
# ...
        21537.0         15.836         45.383       -999.250
        21537.5         15.606         45.279       -999.250
        21538.0         15.376         45.176       -999.250
        21538.5         15.145         45.072       -999.250
        21539.0         14.915         45.048       -999.250
        21539.5         16.941         45.554       -999.250
        21540.0         21.147         46.060       -999.250
        21540.5         25.353         46.566       -999.250
        21541.0         25.374         47.072       -999.250
        21541.5         24.904         46.867       -999.250
        21542.0         24.434         46.276       -999.250
        21542.5         23.964         46.078       -999.250
        21543.0         23.493         46.167       -999.250
        21543.5         25.423         46.257       -999.250
        21544.0         30.803         46.347       -999.250
        21544.5         36.183         46.385       -999.250
        21545.0         41.563         46.253       -999.250
        21545.5         46.967         46.120       -999.250
        21546.0         62.076         45.988       -999.250
        21546.5         77.185         45.855       -999.250
        21547.0         76.050         45.851       -999.250
        21547.5         64.965         45.935       -999.250
        21548.0         53.879         46.018       -999.250
        21548.5         42.794         46.101       -999.250
        21549.0         31.708         46.184       -999.250
        21549.5         22.178         46.267       -999.250
        21550.0         22.340         46.351       -999.250
        21550.5         22.502         46.434       -999.250
        21551.0         22.664         46.463       -999.250
        21551.5         22.826         46.347       -999.250
        21552.0         22.988         46.230       -999.250
        21552.5         23.150         46.114       -999.250
        21553.0         23.312         45.997       -999.250
        21553.5         23.919         45.881       -999.250
        21554.0         29.246         45.764       -999.250
        21554.5         34.572         45.731       -999.250
        21555.0         39.899         45.785       -999.250
        21555.5         45.225         45.840       -999.250
        21556.0         44.845         45.894       -999.250
        21556.5         41.720         46.004       -999.250
        21557.0         38.594         46.166       -999.250
        21557.5         35.469         46.328       -999.250
        21558.0         32.343         46.490       -999.250
        21558.5         28.516         46.652       -999.250
        21559.0         24.405         46.635       -999.250
        21559.5         21.639         46.367       -999.250
        21560.0         22.928         46.100       -999.250
        21560.5         24.217         45.832       -999.250
        21561.0         25.506         45.565       -999.250
        21561.5         26.796         45.297       -999.250
        21562.0         28.085         45.030       -999.250
        21562.5         29.374         45.121       -999.250
        21563.0         30.663         45.359       -999.250
        21563.5         30.542         45.597       -999.250
        21564.0         29.271         45.586       -999.250
        21564.5         28.001         45.507       -999.250
        21565.0         26.730         45.428       -999.250
        21565.5         25.460         45.349       -999.250
        21566.0         24.190         45.270       -999.250
        21566.5         22.919         45.378       -999.250
        21567.0         21.649         45.542       -999.250
        21567.5         21.772         45.705       -999.250
        21568.0         22.877         45.868       -999.250
        21568.5         23.982         46.032       -999.250
        21569.0         25.087         46.195       -999.250
        21569.5         26.192         46.358       -999.250
        21570.0         27.297         46.189       -999.250
        21570.5         28.402         45.962       -999.250
        21571.0         30.453         45.736       -999.250
        21571.5         32.812         45.509       -999.250
        21572.0         35.172         45.283       -999.250
        21572.5         37.531         45.056       -999.250
        21573.0         39.884         44.991       -999.250
        21573.5         37.531         45.103       -999.250
        21574.0         35.177         45.214       -999.250
        21574.5         32.823         45.326       -999.250
        21575.0         30.469         45.437       -999.250
        21575.5         28.115         45.554       -999.250
        21576.0         25.789         45.799       -999.250
        21576.5         23.482         46.045       -999.250
        21577.0         21.174         46.290       -999.250
        21577.5         18.867         46.536       -999.250
        21578.0         16.738         46.781       -999.250
        21578.5         20.625         46.785       -999.250
        21579.0         24.513         46.583       -999.250
        21579.5         28.401         46.382       -999.250
        21580.0         32.566         46.180       -999.250
        21580.5         39.470         45.979       -999.250
        21581.0         46.375         45.777       -999.250
        21581.5         42.754         45.576       -999.250
        21582.0         37.186         45.598       -999.250
        21582.5         31.619         45.674       -999.250
        21583.0         27.911         45.750       -999.250
        21583.5         31.368         45.826       -999.250
        21584.0         34.825         45.748       -999.250
        21584.5         38.282         45.636       -999.250
        21585.0         41.739         45.525       -999.250
        21585.5         45.196         45.414       -999.250
        21586.0         38.754         45.303       -999.250
        21586.5         31.973         45.191       -999.250
        21587.0         25.192         45.080       -999.250
        21587.5         18.411         45.071       -999.250
        21588.0         18.135         45.271       -999.250
        21588.5         18.111         45.472       -999.250
        21589.0         18.087         45.673       -999.250
        21589.5         18.063         45.874       -999.250
        21590.0         18.039         46.074       -999.250
        21590.5         18.015         46.178       -999.250
        21591.0         17.991         46.177       -999.250
        21591.5         17.967         46.177       -999.250
        21592.0         19.258         46.176       -999.250
        21592.5         21.870         46.175       -999.250
        21593.0         24.483         46.175       -999.250
        21593.5         27.096         46.174       -999.250
        21594.0         29.708         46.173       -999.250
        21594.5         31.540         46.172       -999.250
        21595.0         31.541         46.172       -999.250
        21595.5         31.543         46.291       -999.250
        21596.0         31.544         46.447       -999.250
        21596.5         31.545         46.603       -999.250
        21597.0         36.084         46.759       -999.250
        21597.5         34.275         46.907       -999.250
        21598.0         32.465         46.794       -999.250
        21598.5         30.655         46.681       -999.250
        21599.0         28.846         46.568       -999.250
        21599.5         27.036         46.455       -999.250
        21600.0         28.212         46.568       -999.250
        21600.5         30.350         46.756       -999.250
        21601.0         32.488         46.945       -999.250
        21601.5         32.400         47.134       -999.250
        21602.0         31.488         47.184       -999.250
        21602.5         30.576         46.999       -999.250
