#--------------------------------------------------#
#-------------------ENVERUS, INC.------------------#
#------------------WWW.ENVERUS.COM-----------------#
#------------------COPYRIGHT 2020------------------#
#--------------------------------------------------#
#THIS FILE MAY BE USED ONLY IN ACCORDANCE WITH A CURRENT SUBSCRIPTION AGREEMENT BETWEEN
#THE USER AND ENVERUS, INC. NO PART OF THIS FILE MAY BE REPRODUCED, USED, COPIED,
#MODIFIED, PROPAGATED, OR DISTRIBUTED EXCEPT IN ACCORDANCE WITH THE SUBSCRIPTION
#AGREEMENT. UNAUTHORIZED USE OR DISTRIBUTION OF ALL OR ANY PART OF THIS FILE MAY VIOLATE
#COPYRIGHT, TRADEMARK, AND/OR OTHER LAWS AND IS SUBJECT TO CIVIL AS WELL AS CRIMINAL
#SANCTIONS.
#--------------------------------------------------#
#THIS FILE IS PROVIDED "AS-IS" AND ALL WARRANTIES ARE EXPRESSLY DISCLAIMED, WHETHER
#EXPRESS, ORAL, IMPLIED, STATUTORY OR OTHERWISE, INCLUDING ANY IMPLIED WARRANTY OF FITNESS
#FOR A PARTICULAR PURPOSE, MERCHANTABILITY, TITLE OR NON-INFRINGEMENT, AND ANY WARRANTIES
#ARISING BY VIRTUE OF CUSTOM OF TRADE OR COURSE OF DEALING.  FURTHER, ENVERUS, INC.
#AND ITS LICENSORS DO NOT REPRESENT OR WARRANT THAT THIS FILE WILL MEET USER'S
#REQUIREMENTS OR ARE SUITABLE FOR USER'S NEEDS OR THAT THE DATA OR RESULTS PROVIDED IN
#CONJUNCTION THEREWITH ARE CORRECT, ACCURATE, TIMELY OR RELIABLE. THESE DISCLAIMERS SHALL
#APPLY REGARDLESS OF ANY FAILURE OF ESSENTIAL PURPOSE OF ANY LIMITED REMEDY.  SOME
#JURISDICTIONS DO NOT ALLOW THE EXCLUSION OF CERTAIN WARRANTIES SO SOME OF THE ABOVE
#EXCLUSIONS MAY NOT APPLY. IN NO EVENT SHALL ENVERUS, INC. OR ANY OF ITS AFFILIATES
#BE LIABLE UNDER ANY LEGAL THEORY, WHETHER IN TORT (INCLUDING WITHOUT LIMITATION
#NEGLIGENCE), CONTRACT, STRICT LIABILITY, STATUTORY OR OTHERWISE, FOR ANY SPECIAL,
#INCIDENTAL, CONSEQUENTIAL, EXEMPLARY, PUNITIVE OR INDIRECT DAMAGE OF ANY KIND, INCLUDING
#WITHOUT LIMITATION LOSS OF REVENUE, PROFITS, GOODWILL, USE, AND/OR DATA OR THE COST OF
#PROCUREMENT OF SUBSTITUTE GOODS OR SERVICES, EVEN IF APPRISED OF THE POSSIBILITY OF SUCH
#DAMAGES IN ADVANCE.
#--------------------------------------------------#

~VERSION INFORMATION
VERS. 2.0 : CWLS LOG ASCII STANDARD - VERSION 2.0
WRAP.  NO : ONE LINE PER DEPTH STEP
~WELL INFORMATION
#MNEMONIC     .UNIT              VALUE :DESCRIPTION
STRT       .FT                101 :START DEPTH
STOP       .FT                5444 :STOP DEPTH
STEP       .FT                   0.500 :STEP
NULL       .                  -999.99 :NULL
UWI        .                42389004350000 :UNIQUE WELL ID
API        .                42389004350000 :API NUMBER
COMP       .         :COMPANY
WELL       .        :WELL
DATE       .                 :LOG DATE
FLD       .                 :FIELD NAME
LOC       .                  UNK :LOCATION
CNTY       .                 UNK :COUNTY
STAT       .                 UNK :STATE
CTRY       .                 UNK :COUNTY
SRVC       .                 UNK :SERVICE COMPANY
~CURVE INFORMATION
#MNEMONIC     .UNIT      API CODE :CURVE DESCRIPTION
DEPTH       .FT                      :MEASURED DEPTH
DT.MSEC/FT        UNKNOWN   :DT
GR.API        UNKNOWN   :GR
~A    DEPTH    DT    GR
# ...
 2941.5     67.9955   4.64462
 2942     68.33128   4.97918
 2942.5     68.66706   4.67774
 2943     69.00284   4.37629
 2943.5     69.19497   4.07485
 2944     68.75605   3.7734
 2944.5     68.31714   3.39435
 2945     67.87822   2.9134
 2945.5     67.4393   2.43246
 2946     67.38934   1.95152
 2946.5     67.8751   1.47057
 2947     68.36085   1.16638
 2947.5     68.8466   1.80462
 2948     69.03718   2.44285
 2948.5     68.28212   3.08109
 2949     67.52706   3.71932
 2949.5     66.82538   3.88574
 2950     67.20147   3.48452
 2950.5     67.57756   3.08329
 2951     67.95366   2.91617
 2951.5     68.32975   3.31816
 2952     68.70584   3.72015
 2952.5     68.63566   4.026
 2953     68.46241   3.78459
 2953.5     68.28916   3.54318
 2954     68.11591   3.30178
 2954.5     68.00333   3.06037
 2955     68.76808   2.81896
 2955.5     69.53283   3.21882
 2956     70.29758   3.70175
 2956.5     71.06234   4.01106
 2957     71.82709   3.84818
 2957.5     71.00695   3.6853
 2958     67.08116   3.52242
 2958.5     63.15537   3.35954
 2959     59.22958   3.19667
 2959.5     59.12703   3.03379
 2960     63.81099   3.17176
 2960.5     68.49494   3.70863
 2961     71.17305   4.24549
 2961.5     71.6591   4.78236
 2962     72.14514   5.31922
 2962.5     71.90811   5.31123
 2963     70.28438   5.09315
 2963.5     68.66066   4.87507
 2964     68.32459   4.65699
 2964.5     68.68863   4.43891
 2965     69.05267   4.22083
 2965.5     69.41671   4.00275
 2966     65.24839   3.78467
 2966.5     65.83183   3.56659
 2967     67.18414   3.4626
 2967.5     68.53646   3.70316
 2968     68.07567   3.94372
 2968.5     67.0598   4.18428
 2969     66.04393   4.42484
 2969.5     65.02806   4.6654
 2970     64.0122   4.90597
 2970.5     65.63176   5.14653
 2971     67.36237   5.17905
 2971.5     69.09299   4.87761
 2972     70.0105   4.57617
 2972.5     69.52304   4.27473
 2973     69.03557   3.97329
 2973.5     68.54811   3.67185
 2974     68.06064   3.37041
 2974.5     67.57318   3.5016
 2975     67.08572   4.00473
 2975.5     67.13665   4.50786
 2976     67.78045   5.011
 2976.5     68.42425   5.51413
 2977     69.06805   5.05864
 2977.5     68.77297   4.40377
 2978     68.28281   3.74889
 2978.5     67.79264   3.09401
 2979     67.30247   2.43913
 2979.5     66.8123   1.81662
 2980     70.177   2.80209
 2980.5     68.69227   3.78757
 2981     67.20755   3.59931
 2981.5     66.69982   3.32786
 2982     67.89233   3.05641
 2982.5     69.08484   2.78496
 2983     70.27735   2.51351
 2983.5     67.38782   2.65401
 2984     63.11235   2.99829
 2984.5     58.83689   3.34258
 2985     54.56142   3.68687
 2985.5     50.62044   4.03115
 2986     50.77609   4.37544
 2986.5     52.16601   4.71972
 2987     53.55594   4.98547
 2987.5     54.06953   5.09423
 2988     54.03553   5.203
 2988.5     54.00152   5.31176
 2989     53.96752   5.42052
 2989.5     55.06688   5.52929
 2990     56.25112   7.39848
 2990.5     57.43536   10.65379
 2991     58.02864   13.90911
 2991.5     58.49418   17.16442
 2992     58.95972   20.41974
 2992.5     58.22545   23.67505
 2993     56.94033   22.05094
 2993.5     55.65522   20.00709
 2994     54.37011   17.96324
 2994.5     54.55887   15.91939
 2995     54.84977   14.14232
 2995.5     55.14068   14.37615
 2996     55.43158   14.60997
 2996.5     55.72248   14.8438
 2997     54.86253   15.07763
 2997.5     53.49435   14.58035
 2998     52.12616   12.97246
 2998.5     50.75798   11.36457
 2999     49.3898   9.75668
 2999.5     49.54888   8.14879
 3000     49.92989   6.65063
 3000.5     50.3109   6.44151
 3001     50.58169   6.23239
 3001.5     50.42744   6.02327
 3002     50.27319   5.81415
 3002.5     50.11894   5.60503
 3003     50.2189   5.39591
 3003.5     50.55832   5.38033
 3004     50.89774   5.98468
 3004.5     50.80815   6.58903
 3005     50.66821   7.09022
 3005.5     50.52826   6.66027
 3006     50.71255   6.23033
 3006.5     51.0155   5.80039
 3007     51.31845   5.37044
 3007.5     51.6214   4.9405
 3008     51.92435   4.51055
 3008.5     51.82506   4.08061
 3009     51.30653   5.20817
 3009.5     50.78799   6.93606
 3010     52.13863   8.66394
 3010.5     57.62032   8.7596
 3011     60.7865   7.80672
 3011.5     59.75793   6.85385
 3012     58.72937   5.90098
 3012.5     57.8493   4.9481
 3013     57.80955   3.99523
 3013.5     56.83851   3.86584
 3014     55.16709   3.95541
 3014.5     53.49568   4.04498
 3015     58.03125   4.13454
 3015.5     63.43878   4.22411
 3016     68.8463   4.10265
 3016.5     68.21548   3.80116
 3017     67.30495   3.49966
 3017.5     66.39442   3.19816
 3018     66.72057   3.49754
 3018.5     67.45285   3.89958
 3019     67.8254   4.30163
 3019.5     66.20052   4.70368
 3020     64.57565   5.00713
 3020.5     62.95077   4.70566
 3021     63.74743   4.4042
 3021.5     64.77389   4.10274
 3022     65.80035   3.80128
 3022.5     66.82681   3.49981
 3023     66.8372   3.34255
 3023.5     66.54621   3.45476
 3024     66.25522   3.56698
 3024.5     66.00738   3.67919
 3025     66.32288   3.73667
 3025.5     66.63839   3.48255
 3026     66.95389   3.22843
 3026.5     67.26939   2.9743
 3027     67.58489   2.72018
 3027.5     67.00857   2.46605
 3028     66.25846   2.21193
 3028.5     65.50835   1.9578
 3029     64.75825   1.70368
 3029.5     64.00814   1.44956
 3030     64.67599   1.64901
 3030.5     66.69236   2.59333
 3031     68.70872   2.49212
 3031.5     68.09258   2.39091
 3032     67.37791   2.28969
 3032.5     66.66324   2.18848
 3033     66.26719   2.48304
 3033.5     66.88863   2.81967
 3034     67.51007   3.1563
 3034.5     68.13151   3.49293
 3035     68.75296   3.82957
 3035.5     69.33177   4.1662
 3036     68.49948   4.50283
 3036.5     67.66719   4.83946
 3037     66.8349   5.1761
 3037.5     67.43841   4.53594
 3038     68.33584   3.88894
 3038.5     69.23327   3.24193
 3039     70.1307   2.59492
 3039.5     69.93886   1.94791
 3040     64.15257   1.3009
 3040.5     58.36627   .8369
 3041     57.99025   1.55148
 3041.5     58.5682   2.26606
 3042     57.35862   2.98064
 3042.5     55.59479   3.69522
 3043     53.83096   4.4098
 3043.5     52.06713   4.69739
 3044     51.99551   4.29583
 3044.5     54.00325   3.89427
 3045     56.01098   3.67177
 3045.5     61.94679   4.0737
 3046     68.37369   4.47563
 3046.5     69.58637   4.87755
 3047     70.66006   5.27948
 3047.5     69.38869   5.26926
 3048     67.8727   4.85872
 3048.5     66.35672   4.44817
 3049     64.84074   4.03762
 3049.5     63.47682   3.62707
 3050     64.81123   3.21653
 3050.5     66.14564   3.84447
 3051     67.48004   4.89154
 3051.5     66.25202   5.9386
 3052     64.92432   6.98567
 3052.5     66.1571   8.03273
 3053     67.38671   9.0798
 3053.5     67.09568   8.73139
 3054     66.80466   8.34419
 3054.5     66.51364   7.95698
 3055     66.71627   8.49373
 3055.5     67.2764   11.33834
 3056     67.83653   14.18294
 3056.5     66.70006   17.02755
 3057     65.51734   19.87215
 3057.5     64.33463   22.71676
 3058     65.28282   22.17247
 3058.5     66.91606   19.47797
 3059     68.09285   16.78346
 3059.5     67.3584   14.08895
 3060     66.62396   11.39444
 3060.5     65.88951   9.37219
 3061     66.43619   9.22086
 3061.5     66.98407   9.12835
 3062     67.53194   9.3416
 3062.5     68.07982   9.55485
 3063     68.62769   9.7681
 3063.5     68.25847   9.98136
 3064     67.63822   10.19461
 3064.5     67.1265   10.40786
 3065     67.35387   10.62111
 3065.5     67.58123   10.83436
 3066     67.8086   11.04762
 3066.5     68.03596   11.26087
 3067     68.26333   11.47412
 3067.5     68.49069   11.68737
 3068     68.71806   11.90063
 3068.5     68.94543   12.11388
 3069     68.79015   12.32713
 3069.5     68.50247   12.54038
 3070     68.27356   11.82308
 3070.5     68.5682   10.9979
 3071     68.86285   10.17271
 3071.5     69.15749   9.34752
 3072     68.91983   8.52234
 3072.5     67.9935   7.69715
 3073     67.06717   6.87196
 3073.5     67.17706   6.04677
 3074     67.60238   6.14699
 3074.5     68.0277   7.38773
 3075     68.45302   8.62847
