~Version Information Block
 VERS.                2.00:     CWLS LOG ASCII STANDARD - VERSION 2.000000
 WRAP.                  NO:     One Line Per Depth Step
#
~Well Information Block
#MNEM.UNIT                     Data                         Information
#----------   ------------------------------------------   ----------------
 STRT.FT                                       50.0000:     START DEPTH
 STOP.FT                                    15192.0000:     STOP DEPTH
 STEP.FT                                        0.5000:     STEP
 NULL.                                       -999.0000:     NULL VALUE
 COMP.                                 MOBIL PRODUCING:     COMPANY
 WELL.                                     ST MCINTYRE:     WELL
 FLD .                                   ROJO CABALLOS:     FIELD
 LOC .                                         UNKNOWN:     LOCATION
 LONG.                                 -103.1618580000:     LONGITUDE
 LATI.                                   31.1192890000:     LATITUDE
 CNTY.                                           PECOS:     COUNTY
 STAT.                                           TEXAS:     STATE
 CTRY.                                           U.S.A:     COUNTRY
 SRVC.                                         UNKNOWN:     SERVICE COMPANY
 DATE.                                         UNKNOWN:     DATE
 API .                                  42371053110000:     API NUMBER
 UWI .                                  42371053110000:     UWI NUMBER
 SLAT.                                       31.119289:     Surface latitude
 SLON.                                     -103.161858:     surface longitude
 TVD .                                              NO:     TVD flag
 WSTA.                                             LOC:     Well status
#
~Curve Information Block
#MNEM.UNIT       API CODE      Curve Description
#----------    -------------   -------------------
 DEPT.FT                   :   Depth in Feet
 DT  .UNKNOWN          UNKNOWN:   DT-Load
 DTedit.ft/s          UNKNOWN:   DT-Load
 GR  .UNKNOWN          UNKNOWN:   GR-Load
#
~Parameter Information Block
#MNEM.UNIT            Value               Description
#----------    --------------------    -------------------
 RUN .                         ONE:    Run Number
 PDAT.                          GL:    Permanent Datum
 EPD .FT                          :    Elevation Of Perm. Datum
 LMF .               KELLY BUSHING:    Log Measured From
 EKB .FT                          :    Elevation Of Kelly Bushing
 DF .FT                           :    Elevation Of Derrick Floor
 GL .FT                           :    Elevation Of Ground Level
 TD  .FT                          :    Total Depth
 CSGD.FT                          :    Casing Bottom (Driller) 1
 CSGL.FT                          :    Casing Bottom (Logger) 1
 MUD .                            :    Drilling Fluid Type
 MUDV .CP                         :    Drilling Fluid Viscosity
 MUDD .LB/USG                     :    Drilling Fluid Density
 FL .ML/30MIN                     :    Drilling Fluid Loss
 PH.                              :    Drilling Fluid Ph
 MUDS .                           :    Mud Sample Source
 RM .OHMM                         :    Resistivity Of Mud Sample
 RMT .DEGF                        :    Mud Sample Temperature
 RMF .OHMM                        :    Mud Filtrate Resistivity
 RMFT.DEGF                        :    Mud Filtrate Sample Temperature
 RMC .OHMM                        :    Mud Cake Resistivity
 RMCT.DEGF                        :    Mud Cake Sample Temperature
 RMB .OHMM                        :    Mud Resistivity At Bht
 TMAX .DEGF                       :    Bottom Hole Temperature
#
~Other Information Block
<DescLogPlotStart>   NEURALOG PLOT DEFINITION
PLOTDEFVERSION: 3
LASFILE: E:\Nair Innovations\42_TEXAS\371_Pecos\Mobil_St McIntyre 1 Pecos_1.las
DEPTHSCALE: 239.999996
RESOLUTION: 200
DEPTHLABELFREQ: 100.000000
HEAVYGRIDFREQ: 50.000000
MEDIUMGRIDFREQ: 50.000000
LIGHTGRIDFREQ: 10.000000
#
#   TRACK 1
#
STARTTRACK: 
 LEFTX: 0.500000 inch
 RIGHTX: 3.000000 inch
 SCALETYPE: Linear
 NUMCHARTDIVISIONS: 10
CURVE: GR    0.000000   150.000000 (255,0,0)      Short_Dash        4     N    
CURVE: DTedit 5571.227500 23879.853500 (0,131,131)    Solid             2     N
ENDTRACK: 
#
#   TRACK 2
#
STARTTRACK: 
 LEFTX: 3.750000 inch
 RIGHTX: 6.250000 inch
 SCALETYPE: Linear
 NUMCHARTDIVISIONS: 10
ENDTRACK: 
#
#   TRACK 3
#
STARTTRACK: 
 LEFTX: 6.250000 inch
 RIGHTX: 8.750000 inch
 SCALETYPE: Linear
 NUMCHARTDIVISIONS: 10
CURVE: DT    190.000000 50.000000  (255,0,131)    Solid             2     N    
ENDTRACK: 
<DescLogPlotEnd>
<DepthTrack type='Reference' track='1' Label='0' color='0' hor='0' />
<Reference font='144,0,-900,0,500,0,16777216,Arial' />
~A DEPTH     DT               DTedit             GR              
# ...
   11175.000 70.78090000      14128.10550000   52.20900000     
   11175.500 68.28820000      14643.81840000   52.53950000     
   11176.000 65.06100000      15370.19140000   54.47150000     
   11176.500 66.29940000      15083.09280000   57.75700000     
   11177.000 67.39330000      14838.26950000   58.27440000     
   11177.500 75.39360000      13263.72560000   59.37050000     
   11178.000 93.92820000      10646.42970000   59.42420000     
   11178.500 99.98140000      10001.86040000   61.00330000     
   11179.000 105.71280000     9459.59280000    66.05710000     
   11179.500 112.07680000     8922.45310000    70.90440000     
   11180.000 118.05510000     8470.62110000    70.80420000     
   11180.500 122.95200000     8133.25490000    68.54330000     
   11181.000 114.68030000     8719.89360000    63.60230000     
   11181.500 101.13260000     9888.00880000    58.79270000     
   11182.000 97.71130000      10234.23050000   57.90650000     
   11182.500 103.44680000     9666.80470000    60.89060000     
   11183.000 100.62780000     9937.61130000    63.96550000     
   11183.500 108.00430000     9258.89060000    66.93400000     
   11184.000 101.83170000     9820.12400000    68.50730000     
   11184.500 93.92520000      10646.76950000   68.67800000     
   11185.000 101.84970000     9818.38960000    66.77420000     
   11185.500 90.66480000      11029.63870000   64.83290000     
   11186.000 92.40050000      10822.45210000   61.76110000     
   11186.500 89.20030000      11210.72460000   61.20290000     
   11187.000 94.98580000      10527.88960000   63.28910000     
   11187.500 79.73270000      12541.90620000   67.56340000     
   11188.000 80.03390000      12494.70610000   68.13160000     
   11188.500 92.79060000      10776.95310000   65.81290000     
   11189.000 86.87110000      11511.30760000   61.02210000     
   11189.500 91.70740000      10904.24610000   56.24380000     
   11190.000 86.56680000      11551.77250000   55.51110000     
   11190.500 99.90890000      10009.11820000   57.94090000     
   11191.000 115.78610000     8636.61520000    61.56070000     
   11191.500 110.77500000     9027.30760000    65.86620000     
   11192.000 120.51620000     8297.63960000    65.47470000     
   11192.500 106.07430000     9427.35350000    62.99170000     
   11193.000 101.48820000     9853.36230000    62.53470000     
   11193.500 105.71280000     9459.59280000    62.32550000     
   11194.000 108.02700000     9256.94530000    63.45200000     
   11194.500 81.22120000      12312.05660000   64.81410000     
   11195.000 85.84240000      11649.25490000   68.10500000     
   11195.500 82.06490000      12185.47750000   71.34280000     
   11196.000 88.93370000      11244.33110000   74.23910000     
   11196.500 84.75280000      11799.02050000   74.39580000     
   11197.000 106.86450000     9357.64450000    72.58280000     
   11197.500 102.68740000     9738.29300000    68.85020000     
   11198.000 86.35580000      11579.99800000   61.76110000     
   11198.500 82.54700000      12114.31150000   57.90960000     
   11199.000 76.54460000      13064.27830000   52.51760000     
   11199.500 93.53940000      10690.68260000   49.94680000     
   11200.000 83.16770000      12023.89840000   48.57370000     
   11200.500 101.03610000     9897.45210000    49.03130000     
   11201.000 115.31430000     8671.95120000    48.68410000     
   11201.500 105.47170000     9481.21580000    48.79690000     
   11202.000 100.69100000     9931.37400000    51.97900000     
   11202.500 77.95780000      12827.45210000   57.97850000     
   11203.000 82.26980000      12155.12890000   61.90520000     
   11203.500 88.07950000      11353.37990000   64.33500000     
   11204.000 84.84010000      11786.87890000   65.27280000     
   11204.500 89.99580000      11111.62990000   65.65320000     
   11205.000 115.64450000     8647.19040000    66.08070000     
   11205.500 106.09840000     9425.21290000    65.37150000     
   11206.000 77.61730000      12883.72560000   64.03750000     
   11206.500 75.27600000      13284.44630000   61.85820000     
   11207.000 86.36790000      11578.37600000   59.22790000     
   11207.500 90.55030000      11043.58590000   56.73230000     
   11208.000 95.51620000      10469.42870000   54.64530000     
   11208.500 74.32680000      13454.09770000   53.25340000     
   11209.000 71.75880000      13935.57320000   52.40950000     
   11209.500 75.74900000      13201.49410000   52.90510000     
   11210.000 72.95130000      13707.77440000   51.10540000     
   11210.500 75.39950000      13262.68750000   49.53660000     
   11211.000 74.20630000      13475.94530000   49.29510000     
   11211.500 72.81120000      13734.15040000   48.18080000     
   11212.000 75.14040000      13308.41890000   48.14480000     
   11212.500 83.12560000      12029.98830000   50.80160000     
   11213.000 87.53700000      11423.74020000   54.32750000     
   11213.500 92.92700000      10761.13480000   57.50260000     
   11214.000 91.18310000      10966.94430000   63.41440000     
   11214.500 86.45680000      11566.46970000   67.22200000     
   11215.000 88.31750000      11322.78420000   65.63130000     
   11215.500 87.86240000      11381.43360000   65.16480000     
   11216.000 82.59520000      12107.24120000   66.00710000     
   11216.500 83.87290000      11922.80180000   67.42550000     
   11217.000 99.84470000      10015.55370000   69.70830000     
   11217.500 87.05790000      11486.60840000   72.66420000     
   11218.000 93.33460000      10714.13960000   73.91040000     
   11218.500 99.49980000      10050.27150000   70.84800000     
   11219.000 106.17370000     9418.52830000    65.94450000     
   11219.500 102.47050000     9758.90620000    61.09100000     
   11220.000 85.93700000      11636.43160000   56.83250000     
   11220.500 89.24850000      11204.67090000   55.30130000     
   11221.000 98.89110000      10112.13380000   56.51930000     
   11221.500 88.25420000      11330.90530000   58.91160000     
   11222.000 87.34120000      11449.35060000   62.09300000     
   11222.500 99.68360000      10031.74020000   65.84420000     
   11223.000 100.80710000     9919.93650000    69.36380000     
   11223.500 88.62850000      11283.05180000   68.62170000     
   11224.000 91.35490000      10946.32030000   66.49870000     
   11224.500 93.73230000      10668.68070000   63.28290000     
   11225.000 107.83410000     9273.50490000    58.32920000     
   11225.500 87.56120000      11420.58300000   58.39810000     
   11226.000 70.45530000      14193.39650000   58.24780000     
   11226.500 84.14710000      11883.95020000   54.67190000     
   11227.000 72.71170000      13752.94430000   50.78910000     
   11227.500 68.36050000      14628.33110000   47.06920000     
   11228.000 78.69010000      12708.07910000   46.67830000     
   11228.500 82.52890000      12116.96780000   48.17140000     
   11229.000 82.39040000      12137.33590000   55.46100000     
   11229.500 110.67860000     9035.17090000    63.95300000     
   11230.000 125.96190000     7938.90870000    66.53630000     
   11230.500 130.01170000     7691.61520000    65.72520000     
   11231.000 105.37520000     9489.89940000    61.17240000     
   11231.500 95.37610000      10484.80760000   55.78040000     
   11232.000 105.18690000     9506.88770000    54.33060000     
   11232.500 100.00510000     9999.49020000    56.30020000     
   11233.000 87.70580000      11401.75390000   59.24980000     
   11233.500 63.74420000      15687.70120000   62.30590000     
   11234.000 65.19060000      15339.63570000   59.79470000     
   11234.500 69.48140000      14392.34080000   48.89780000     
   11235.000 80.13640000      12478.72360000   42.74800000     
   11235.500 94.10600000      10626.31450000   45.47850000     
   11236.000 99.97310000      10002.69040000   60.24550000     
   11236.500 88.97130000      11239.58010000   66.85250000     
   11237.000 92.94890000      10758.59960000   71.07350000     
