#--------------------------------------------------#
#-------------------ENVERUS, INC.------------------#
#------------------WWW.ENVERUS.COM-----------------#
#------------------COPYRIGHT 2020------------------#
#--------------------------------------------------#
#THIS FILE MAY BE USED ONLY IN ACCORDANCE WITH A CURRENT SUBSCRIPTION AGREEMENT BETWEEN
#THE USER AND ENVERUS, INC. NO PART OF THIS FILE MAY BE REPRODUCED, USED, COPIED,
#MODIFIED, PROPAGATED, OR DISTRIBUTED EXCEPT IN ACCORDANCE WITH THE SUBSCRIPTION
#AGREEMENT. UNAUTHORIZED USE OR DISTRIBUTION OF ALL OR ANY PART OF THIS FILE MAY VIOLATE
#COPYRIGHT, TRADEMARK, AND/OR OTHER LAWS AND IS SUBJECT TO CIVIL AS WELL AS CRIMINAL
#SANCTIONS.
#--------------------------------------------------#
#THIS FILE IS PROVIDED "AS-IS" AND ALL WARRANTIES ARE EXPRESSLY DISCLAIMED, WHETHER
#EXPRESS, ORAL, IMPLIED, STATUTORY OR OTHERWISE, INCLUDING ANY IMPLIED WARRANTY OF FITNESS
#FOR A PARTICULAR PURPOSE, MERCHANTABILITY, TITLE OR NON-INFRINGEMENT, AND ANY WARRANTIES
#ARISING BY VIRTUE OF CUSTOM OF TRADE OR COURSE OF DEALING.  FURTHER, ENVERUS, INC.
#AND ITS LICENSORS DO NOT REPRESENT OR WARRANT THAT THIS FILE WILL MEET USER'S
#REQUIREMENTS OR ARE SUITABLE FOR USER'S NEEDS OR THAT THE DATA OR RESULTS PROVIDED IN
#CONJUNCTION THEREWITH ARE CORRECT, ACCURATE, TIMELY OR RELIABLE. THESE DISCLAIMERS SHALL
#APPLY REGARDLESS OF ANY FAILURE OF ESSENTIAL PURPOSE OF ANY LIMITED REMEDY.  SOME
#JURISDICTIONS DO NOT ALLOW THE EXCLUSION OF CERTAIN WARRANTIES SO SOME OF THE ABOVE
#EXCLUSIONS MAY NOT APPLY. IN NO EVENT SHALL ENVERUS, INC. OR ANY OF ITS AFFILIATES
#BE LIABLE UNDER ANY LEGAL THEORY, WHETHER IN TORT (INCLUDING WITHOUT LIMITATION
#NEGLIGENCE), CONTRACT, STRICT LIABILITY, STATUTORY OR OTHERWISE, FOR ANY SPECIAL,
#INCIDENTAL, CONSEQUENTIAL, EXEMPLARY, PUNITIVE OR INDIRECT DAMAGE OF ANY KIND, INCLUDING
#WITHOUT LIMITATION LOSS OF REVENUE, PROFITS, GOODWILL, USE, AND/OR DATA OR THE COST OF
#PROCUREMENT OF SUBSTITUTE GOODS OR SERVICES, EVEN IF APPRISED OF THE POSSIBILITY OF SUCH
#DAMAGES IN ADVANCE.
#--------------------------------------------------#

~VERSION INFORMATION
VERS. 2.0 : CWLS LOG ASCII STANDARD - VERSION 2.0
WRAP.  NO : ONE LINE PER DEPTH STEP
~WELL INFORMATION
#MNEMONIC     .UNIT              VALUE :DESCRIPTION
STRT       .FT                2 :START DEPTH
STOP       .FT                6341 :STOP DEPTH
STEP       .FT                   0.500 :STEP
NULL       .                  -999.990 :NULL
UWI        .              42389104050000 :UNIQUE WELL ID
API        .              42389104050000 :API NUMBER
COMP       .         ENDEAVOR ENERGY RESOURCES L.P. :COMPANY
WELL       .        TXL REEVES STATE UNIT  2 :WELL
DATE       .                            :LOG DATE
~CURVE INFORMATION
#MNEMONIC     .UNIT      API CODE :CURVE DESCRIPTION
DEPTH       .FT                      :MEASURED DEPTH
GR.API        UNKNOWN   :GR
DT.US/FT        UNKNOWN   :DT
~A    DEPTH    GR    DT
# ...
 2134.5     2.588   67.646
 2135     2.707   67.561
 2135.5     2.826   67.476
 2136     2.945   67.391
 2136.5     3.064   67.307
 2137     3.183   67.222
 2137.5     3.303   65.682
 2138     3.422   63.647
 2138.5     3.541   61.611
 2139     4.714   59.576
 2139.5     7.096   57.541
 2140     9.051   57.68
 2140.5     8.502   57.882
 2141     7.953   58.084
 2141.5     7.403   58.285
 2142     6.854   59.582
 2142.5     5.935   62.473
 2143     4.768   65.364
 2143.5     3.6   66.773
 2144     2.433   66.814
 2144.5     2.089   66.855
 2145     1.918   66.896
 2145.5     1.746   66.937
 2146     1.715   66.978
 2146.5     1.885   67.019
 2147     2.056   67.06
 2147.5     2.227   67.101
 2148     2.397   67.142
 2148.5     2.568   67.183
 2149     2.739   67.247
 2149.5     2.909   67.596
 2150     3.08   67.945
 2150.5     3.041   68.293
 2151     2.89   68.642
 2151.5     2.739   68.991
 2152     2.587   69.327
 2152.5     2.436   68.696
 2153     2.284   68.064
 2153.5     2.172   67.433
 2154     2.224   66.802
 2154.5     2.276   66.577
 2155     2.327   67.043
 2155.5     2.183   67.508
 2156     1.978   67.974
 2156.5     1.773   68.44
 2157     1.568   68.329
 2157.5     1.364   68.103
 2158     1.159   67.877
 2158.5     0.954   67.65
 2159     0.828   67.424
 2159.5     1.085   67.198
 2160     1.341   66.972
 2160.5     1.598   66.844
 2161     1.855   67.223
 2161.5     2.111   67.602
 2162     2.368   67.981
 2162.5     2.625   68.361
 2163     2.881   68.74
 2163.5     3.138   69.038
 2164     2.813   68.622
 2164.5     2.168   68.206
 2165     1.522   67.791
 2165.5     0.877   67.375
 2166     0.66   66.959
 2166.5     0.907   66.544
 2167     1.153   66.496
 2167.5     1.4   66.473
 2168     1.646   66.45
 2168.5     1.856   66.4
 2169     1.852   66.149
 2169.5     1.848   65.897
 2170     1.845   65.646
 2170.5     1.841   65.395
 2171     1.837   65.144
 2171.5     1.833   64.893
 2172     1.829   64.897
 2172.5     1.825   65.88
 2173     1.822   66.863
 2173.5     1.818   67.846
 2174     1.814   68.829
 2174.5     1.81   68.927
 2175     1.806   68.689
 2175.5     1.802   68.451
 2176     1.798   68.213
 2176.5     1.795   67.975
 2177     1.791   67.737
 2177.5     1.718   67.499
 2178     1.608   67.261
 2178.5     1.499   67.151
 2179     1.389   67.369
 2179.5     1.28   67.587
 2180     1.17   67.806
 2180.5     1.061   67.833
 2181     0.951   67.654
 2181.5     0.841   67.476
 2182     0.732   67.297
 2182.5     0.622   67.119
 2183     0.513   67.122
 2183.5     0.403   67.15
 2184     0.293   67.177
 2184.5     0.308   67.205
 2185     0.781   67.233
 2185.5     1.254   67.26
 2186     1.727   67.293
 2186.5     2.2   67.719
 2187     2.673   68.144
 2187.5     3.146   68.57
 2188     3.62   68.996
 2188.5     4.093   69.421
 2189     3.805   69.847
 2189.5     3.344   69.523
 2190     2.882   69.174
 2190.5     2.421   68.825
 2191     2.184   68.475
 2191.5     2.073   68.126
 2192     1.961   67.777
 2192.5     1.849   67.428
 2193     1.738   67.079
 2193.5     1.759   66.729
 2194     2.055   66.38
 2194.5     2.352   66.031
 2195     2.648   65.682
 2195.5     2.945   65.332
 2196     3.242   63.376
 2196.5     3.788   61.186
 2197     4.497   58.997
 2197.5     5.205   56.807
 2198     5.914   54.716
 2198.5     6.622   57.997
 2199     7.331   61.278
 2199.5     8.04   64.56
 2200     8.748   65.345
 2200.5     11.504   63.594
 2201     15.784   61.843
 2201.5     20.063   60.092
 2202     24.342   58.341
 2202.5     28.621   56.59
 2203     28.392   58.322
 2203.5     22.65   60.459
 2204     16.908   62.595
 2204.5     11.167   64.731
 2205     5.425   66.868
 2205.5     3.16   66.998
 2206     2.201   66.716
 2206.5     1.241   66.434
 2207     0.621   66.152
 2207.5     0.685   65.869
 2208     0.75   65.587
 2208.5     0.814   65.66
 2209     0.878   65.903
 2209.5     0.943   66.145
 2210     1.007   66.388
 2210.5     1.072   66.631
 2211     1.136   66.451
 2211.5     1.319   65.534
 2212     1.508   64.618
 2212.5     1.697   63.702
 2213     1.885   62.785
 2213.5     2.074   59.044
 2214     2.262   53.891
 2214.5     2.451   53.149
 2215     2.639   52.965
 2215.5     2.828   52.78
 2216     3.016   52.595
 2216.5     3.205   52.411
 2217     3.393   52.226
 2217.5     3.582   52.041
 2218     3.771   54.834
 2218.5     3.864   57.704
 2219     3.134   60.574
 2219.5     2.404   63.444
 2220     1.675   66.258
 2220.5     0.945   66.501
 2221     0.215   66.744
 2221.5     -0.46   66.986
 2222     -0.203   65.761
 2222.5     0.054   64.516
 2223     0.311   63.271
 2223.5     0.568   63.451
 2224     0.825   63.938
 2224.5     1.082   64.426
 2225     1.34   64.914
 2225.5     1.597   65.401
 2226     1.822   65.889
 2226.5     1.968   66.293
 2227     2.114   66.676
 2227.5     2.261   67.058
 2228     2.24   67.441
 2228.5     2.04   67.823
 2229     1.841   67.923
 2229.5     1.641   67.745
 2230     1.441   67.567
 2230.5     1.241   67.389
 2231     1.042   67.21
 2231.5     1.111   67.383
 2232     1.326   67.596
 2232.5     1.541   67.808
 2233     1.756   68.02
 2233.5     1.971   68.233
 2234     2.186   68.445
 2234.5     2.257   68.658
 2235     2.211   68.87
 2235.5     2.164   69.083
 2236     2.118   69.295
 2236.5     2.072   69.508
 2237     2.026   69.72
 2237.5     1.98   69.649
 2238     1.934   69.486
 2238.5     1.888   69.322
 2239     1.804   69.159
 2239.5     1.67   68.996
 2240     1.536   68.833
 2240.5     1.402   68.639
 2241     1.268   68.426
 2241.5     1.135   68.214
 2242     1.001   68.002
 2242.5     0.867   67.789
 2243     0.733   67.577
 2243.5     0.599   67.364
 2244     0.465   67.152
 2244.5     0.331   66.939
 2245     0.399   66.727
 2245.5     0.575   66.514
 2246     0.751   66.302
 2246.5     0.927   66.089
 2247     1.103   65.877
 2247.5     1.279   65.677
 2248     1.455   66.394
 2248.5     1.631   67.11
 2249     1.808   67.827
 2249.5     1.96   68.543
 2250     1.956   68.756
 2250.5     1.952   68.519
 2251     1.947   68.281
 2251.5     1.943   68.044
 2252     1.939   67.806
 2252.5     1.934   67.606
 2253     1.93   67.629
 2253.5     1.926   67.652
 2254     1.921   67.675
 2254.5     1.917   67.698
 2255     1.913   67.721
 2255.5     1.908   67.744
 2256     1.904   67.767
 2256.5     1.9   67.79
 2257     1.895   68.032
 2257.5     1.891   68.349
 2258     1.887   68.665
 2258.5     1.882   68.981
 2259     1.878   68.963
 2259.5     1.874   68.934
 2260     1.869   68.906
 2260.5     2.041   68.877
 2261     2.249   68.848
 2261.5     2.457   68.819
 2262     2.664   68.628
 2262.5     2.872   68.409
 2263     3.079   68.19
 2263.5     3.287   67.971
 2264     3.494   67.752
 2264.5     3.702   67.533
 2265     3.909   67.314
 2265.5     5.954   67.094
 2266     8.148   66.875
 2266.5     10.342   66.656
 2267     12.536   65.143
 2267.5     14.73   63.408
 2268     16.924   61.673
 2268.5     19.117   59.938
 2269     17.042   58.203
 2269.5     11.425   56.469
 2270     5.808   54.734
 2270.5     3.834   55.828
 2271     3.763   59.094
 2271.5     3.693   62.36
 2272     3.622   65.627
 2272.5     3.552   68.893
 2273     3.481   69.42
 2273.5     3.411   68.965
 2274     3.34   68.51
 2274.5     3.27   68.055
 2275     3.199   67.6
 2275.5     3.129   67.421
 2276     3.058   67.861
 2276.5     2.988   68.3
 2277     2.918   68.739
 2277.5     2.974   68.771
 2278     3.496   68.46
 2278.5     4.019   68.149
 2279     4.541   67.838
 2279.5     5.064   67.527
 2280     5.586   67.216
 2280.5     6.109   67.066
 2281     6.231   67.188
 2281.5     5.553   67.309
 2282     4.875   67.431
 2282.5     4.197   67.553
 2283     3.52   67.674
 2283.5     2.842   67.796
 2284     2.164   67.918
 2284.5     1.486   68.039
 2285     1.123   68.161
 2285.5     1.234   68.282
 2286     1.345   68.404
 2286.5     1.456   68.181
 2287     1.568   67.944
 2287.5     1.679   67.707
 2288     1.79   67.763
 2288.5     1.901   67.859
 2289     2.012   67.955
