###############################################
##         ENVERUS                           ##
##         ESS - Open Hole                   ##
##         PERMIAN / DELAWARE                ##
##         Nov 04 2023  V4.0                 ##
##         42-371-32680-00-00                ##
###############################################
## Copyright 2017-2023  ENVERUS.  All Rights Reserved. 
## Confidential - Property of ENVERUS, use governed by terms and 
## conditions found within the existing Information Services Subscription Agreement 
## (as may be amended, the “ISSA”) between Customer and ENVERUS. 
## 
~VERSION INFORMATION
# MNEM.UNIT                               DATA : DESCRIPTION OF MNEMONIC
#-----.-----     ----------------------------- : -----------------------------
VERS.                                     2.00 : CWLS LOG ASCII STANDARD - VERSION 2.00
WRAP.                                       NO : MULTIPLE LINES PER DEPTH STEP
VEND.                                  ENVERUS : VENDOR
TYPE.                          ESS - OPEN HOLE : ENVERUS ESSENTIAL CURVES – ACCESSIBLE THROUGH ENVERUS PRISM(TM)
DOC.                                  31991434 : ENVERUS HEADER RAW DOCUMENT ID
#___________________________________________________________________________________________________ 
~WELL INFORMATION 
# uAv5E/S3ZwrMaovXfwZJbnQ+z8RwnTA5GIEFL0LfM7mdkMX/8iXP+LiYgCnT3sJm4ejuYgXNUZeSPI/Yhcow4w== 
# MNEM.UNIT                                              DATA : DESCRIPTION OF MNEMONIC 
#-----.-----                    ----------------------------- : ----------------------------- 
CNTY.                                                   PECOS : COUNTY 
STATE.                                                  TEXAS : STATE 
CNTRY.                                                    USA : COUNTRY 
API.                                             42-371-32680 : API (10 Digit) 
API_14.                                    42-371-32680-00-00 : API (14 Digits) 
API_14_std.                                 42-371-32680-0000 : API (14 Digits Standard) 
UWI.                                           42371326800000 : UNIQUE WELL ID 
WELL.                                     MARALO - STEWART  1 : WELL NAME
STRT.FT                                                  21.0 : START DEPTH
STOP.FT                                               21630.0 : STOP DEPTH
STEP.FT                                                   0.5 : STEP BETWEEN DEPTHS
NULL.                                                 -999.25 : NULL VALUE
COMP.                                            MARALO, INC. : COMPANY 
DATE.                                             11-DEC-1978 : LOG DATE
#___________________________________________________________________________________________________ 
~CURVE INFORMATION 
# MNEM.UNIT           : CURVE DESCRIPTION 
#-----.-----          : ----------------------------- 
 DEPT.FT               : MEASURED DEPTH 
 GR__D.API             : GAMMA RAY (GR) 
 DT__D.US/FT           : SONIC DELTA TRANSIT TIME (DT) 
 RESD__D.OHMM          : DEEP INDUCTION RESISTIVITY (ILD - ILD) 
 #___________________________________________________________________________________________________ 
~A         DEPT          GR__D          DT__D        RESD__D
# ...
        13881.0         64.034         80.233          7.374
        13881.5         65.579         78.767          7.424
        13882.0         68.275         77.301          7.359
        13882.5         70.971         77.461          7.116
        13883.0         69.877         78.181          6.935
        13883.5         68.243         78.901          6.940
        13884.0         66.608         79.620          6.945
        13884.5         67.033         80.340          6.950
        13885.0         68.699         81.060          6.955
        13885.5         70.365         80.592          6.960
        13886.0         71.132         80.491          7.889
        13886.5         66.535         80.644          8.907
        13887.0         61.937         80.798          9.925
        13887.5         57.340         80.952         10.942
        13888.0         52.742         80.764         11.960
        13888.5         48.514         77.689         11.787
        13889.0         53.087         74.613         11.545
        13889.5         57.659         71.537         10.727
        13890.0         62.231         72.427          9.508
        13890.5         66.804         75.231          8.290
        13891.0         71.376         78.035          7.071
        13891.5         70.423         80.838          5.933
        13892.0         69.383         83.642          5.322
        13892.5         68.342         84.165          5.013
        13893.0         67.302         84.263          4.897
        13893.5         68.215         84.361          4.781
        13894.0         71.063         84.459          4.720
        13894.5         73.912         84.278          4.767
        13895.0         76.760         83.787          4.813
        13895.5         79.608         83.296          4.860
        13896.0         77.825         82.804          4.907
        13896.5         74.604         82.313          4.954
        13897.0         71.384         81.822          5.047
        13897.5         68.163         81.482          5.141
        13898.0         65.959         81.211          5.234
        13898.5         70.458         80.940          5.328
        13899.0         74.957         80.669          5.355
        13899.5         79.456         80.543          5.205
        13900.0         74.918         81.210          5.055
        13900.5         67.443         81.877          4.905
        13901.0         66.608         82.544          4.777
        13901.5         70.479         82.883          4.750
        13902.0         74.349         82.212          4.722
        13902.5         78.220         81.542          4.694
        13903.0         82.090         81.133          4.666
        13903.5         80.347         81.521          4.790
        13904.0         76.403         81.909          4.918
        13904.5         74.481         82.297          5.046
        13905.0         74.169         82.686          5.174
        13905.5         73.858         83.074          5.510
        13906.0         73.547         83.278          6.010
        13906.5         73.235         82.787          6.511
        13907.0         72.924         82.296          7.012
        13907.5         73.274         81.806          7.512
        13908.0         74.194         81.315          8.013
        13908.5         75.114         80.824          8.513
        13909.0         73.444         81.000          9.014
        13909.5         70.801         81.371          9.154
        13910.0         68.158         81.742          9.152
        13910.5         66.125         82.113          8.802
        13911.0         65.802         82.484          8.401
        13911.5         65.479         82.855          8.000
        13912.0         65.156         83.226          7.598
        13912.5         66.467         82.678          7.197
        13913.0         70.302         82.123          6.795
        13913.5         67.585         81.567          6.411
        13914.0         64.855         81.011          6.032
        13914.5         62.125         80.643          5.737
        13915.0         59.486         80.782          5.641
        13915.5         61.397         80.921          5.544
        13916.0         63.308         81.060          5.708
        13916.5         65.219         81.135          5.966
        13917.0         66.166         81.076          6.208
        13917.5         63.348         81.309          6.433
        13918.0         60.531         81.543          6.658
        13918.5         57.714         81.568          7.037
        13919.0         55.185         80.860          8.121
        13919.5         53.825         80.151          9.316
        13920.0         52.465         79.443         10.162
        13920.5         51.106         77.087          9.906
        13921.0         49.746         73.547          9.777
        13921.5         48.386         70.007          9.655
        13922.0         49.547         66.467          8.569
        13922.5         57.695         68.073          7.590
        13923.0         65.843         70.597          6.902
        13923.5         73.991         73.120          6.254
        13924.0         74.517         75.644          5.671
        13924.5         72.843         78.168          5.511
        13925.0         71.169         80.692          5.352
        13925.5         69.494         81.713          5.212
        13926.0         69.548         81.408          5.183
        13926.5         70.819         81.103          5.153
        13927.0         72.091         80.797          5.124
        13927.5         73.273         80.741          5.095
        13928.0         72.182         81.107          5.066
        13928.5         71.091         81.474          5.036
        13929.0         69.999         81.841          5.007
        13929.5         68.908         82.208          5.016
        13930.0         67.817         82.574          5.090
        13930.5         66.726         82.769          5.164
        13931.0         65.635         82.626          5.238
        13931.5         66.388         82.484          5.305
        13932.0         67.468         80.677          5.370
        13932.5         68.548         80.858          5.563
        13933.0         69.628         81.040          5.784
        13933.5         70.707         81.221          6.005
        13934.0         68.854         81.402          5.932
        13934.5         65.556         80.702          5.753
        13935.0         62.257         79.964          5.573
        13935.5         58.958         79.225          5.393
        13936.0         55.816         78.486          5.214
        13936.5         60.282         77.748          5.034
        13937.0         64.747         77.153          4.855
        13937.5         69.213         79.882          4.675
        13938.0         73.678         82.611          4.597
        13938.5         78.143         85.339          4.831
        13939.0         79.803         85.789          5.065
        13939.5         73.985         85.490          5.609
        13940.0         68.168         85.191          6.509
        13940.5         62.350         84.891          7.410
        13941.0         56.533         84.592          9.850
        13941.5         50.715         84.293         12.333
        13942.0         44.898         83.131         14.816
        13942.5         39.080         80.399         17.546
        13943.0         33.263         77.667         20.365
        13943.5         27.445         74.935         19.432
        13944.0         27.396         72.203         16.494
        13944.5         27.575         68.841         13.556
        13945.0         34.254         64.592         10.619
        13945.5         48.730         60.344          9.047
        13946.0         63.207         56.680          7.592
        13946.5         75.346         59.181          6.138
