~Version Information Block
 VERS.                2.00:     CWLS LOG ASCII STANDARD - VERSION 2.000000
 WRAP.                  NO:     One Line Per Depth Step
#
~Well Information Block
#MNEM.UNIT                     Data                         Information
#----------   ------------------------------------------   ----------------
 STRT.FT                                     1000.0000:     START DEPTH
 STOP.FT                                    15733.0000:     STOP DEPTH
 STEP.FT                                        0.5000:     STEP
 NULL.                                       -999.0000:     NULL VALUE
 COMP.                                 MOBIL PRODUCING:     COMPANY
 WELL.                                    IB-WEATHERBY:     WELL
 FLD .                                   ROJO CABALLOS:     FIELD
 LOC .                                         UNKNOWN:     LOCATION
 LONG.                                 -103.1458890000:     LONGITUDE
 LATI.                                   31.1330510000:     LATITUDE
 CNTY.                                           PECOS:     COUNTY
 STAT.                                           TEXAS:     STATE
 CTRY.                                           U.S.A:     COUNTRY
 SRVC.                                         UNKNOWN:     SERVICE COMPANY
 DATE.                                         UNKNOWN:     DATE
 API .                                  42371057360000:     API NUMBER
 UWI .                                  42371057360000:     UWI NUMBER
 SLAT.                                       31.133051:     Surface latitude
 SLON.                                     -103.145889:     surface longitude
 TVD .                                              NO:     TVD flag
 WSTA.                                             LOC:     Well status
#
~Curve Information Block
#MNEM.UNIT       API CODE      Curve Description
#----------    -------------   -------------------
 DEPT.FT                   :   Depth in Feet
 DT  .UNKNOWN          UNKNOWN:   DT-Load
 DTedit.ft/s          UNKNOWN:   DT-Load
 GR  .UNKNOWN          UNKNOWN:   GR-Load
 GR_org.UNKNOWN          UNKNOWN:   GR_org-Load
#
~Parameter Information Block
#MNEM.UNIT            Value               Description
#----------    --------------------    -------------------
 RUN .                         ONE:    Run Number
 PDAT.                          GL:    Permanent Datum
 EPD .FT                          :    Elevation Of Perm. Datum
 LMF .               KELLY BUSHING:    Log Measured From
 EKB .FT                          :    Elevation Of Kelly Bushing
 DF .FT                           :    Elevation Of Derrick Floor
 GL .FT                           :    Elevation Of Ground Level
 TD  .FT                          :    Total Depth
 CSGD.FT                          :    Casing Bottom (Driller) 1
 CSGL.FT                          :    Casing Bottom (Logger) 1
 MUD .                            :    Drilling Fluid Type
 MUDV .CP                         :    Drilling Fluid Viscosity
 MUDD .LB/USG                     :    Drilling Fluid Density
 FL .ML/30MIN                     :    Drilling Fluid Loss
 PH.                              :    Drilling Fluid Ph
 MUDS .                           :    Mud Sample Source
 RM .OHMM                         :    Resistivity Of Mud Sample
 RMT .DEGF                        :    Mud Sample Temperature
 RMF .OHMM                        :    Mud Filtrate Resistivity
 RMFT.DEGF                        :    Mud Filtrate Sample Temperature
 RMC .OHMM                        :    Mud Cake Resistivity
 RMCT.DEGF                        :    Mud Cake Sample Temperature
 RMB .OHMM                        :    Mud Resistivity At Bht
 TMAX .DEGF                       :    Bottom Hole Temperature
#
~Other Information Block
<DescLogPlotStart>   NEURALOG PLOT DEFINITION
PLOTDEFVERSION: 3
LASFILE: E:\Nair Innovations\42_TEXAS\371_Pecos\Mobil_IB-Weatherby 1 Pecos_1.la
DEPTHSCALE: 239.999996
RESOLUTION: 200
DEPTHLABELFREQ: 100.000000
HEAVYGRIDFREQ: 50.000000
MEDIUMGRIDFREQ: 50.000000
LIGHTGRIDFREQ: 10.000000
#
#   TRACK 1
#
STARTTRACK: 
 LEFTX: 0.500000 inch
 RIGHTX: 3.000000 inch
 SCALETYPE: Linear
 NUMCHARTDIVISIONS: 10
CURVE: GR    0.000000   150.000000 (255,0,0)      Short_Dash        4     N    
CURVE: DTedit 6637.927700 24453.046900 (0,131,131)    Solid             2     N
CURVE: GR_org -999.990000 109.000000 (255,0,255)    Solid             2     N  
ENDTRACK: 
#
#   TRACK 2
#
STARTTRACK: 
 LEFTX: 3.750000 inch
 RIGHTX: 6.250000 inch
 SCALETYPE: Linear
 NUMCHARTDIVISIONS: 10
ENDTRACK: 
#
#   TRACK 3
#
STARTTRACK: 
 LEFTX: 6.250000 inch
 RIGHTX: 8.750000 inch
 SCALETYPE: Linear
 NUMCHARTDIVISIONS: 10
CURVE: DT    190.000000 50.000000  (255,0,131)    Solid             2     N    
ENDTRACK: 
<DescLogPlotEnd>
<DepthTrack type='Reference' track='1' Label='0' color='0' hor='0' />
<Reference font='144,0,-900,0,500,0,16777216,Arial' />
~A DEPTH     DT               DTedit             GR               GR_org            
# ...
    3079.000 50.25350000      19899.11130000   -999.00000000    -999.00000000   
    3079.500 50.25350000      19899.11130000   -999.00000000    -999.00000000   
    3080.000 49.95230000      20019.09770000   -999.00000000    -999.00000000   
    3080.500 49.95230000      20019.09770000   -999.00000000    -999.00000000   
    3081.000 49.44080000      20226.21090000   -999.00000000    -999.00000000   
    3081.500 49.44080000      20226.21090000   -999.00000000    -999.00000000   
    3082.000 49.63480000      20147.15430000   -999.00000000    -999.00000000   
    3082.500 49.63480000      20147.15430000   -999.00000000    -999.00000000   
    3083.000 51.22570000      19521.45120000   -999.00000000    -999.00000000   
    3083.500 51.22570000      19521.45120000   -999.00000000    -999.00000000   
    3084.000 70.61290000      14161.71880000   -999.00000000    -999.00000000   
    3084.500 70.61290000      14161.71880000   -999.00000000    -999.00000000   
    3085.000 74.40670000      13439.64940000   -999.00000000    -999.00000000   
    3085.500 74.40670000      13439.64940000   -999.00000000    -999.00000000   
    3086.000 71.51370000      13983.33400000   -999.00000000    -999.00000000   
    3086.500 71.51370000      13983.33400000   -999.00000000    -999.00000000   
    3087.000 65.92700000      15168.29200000   -999.00000000    -999.00000000   
    3087.500 65.92700000      15168.29200000   -999.00000000    -999.00000000   
    3088.000 64.52540000      15497.77340000   -999.00000000    -999.00000000   
    3088.500 64.52540000      15497.77340000   -999.00000000    -999.00000000   
    3089.000 66.84580000      14959.80270000   -999.00000000    -999.00000000   
    3089.500 66.84580000      14959.80270000   -999.00000000    -999.00000000   
    3090.000 67.62900000      14786.55660000   -999.00000000    -999.00000000   
    3090.500 67.62900000      14786.55660000   -999.00000000    -999.00000000   
    3091.000 63.42600000      15766.40530000   -999.00000000    -999.00000000   
    3091.500 63.42600000      15766.40530000   -999.00000000    -999.00000000   
    3092.000 66.32090000      15078.20310000   -999.00000000    -999.00000000   
    3092.500 66.32090000      15078.20310000   -999.00000000    -999.00000000   
    3093.000 66.34080000      15073.68070000   -999.00000000    -999.00000000   
    3093.500 66.34080000      15073.68070000   -999.00000000    -999.00000000   
    3094.000 66.20680000      15104.18850000   -999.00000000    -999.00000000   
    3094.500 66.20680000      15104.18850000   -999.00000000    -999.00000000   
    3095.000 65.83180000      15190.22660000   -999.00000000    -999.00000000   
    3095.500 65.83180000      15190.22660000   -999.00000000    -999.00000000   
    3096.000 65.88310000      15178.39840000   -999.00000000    -999.00000000   
    3096.500 65.88310000      15178.39840000   -999.00000000    -999.00000000   
    3097.000 65.04630000      15373.66410000   -999.00000000    -999.00000000   
    3097.500 65.04630000      15373.66410000   -999.00000000    -999.00000000   
    3098.000 66.22060000      15101.04200000   -999.00000000    -999.00000000   
    3098.500 66.22060000      15101.04200000   -999.00000000    -999.00000000   
    3099.000 66.74130000      14983.22560000   -999.00000000    -999.00000000   
    3099.500 66.74130000      14983.22560000   -999.00000000    -999.00000000   
    3100.000 66.74830000      14981.65530000   -999.00000000    -999.00000000   
    3100.500 66.74830000      14981.65530000   -999.00000000    -999.00000000   
    3101.000 66.63270000      15007.64650000   -999.00000000    -999.00000000   
    3101.500 66.63270000      15007.64650000   -999.00000000    -999.00000000   
    3102.000 66.17520000      15111.40140000   -999.00000000    -999.00000000   
    3102.500 66.17520000      15111.40140000   -999.00000000    -999.00000000   
    3103.000 65.98950000      15153.92580000   -999.00000000    -999.00000000   
    3103.500 65.98950000      15153.92580000   -999.00000000    -999.00000000   
    3104.000 71.17660000      14049.56150000   -999.00000000    -999.00000000   
    3104.500 71.17660000      14049.56150000   -999.00000000    -999.00000000   
    3105.000 71.69930000      13947.13670000   -999.00000000    -999.00000000   
    3105.500 71.69930000      13947.13670000   -999.00000000    -999.00000000   
    3106.000 71.92270000      13903.81640000   -999.00000000    -999.00000000   
    3106.500 71.92270000      13903.81640000   -999.00000000    -999.00000000   
    3107.000 69.65760000      14355.93550000   -999.00000000    -999.00000000   
    3107.500 69.65760000      14355.93550000   -999.00000000    -999.00000000   
    3108.000 70.64770000      14154.74320000   -999.00000000    -999.00000000   
    3108.500 70.64770000      14154.74320000   -999.00000000    -999.00000000   
    3109.000 70.68980000      14146.31350000   -999.00000000    -999.00000000   
    3109.500 70.68980000      14146.31350000   -999.00000000    -999.00000000   
    3110.000 70.32680000      14219.33110000   -999.00000000    -999.00000000   
    3110.500 70.32680000      14219.33110000   -999.00000000    -999.00000000   
    3111.000 71.35390000      14014.65140000   -999.00000000    -999.00000000   
    3111.500 71.35390000      14014.65140000   -999.00000000    -999.00000000   
    3112.000 72.54520000      13784.50980000   -999.00000000    -999.00000000   
    3112.500 72.54520000      13784.50980000   -999.00000000    -999.00000000   
    3113.000 72.72740000      13749.97560000   -999.00000000    -999.00000000   
    3113.500 72.72740000      13749.97560000   -999.00000000    -999.00000000   
    3114.000 71.48770000      13988.41990000   -999.00000000    -999.00000000   
    3114.500 71.48770000      13988.41990000   -999.00000000    -999.00000000   
    3115.000 69.88330000      14309.57030000   -999.00000000    -999.00000000   
    3115.500 69.88330000      14309.57030000   -999.00000000    -999.00000000   
    3116.000 70.61930000      14160.43460000   -999.00000000    -999.00000000   
    3116.500 70.61930000      14160.43460000   -999.00000000    -999.00000000   
    3117.000 70.78740000      14126.80760000   -999.00000000    -999.00000000   
    3117.500 70.78740000      14126.80760000   -999.00000000    -999.00000000   
    3118.000 72.19850000      13850.70310000   -999.00000000    -999.00000000   
    3118.500 72.19850000      13850.70310000   -999.00000000    -999.00000000   
    3119.000 72.96420000      13705.35060000   -999.00000000    -999.00000000   
    3119.500 72.96420000      13705.35060000   -999.00000000    -999.00000000   
    3120.000 71.59010000      13968.41110000   -999.00000000    -999.00000000   
    3120.500 71.59010000      13968.41110000   -999.00000000    -999.00000000   
    3121.000 71.90890000      13906.48540000   -999.00000000    -999.00000000   
    3121.500 71.90890000      13906.48540000   -999.00000000    -999.00000000   
    3122.000 71.40030000      14005.54390000   -999.00000000    -999.00000000   
    3122.500 71.40030000      14005.54390000   -999.00000000    -999.00000000   
    3123.000 71.14060000      14056.67090000   -999.00000000    -999.00000000   
    3123.500 71.14060000      14056.67090000   -999.00000000    -999.00000000   
    3124.000 71.28310000      14028.57130000   -999.00000000    -999.00000000   
    3124.500 71.28310000      14028.57130000   -999.00000000    -999.00000000   
    3125.000 71.99960000      13888.96580000   -999.00000000    -999.00000000   
    3125.500 71.99960000      13888.96580000   -999.00000000    -999.00000000   
    3126.000 71.52400000      13981.32030000   -999.00000000    -999.00000000   
    3126.500 71.52400000      13981.32030000   -999.00000000    -999.00000000   
    3127.000 72.51710000      13789.85160000   -999.00000000    -999.00000000   
    3127.500 72.51710000      13789.85160000   -999.00000000    -999.00000000   
    3128.000 73.78100000      13553.62500000   -999.00000000    -999.00000000   
