###############################################
##         ENVERUS                           ##
##         ESS - Open Hole                   ##
##         PERMIAN / DELAWARE                ##
##         Nov 04 2023  V4.0                 ##
##         42-389-00802-00-00                ##
###############################################
## Copyright 2017-2023  ENVERUS.  All Rights Reserved. 
## Confidential - Property of ENVERUS, use governed by terms and 
## conditions found within the existing Information Services Subscription Agreement 
## (as may be amended, the “ISSA”) between Customer and ENVERUS. 
## 
~VERSION INFORMATION
# MNEM.UNIT                               DATA : DESCRIPTION OF MNEMONIC
#-----.-----     ----------------------------- : -----------------------------
VERS.                                     2.00 : CWLS LOG ASCII STANDARD - VERSION 2.00
WRAP.                                       NO : MULTIPLE LINES PER DEPTH STEP
VEND.                                  ENVERUS : VENDOR
TYPE.                          ESS - OPEN HOLE : ENVERUS ESSENTIAL CURVES – ACCESSIBLE THROUGH ENVERUS PRISM(TM)
DOC.                                  31817456 : ENVERUS HEADER RAW DOCUMENT ID
#___________________________________________________________________________________________________ 
~WELL INFORMATION 
# RyAIq6UWQPnCIzV1aSVljU5sZzU8mzXCuHzh8Tf3VVfaeSb2oya67RMqigcBPLsftsjdPp3J13KbDcbgGgUr7w== 
# MNEM.UNIT                                              DATA : DESCRIPTION OF MNEMONIC 
#-----.-----                    ----------------------------- : ----------------------------- 
CNTY.                                                  REEVES : COUNTY 
STATE.                                                  TEXAS : STATE 
CNTRY.                                                    USA : COUNTRY 
API.                                             42-389-00802 : API (10 Digit) 
API_14.                                    42-389-00802-00-00 : API (14 Digits) 
API_14_std.                                 42-389-00802-0000 : API (14 Digits Standard) 
UWI.                                           42389008020000 : UNIQUE WELL ID 
WELL.                                                      1, : WELL NAME
STRT.FT                                                 103.0 : START DEPTH
STOP.FT                                                5419.0 : STOP DEPTH
STEP.FT                                                   0.5 : STEP BETWEEN DEPTHS
NULL.                                                 -999.25 : NULL VALUE
#___________________________________________________________________________________________________ 
~CURVE INFORMATION 
# MNEM.UNIT           : CURVE DESCRIPTION 
#-----.-----          : ----------------------------- 
 DEPT.FT               : MEASURED DEPTH 
 GR.API                : GAMMA RAY (GR) 
 DT.US/FT              : SONIC DELTA TRANSIT TIME (DT) 
 #___________________________________________________________________________________________________ 
~A         DEPT             GR             DT
# ...
         5323.0         65.519         74.287
         5323.5         64.145         73.749
         5324.0         62.771         73.211
         5324.5         61.397         72.854
         5325.0         60.022         73.148
         5325.5         58.648         73.441
         5326.0         57.274         73.735
         5326.5         56.217         73.434
         5327.0         57.080         71.872
         5327.5         57.943         70.311
         5328.0         58.806         72.323
         5328.5         59.670         74.346
         5329.0         60.323         76.369
         5329.5         59.295         78.392
         5330.0         58.267         78.408
         5330.5         57.239         77.606
         5331.0         56.211         76.803
         5331.5         55.182         76.001
         5332.0         54.154         75.199
         5332.5         53.126         74.397
         5333.0         61.086         74.002
         5333.5         93.340         74.147
         5334.0        125.595         74.292
         5334.5        142.123         74.436
         5335.0        145.726         74.581
         5335.5        157.908         74.726
         5336.0        167.907         74.029
         5336.5        168.438         73.178
         5337.0        164.930         72.326
         5337.5        151.799         71.474
         5338.0         87.139         70.171
         5338.5         79.157         67.645
         5339.0         71.175         65.118
         5339.5         63.193         63.898
         5340.0         55.211         65.870
         5340.5         56.485         67.842
         5341.0         61.288         69.813
         5341.5         66.090         70.775
         5342.0         70.893         70.878
         5342.5         74.922         70.980
         5343.0         76.764         71.082
         5343.5         78.606         71.184
         5344.0         80.448         71.286
         5344.5         82.289         71.388
         5345.0         84.131         71.300
         5345.5         85.973         70.699
         5346.0         87.815         70.097
         5346.5         84.685         69.496
         5347.0         81.524         68.895
         5347.5         78.363         68.294
         5348.0         75.752         67.709
         5348.5         80.627         68.287
         5349.0         85.502         68.865
         5349.5         90.378         68.319
         5350.0         95.253         67.497
         5350.5         94.800         66.675
         5351.0         90.839         65.853
         5351.5         86.878         65.456
         5352.0         82.917         65.168
         5352.5         78.965         64.879
         5353.0         75.076         64.590
         5353.5         71.188         66.572
         5354.0         81.495         68.969
         5354.5        100.416         71.365
         5355.0        121.392         73.687
         5355.5        142.369         75.553
         5356.0        169.816         77.420
         5356.5        198.648         79.287
         5357.0        219.427         79.746
         5357.5        221.627         78.058
         5358.0        212.619         76.371
         5358.5        197.005         74.683
         5359.0        181.391         72.996
         5359.5        165.777         71.308
         5360.0        150.163         66.828
         5360.5         77.582         68.050
         5361.0         72.184         69.272
         5361.5         74.279         70.493
         5362.0         76.373         71.606
         5362.5         75.173         71.541
         5363.0         71.050         71.476
         5363.5         66.926         71.411
         5364.0         62.802         71.346
         5364.5         58.679         71.281
         5365.0         57.660         71.216
         5365.5         59.905         72.432
         5366.0         62.150         73.001
         5366.5         64.395         72.783
         5367.0         66.608         72.257
         5367.5         66.531         71.730
         5368.0         66.453         71.203
         5368.5         66.376         70.677
         5369.0         66.298         70.150
         5369.5         64.492         70.567
         5370.0         61.197         72.064
         5370.5         59.698         73.561
         5371.0         62.436         74.516
         5371.5         65.173         73.672
         5372.0         67.910         72.828
         5372.5         68.260         71.985
         5373.0         64.765         71.141
         5373.5         61.271         70.297
         5374.0         57.871         67.892
         5374.5         58.392         67.948
         5375.0         58.914         68.593
         5375.5         59.436         69.239
         5376.0         59.958         69.886
         5376.5         64.131         70.704
         5377.0         71.322         71.522
         5377.5         78.512         72.340
         5378.0         85.703         72.804
         5378.5         92.183         73.133
         5379.0         89.785         73.462
         5379.5         87.387         73.791
         5380.0         84.989         73.637
         5380.5         83.271         73.387
         5381.0         85.229         73.137
         5381.5         87.188         72.887
         5382.0         89.146         72.637
         5382.5         91.104         72.331
         5383.0         93.062         71.787
         5383.5         95.021         71.244
         5384.0         97.565         70.974
         5384.5        100.108         71.216
         5385.0        102.652         71.458
         5385.5        105.195         71.786
         5386.0        104.621         72.180
         5386.5        101.225         72.575
         5387.0         97.829         72.970
         5387.5         94.434         73.365
         5388.0         91.038         73.759
         5388.5         89.926         74.154
         5389.0         91.222         79.021
         5389.5         92.517         78.891
         5390.0         93.812         78.593
         5390.5         95.108         78.296
         5391.0         96.403         78.342
         5391.5         97.699         78.681
         5392.0         74.399         79.021
         5392.5         73.798         79.361
         5393.0         73.196         79.701
         5393.5         72.594         80.040
         5394.0         71.993         79.291
         5394.5         71.391         78.528
         5395.0         70.789         77.765
         5395.5         70.188         77.709
         5396.0         69.586         78.227
         5396.5         70.309         78.420
         5397.0         74.796         77.989
         5397.5         79.284         77.559
         5398.0         83.772         77.128
         5398.5       -999.250         76.697
         5399.0       -999.250         76.266
         5399.5       -999.250         76.067
         5400.0       -999.250         77.885
         5400.5       -999.250         79.702
         5401.0       -999.250         80.616
         5401.5       -999.250         80.369
         5402.0       -999.250         80.121
         5402.5       -999.250         79.874
         5403.0       -999.250         79.627
         5403.5       -999.250         79.380
         5404.0       -999.250         79.133
         5404.5       -999.250         78.955
         5405.0       -999.250         79.380
         5405.5       -999.250         79.806
         5406.0       -999.250         80.232
         5406.5       -999.250         80.657
         5407.0       -999.250         80.670
         5407.5       -999.250         80.483
         5408.0       -999.250         80.296
         5408.5       -999.250         80.109
         5409.0       -999.250         79.922
         5409.5       -999.250         79.735
