~Version Information Block
 VERS.                2.00:     CWLS LOG ASCII STANDARD - VERSION 2.000000
 WRAP.                  NO:     One Line Per Depth Step
#
~Well Information Block
#MNEM.UNIT                     Data                         Information
#----------   ------------------------------------------   ----------------
# Enverus has updated the API/UWI.  The previous names are renamed to  PREV_API / PREV_UWI
API.                             42-371-39483-90-00 : API (14 Digits with Dashes)
UWI.                                 42371394839000 : UNIQUE WELL ID

 STRT.FT                                    10010.0000:     START DEPTH
 STOP.FT                                    11812.0000:     STOP DEPTH
 STEP.FT                                        0.5000:     STEP
 NULL.                                       -999.2500:     NULL VALUE
 COMP.                           PATRIOT RESOURCES INC:     COMPANY
 WELL.                        ROOSTERFISH UNIT 22NE 1H:     WELL
 FLD .                             WOLFBONE TREND AREA:     FIELD
 LOC .                                                :     LOCATION
 SEC .                                              22:     SECTION
 CNTY.                                          PEACOS:     COUNTY
 STAT.                                           TEXAS:     STATE
 CTRY.                                           U.S.A:     COUNTRY
 SRVC.                                    SCHLUMBERGER:     SERVICE COMPANY
 DATE.                                      03/18/2017:     DATE
PREV_APII .                                  42371394830000:     API NUMBER
 PREV_UWI .                                  42371394830000:     UWI NUMBER
 TVD .                                              NO:     TVD flag
 WSTA.                                             LOC:     Well status
#
~Curve Information Block
#MNEM.UNIT       API CODE      Curve Description
#----------    -------------   -------------------
 DEPT.FT                   :   Depth in Feet
 ECGR.GAPI     35 310 01 01:   Environmentally Corrected Gamma Ray
 CALI.IN       70 280 01 01:   Caliper
 TENS.LBS                  :   Tension
 SPHI_476.V/V  61 890 01 01:   Sonic Porosity 47.6 Matrix
 DT  .US/F     60 520 08 01:   Delta-T
 DTSM.US/F                 :   Delta-T Shear Measurement
 STIT.FT/H                 :   STIT
#
~Parameter Information Block
#MNEM.UNIT            Value               Description
#----------    --------------------    -------------------
 RUN .                         ONE:    Run Number
 PDAT.                          GL:    Permanent Datum
 EPD .FT                        25:    Elevation Of Perm. Datum
 LMF .               KELLY BUSHING:    Log Measured From
 EKB .FT                          :    Elevation Of Kelly Bushing
 DF .FT                           :    Elevation Of Derrick Floor
 GL .FT                         25:    Elevation Of Ground Level
 TD  .FT                     18979:    Total Depth
 CSGD.FT                      5100:    Casing Bottom (Driller) 1
 CSGL.FT                     18979:    Casing Bottom (Logger) 1
 MUD .                   OIL BASED:    Drilling Fluid Type
 MUDV .CP                      102:    Drilling Fluid Viscosity
 MUDD .LB/USG                 13.0:    Drilling Fluid Density
 FL .ML/30MIN                     :    Drilling Fluid Loss
 PH.                           8.8:    Drilling Fluid Ph
 MUDS .                           :    Mud Sample Source
 RM .OHMM                         :    Resistivity Of Mud Sample
 RMT .DEGF                        :    Mud Sample Temperature
 RMF .OHMM                        :    Mud Filtrate Resistivity
 RMFT.DEGF                        :    Mud Filtrate Sample Temperature
 RMC .OHMM                        :    Mud Cake Resistivity
 RMCT.DEGF                        :    Mud Cake Sample Temperature
 RMB .OHMM                        :    Mud Resistivity At Bht
 TMAX .DEGF                    152:    Bottom Hole Temperature
#
~Other Information Block
<DescLogPlotStart>   NEURALOG PLOT DEFINITION
PLOTDEFVERSION: 3
LASFILE: D:\nds\projects\poojawells\December data\PoojaWells Digitizing_Cassidy
DEPTHSCALE: 240.000000
RESOLUTION: 144
DEPTHLABELFREQ: 100.000000
HEAVYGRIDFREQ: 100.000000
MEDIUMGRIDFREQ: 50.000000
LIGHTGRIDFREQ: 10.000000
#
#   TRACK 1
#
STARTTRACK: 
 LEFTX: 0.500000 inch
 RIGHTX: 3.000000 inch
 SCALETYPE: Linear
 NUMCHARTDIVISIONS: 10
CURVE: ECGR  0.000000   150.000000 (0,0,255)      Solid             2     Y    
BACKUP: 150.000000 300.000000 (0,0,255)      Solid             2    
CURVE: CALI  6.000000   16.000000  (0,131,131)    Dot               2     Y    
BACKUP: -4.000000  6.000000   (0,131,131)    Dot               2    
CURVE: TENS  10000.000000 0.000000   (255,0,255)    Short_Dash        2     N  
ENDTRACK: 
#
#   TRACK 2
#
STARTTRACK: 
 LEFTX: 3.500000 inch
 RIGHTX: 8.500000 inch
 SCALETYPE: Linear
 NUMCHARTDIVISIONS: 10
CURVE: SPHI_476 0.300000   -0.100000  (255,0,0)      Solid             2     N 
CURVE: DT    140.000000 40.000000  (255,131,0)    Dot               2     N    
CURVE: DTSM  240.000000 40.000000  (255,255,0)    Short_Dash        2     N    
ENDTRACK: 
#
#   TRACK 3
#
STARTTRACK: 
 LEFTX: 8.500000 inch
 RIGHTX: 9.256944 inch
 SCALETYPE: Linear
 NUMCHARTDIVISIONS: 10
CURVE: STIT  0.000000   50.000000  (0,0,255)      Solid             2     N    
ENDTRACK: 
<DescLogPlotEnd>
~A DEPTH     ECGR             CALI             TENS             SPHI_476             DT               DTSM             STIT            
# ...
   10955.500 102.01117155     8.34513645       4511.17318436    0.28994959       88.56545961      154.49396472     0.45773829      
   10956.000 103.15260946     8.35407993       4525.93774940    0.28366222       87.64623955      153.15691736     0.45818364      
   10956.500 104.23945766     8.36496191       4539.10614525    0.27858894       86.88486537      152.28969359     0.45862900      
   10957.000 101.49370043     8.37260566       4539.10614525    0.27673975       86.58774373      151.67130919     0.45907435      
   10957.500 95.66517070      8.36664259       4550.74487896    0.27634174       86.58774373      151.37418756     0.45951971      
   10958.000 90.51051160      8.36093607       4567.03910615    0.27703845       86.71952003      151.59702878     0.45996506      
   10958.500 87.46300471      8.35532134       4536.13664477    0.27742931       86.83522606      151.83844011     0.46041042      
   10959.000 86.36219124      8.34979421       4522.18973243    0.27890650       86.95093208      152.41295265     0.46085577      
   10959.500 90.25312928      8.34530737       4514.04169132    0.28129697       87.27019499      153.03969359     0.46130113      
   10960.000 94.66862732      8.34546051       4527.00309323    0.28443206       87.77158774      153.75536410     0.46174648      
   10960.500 99.15828761      8.34554419       4539.00590396    0.28746518       88.27298050      154.50135370     0.46219184      
   10961.000 103.84450416     8.34786810       4553.98033040    0.29188221       88.77437326      155.26076534     0.46263719      
   10961.500 103.71551165     8.35370947       4566.99782401    0.29582173       89.51253482      156.10065237     0.46308255      
   10962.000 103.20517587     8.35936431       4553.46905366    0.30027855       89.79108635      157.10015777     0.46352790      
   10962.500 101.63806690     8.36499685       4539.19821060    0.30005592       89.77825832      158.10584958     0.46397326      
   10963.000 103.98766102     8.37070918       4539.00461573    0.29978625       89.76506377      158.60724234     0.46441861      
   10963.500 101.57346860     8.37789051       4539.18413592    0.29951234       89.75186923      158.75049741     0.46486397      
   10964.000 99.03556808      8.38845824       4539.06219556    0.29922522       89.73867468      158.58867224     0.46530932      
   10964.500 99.15558770      8.39898074       4535.39743547    0.29892984       89.72548013      158.24512535     0.46575468      
   10965.000 102.80039619     8.39632600       4521.30987025    0.29861016       89.71214179      156.57381616     0.46620003      
   10965.500 99.84198765      8.38897862       4517.80393565    0.29852180       89.69913220      156.85236769     0.46664539      
   10966.000 96.80447193      8.38150754       4540.40764123    0.29843257       89.68753541      157.88300836     0.46709074      
   10966.500 94.67299800      8.37400841       4562.77591247    0.29834014       89.66922078      158.52367688     0.46753610      
   10967.000 98.68393470      8.36651519       4556.86771640    0.29823322       89.66777044      158.39832869     0.46798145      
   10967.500 102.84897614     8.35905200       4544.35229324    0.29816905       89.78333572      157.67536085     0.46842681      
   10968.000 110.08053745     8.35170127       4539.19488097    0.29805014       89.49860724      156.85489997     0.46887216      
   10968.500 111.75584138     8.34521386       4539.07434164    0.29478644       88.99721448      156.03443910     0.46931752      
   10969.000 106.79711296     8.34545143       4539.07743342    0.29161096       88.55617456      155.95171773     0.46976287      
   10969.500 102.97871875     8.34550908       4539.22050150    0.28843547       88.29909471      156.29526462     0.47020823      
   10970.000 102.04818840     8.34551918       4538.92720216    0.28715568       88.11107242      155.51532033     0.47065358      
   10970.500 103.60265907     8.34551250       4526.57535203    0.28671000       87.97859188      155.18105850     0.47109894      
   10971.000 94.84248797      8.34550562       4514.99809181    0.28661096       88.02898928      155.18105850     0.47154429      
   10971.500 92.48689746      8.34550562       4515.45623836    0.28800836       88.25666261      155.18105850     0.47198965      
   10972.000 92.20968741      8.34550562       4522.16014898    0.28951253       88.31005975      155.48398329     0.47243500      
   10972.500 97.88406511      8.34550562       4528.86405959    0.29080780       88.53477702      155.86002786     0.47288036      
   10973.000 99.69636237      8.34550562       4535.56797020    0.29354875       88.92138657      156.23607242     0.47332571      
   10973.500 102.59058921     8.34550562       4533.17039106    0.29595543       89.36706902      156.61211699     0.47377107      
   10974.000 106.71702404     8.34550562       4520.60548780    0.29836212       89.70119017      157.21448468     0.47421642      
   10974.500 113.48630658     8.34550562       4511.10292777    0.30083565       89.83793365      158.21727019     0.47466178      
   10975.000 116.72814423     8.34550562       4511.23722657    0.30073026       89.97467713      158.77238361     0.47510713      
   10975.500 115.89577017     8.34550562       4511.12083452    0.30061783       90.12708914      159.13052129     0.47555249      
   10976.000 114.52525181     8.34550562       4511.16733843    0.30051894       90.31511142      159.48865897     0.47599784      
   10976.500 109.72883016     8.34550562       4511.16771860    0.30040663       90.48746518      159.84679666     0.47644320      
   10977.000 104.46122274     8.34549408       4511.17318436    0.30029662       91.03064067      159.51253482     0.47688855      
   10977.500 102.25527511     8.34546019       4511.17318436    0.30018915       91.18384401      159.35933148     0.47733391      
   10978.000 105.20984883     8.34538751       4511.17318436    0.30007980       90.96448468      159.07149489     0.47777926      
   10978.500 107.78846034     8.34527848       4511.17318436    0.29997139       90.48189415      158.73723305     0.47822462      
   10979.000 107.68013083     8.34459825       4511.17318436    0.29986298       89.93036212      158.10120706     0.47866997      
   10979.500 107.28070028     8.32842583       4511.17318436    0.29975457       89.88857939      156.93129062     0.47911533      
   10980.000 106.88774475     8.31290940       4511.17318436    0.29809656       89.66922006      156.57381616     0.47956068      
   10980.500 104.41829193     8.29750548       4511.17318436    0.29582173       89.37674095      156.57147407     0.48000604      
   10981.000 102.79550256     8.29755899       4511.17318436    0.29401811       89.08426184      156.57092033     0.48045139      
   10981.500 104.95710588     8.31723345       4511.17318436    0.29226323       88.81615599      155.88819058     0.48089675      
   10982.000 104.42101507     8.32828921       4523.13409203    0.29159889       88.72562674      155.12773540     0.48134210      
   10982.500 101.27827708     8.33838369       4538.68512660    0.29136490       88.67688022      155.18383750     0.48178746      
   10983.000 99.17381334      8.34579506       4525.11354923    0.29192201       88.81615599      155.04785197     0.48223281      
   10983.500 106.64996613     8.34554588       4513.24276945    0.29169157       88.67688022      154.89393615     0.48267817      
   10984.000 114.45833296     8.34548366       4526.48379338    0.29050646       88.55886234      154.73966145     0.48312352      
   10984.500 108.88162450     8.34556941       4538.94046999    0.28932135       88.37413869      154.34192201     0.48356888      
   10985.000 101.73274492     8.34586066       4528.26283163    0.28813624       88.18941504      153.21378830     0.48401423      
   10985.500 95.69341088      8.35521673       4517.24705804    0.28695113       88.00469139      152.11699164     0.48445959      
