###############################################
##         ENVERUS                           ##
##         ESS - Open Hole                   ##
##         PERMIAN / DELAWARE                ##
##         Nov 04 2023  V4.0                 ##
##         42-371-36358-00-00                ##
###############################################
## Copyright 2017-2023  ENVERUS.  All Rights Reserved. 
## Confidential - Property of ENVERUS, use governed by terms and 
## conditions found within the existing Information Services Subscription Agreement 
## (as may be amended, the “ISSA”) between Customer and ENVERUS. 
## 
~VERSION INFORMATION
# MNEM.UNIT                               DATA : DESCRIPTION OF MNEMONIC
#-----.-----     ----------------------------- : -----------------------------
VERS.                                     2.00 : CWLS LOG ASCII STANDARD - VERSION 2.00
WRAP.                                       NO : MULTIPLE LINES PER DEPTH STEP
VEND.                                  ENVERUS : VENDOR
TYPE.                          ESS - OPEN HOLE : ENVERUS ESSENTIAL CURVES – ACCESSIBLE THROUGH ENVERUS PRISM(TM)
DOC.                                  32044985 : ENVERUS HEADER RAW DOCUMENT ID
#___________________________________________________________________________________________________ 
~WELL INFORMATION 
# 9/F+NtSLBEAIaZM9LpLMxALTyCH3LMfPBQiNKTeSadJ6NAezaEZy+3+OEP8rVGNvVB4ifWNnxSKvs1BiqqZA9A== 
# MNEM.UNIT                                              DATA : DESCRIPTION OF MNEMONIC 
#-----.-----                    ----------------------------- : ----------------------------- 
CNTY.                                                   PECOS : COUNTY 
STATE.                                                  TEXAS : STATE 
CNTRY.                                                    USA : COUNTRY 
API.                                             42-371-36358 : API (10 Digit) 
API_14.                                    42-371-36358-00-00 : API (14 Digits) 
API_14_std.                                 42-371-36358-0000 : API (14 Digits Standard) 
UWI.                                           42371363580000 : UNIQUE WELL ID 
WELL.                           SCHLOSSER, FRED ESTATE -B-  9 : WELL NAME
STRT.FT                                                 151.0 : START DEPTH
STOP.FT                                                5707.0 : STOP DEPTH
STEP.FT                                                   0.5 : STEP BETWEEN DEPTHS
NULL.                                                 -999.25 : NULL VALUE
COMP.                                      APACHE CORPORATION : COMPANY 
DATE.                                             07-JUN-1992 : LOG DATE
#___________________________________________________________________________________________________ 
~CURVE INFORMATION 
# MNEM.UNIT           : CURVE DESCRIPTION 
#-----.-----          : ----------------------------- 
 DEPT.FT               : MEASURED DEPTH 
 GR.API                : GAMMA RAY (GR) 
 DT.US/FT              : SONIC DELTA TRANSIT TIME (DT) 
 #___________________________________________________________________________________________________ 
~A         DEPT             GR             DT
# ...
         3457.0          9.215         50.380
         3457.5         10.131         50.284
         3458.0         11.046         50.347
         3458.5         11.962         50.452
         3459.0         12.742         50.558
         3459.5         12.309         50.624
         3460.0         11.876         50.590
         3460.5         15.836         50.556
         3461.0         19.875         50.522
         3461.5         23.914         50.488
         3462.0         27.238         50.358
         3462.5         25.036         49.720
         3463.0         22.834         49.083
         3463.5         20.632         49.115
         3464.0         18.375         49.366
         3464.5         15.807         49.792
         3465.0         13.240         50.300
         3465.5         12.536         50.543
         3466.0         12.604         50.603
         3466.5         12.672         50.663
         3467.0         12.740         50.722
         3467.5         12.712         50.712
         3468.0         12.233         50.693
         3468.5         11.755         50.674
         3469.0         11.277         50.655
         3469.5         10.799         50.636
         3470.0         10.320         50.617
         3470.5         13.806         50.758
         3471.0         22.193         50.984
         3471.5         29.011         50.954
         3472.0         35.829         50.907
         3472.5         42.646         50.358
         3473.0         49.497         49.808
         3473.5         56.360         49.270
         3474.0         57.093         49.438
         3474.5         57.602         49.605
         3475.0         59.676         49.773
         3475.5         66.381         49.627
         3476.0         73.085         49.455
         3476.5         63.917         49.282
         3477.0         52.977         49.121
         3477.5         42.036         49.185
         3478.0         31.096         49.250
         3478.5         27.946         49.292
         3479.0         26.937         49.302
         3479.5         27.784         49.312
         3480.0         28.700         49.321
         3480.5         29.616         49.331
         3481.0         27.377         49.341
         3481.5         24.982         49.351
         3482.0         22.525         49.361
         3482.5         19.832         49.571
         3483.0         17.138         49.839
         3483.5         16.802         50.107
         3484.0         17.821         50.316
         3484.5         18.840         50.458
         3485.0         19.859         50.506
         3485.5         22.895         50.153
         3486.0         26.302         49.801
         3486.5         27.345         49.448
         3487.0         25.636         49.096
         3487.5         21.961         48.743
         3488.0         18.161         49.326
         3488.5         14.360         49.982
         3489.0         10.559         50.638
         3489.5          6.844         51.294
         3490.0          6.591         51.754
         3490.5          7.234         51.746
         3491.0          8.082         51.737
         3491.5          8.819         51.719
         3492.0          8.578         51.662
         3492.5          8.338         51.606
         3493.0          8.097         51.565
         3493.5          7.857         51.616
         3494.0          7.616         51.667
         3494.5          7.376         51.719
         3495.0          8.008         51.770
         3495.5          8.931         51.821
         3496.0          9.854         51.810
         3496.5         10.777         51.702
         3497.0         11.700         51.593
         3497.5         10.920         51.485
         3498.0         10.019         51.237
         3498.5          9.119         50.855
         3499.0          8.218         50.473
         3499.5          7.793         50.281
         3500.0          7.587         50.603
         3500.5          7.382         51.075
         3501.0          7.176         51.379
         3501.5          6.970         51.553
         3502.0          6.765         51.726
         3502.5          6.559         51.899
         3503.0          6.353         51.969
         3503.5          5.967         51.902
         3504.0          5.411         51.835
         3504.5          4.856         51.769
         3505.0          4.300         51.714
         3505.5          3.745         51.684
         3506.0          3.189         51.654
         3506.5          2.961         51.620
         3507.0          3.124         51.531
         3507.5          3.287         51.442
         3508.0          3.450         51.353
         3508.5          3.613         51.398
         3509.0          3.776         51.443
         3509.5          3.938         51.489
         3510.0          4.101         51.535
         3510.5          3.842         51.512
         3511.0          3.539         51.457
         3511.5          3.236         51.440
         3512.0          2.933         51.476
         3512.5          2.800         51.512
         3513.0          2.961         51.548
         3513.5          3.121         51.584
         3514.0          3.282         51.621
         3514.5          3.443         51.658
         3515.0          3.604         51.665
         3515.5          3.536         51.656
         3516.0          3.334         51.647
         3516.5          3.132         51.639
         3517.0          3.167         51.630
         3517.5          3.358         51.621
         3518.0          3.549         51.612
         3518.5          3.739         51.603
         3519.0          3.930         51.594
         3519.5          3.745         51.585
         3520.0          3.447         51.577
         3520.5          3.150         51.567
         3521.0          2.853         51.557
         3521.5          2.556         51.546
         3522.0          3.219         51.536
         3522.5          4.457         51.525
         3523.0          5.249         51.515
         3523.5          5.631         51.504
         3524.0          6.031         51.493
         3524.5          6.579         51.597
         3525.0          7.127         51.702
         3525.5          7.674         51.808
         3526.0          7.962         51.816
         3526.5          7.136         51.718
         3527.0          6.311         51.619
         3527.5          5.485         51.520
         3528.0          7.272         51.421
         3528.5          9.512         51.322
         3529.0         11.961         51.427
         3529.5         14.658         51.540
         3530.0         17.046         51.653
         3530.5         15.396         51.756
         3531.0         13.745         51.619
         3531.5         13.414         51.481
         3532.0         13.171         51.343
         3532.5         12.929         51.205
         3533.0         12.686         51.013
         3533.5         12.444         50.777
         3534.0         12.201         50.541
         3534.5         11.959         50.334
         3535.0         11.662         50.401
         3535.5         11.276         50.468
         3536.0         10.889         50.535
         3536.5         10.503         50.445
         3537.0         10.116         50.317
         3537.5          9.750         50.188
         3538.0          9.453         50.116
         3538.5          9.156         50.154
         3539.0          8.858         50.192
         3539.5          8.561         50.230
         3540.0          8.305         50.268
         3540.5          8.517         50.302
         3541.0          8.729         50.334
         3541.5          8.941         50.367
         3542.0          8.719         50.399
         3542.5          7.981         50.416
         3543.0          7.244         50.395
         3543.5          6.506         50.374
