#--------------------------------------------------#
#-------------------ENVERUS, INC.------------------#
#------------------WWW.ENVERUS.COM-----------------#
#------------------COPYRIGHT 2020------------------#
#--------------------------------------------------#
#THIS FILE MAY BE USED ONLY IN ACCORDANCE WITH A CURRENT SUBSCRIPTION AGREEMENT BETWEEN
#THE USER AND ENVERUS, INC. NO PART OF THIS FILE MAY BE REPRODUCED, USED, COPIED,
#MODIFIED, PROPAGATED, OR DISTRIBUTED EXCEPT IN ACCORDANCE WITH THE SUBSCRIPTION
#AGREEMENT. UNAUTHORIZED USE OR DISTRIBUTION OF ALL OR ANY PART OF THIS FILE MAY VIOLATE
#COPYRIGHT, TRADEMARK, AND/OR OTHER LAWS AND IS SUBJECT TO CIVIL AS WELL AS CRIMINAL
#SANCTIONS.
#--------------------------------------------------#
#THIS FILE IS PROVIDED "AS-IS" AND ALL WARRANTIES ARE EXPRESSLY DISCLAIMED, WHETHER
#EXPRESS, ORAL, IMPLIED, STATUTORY OR OTHERWISE, INCLUDING ANY IMPLIED WARRANTY OF FITNESS
#FOR A PARTICULAR PURPOSE, MERCHANTABILITY, TITLE OR NON-INFRINGEMENT, AND ANY WARRANTIES
#ARISING BY VIRTUE OF CUSTOM OF TRADE OR COURSE OF DEALING.  FURTHER, ENVERUS, INC.
#AND ITS LICENSORS DO NOT REPRESENT OR WARRANT THAT THIS FILE WILL MEET USER'S
#REQUIREMENTS OR ARE SUITABLE FOR USER'S NEEDS OR THAT THE DATA OR RESULTS PROVIDED IN
#CONJUNCTION THEREWITH ARE CORRECT, ACCURATE, TIMELY OR RELIABLE. THESE DISCLAIMERS SHALL
#APPLY REGARDLESS OF ANY FAILURE OF ESSENTIAL PURPOSE OF ANY LIMITED REMEDY.  SOME
#JURISDICTIONS DO NOT ALLOW THE EXCLUSION OF CERTAIN WARRANTIES SO SOME OF THE ABOVE
#EXCLUSIONS MAY NOT APPLY. IN NO EVENT SHALL ENVERUS, INC. OR ANY OF ITS AFFILIATES
#BE LIABLE UNDER ANY LEGAL THEORY, WHETHER IN TORT (INCLUDING WITHOUT LIMITATION
#NEGLIGENCE), CONTRACT, STRICT LIABILITY, STATUTORY OR OTHERWISE, FOR ANY SPECIAL,
#INCIDENTAL, CONSEQUENTIAL, EXEMPLARY, PUNITIVE OR INDIRECT DAMAGE OF ANY KIND, INCLUDING
#WITHOUT LIMITATION LOSS OF REVENUE, PROFITS, GOODWILL, USE, AND/OR DATA OR THE COST OF
#PROCUREMENT OF SUBSTITUTE GOODS OR SERVICES, EVEN IF APPRISED OF THE POSSIBILITY OF SUCH
#DAMAGES IN ADVANCE.
#--------------------------------------------------#

~VERSION INFORMATION
VERS. 2.0 : CWLS LOG ASCII STANDARD - VERSION 2.0
WRAP.  NO : ONE LINE PER DEPTH STEP
~WELL INFORMATION
#MNEMONIC     .UNIT              VALUE :DESCRIPTION
STRT       .FT                86 :START DEPTH
STOP       .FT                5215 :STOP DEPTH
STEP       .FT                   0.500 :STEP
NULL       .                  -999.990 :NULL
UWI        .              42389101440000 :UNIQUE WELL ID
API        .              42389101440000 :API NUMBER
COMP       .         :COMPANY
WELL       .         1, :WELL
DATE       .                            :LOG DATE
~CURVE INFORMATION
#MNEMONIC     .UNIT      API CODE :CURVE DESCRIPTION
DEPTH       .FT                      :MEASURED DEPTH
DT.US/FT        UNKNOWN   :DT
GR.API        UNKNOWN   :GR
~A    DEPTH    DT    GR
 86     -999.990   31.82
 86.5     -999.990   31.065
 87     -999.990   30.1
 87.5     -999.990   30.37
 88     -999.990   31.457
 88.5     -999.990   32.543
 89     -999.990   30.982
 89.5     -999.990   28.757
 90     -999.990   27.063
 90.5     -999.990   26.177
 91     -999.990   25.335
 91.5     -999.990   26.5
 92     -999.990   27.664
 92.5     -999.990   28.829
 93     -999.990   28.286
 93.5     -999.990   27.182
 94     -999.990   28.103
 94.5     -999.990   29.386
 95     -999.990   30.668
 95.5     -999.990   30.502
 96     -999.990   29.918
 96.5     -999.990   32.754
 97     -999.990   35.591
 97.5     -999.990   38.428
 98     -999.990   36.132
 98.5     -999.990   33.44
 99     -999.990   32.905
 99.5     -999.990   34.387
 100     -999.990   35.869
 100.5     -999.990   37.351
 101     -999.990   35.23
 101.5     -999.990   32.152
 102     -999.990   30.504
 102.5     -999.990   31.275
 103     -999.990   32.046
 103.5     -999.990   32.817
 104     -999.990   33.588
 104.5     -999.990   30.564
 105     -999.990   25.799
 105.5     -999.990   25.364
 106     -999.990   26.587
 106.5     -999.990   27.81
 107     -999.990   26.722
 107.5     -999.990   25.439
 108     -999.990   26.601
 108.5     -999.990   29.85
 109     -999.990   33.1
 109.5     -999.990   35.25
 110     -999.990   37.095
 110.5     -999.990   35.574
 111     -999.990   33.778
 111.5     -999.990   32.147
 112     -999.990   33.434
 112.5     -999.990   34.72
 113     -999.990   36.007
 113.5     -999.990   37.293
 114     -999.990   38.58
 114.5     -999.990   39.866
 115     -999.990   41.635
 115.5     -999.990   43.41
 116     -999.990   44.214
 116.5     -999.990   41.058
 117     -999.990   38.875
 117.5     -999.990   39.442
 118     -999.990   40.009
 118.5     -999.990   35.612
 119     -999.990   37.105
 119.5     -999.990   38.551
 120     -999.990   33.877
 120.5     -999.990   29.203
 121     -999.990   26.751
 121.5     -999.990   25.626
 122     -999.990   25.061
 122.5     -999.990   26.192
 123     -999.990   27.323
 123.5     -999.990   28.454
 124     -999.990   29.383
 124.5     -999.990   25.717
 125     -999.990   24.829
 125.5     -999.990   25.914
 126     -999.990   27
 126.5     -999.990   28.085
 127     -999.990   29.171
 127.5     -999.990   30.256
 128     -999.990   26.981
 128.5     -999.990   23.591
 129     -999.990   25.355
 129.5     -999.990   31.278
 130     -999.990   32.388
 130.5     -999.990   31.903
 131     -999.990   32.168
 131.5     -999.990   33.638
 132     -999.990   34.992
 132.5     -999.990   34.266
 133     -999.990   33.539
 133.5     -999.990   34.53
 134     -999.990   36.322
 134.5     -999.990   38.114
 135     -999.990   39.905
 135.5     -999.990   38.721
 136     -999.990   37.636
 136.5     -999.990   40.248
 137     -999.990   39.71
 137.5     -999.990   37.619
 138     -999.990   35.528
 138.5     -999.990   33.437
 139     -999.990   33.769
 139.5     -999.990   34.58
 140     -999.990   34.474
 140.5     -999.990   33.418
 141     -999.990   32.363
 141.5     -999.990   31.307
 142     -999.990   30.858
 142.5     -999.990   30.682
 143     -999.990   30.507
 143.5     -999.990   30.882
 144     -999.990   32.142
 144.5     -999.990   33.402
 145     -999.990   34.662
 145.5     -999.990   35.922
 146     -999.990   35.556
 146.5     -999.990   30.232
 147     -999.990   24.907
 147.5     -999.990   19.583
 148     -999.990   19.099
 148.5     -999.990   19.774
 149     -999.990   20.45
 149.5     -999.990   19.654
 150     -999.990   18.847
 150.5     -999.990   18.041
 151     -999.990   20.34
 151.5     -999.990   24.15
 152     -999.990   27.96
 152.5     -999.990   32.823
 153     -999.990   31.96
 153.5     -999.990   31.096
 154     -999.990   30.233
 154.5     -999.990   30.809
 155     -999.990   32.031
 155.5     -999.990   32.281
 156     -999.990   30.759
 156.5     -999.990   29.236
 157     -999.990   30.376
 157.5     -999.990   31.598
 158     -999.990   31.132
 158.5     -999.990   29.689
 159     -999.990   29.471
 159.5     -999.990   32.926
 160     -999.990   24.061
 160.5     -999.990   18.145
 161     -999.990   21.646
 161.5     -999.990   25.146
 162     -999.990   28.646
 162.5     -999.990   31.969
 163     -999.990   34.578
 163.5     -999.990   33.72
 164     -999.990   32.053
 164.5     -999.990   30.386
 165     -999.990   30.422
 165.5     -999.990   31.75
 166     -999.990   34.125
 166.5     -999.990   36.499
 167     -999.990   38.874
 167.5     -999.990   39.613
 168     -999.990   37.461
 168.5     -999.990   35.309
 169     -999.990   38.229
 169.5     -999.990   39.683
 170     -999.990   30.479
 170.5     -999.990   32.528
 171     -999.990   34.577
 171.5     -999.990   36.627
 172     -999.990   38.676
 172.5     -999.990   35.934
 173     -999.990   32.771
 173.5     -999.990   29.709
 174     -999.990   30.872
 174.5     -999.990   32.035
 175     -999.990   33.198
 175.5     -999.990   29.469
 176     -999.990   28.663
 176.5     -999.990   27.856
 177     -999.990   27.05
 177.5     -999.990   27.999
 178     -999.990   30.909
 178.5     -999.990   32.336
 179     -999.990   33.763
 179.5     -999.990   35.19
 180     -999.990   31.331
 180.5     -999.990   29.931
 181     -999.990   31.447
 181.5     -999.990   32.963
 182     -999.990   32.605
 182.5     -999.990   30.707
 183     -999.990   28.809
 183.5     -999.990   26.912
 184     -999.990   27.36
 184.5     -999.990   28.693
 185     -999.990   30.026
 185.5     -999.990   31.36
 186     -999.990   32.693
 186.5     -999.990   32.11
 187     -999.990   30.18
 187.5     -999.990   28.249
 188     -999.990   27.754
 188.5     -999.990   27.819
 189     -999.990   27.884
 189.5     -999.990   31.055
 190     -999.990   34.602
 190.5     -999.990   38.149
 191     -999.990   39.757
 191.5     -999.990   40.405
 192     -999.990   40.408
 192.5     -999.990   39.053
 193     -999.990   37.699
 193.5     -999.990   36.344
 194     -999.990   35.309
 194.5     -999.990   34.575
 195     -999.990   33.841
 195.5     -999.990   33.107
 196     -999.990   32.374
 196.5     -999.990   32.197
 197     -999.990   33.315
 197.5     -999.990   33.592
 198     -999.990   32.749
 198.5     -999.990   31.905
 199     -999.990   31.062
 199.5     -999.990   30.219
 200     -999.990   32.366
 200.5     -999.990   34.219
 201     -999.990   32.864
 201.5     -999.990   31.509
 202     -999.990   30.154
 202.5     -999.990   31.09
 203     -999.990   32.089
 203.5     -999.990   33.089
 204     -999.990   34.088
 204.5     -999.990   35.088
 205     -999.990   36.087
 205.5     -999.990   38.011
 206     -999.990   40.058
 206.5     -999.990   42.105
 207     -999.990   36.333
 207.5     -999.990   35.854
 208     -999.990   35.375
 208.5     -999.990   34.896
 209     -999.990   34.417
 209.5     -999.990   33.939
 210     -999.990   38.969
 210.5     -999.990   38.89
 211     -999.990   34.348
 211.5     -999.990   33.01
 212     -999.990   31.672
 212.5     -999.990   31.014
 213     -999.990   32.646
 213.5     -999.990   33.177
 214     -999.990   31.772
 214.5     -999.990   30.368
 215     -999.990   31.243
 215.5     -999.990   34.334
 216     -999.990   37.424
 216.5     -999.990   42.446
 217     -999.990   45.134
 217.5     -999.990   42.612
 218     -999.990   40.09
 218.5     -999.990   37.568
 219     -999.990   35.389
 219.5     -999.990   39.112
 220     -999.990   40.555
 220.5     -999.990   40.89
 221     -999.990   41.225
 221.5     -999.990   39.079
 222     -999.990   36.491
 222.5     -999.990   33.981
 223     -999.990   31.476
 223.5     -999.990   28.972
 224     -999.990   30.399
 224.5     -999.990   33.517
 225     -999.990   31.993
 225.5     -999.990   30.469
 226     -999.990   31.789
 226.5     -999.990   33.73
 227     -999.990   31.665
 227.5     -999.990   29.42
 228     -999.990   27.174
 228.5     -999.990   25.45
 229     -999.990   27.149
 229.5     -999.990   28.849
 230     -999.990   30.594
