#--------------------------------------------------#
#-------------------ENVERUS, INC.------------------#
#------------------WWW.ENVERUS.COM-----------------#
#------------------COPYRIGHT 2020------------------#
#--------------------------------------------------#
#THIS FILE MAY BE USED ONLY IN ACCORDANCE WITH A CURRENT SUBSCRIPTION AGREEMENT BETWEEN
#THE USER AND ENVERUS, INC. NO PART OF THIS FILE MAY BE REPRODUCED, USED, COPIED,
#MODIFIED, PROPAGATED, OR DISTRIBUTED EXCEPT IN ACCORDANCE WITH THE SUBSCRIPTION
#AGREEMENT. UNAUTHORIZED USE OR DISTRIBUTION OF ALL OR ANY PART OF THIS FILE MAY VIOLATE
#COPYRIGHT, TRADEMARK, AND/OR OTHER LAWS AND IS SUBJECT TO CIVIL AS WELL AS CRIMINAL
#SANCTIONS.
#--------------------------------------------------#
#THIS FILE IS PROVIDED "AS-IS" AND ALL WARRANTIES ARE EXPRESSLY DISCLAIMED, WHETHER
#EXPRESS, ORAL, IMPLIED, STATUTORY OR OTHERWISE, INCLUDING ANY IMPLIED WARRANTY OF FITNESS
#FOR A PARTICULAR PURPOSE, MERCHANTABILITY, TITLE OR NON-INFRINGEMENT, AND ANY WARRANTIES
#ARISING BY VIRTUE OF CUSTOM OF TRADE OR COURSE OF DEALING.  FURTHER, ENVERUS, INC.
#AND ITS LICENSORS DO NOT REPRESENT OR WARRANT THAT THIS FILE WILL MEET USER'S
#REQUIREMENTS OR ARE SUITABLE FOR USER'S NEEDS OR THAT THE DATA OR RESULTS PROVIDED IN
#CONJUNCTION THEREWITH ARE CORRECT, ACCURATE, TIMELY OR RELIABLE. THESE DISCLAIMERS SHALL
#APPLY REGARDLESS OF ANY FAILURE OF ESSENTIAL PURPOSE OF ANY LIMITED REMEDY.  SOME
#JURISDICTIONS DO NOT ALLOW THE EXCLUSION OF CERTAIN WARRANTIES SO SOME OF THE ABOVE
#EXCLUSIONS MAY NOT APPLY. IN NO EVENT SHALL ENVERUS, INC. OR ANY OF ITS AFFILIATES
#BE LIABLE UNDER ANY LEGAL THEORY, WHETHER IN TORT (INCLUDING WITHOUT LIMITATION
#NEGLIGENCE), CONTRACT, STRICT LIABILITY, STATUTORY OR OTHERWISE, FOR ANY SPECIAL,
#INCIDENTAL, CONSEQUENTIAL, EXEMPLARY, PUNITIVE OR INDIRECT DAMAGE OF ANY KIND, INCLUDING
#WITHOUT LIMITATION LOSS OF REVENUE, PROFITS, GOODWILL, USE, AND/OR DATA OR THE COST OF
#PROCUREMENT OF SUBSTITUTE GOODS OR SERVICES, EVEN IF APPRISED OF THE POSSIBILITY OF SUCH
#DAMAGES IN ADVANCE.
#--------------------------------------------------#

~VERSION INFORMATION
VERS. 2.0 : CWLS LOG ASCII STANDARD - VERSION 2.0
WRAP.  NO : ONE LINE PER DEPTH STEP
~WELL INFORMATION
#MNEMONIC     .UNIT              VALUE :DESCRIPTION
STRT       .FT                2 :START DEPTH
STOP       .FT                6341 :STOP DEPTH
STEP       .FT                   0.500 :STEP
NULL       .                  -999.990 :NULL
UWI        .              42389104050000 :UNIQUE WELL ID
API        .              42389104050000 :API NUMBER
COMP       .         ENDEAVOR ENERGY RESOURCES L.P. :COMPANY
WELL       .        TXL REEVES STATE UNIT  2 :WELL
DATE       .                            :LOG DATE
~CURVE INFORMATION
#MNEMONIC     .UNIT      API CODE :CURVE DESCRIPTION
DEPTH       .FT                      :MEASURED DEPTH
GR.API        UNKNOWN   :GR
DT.US/FT        UNKNOWN   :DT
~A    DEPTH    GR    DT
# ...
 2444.5     37.03   60.594
 2445     42.719   62.795
 2445.5     38.916   64.996
 2446     28.959   67.197
 2446.5     19.001   68.969
 2447     9.043   68.953
 2447.5     4.489   68.937
 2448     4.148   68.921
 2448.5     3.904   68.905
 2449     3.899   68.89
 2449.5     3.894   68.649
 2450     3.889   68.366
 2450.5     3.851   68.083
 2451     3.536   67.801
 2451.5     3.221   67.518
 2452     2.906   67.236
 2452.5     2.591   66.953
 2453     2.322   66.718
 2453.5     2.258   66.945
 2454     2.194   67.171
 2454.5     2.13   67.398
 2455     2.066   67.625
 2455.5     2.002   67.851
 2456     1.938   68.078
 2456.5     2.141   68.305
 2457     2.448   68.532
 2457.5     2.755   68.758
 2458     2.519   68.985
 2458.5     2.009   69.073
 2459     1.499   69.034
 2459.5     0.988   68.996
 2460     0.849   68.957
 2460.5     1.066   68.919
 2461     1.283   68.683
 2461.5     1.501   68.432
 2462     1.718   68.182
 2462.5     1.935   67.931
 2463     2.153   67.681
 2463.5     2.37   67.43
 2464     2.587   67.501
 2464.5     2.804   67.684
 2465     2.942   67.867
 2465.5     2.778   68.05
 2466     2.615   68.17
 2466.5     2.451   68.04
 2467     2.287   67.91
 2467.5     2.123   67.78
 2468     1.96   67.651
 2468.5     1.796   67.521
 2469     2.052   67.391
 2469.5     2.309   67.261
 2470     2.565   67.396
 2470.5     2.822   67.785
 2471     3.079   68.174
 2471.5     3.336   68.563
 2472     3.592   68.94
 2472.5     3.849   68.685
 2473     3.208   68.429
 2473.5     2.552   68.174
 2474     2.165   67.919
 2474.5     2.285   67.908
 2475     2.405   68.308
 2475.5     2.525   68.707
 2476     2.645   68.794
 2476.5     2.549   68.373
 2477     2.389   67.952
 2477.5     2.23   67.531
 2478     2.07   67.11
 2478.5     1.91   66.689
 2479     1.88   66.268
 2479.5     1.875   65.847
 2480     1.87   58.483
 2480.5     1.865   60.577
 2481     1.86   62.672
 2481.5     1.855   64.766
 2482     1.85   66.769
 2482.5     1.845   66.736
 2483     1.84   66.703
 2483.5     1.835   66.67
 2484     1.987   66.637
 2484.5     2.809   66.604
 2485     3.63   63.415
 2485.5     4.452   58.785
 2486     5.273   54.156
 2486.5     6.095   52.192
 2487     6.4   51.873
 2487.5     5.992   51.555
 2488     5.583   51.236
 2488.5     5.174   50.918
 2489     4.766   51.204
 2489.5     4.357   54.37
 2490     4.921   57.537
 2490.5     5.817   58.227
 2491     6.712   57.028
 2491.5     7.607   55.829
 2492     7.908   54.63
 2492.5     7.634   53.431
 2493     7.361   52.231
 2493.5     7.087   51.991
 2494     6.814   51.932
 2494.5     6.54   51.874
 2495     7.052   51.815
 2495.5     7.73   51.729
 2496     8.408   51.552
 2496.5     8.153   51.375
 2497     7.592   51.198
 2497.5     7.031   51.021
 2498     6.47   51.073
 2498.5     7.755   51.273
 2499     9.079   51.473
 2499.5     10.404   51.672
 2500     11.378   51.872
 2500.5     9.363   52.072
 2501     7.348   52.271
 2501.5     5.333   52.471
 2502     3.718   53.422
 2502.5     2.695   56.196
 2503     1.672   58.971
 2503.5     1.658   61.745
 2504     1.93   63.806
 2504.5     2.203   64.385
 2505     2.487   64.965
 2505.5     2.794   65.545
 2506     3.101   66.124
 2506.5     3.408   63.891
 2507     3.715   61.301
 2507.5     4.022   58.71
 2508     4.187   56.119
 2508.5     3.874   53.529
 2509     3.561   52.481
 2509.5     3.248   52.905
 2510     2.935   53.329
 2510.5     2.622   53.754
 2511     2.31   54.178
 2511.5     2.055   54.602
 2512     1.882   55.026
 2512.5     1.709   54.871
 2513     1.537   54.566
 2513.5     1.364   54.261
 2514     1.191   53.956
 2514.5     1.019   53.651
 2515     0.846   53.346
 2515.5     0.673   53.04
 2516     0.5   52.735
 2516.5     0.514   52.43
 2517     1.454   52.125
 2517.5     2.393   51.82
 2518     3.333   51.609
 2518.5     4.273   52.04
 2519     5.212   52.472
 2519.5     6.152   53.624
 2520     7.091   59.072
 2520.5     8.031   64.519
 2521     6.09   65.9
 2521.5     2.83   66.395
 2522     2.372   66.891
 2522.5     2.336   66.94
 2523     2.301   66.911
 2523.5     2.265   66.882
 2524     2.23   66.854
 2524.5     2.194   66.825
 2525     2.159   66.796
 2525.5     2.123   64.669
 2526     2.088   61.764
 2526.5     2.053   58.859
 2527     2.017   55.954
 2527.5     1.982   53.321
 2528     2.151   52.595
 2528.5     2.754   51.868
 2529     3.356   51.689
 2529.5     3.959   51.71
 2530     4.562   51.731
 2530.5     5.164   51.753
 2531     5.767   51.751
 2531.5     6.171   51.62
 2532     6.295   51.489
 2532.5     6.419   51.358
 2533     6.543   51.227
 2533.5     6.667   51.097
 2534     6.791   50.966
 2534.5     6.915   50.869
 2535     7.039   50.894
 2535.5     7.163   50.919
 2536     7.287   50.945
 2536.5     7.411   50.97
 2537     7.535   50.995
 2537.5     7.312   51.021
 2538     6.859   51.046
 2538.5     6.405   51.282
 2539     6.017   51.669
 2539.5     5.892   52.056
 2540     5.767   52.443
 2540.5     5.643   52.83
 2541     5.518   54.002
 2541.5     5.393   56.606
 2542     5.268   59.211
 2542.5     5.143   61.815
 2543     4.738   64.42
 2543.5     3.369   66.846
 2544     1.999   66.981
 2544.5     1.868   67.117
 2545     1.751   67.253
 2545.5     1.634   67.389
 2546     1.518   67.524
 2546.5     1.401   67.66
 2547     1.284   67.747
 2547.5     1.168   67.688
 2548     1.051   67.63
 2548.5     0.934   67.571
 2549     0.817   67.513
 2549.5     0.701   67.454
 2550     0.584   67.396
 2550.5     0.467   67.337
 2551     0.436   67.279
 2551.5     0.588   67.22
 2552     0.741   67.162
 2552.5     0.894   67.103
 2553     1.047   67.045
 2553.5     1.2   66.986
 2554     1.353   66.928
 2554.5     1.494   66.869
 2555     1.489   66.811
 2555.5     1.484   66.752
 2556     1.479   66.693
 2556.5     1.474   66.712
 2557     1.469   66.743
 2557.5     1.464   66.775
 2558     1.459   66.806
 2558.5     1.453   66.837
 2559     1.448   66.869
 2559.5     1.443   66.9
 2560     1.438   66.932
 2560.5     1.433   66.963
 2561     1.428   66.554
 2561.5     1.423   65.966
 2562     1.623   65.378
 2562.5     1.951   64.79
 2563     2.279   64.202
 2563.5     2.607   63.614
 2564     2.934   63.026
 2564.5     3.262   62.438
 2565     2.899   62.921
 2565.5     2.445   63.71
 2566     1.991   64.499
 2566.5     1.537   65.288
 2567     1.083   66.077
 2567.5     0.629   66.865
 2568     0.236   66.88
 2568.5     0.516   66.861
 2569     0.797   66.843
 2569.5     1.077   66.824
 2570     1.357   64.482
 2570.5     1.638   58.187
 2571     2.946   51.891
 2571.5     4.624   50.888
 2572     6.302   50.913
 2572.5     7.365   50.938
 2573     6.267   50.964
 2573.5     5.17   50.989
 2574     4.729   51.014
 2574.5     4.724   51.04
 2575     4.719   51.3
 2575.5     4.714   52.459
 2576     5.32   53.619
 2576.5     6.081   54.778
 2577     6.842   55.938
 2577.5     7.602   55.222
 2578     7.647   54.372
 2578.5     7.137   53.522
 2579     6.626   52.673
 2579.5     6.116   51.823
 2580     5.605   50.973
 2580.5     5.095   50.607
 2581     4.584   50.783
 2581.5     4.074   50.96
 2582     3.794   51.136
 2582.5     3.645   51.313
 2583     3.497   51.489
 2583.5     3.348   51.666
 2584     3.199   51.645
 2584.5     3.272   51.528
 2585     3.812   51.41
 2585.5     4.352   51.292
 2586     4.891   51.174
 2586.5     5.431   51.057
 2587     5.971   50.939
 2587.5     6.51   51.123
 2588     7.05   51.415
 2588.5     6.978   51.706
 2589     5.23   51.997
 2589.5     3.481   52.289
 2590     1.733   52.58
 2590.5     -0.016   52.516
 2591     -0.64   52.323
 2591.5     0.099   52.131
 2592     0.837   51.938
 2592.5     1.575   51.746
 2593     1.815   51.553
 2593.5     1.726   51.361
 2594     1.637   51.168
 2594.5     1.549   50.987
 2595     1.508   50.844
 2595.5     2.49   50.701
 2596     3.472   50.558
 2596.5     3.995   50.415
 2597     3.623   50.272
 2597.5     3.251   50.129
 2598     2.879   49.986
 2598.5     2.787   49.843
 2599     3.987   49.7
 2599.5     5.187   49.557
