#--------------------------------------------------#
#-------------------ENVERUS, INC.------------------#
#------------------WWW.ENVERUS.COM-----------------#
#------------------COPYRIGHT 2020------------------#
#--------------------------------------------------#
#THIS FILE MAY BE USED ONLY IN ACCORDANCE WITH A CURRENT SUBSCRIPTION AGREEMENT BETWEEN
#THE USER AND ENVERUS, INC. NO PART OF THIS FILE MAY BE REPRODUCED, USED, COPIED,
#MODIFIED, PROPAGATED, OR DISTRIBUTED EXCEPT IN ACCORDANCE WITH THE SUBSCRIPTION
#AGREEMENT. UNAUTHORIZED USE OR DISTRIBUTION OF ALL OR ANY PART OF THIS FILE MAY VIOLATE
#COPYRIGHT, TRADEMARK, AND/OR OTHER LAWS AND IS SUBJECT TO CIVIL AS WELL AS CRIMINAL
#SANCTIONS.
#--------------------------------------------------#
#THIS FILE IS PROVIDED "AS-IS" AND ALL WARRANTIES ARE EXPRESSLY DISCLAIMED, WHETHER
#EXPRESS, ORAL, IMPLIED, STATUTORY OR OTHERWISE, INCLUDING ANY IMPLIED WARRANTY OF FITNESS
#FOR A PARTICULAR PURPOSE, MERCHANTABILITY, TITLE OR NON-INFRINGEMENT, AND ANY WARRANTIES
#ARISING BY VIRTUE OF CUSTOM OF TRADE OR COURSE OF DEALING.  FURTHER, ENVERUS, INC.
#AND ITS LICENSORS DO NOT REPRESENT OR WARRANT THAT THIS FILE WILL MEET USER'S
#REQUIREMENTS OR ARE SUITABLE FOR USER'S NEEDS OR THAT THE DATA OR RESULTS PROVIDED IN
#CONJUNCTION THEREWITH ARE CORRECT, ACCURATE, TIMELY OR RELIABLE. THESE DISCLAIMERS SHALL
#APPLY REGARDLESS OF ANY FAILURE OF ESSENTIAL PURPOSE OF ANY LIMITED REMEDY.  SOME
#JURISDICTIONS DO NOT ALLOW THE EXCLUSION OF CERTAIN WARRANTIES SO SOME OF THE ABOVE
#EXCLUSIONS MAY NOT APPLY. IN NO EVENT SHALL ENVERUS, INC. OR ANY OF ITS AFFILIATES
#BE LIABLE UNDER ANY LEGAL THEORY, WHETHER IN TORT (INCLUDING WITHOUT LIMITATION
#NEGLIGENCE), CONTRACT, STRICT LIABILITY, STATUTORY OR OTHERWISE, FOR ANY SPECIAL,
#INCIDENTAL, CONSEQUENTIAL, EXEMPLARY, PUNITIVE OR INDIRECT DAMAGE OF ANY KIND, INCLUDING
#WITHOUT LIMITATION LOSS OF REVENUE, PROFITS, GOODWILL, USE, AND/OR DATA OR THE COST OF
#PROCUREMENT OF SUBSTITUTE GOODS OR SERVICES, EVEN IF APPRISED OF THE POSSIBILITY OF SUCH
#DAMAGES IN ADVANCE.
#--------------------------------------------------#

~VERSION INFORMATION
VERS. 2.0 : CWLS LOG ASCII STANDARD - VERSION 2.0
WRAP.  NO : ONE LINE PER DEPTH STEP
~WELL INFORMATION
#MNEMONIC     .UNIT              VALUE :DESCRIPTION
STRT       .FT                2 :START DEPTH
STOP       .FT                6341 :STOP DEPTH
STEP       .FT                   0.500 :STEP
NULL       .                  -999.990 :NULL
UWI        .              42389104050000 :UNIQUE WELL ID
API        .              42389104050000 :API NUMBER
COMP       .         ENDEAVOR ENERGY RESOURCES L.P. :COMPANY
WELL       .        TXL REEVES STATE UNIT  2 :WELL
DATE       .                            :LOG DATE
~CURVE INFORMATION
#MNEMONIC     .UNIT      API CODE :CURVE DESCRIPTION
DEPTH       .FT                      :MEASURED DEPTH
GR.API        UNKNOWN   :GR
DT.US/FT        UNKNOWN   :DT
~A    DEPTH    GR    DT
# ...
 752.5     66.117   90.518
 753     67.479   90.011
 753.5     68.15   89.505
 754     67.406   89.647
 754.5     66.662   90.15
 755     65.917   90.652
 755.5     65.173   91.154
 756     64.429   91.657
 756.5     63.991   92.159
 757     64.725   92.662
 757.5     65.459   93.164
 758     66.193   93.666
 758.5     66.851   94.169
 759     65.708   94.268
 759.5     64.564   94.106
 760     63.421   92.082
 760.5     62.278   86.358
 761     61.267   83.399
 761.5     62.63   85.276
 762     63.992   87.153
 762.5     65.354   89.029
 763     66.717   90.906
 763.5     67.8   92.782
 764     67.304   92.267
 764.5     66.808   90.927
 765     66.311   89.587
 765.5     65.815   88.248
 766     65.319   86.908
 766.5     63.504   85.568
 767     59.883   84.228
 767.5     56.261   82.888
 768     54.112   81.352
 768.5     52.628   79.717
 769     52.723   78.082
 769.5     55.368   76.447
 770     58.013   76.041
 770.5     60.658   78.673
 771     63.303   81.305
 771.5     65.948   83.937
 772     66.976   86.569
 772.5     65.574   87.524
 773     64.008   85.68
 773.5     60.868   83.835
 774     57.728   81.991
 774.5     54.588   80.147
 775     51.448   78.303
 775.5     49.6   76.459
 776     49.487   74.966
 776.5     49.374   76.261
 777     49.261   77.556
 777.5     49.149   78.851
 778     49.591   80.146
 778.5     50.647   81.44
 779     51.704   82.735
 779.5     52.76   83.973
 780     53.816   84.605
 780.5     54.873   83.319
 781     55.929   82.095
 781.5     56.985   83.263
 782     57.843   85.097
 782.5     57.658   87.725
 783     57.473   90.353
 783.5     57.137   92.98
 784     55.591   93.157
 784.5     54.045   89.203
 785     52.705   85.25
 785.5     56.925   81.296
 786     61.145   84.517
 786.5     65.365   88.399
 787     68.859   92.282
 787.5     70.89   94.09
 788     72.921   94.114
 788.5     73.298   94.138
 789     70.268   94.162
 789.5     67.238   92.784
 790     64.208   90.891
 790.5     61.272   88.998
 791     59.951   87.104
 791.5     58.631   86.413
 792     60.882   87.764
 792.5     64.312   89.114
 793     67.742   90.465
 793.5     71.037   91.816
 794     69.642   93.167
 794.5     68.247   94.518
 795     66.851   95.869
 795.5     65.456   94.243
 796     57.881   89.591
 796.5     48.789   84.938
 797     42.588   80.286
 797.5     41.25   75.793
 798     39.913   71.614
 798.5     38.575   72.712
 799     40.027   73.81
 799.5     43.918   74.908
 800     47.809   76.005
 800.5     48.311   77.103
 801     48.584   78.201
 801.5     48.856   79.299
 802     49.129   80.397
 802.5     49.401   81.143
 803     52.199   81.383
 803.5     55.005   81.622
 804     57.806   81.861
 804.5     59.998   82.1
 805     62.189   84.287
 805.5     64.381   86.917
 806     66.572   89.548
 806.5     68.763   92.179
 807     70.955   94.809
 807.5     68.786   96.86
 808     66.617   95.087
 808.5     64.447   93.313
 809     62.458   91.54
 809.5     61.575   89.767
 810     60.693   87.993
 810.5     59.81   85.839
 811     58.928   82.735
 811.5     58.045   82.145
 812     57.163   81.937
 812.5     57.116   81.729
 813     59.582   81.522
 813.5     62.049   81.314
 814     64.516   84.802
 814.5     66.982   91.18
 815     67.39   91.382
 815.5     64.402   89.821
 816     61.414   88.26
 816.5     58.426   86.699
 817     55.901   85.944
 817.5     57.202   86.561
 818     58.503   87.179
 818.5     59.803   87.796
 819     61.104   88.846
 819.5     62.404   90.313
 820     61.615   91.781
 820.5     60.376   93.249
 821     59.137   93.64
 821.5     60.129   93.226
 822     61.852   92.812
 822.5     63.576   92.398
 823     65.299   91.984
 823.5     63.645   91.57
 824     61.949   91.156
 824.5     60.253   90.721
 825     58.558   89.668
 825.5     56.862   88.614
 826     55.166   87.561
 826.5     53.471   86.507
 827     51.775   85.453
 827.5     51.07   84.4
 828     50.465   83.346
 828.5     49.86   82.293
 829     49.255   83.356
 829.5     48.651   84.801
 830     48.046   86.245
 830.5     47.441   87.689
 831     46.836   89.133
 831.5     46.4   90.577
 832     47.188   90.638
 832.5     47.977   89.617
 833     48.765   88.597
 833.5     49.554   87.576
 834     50.342   86.556
 834.5     51.065   86.177
 835     50.734   87.006
 835.5     50.403   87.834
 836     50.073   88.663
 836.5     49.742   89.491
 837     49.411   90.32
 837.5     49.081   89.415
 838     48.399   88.369
 838.5     46.261   87.323
 839     44.122   86.277
 839.5     41.983   85.231
 840     41.102   84.185
 840.5     40.705   83.138
 841     40.308   82.092
 841.5     39.91   81.046
 842     40.367   80
 842.5     40.91   78.954
 843     41.454   77.908
 843.5     41.997   76.861
 844     42.541   77.171
 844.5     41.681   78.802
 845     40.787   80.434
 845.5     39.893   82.065
 846     39.622   83.697
 846.5     42.907   85.328
 847     46.192   86.959
 847.5     48.448   88.591
 848     49.814   90.222
 848.5     51.18   91.669
 849     52.545   90.333
 849.5     51.821   88.997
 850     50.44   87.661
 850.5     49.059   86.325
 851     47.678   84.989
 851.5     46.297   83.653
 852     45.799   82.317
 852.5     46.696   84.505
 853     47.592   88.627
 853.5     48.489   92.75
 854     46.369   96.268
 854.5     44.182   98.565
 855     43.126   100.862
 855.5     44.984   103.159
 856     46.776   105.455
 856.5     45.289   107.752
 857     43.802   109.098
 857.5     44.76   110.112
 858     46.688   111.126
 858.5     45.357   112.139
 859     43.38   110.489
 859.5     42.284   108.374
 860     46.707   106.26
 860.5     50.073   104.145
 861     50.767   102.03
 861.5     51.461   99.916
 862     51.641   97.801
 862.5     50.276   96.962
 863     48.912   97.109
 863.5     48.102   97.256
 864     49.79   97.402
 864.5     51.478   97.549
 865     53.166   97.695
 865.5     50.519   97.842
 866     46.715   97.064
 866.5     42.911   95.879
 867     40.741   94.694
 867.5     42.699   93.509
 868     44.656   92.324
 868.5     44.237   91.139
 869     42.539   89.954
 869.5     40.842   88.769
 870     42.594   87.584
 870.5     44.496   87.31
 871     46.398   99.352
 871.5     48.299   101.07
 872     48.456   102.788
 872.5     46.409   103.881
 873     44.362   104.641
 873.5     45.008   105.401
 874     46.577   106.16
 874.5     48.146   105.733
 875     49.715   104.992
 875.5     46.888   104.251
 876     43.937   103.51
 876.5     41.628   102.769
 877     41.131   102.027
 877.5     40.634   101.286
 878     40.137   100.545
 878.5     39.639   99.804
 879     39.142   99.063
 879.5     38.645   98.322
 880     38.148   97.581
 880.5     37.651   96.724
 881     37.154   93.1
 881.5     36.657   89.477
 882     36.16   86.783
 882.5     35.663   88.332
 883     36.133   89.882
 883.5     39.065   91.432
 884     41.997   92.981
 884.5     44.249   94.531
 885     44.821   96.081
 885.5     45.392   97.154
 886     45.964   95.254
 886.5     46.536   93.353
 887     47.108   91.453
 887.5     47.37   89.552
 888     47.423   87.651
 888.5     47.475   85.751
 889     47.528   83.85
 889.5     48.403   82.053
 890     49.497   83.693
 890.5     52.075   85.334
 891     56.028   86.974
 891.5     59.981   88.382
 892     57.334   88.018
 892.5     54.059   87.654
 893     50.784   87.29
 893.5     47.508   86.926
 894     45.372   86.562
 894.5     46.483   86.199
 895     47.595   85.835
 895.5     48.706   85.471
 896     49.817   87.231
 896.5     50.929   89.55
 897     51.277   91.868
 897.5     51.085   94.186
 898     50.893   89.444
 898.5     50.7   86.235
 899     50.508   83.027
 899.5     50.316   79.818
 900     50.124   76.61
 900.5     46.735   73.401
 901     42.14   70.192
 901.5     37.545   66.984
 902     32.95   63.775
 902.5     28.295   60.567
 903     22.167   57.358
 903.5     16.039   54.15
 904     9.911   50.941
 904.5     3.783   50.454
 905     -0.323   50.585
 905.5     0.035   50.715
 906     0.393   50.846
 906.5     0.751   50.977
 907     1.109   51.108
