###############################################
##         ENVERUS                           ##
##         ESS - Open Hole                   ##
##         PERMIAN / DELAWARE                ##
##         Nov 04 2023  V4.0                 ##
##         42-371-32680-00-00                ##
###############################################
## Copyright 2017-2023  ENVERUS.  All Rights Reserved. 
## Confidential - Property of ENVERUS, use governed by terms and 
## conditions found within the existing Information Services Subscription Agreement 
## (as may be amended, the “ISSA”) between Customer and ENVERUS. 
## 
~VERSION INFORMATION
# MNEM.UNIT                               DATA : DESCRIPTION OF MNEMONIC
#-----.-----     ----------------------------- : -----------------------------
VERS.                                     2.00 : CWLS LOG ASCII STANDARD - VERSION 2.00
WRAP.                                       NO : MULTIPLE LINES PER DEPTH STEP
VEND.                                  ENVERUS : VENDOR
TYPE.                          ESS - OPEN HOLE : ENVERUS ESSENTIAL CURVES – ACCESSIBLE THROUGH ENVERUS PRISM(TM)
DOC.                                  31991434 : ENVERUS HEADER RAW DOCUMENT ID
#___________________________________________________________________________________________________ 
~WELL INFORMATION 
# uAv5E/S3ZwrMaovXfwZJbnQ+z8RwnTA5GIEFL0LfM7mdkMX/8iXP+LiYgCnT3sJm4ejuYgXNUZeSPI/Yhcow4w== 
# MNEM.UNIT                                              DATA : DESCRIPTION OF MNEMONIC 
#-----.-----                    ----------------------------- : ----------------------------- 
CNTY.                                                   PECOS : COUNTY 
STATE.                                                  TEXAS : STATE 
CNTRY.                                                    USA : COUNTRY 
API.                                             42-371-32680 : API (10 Digit) 
API_14.                                    42-371-32680-00-00 : API (14 Digits) 
API_14_std.                                 42-371-32680-0000 : API (14 Digits Standard) 
UWI.                                           42371326800000 : UNIQUE WELL ID 
WELL.                                     MARALO - STEWART  1 : WELL NAME
STRT.FT                                                  21.0 : START DEPTH
STOP.FT                                               21630.0 : STOP DEPTH
STEP.FT                                                   0.5 : STEP BETWEEN DEPTHS
NULL.                                                 -999.25 : NULL VALUE
COMP.                                            MARALO, INC. : COMPANY 
DATE.                                             11-DEC-1978 : LOG DATE
#___________________________________________________________________________________________________ 
~CURVE INFORMATION 
# MNEM.UNIT           : CURVE DESCRIPTION 
#-----.-----          : ----------------------------- 
 DEPT.FT               : MEASURED DEPTH 
 GR__D.API             : GAMMA RAY (GR) 
 DT__D.US/FT           : SONIC DELTA TRANSIT TIME (DT) 
 RESD__D.OHMM          : DEEP INDUCTION RESISTIVITY (ILD - ILD) 
 #___________________________________________________________________________________________________ 
~A         DEPT          GR__D          DT__D        RESD__D
# ...
        11703.0         43.045         73.885       -999.250
        11703.5         41.224         74.480       -999.250
        11704.0         38.798         75.714       -999.250
        11704.5         36.346         79.002       -999.250
        11705.0         33.895         82.566       -999.250
        11705.5         31.443         86.042       -999.250
        11706.0         34.510         87.851       -999.250
        11706.5         39.390         85.471       -999.250
        11707.0         41.924         83.091       -999.250
        11707.5         39.919         79.965       -999.250
        11708.0         37.915         76.302       -999.250
        11708.5         35.910         72.639       -999.250
        11709.0         33.906         70.992       -999.250
        11709.5         31.901         70.367       -999.250
        11710.0         33.539         71.512       -999.250
        11710.5         36.747         72.699       -999.250
        11711.0         39.955         73.627       -999.250
        11711.5         43.163         73.540       -999.250
        11712.0         41.497         73.137       -999.250
        11712.5         39.255         72.853       -999.250
        11713.0         37.013         73.722       -999.250
        11713.5         34.771         76.055       -999.250
        11714.0         32.529         85.528       -999.250
        11714.5         30.287         91.443       -999.250
        11715.0         35.099         93.447       -999.250
        11715.5         41.393         90.491       -999.250
        11716.0         40.348         86.488       -999.250
        11716.5         37.435         80.107       -999.250
        11717.0         34.521         73.220       -999.250
        11717.5         31.608         71.436       -999.250
        11718.0         30.371         69.108       -999.250
        11718.5         30.684         66.614       -999.250
        11719.0         30.997         66.074       -999.250
        11719.5         33.479         68.265       -999.250
        11720.0         36.725         70.456       -999.250
        11720.5         39.970         79.715       -999.250
        11721.0         43.216         81.598       -999.250
        11721.5         46.462         83.572       -999.250
        11722.0         49.708         82.696       -999.250
        11722.5         48.733         81.158       -999.250
        11723.0         46.144         76.191       -999.250
        11723.5         43.555         72.740       -999.250
        11724.0         40.965         71.171       -999.250
        11724.5         38.376         69.892       -999.250
        11725.0         35.787         71.350       -999.250
        11725.5         33.198         73.607       -999.250
        11726.0         36.128         78.369       -999.250
        11726.5         40.357         83.144       -999.250
        11727.0         44.587         88.630       -999.250
        11727.5         48.816         87.042       -999.250
        11728.0         53.046         82.079       -999.250
        11728.5         45.359         76.708       -999.250
        11729.0         36.178         67.074       -999.250
        11729.5         32.259         63.613       -999.250
        11730.0         37.739         62.817       -999.250
        11730.5         43.218         64.139       -999.250
        11731.0         43.355         65.555       -999.250
        11731.5         41.064         65.383       -999.250
        11732.0         38.773         65.210       -999.250
        11732.5         36.482         65.403       -999.250
        11733.0         34.191         67.953       -999.250
        11733.5         36.586         72.704       -999.250
        11734.0         40.545         78.282       -999.250
        11734.5         44.503         80.327       -999.250
        11735.0         46.099         78.348       -999.250
        11735.5         43.130         74.934       -999.250
        11736.0         40.161         70.504       -999.250
        11736.5         37.192         67.855       -999.250
        11737.0         34.223         67.457       -999.250
        11737.5         33.084         73.708       -999.250
        11738.0         36.759         79.298       -999.250
        11738.5         40.434         82.158       -999.250
        11739.0         44.109         81.949       -999.250
        11739.5         43.287         78.687       -999.250
        11740.0         41.595         73.640       -999.250
        11740.5         39.903         70.440       -999.250
        11741.0         38.591         67.076       -999.250
        11741.5         40.173         68.068       -999.250
        11742.0         41.756         70.012       -999.250
        11742.5         43.090         71.796       -999.250
        11743.0         42.585         72.750       -999.250
        11743.5         42.080         71.126       -999.250
        11744.0         41.575         68.715       -999.250
        11744.5         41.070         66.123       -999.250
        11745.0         40.564         63.041       -999.250
        11745.5         34.117         63.021       -999.250
        11746.0         34.163         65.139       -999.250
        11746.5         36.357         67.272       -999.250
        11747.0         37.920         68.238       -999.250
        11747.5         36.537         66.231       -999.250
        11748.0         35.155         63.918       -999.250
        11748.5         33.772         62.349       -999.250
        11749.0         41.533         65.027       -999.250
        11749.5         50.711         69.288       -999.250
        11750.0         57.931         73.690       -999.250
        11750.5         56.071         77.835       -999.250
        11751.0         54.212         81.182       -999.250
        11751.5         54.113         80.454       -999.250
        11752.0         55.394         78.771       -999.250
        11752.5         56.676         77.666       -999.250
        11753.0         57.957         80.442       -999.250
        11753.5         59.239         83.888       -999.250
        11754.0         60.520         86.649       -999.250
        11754.5         62.569         87.450       -999.250
        11755.0         65.382         87.649       -999.250
        11755.5         67.129         87.158       -999.250
        11756.0         65.768         86.578       -999.250
        11756.5         64.406         85.997       -999.250
        11757.0         63.045         79.721       -999.250
        11757.5         61.683         78.298       -999.250
        11758.0         62.490         78.212       -999.250
        11758.5         63.697         79.567       -999.250
        11759.0         64.905         80.218       -999.250
        11759.5         66.112         79.011       -999.250
        11760.0         63.715         77.291       -999.250
        11760.5         60.388         77.031       -999.250
        11761.0         60.173         79.467       -999.250
        11761.5         64.131         82.673       -999.250
        11762.0         68.090         83.565       -999.250
        11762.5         67.483         84.254       -999.250
        11763.0         64.259         88.151       -999.250
        11763.5         61.034         90.907       -999.250
        11764.0         57.809         90.605       -999.250
        11764.5         54.585         86.572       -999.250
        11765.0         51.360         80.874       -999.250
        11765.5         48.136         76.251       -999.250
        11766.0         44.911         70.877       -999.250
        11766.5         46.775         69.722       -999.250
        11767.0         50.130         70.161       -999.250
        11767.5         52.538         72.282       -999.250
        11768.0         52.094         74.394       -999.250
        11768.5         51.651         75.518       -999.250
