#--------------------------------------------------#
#-------------------ENVERUS, INC.------------------#
#------------------WWW.ENVERUS.COM-----------------#
#------------------COPYRIGHT 2020------------------#
#--------------------------------------------------#
#THIS FILE MAY BE USED ONLY IN ACCORDANCE WITH A CURRENT SUBSCRIPTION AGREEMENT BETWEEN
#THE USER AND ENVERUS, INC. NO PART OF THIS FILE MAY BE REPRODUCED, USED, COPIED,
#MODIFIED, PROPAGATED, OR DISTRIBUTED EXCEPT IN ACCORDANCE WITH THE SUBSCRIPTION
#AGREEMENT. UNAUTHORIZED USE OR DISTRIBUTION OF ALL OR ANY PART OF THIS FILE MAY VIOLATE
#COPYRIGHT, TRADEMARK, AND/OR OTHER LAWS AND IS SUBJECT TO CIVIL AS WELL AS CRIMINAL
#SANCTIONS.
#--------------------------------------------------#
#THIS FILE IS PROVIDED "AS-IS" AND ALL WARRANTIES ARE EXPRESSLY DISCLAIMED, WHETHER
#EXPRESS, ORAL, IMPLIED, STATUTORY OR OTHERWISE, INCLUDING ANY IMPLIED WARRANTY OF FITNESS
#FOR A PARTICULAR PURPOSE, MERCHANTABILITY, TITLE OR NON-INFRINGEMENT, AND ANY WARRANTIES
#ARISING BY VIRTUE OF CUSTOM OF TRADE OR COURSE OF DEALING.  FURTHER, ENVERUS, INC.
#AND ITS LICENSORS DO NOT REPRESENT OR WARRANT THAT THIS FILE WILL MEET USER'S
#REQUIREMENTS OR ARE SUITABLE FOR USER'S NEEDS OR THAT THE DATA OR RESULTS PROVIDED IN
#CONJUNCTION THEREWITH ARE CORRECT, ACCURATE, TIMELY OR RELIABLE. THESE DISCLAIMERS SHALL
#APPLY REGARDLESS OF ANY FAILURE OF ESSENTIAL PURPOSE OF ANY LIMITED REMEDY.  SOME
#JURISDICTIONS DO NOT ALLOW THE EXCLUSION OF CERTAIN WARRANTIES SO SOME OF THE ABOVE
#EXCLUSIONS MAY NOT APPLY. IN NO EVENT SHALL ENVERUS, INC. OR ANY OF ITS AFFILIATES
#BE LIABLE UNDER ANY LEGAL THEORY, WHETHER IN TORT (INCLUDING WITHOUT LIMITATION
#NEGLIGENCE), CONTRACT, STRICT LIABILITY, STATUTORY OR OTHERWISE, FOR ANY SPECIAL,
#INCIDENTAL, CONSEQUENTIAL, EXEMPLARY, PUNITIVE OR INDIRECT DAMAGE OF ANY KIND, INCLUDING
#WITHOUT LIMITATION LOSS OF REVENUE, PROFITS, GOODWILL, USE, AND/OR DATA OR THE COST OF
#PROCUREMENT OF SUBSTITUTE GOODS OR SERVICES, EVEN IF APPRISED OF THE POSSIBILITY OF SUCH
#DAMAGES IN ADVANCE.
#--------------------------------------------------#

~VERSION INFORMATION
VERS. 2.0 : CWLS LOG ASCII STANDARD - VERSION 2.0
WRAP. NO : ONE LINE PER DEPTH STEP
~WELL INFORMATION
#MNEMONIC     .UNIT              VALUE :DESCRIPTION
STRT       .FT                7.00000 :START DEPTH
STOP       .FT                16581.00000 :STOP DEPTH
STEP       .FT                0.50000 :STEP
NULL       .                -999.25000 :NULL VALUE
UWI       .                42389300260000 :UNIQUE WELL ID
API       .                42389300260000 :API NUMBER
COMP       .                 :COMPANY
WELL       .                 :WELL
FLD       .                 :FIELD
LOC       .                 :LOCATION
CNTY       .                 :COUNTY
STAT       .                 :STATE
CTRY       .                 :COUNTRY
SRVC       .                 :SERVICE COMPANY
DATE       .                 :DATE
~CURVE INFORMATION
#MNEMONIC     .UNIT      API CODE :CURVE DESCRIPTION
DEPTH       .FT                      :MEASURED DEPTH
CAL       .IN        UNKNOWN   :CAL
DT       .US/FT        UNKNOWN   :DT
GR       .GAPI        UNKNOWN   :GR
~A    DEPTH    CAL    DT    GR
# ...
8868.00000    -999.25000    84.68317    134.12137
8868.50000    -999.25000    84.76050    119.91913
8869.00000    -999.25000    84.83783    124.84948
8869.50000    -999.25000    84.91517    129.77982
8870.00000    -999.25000    84.99250    134.71016
8870.50000    -999.25000    85.06983    139.64051
8871.00000    -999.25000    85.34393    144.57085
8871.50000    -999.25000    85.68945    149.50119
8872.00000    -999.25000    86.03498    151.56796
8872.50000    -999.25000    86.38050    146.00978
8873.00000    -999.25000    86.72603    140.45162
8873.50000    -999.25000    87.07155    134.89345
8874.00000    -999.25000    87.41708    129.33527
8874.50000    -999.25000    87.65764    128.03070
8875.00000    -999.25000    87.73192    131.28034
8875.50000    -999.25000    87.80619    134.52999
8876.00000    -999.25000    87.88047    137.77964
8876.50000    -999.25000    88.19326    122.37582
8877.00000    -999.25000    89.35315    125.09862
8877.50000    -999.25000    90.51304    131.41831
8878.00000    -999.25000    91.67294    135.37130
8878.50000    -999.25000    90.79992    136.20328
8879.00000    -999.25000    89.48802    137.03527
8879.50000    -999.25000    88.17611    130.01125
8880.00000    -999.25000    86.86421    121.68904
8880.50000    -999.25000    83.30103    113.84302
8881.00000    -999.25000    72.83749    116.80307
8881.50000    -999.25000    72.80105    119.76311
8882.00000    -999.25000    72.76461    122.72316
8882.50000    -999.25000    73.45531    125.68321
8883.00000    -999.25000    77.79268    128.64326
8883.50000    -999.25000    82.13004    135.45637
8884.00000    -999.25000    85.47458    142.28790
8884.50000    -999.25000    86.71094    149.11943
8885.00000    -999.25000    87.94731    146.60304
8885.50000    -999.25000    89.18367    143.61277
8886.00000    -999.25000    88.78676    139.57377
8886.50000    -999.25000    88.16947    132.87275
8887.00000    -999.25000    87.55218    126.17172
8887.50000    -999.25000    86.93490    119.47070
8888.00000    -999.25000    84.89544    112.76967
8888.50000    -999.25000    84.57569    107.93480
8889.00000    -999.25000    85.01014    105.52775
8889.50000    -999.25000    85.44459    105.70340
8890.00000    -999.25000    85.87904    109.10001
8890.50000    -999.25000    85.69419    112.49662
8891.00000    -999.25000    85.37759    115.89324
8891.50000    -999.25000    85.06100    119.01951
8892.00000    -999.25000    84.74440    116.71212
8892.50000    -999.25000    84.48165    114.40472
8893.00000    -999.25000    84.97169    112.09733
8893.50000    -999.25000    85.46172    109.78994
8894.00000    -999.25000    85.52077    107.48255
8894.50000    -999.25000    84.99219    109.17591
8895.00000    -999.25000    84.46361    112.24438
8895.50000    -999.25000    83.93503    115.31286
8896.00000    -999.25000    83.40645    118.38134
8896.50000    -999.25000    82.87787    121.44981
8897.00000    -999.25000    82.80326    119.76593
8897.50000    -999.25000    82.99686    116.06650
8898.00000    -999.25000    83.19047    115.31797
8898.50000    -999.25000    83.38408    115.91197
8899.00000    -999.25000    83.57768    116.50597
8899.50000    -999.25000    84.10950    117.09997
8900.00000    -999.25000    84.91848    124.13516
8900.50000    -999.25000    85.42862    116.33885
8901.00000    -999.25000    85.00648    108.54254
8901.50000    -999.25000    84.58434    105.34716
8902.00000    -999.25000    84.16220    107.70360
8902.50000    -999.25000    83.74005    110.06004
8903.00000    -999.25000    84.07979    112.41648
8903.50000    -999.25000    84.46980    114.77291
8904.00000    -999.25000    84.85980    117.12935
8904.50000    -999.25000    85.24980    117.64239
8905.00000    -999.25000    85.10873    109.37666
8905.50000    -999.25000    82.08964    111.61908
8906.00000    -999.25000    79.07055    113.86150
8906.50000    -999.25000    79.32611    116.10393
8907.00000    -999.25000    80.48103    118.34635
8907.50000    -999.25000    81.63595    120.58877
8908.00000    -999.25000    82.79088    124.15067
8908.50000    -999.25000    83.94580    128.42929
8909.00000    -999.25000    84.33081    132.70792
8909.50000    -999.25000    83.99059    136.98655
8910.00000    -999.25000    84.24665    141.26517
8910.50000    -999.25000    84.50271    145.01841
8911.00000    -999.25000    84.75878    135.86879
8911.50000    -999.25000    85.01484    126.71916
8912.00000    -999.25000    85.27090    117.56954
8912.50000    -999.25000    85.52696    101.72231
8913.00000    -999.25000    85.78302    94.52899
8913.50000    -999.25000    84.77227    87.33567
8914.00000    -999.25000    82.49954    80.14234
8914.50000    -999.25000    79.03547    72.94902
8915.00000    -999.25000    75.57140    65.75570
8915.50000    -999.25000    72.10733    61.54367
8916.00000    -999.25000    68.64326    74.67195
8916.50000    -999.25000    65.17919    87.80022
8917.00000    -999.25000    69.01318    98.06296
8917.50000    -999.25000    73.96728    100.33338
8918.00000    -999.25000    78.92137    102.60379
8918.50000    -999.25000    82.50172    104.87421
8919.00000    -999.25000    83.23811    107.14463
8919.50000    -999.25000    82.97777    109.41504
8920.00000    -999.25000    82.71743    111.68546
8920.50000    -999.25000    82.45709    106.42412
8921.00000    -999.25000    82.19675    103.46024
8921.50000    -999.25000    84.90580    100.49636
8922.00000    -999.25000    89.67614    97.53248
8922.50000    -999.25000    90.77810    94.56860
8923.00000    -999.25000    87.16903    93.85658
8923.50000    -999.25000    83.55996    94.96744
8924.00000    -999.25000    79.82947    96.07829
8924.50000    -999.25000    74.20888    97.18915
8925.00000    -999.25000    68.58829    94.74318
8925.50000    -999.25000    62.96771    90.79368
8926.00000    -999.25000    66.24123    86.84417
8926.50000    -999.25000    69.88923    82.89467
8927.00000    -999.25000    73.53722    81.54832
8927.50000    -999.25000    77.07766    82.62193
8928.00000    -999.25000    77.73968    85.58348
8928.50000    -999.25000    78.40170    88.54503
8929.00000    -999.25000    79.06372    90.51467
8929.50000    -999.25000    79.72574    92.29423
8930.00000    -999.25000    80.38777    94.07378
8930.50000    -999.25000    81.12342    95.85334
8931.00000    -999.25000    82.23463    97.63290
8931.50000    -999.25000    83.34584    98.95964
8932.00000    -999.25000    84.02788    100.12580
8932.50000    -999.25000    83.55642    101.29195
8933.00000    -999.25000    83.08497    99.34169
8933.50000    -999.25000    82.61351    95.80498
8934.00000    -999.25000    82.14206    97.85712
8934.50000    -999.25000    81.67060    99.90926
8935.00000    -999.25000    81.80425    101.96140
8935.50000    -999.25000    82.72264    104.01354
8936.00000    -999.25000    83.64103    106.06568
8936.50000    -999.25000    84.55942    106.16268
8937.00000    -999.25000    85.47781    103.86954
8937.50000    -999.25000    84.95492    101.57640
8938.00000    -999.25000    83.95225    99.28326
8938.50000    -999.25000    82.94958    96.99012
8939.00000    -999.25000    81.94691    99.18168
8939.50000    -999.25000    80.94424    102.43284
8940.00000    -999.25000    79.94157    105.68400
8940.50000    -999.25000    79.73170    108.83987
8941.00000    -999.25000    80.19532    109.35968
8941.50000    -999.25000    80.65894    109.87948
8942.00000    -999.25000    81.12256    110.39928
8942.50000    -999.25000    81.58618    110.91908
8943.00000    -999.25000    82.04980    111.43888
8943.50000    -999.25000    82.54781    114.98023
8944.00000    -999.25000    83.09890    118.96139
8944.50000    -999.25000    83.65000    114.42476
8945.00000    -999.25000    84.20109    109.86652
8945.50000    -999.25000    84.75218    105.30829
8946.00000    -999.25000    84.89472    107.95029
8946.50000    -999.25000    84.63479    115.20009
8947.00000    -999.25000    84.41518    120.60135
8947.50000    -999.25000    84.53388    117.74984
8948.00000    -999.25000    84.65259    114.89833
