~Version Information Block
 VERS.                2.00:     CWLS LOG ASCII STANDARD - VERSION 2.000000
 WRAP.                  NO:     One Line Per Depth Step
#
~Well Information Block
#MNEM.UNIT                     Data                         Information
#----------   ------------------------------------------   ----------------
 STRT.FT                                       50.0000:     START DEPTH
 STOP.FT                                    15192.0000:     STOP DEPTH
 STEP.FT                                        0.5000:     STEP
 NULL.                                       -999.0000:     NULL VALUE
 COMP.                                 MOBIL PRODUCING:     COMPANY
 WELL.                                     ST MCINTYRE:     WELL
 FLD .                                   ROJO CABALLOS:     FIELD
 LOC .                                         UNKNOWN:     LOCATION
 LONG.                                 -103.1618580000:     LONGITUDE
 LATI.                                   31.1192890000:     LATITUDE
 CNTY.                                           PECOS:     COUNTY
 STAT.                                           TEXAS:     STATE
 CTRY.                                           U.S.A:     COUNTRY
 SRVC.                                         UNKNOWN:     SERVICE COMPANY
 DATE.                                         UNKNOWN:     DATE
 API .                                  42371053110000:     API NUMBER
 UWI .                                  42371053110000:     UWI NUMBER
 SLAT.                                       31.119289:     Surface latitude
 SLON.                                     -103.161858:     surface longitude
 TVD .                                              NO:     TVD flag
 WSTA.                                             LOC:     Well status
#
~Curve Information Block
#MNEM.UNIT       API CODE      Curve Description
#----------    -------------   -------------------
 DEPT.FT                   :   Depth in Feet
 DT  .UNKNOWN          UNKNOWN:   DT-Load
 DTedit.ft/s          UNKNOWN:   DT-Load
 GR  .UNKNOWN          UNKNOWN:   GR-Load
#
~Parameter Information Block
#MNEM.UNIT            Value               Description
#----------    --------------------    -------------------
 RUN .                         ONE:    Run Number
 PDAT.                          GL:    Permanent Datum
 EPD .FT                          :    Elevation Of Perm. Datum
 LMF .               KELLY BUSHING:    Log Measured From
 EKB .FT                          :    Elevation Of Kelly Bushing
 DF .FT                           :    Elevation Of Derrick Floor
 GL .FT                           :    Elevation Of Ground Level
 TD  .FT                          :    Total Depth
 CSGD.FT                          :    Casing Bottom (Driller) 1
 CSGL.FT                          :    Casing Bottom (Logger) 1
 MUD .                            :    Drilling Fluid Type
 MUDV .CP                         :    Drilling Fluid Viscosity
 MUDD .LB/USG                     :    Drilling Fluid Density
 FL .ML/30MIN                     :    Drilling Fluid Loss
 PH.                              :    Drilling Fluid Ph
 MUDS .                           :    Mud Sample Source
 RM .OHMM                         :    Resistivity Of Mud Sample
 RMT .DEGF                        :    Mud Sample Temperature
 RMF .OHMM                        :    Mud Filtrate Resistivity
 RMFT.DEGF                        :    Mud Filtrate Sample Temperature
 RMC .OHMM                        :    Mud Cake Resistivity
 RMCT.DEGF                        :    Mud Cake Sample Temperature
 RMB .OHMM                        :    Mud Resistivity At Bht
 TMAX .DEGF                       :    Bottom Hole Temperature
#
~Other Information Block
<DescLogPlotStart>   NEURALOG PLOT DEFINITION
PLOTDEFVERSION: 3
LASFILE: E:\Nair Innovations\42_TEXAS\371_Pecos\Mobil_St McIntyre 1 Pecos_1.las
DEPTHSCALE: 239.999996
RESOLUTION: 200
DEPTHLABELFREQ: 100.000000
HEAVYGRIDFREQ: 50.000000
MEDIUMGRIDFREQ: 50.000000
LIGHTGRIDFREQ: 10.000000
#
#   TRACK 1
#
STARTTRACK: 
 LEFTX: 0.500000 inch
 RIGHTX: 3.000000 inch
 SCALETYPE: Linear
 NUMCHARTDIVISIONS: 10
CURVE: GR    0.000000   150.000000 (255,0,0)      Short_Dash        4     N    
CURVE: DTedit 5571.227500 23879.853500 (0,131,131)    Solid             2     N
ENDTRACK: 
#
#   TRACK 2
#
STARTTRACK: 
 LEFTX: 3.750000 inch
 RIGHTX: 6.250000 inch
 SCALETYPE: Linear
 NUMCHARTDIVISIONS: 10
ENDTRACK: 
#
#   TRACK 3
#
STARTTRACK: 
 LEFTX: 6.250000 inch
 RIGHTX: 8.750000 inch
 SCALETYPE: Linear
 NUMCHARTDIVISIONS: 10
CURVE: DT    190.000000 50.000000  (255,0,131)    Solid             2     N    
ENDTRACK: 
<DescLogPlotEnd>
<DepthTrack type='Reference' track='1' Label='0' color='0' hor='0' />
<Reference font='144,0,-900,0,500,0,16777216,Arial' />
~A DEPTH     DT               DTedit             GR              
# ...
    1425.000 65.38130000      14589.21090000   17.84500000     
    1425.500 64.67810000      14747.83010000   16.95000000     
    1426.000 59.07840000      16145.69140000   16.05490000     
    1426.500 53.90200000      17696.22070000   15.37480000     
    1427.000 53.11300000      17959.10160000   14.91400000     
    1427.500 51.95830000      18358.21480000   14.77310000     
    1428.000 51.74070000      18435.42380000   14.65420000     
    1428.500 52.05300000      18324.81640000   14.63660000     
    1429.000 52.02800000      18333.62110000   14.93030000     
    1429.500 51.30800000      18590.89260000   15.24450000     
    1430.000 51.60320000      18484.54490000   15.74950000     
    1430.500 52.12290000      18300.24020000   16.21480000     
    1431.000 51.22390000      18621.41800000   15.79140000     
    1431.500 51.25670000      18609.50390000   15.29940000     
    1432.000 51.50010000      18521.54880000   14.59810000     
    1432.500 51.98820000      18347.65230000   15.28020000     
    1433.000 56.46370000      16893.36130000   16.63570000     
    1433.500 61.34980000      15547.91800000   18.08400000     
    1434.000 68.12050000      14002.56450000   19.66690000     
    1434.500 73.07630000      13052.95510000   21.20180000     
    1435.000 73.67520000      12946.84770000   22.59910000     
    1435.500 73.60850000      12958.57910000   21.69140000     
    1436.000 71.35740000      13367.38180000   20.03240000     
    1436.500 65.93460000      14466.78320000   18.73860000     
    1437.000 60.22310000      15838.79980000   17.70270000     
    1437.500 54.86480000      17385.67580000   16.80030000     
    1438.000 54.07390000      17639.96480000   15.98350000     
    1438.500 53.62480000      17787.69530000   15.12370000     
    1439.000 53.11160000      17959.57230000   14.13560000     
    1439.500 52.56130000      18147.60160000   13.34290000     
    1440.000 52.07610000      18316.68550000   13.43190000     
    1440.500 51.81670000      18408.37890000   14.27930000     
    1441.000 52.62230000      18126.56640000   15.37120000     
    1441.500 53.33720000      17883.60940000   16.29210000     
    1442.000 53.94460000      17682.24800000   16.12410000     
    1442.500 54.69890000      17438.40620000   15.79520000     
    1443.000 55.10740000      17309.13870000   15.46620000     
    1443.500 55.02250000      17335.84570000   15.51750000     
    1444.000 54.66750000      17448.42380000   15.57850000     
    1444.500 54.04640000      17648.94140000   15.69610000     
    1445.000 53.13310000      17952.30660000   15.87380000     
    1445.500 51.38640000      18562.52930000   16.47130000     
    1446.000 51.20030000      18630.00390000   16.65600000     
    1446.500 51.51520000      18516.12110000   16.53090000     
    1447.000 51.78200000      18420.71680000   16.69490000     
    1447.500 52.06640000      18320.09960000   17.48850000     
    1448.000 53.33450000      17884.51370000   18.28410000     
    1448.500 57.73330000      16521.86330000   19.08350000     
    1449.000 58.97490000      16174.02730000   19.85140000     
    1449.500 60.15560000      15856.57230000   20.57140000     
    1450.000 64.00380000      14903.20210000   21.29140000     
    1450.500 69.04430000      13815.21390000   22.03620000     
    1451.000 71.79020000      13286.79390000   21.26210000     
    1451.500 78.72520000      12116.34470000   20.25160000     
    1452.000 78.64590000      12128.56350000   18.78410000     
    1452.500 65.79090000      14498.38090000   17.39130000     
    1453.000 66.01350000      14449.49320000   17.86370000     
    1453.500 71.48270000      13343.95120000   18.43590000     
    1454.000 74.80710000      12750.95120000   18.83560000     
    1454.500 74.47420000      12807.94730000   18.09740000     
    1455.000 57.76620000      16512.45310000   17.23760000     
    1455.500 57.56670000      16569.67770000   16.37760000     
    1456.000 57.02410000      16727.34180000   15.59160000     
    1456.500 57.90970000      16471.53520000   14.81580000     
    1457.000 61.96340000      15393.95210000   13.92830000     
    1457.500 62.53290000      15253.75680000   12.97840000     
    1458.000 61.91540000      15405.88570000   13.01690000     
    1458.500 56.08550000      17007.27730000   13.63110000     
    1459.000 56.50650000      16880.56450000   14.37900000     
    1459.500 56.70490000      16821.50200000   15.28140000     
    1460.000 54.91280000      17370.48050000   15.22300000     
    1460.500 54.60190000      17469.38480000   15.29570000     
    1461.000 56.37150000      16920.99020000   15.63040000     
    1461.500 61.44470000      15523.90330000   15.96490000     
    1462.000 60.84500000      15676.91020000   16.54470000     
    1462.500 60.16870000      15853.12110000   17.14080000     
    1463.000 59.00520000      16165.72170000   17.53920000     
    1463.500 57.22630000      16668.23630000   17.89980000     
    1464.000 54.17400000      17607.36910000   18.26040000     
    1464.500 50.52540000      18878.85350000   18.71150000     
    1465.000 51.07360000      18676.21880000   19.21250000     
    1465.500 52.41260000      18199.08790000   18.68020000     
    1466.000 52.90720000      18028.95700000   17.79700000     
    1466.500 53.85630000      17711.23630000   17.13240000     
    1467.000 54.72210000      17431.01560000   16.90830000     
    1467.500 55.87620000      17070.98240000   18.36080000     
    1468.000 56.52730000      16874.35160000   20.24170000     
    1468.500 56.79130000      16795.91020000   21.82300000     
    1469.000 56.98680000      16738.29300000   23.12250000     
    1469.500 57.02490000      16727.10550000   22.49310000     
    1470.000 56.96120000      16745.81250000   19.13780000     
    1470.500 56.46110000      16894.13480000   17.03200000     
    1471.000 56.04860000      17018.47270000   16.00360000     
    1471.500 55.90640000      17061.76370000   15.02270000     
    1472.000 55.76420000      17105.26950000   15.65840000     
    1472.500 55.57900000      17162.26760000   17.60840000     
    1473.000 55.48780000      17190.47460000   21.08820000     
    1473.500 56.62880000      16844.10940000   25.31300000     
    1474.000 61.34680000      15548.67680000   29.77050000     
    1474.500 62.69070000      15215.36130000   34.33740000     
    1475.000 63.93270000      14919.77640000   36.23230000     
    1475.500 64.07080000      14887.61910000   35.77220000     
    1476.000 63.82330000      14945.35060000   32.58810000     
    1476.500 63.32590000      15062.74220000   26.96860000     
    1477.000 62.20420000      15334.36040000   21.80350000     
    1477.500 58.54050000      16294.04690000   15.42800000     
    1478.000 52.90500000      18029.70700000   14.45540000     
    1478.500 52.88450000      18036.69730000   13.77440000     
    1479.000 52.77700000      18073.43360000   13.34240000     
    1479.500 52.64810000      18117.68360000   12.81730000     
    1480.000 53.38850000      17866.42580000   12.46480000     
    1480.500 53.83280000      17718.96680000   12.46550000     
    1481.000 54.17220000      17607.95310000   13.10460000     
    1481.500 54.32100000      17559.72270000   13.78790000     
    1482.000 54.46970000      17511.78120000   14.47140000     
    1482.500 54.60820000      17467.36910000   15.50360000     
    1483.000 54.73870000      17425.72850000   16.56050000     
    1483.500 54.89080000      17377.43950000   17.60390000     
    1484.000 55.32710000      17240.40820000   18.62900000     
    1484.500 55.83360000      17084.00780000   17.91490000     
    1485.000 56.20300000      16971.72270000   16.23750000     
    1485.500 56.09070000      17005.70310000   14.87320000     
    1486.000 55.66110000      17136.95120000   15.47350000     
    1486.500 54.93190000      17364.43950000   15.90720000     
    1487.000 54.23320000      17588.15040000   15.65650000     
