#--------------------------------------------------#
#-------------------ENVERUS, INC.------------------#
#------------------WWW.ENVERUS.COM-----------------#
#------------------COPYRIGHT 2020------------------#
#--------------------------------------------------#
#THIS FILE MAY BE USED ONLY IN ACCORDANCE WITH A CURRENT SUBSCRIPTION AGREEMENT BETWEEN
#THE USER AND ENVERUS, INC. NO PART OF THIS FILE MAY BE REPRODUCED, USED, COPIED,
#MODIFIED, PROPAGATED, OR DISTRIBUTED EXCEPT IN ACCORDANCE WITH THE SUBSCRIPTION
#AGREEMENT. UNAUTHORIZED USE OR DISTRIBUTION OF ALL OR ANY PART OF THIS FILE MAY VIOLATE
#COPYRIGHT, TRADEMARK, AND/OR OTHER LAWS AND IS SUBJECT TO CIVIL AS WELL AS CRIMINAL
#SANCTIONS.
#--------------------------------------------------#
#THIS FILE IS PROVIDED "AS-IS" AND ALL WARRANTIES ARE EXPRESSLY DISCLAIMED, WHETHER
#EXPRESS, ORAL, IMPLIED, STATUTORY OR OTHERWISE, INCLUDING ANY IMPLIED WARRANTY OF FITNESS
#FOR A PARTICULAR PURPOSE, MERCHANTABILITY, TITLE OR NON-INFRINGEMENT, AND ANY WARRANTIES
#ARISING BY VIRTUE OF CUSTOM OF TRADE OR COURSE OF DEALING.  FURTHER, ENVERUS, INC.
#AND ITS LICENSORS DO NOT REPRESENT OR WARRANT THAT THIS FILE WILL MEET USER'S
#REQUIREMENTS OR ARE SUITABLE FOR USER'S NEEDS OR THAT THE DATA OR RESULTS PROVIDED IN
#CONJUNCTION THEREWITH ARE CORRECT, ACCURATE, TIMELY OR RELIABLE. THESE DISCLAIMERS SHALL
#APPLY REGARDLESS OF ANY FAILURE OF ESSENTIAL PURPOSE OF ANY LIMITED REMEDY.  SOME
#JURISDICTIONS DO NOT ALLOW THE EXCLUSION OF CERTAIN WARRANTIES SO SOME OF THE ABOVE
#EXCLUSIONS MAY NOT APPLY. IN NO EVENT SHALL ENVERUS, INC. OR ANY OF ITS AFFILIATES
#BE LIABLE UNDER ANY LEGAL THEORY, WHETHER IN TORT (INCLUDING WITHOUT LIMITATION
#NEGLIGENCE), CONTRACT, STRICT LIABILITY, STATUTORY OR OTHERWISE, FOR ANY SPECIAL,
#INCIDENTAL, CONSEQUENTIAL, EXEMPLARY, PUNITIVE OR INDIRECT DAMAGE OF ANY KIND, INCLUDING
#WITHOUT LIMITATION LOSS OF REVENUE, PROFITS, GOODWILL, USE, AND/OR DATA OR THE COST OF
#PROCUREMENT OF SUBSTITUTE GOODS OR SERVICES, EVEN IF APPRISED OF THE POSSIBILITY OF SUCH
#DAMAGES IN ADVANCE.
#--------------------------------------------------#

# EXPORTED FROM DI TRANSFORM
# DI TRANSFORM - A PRODUCT OF DRILLINGINFO, INC. - WWW.DRILLINGINFO.COM
#
~VERSION INFORMATION
 VERS.        2.0 : LAS ASCII STANDARD - VERSION 2.0
 WRAP.         NO : ONE LINE PER DEPTH STEP

~WELL INFORMATION
#MNEM.UNIT       DATA TYPE       INFORMATION
#---------       ---------       -----------
 STRT.FT           190 : START DEPTH
 STOP.FT         12010 : STOP DEPTH
 STEP.FT           0.5 : STEP LENGTH
 NULL.         -999.25 : NULL VALUE
 UWI.   42389335580000 : UNIQUE WELL ID
 API.   42389335580000 : WELL IDENTIFIER
 COMP.                 : COMPANY
 WELL.          DRD_55 : WELL NAME
 FLD.                  : FIELD NAME
 LOC.                  : WELL LOCATION
 CNTY.                 : COUNTY
 STAT.                 : STATE OR PROVINCE
 CTRY.                 : COUNTRY
 SRVC.                 : SERVICE COMPANY
 DATE.                 : DATE

~CURVE INFORMATION
#MNEM.UNIT       API CODE       CURVE DESCRIPTION
#---------       --------       -----------------
 DEPT.FT          : <MEASURED DEPTH>
 CAL.IN           : CALIPER
 DPHI.%           : DENSITY POROSITY
 DT.US/FT         : SONIC
 GR.GAPI          : GAMMA RAY
 NPHI.%           : NEUTRON POROSITY
 RHOB.G/CM3       : DENSITY

~PARAMETER INFORMATION
#MNEM.UNIT       VALUE       DESCRIPTION
#---------       -----       -----------
 EKB.FT      2793 : ELEVATION ABOVE MSL

~A      DEPT         CAL        DPHI          DT          GR        NPHI        RHOB
# ...
      7932.5       8.915      7.2245     -999.25     130.606     16.0338       2.584
        7933       8.915      7.5857     -999.25    131.0559     17.4701      2.5712
      7933.5       8.915      9.5947     -999.25    132.5157     17.3285      2.5532
        7934       8.915      9.8945     -999.25    132.8367     16.4893      2.5456
      7934.5       8.915     10.1317     -999.25    131.9762     17.8185      2.5412
        7935       8.915     10.8431     -999.25    131.7456     16.8571      2.5324
      7935.5       8.915     11.5251     -999.25    130.3276     15.8095      2.5258
        7936       8.915      9.7825     -999.25    134.2601     15.6568      2.5408
      7936.5       8.915     10.2686     64.2192    122.0234     16.6539      2.5486
        7937       8.915      9.8834     64.2625    116.9104     17.1763      2.5532
      7937.5       8.915      9.1058     64.9621    119.2277     16.7625      2.5402
        7938       8.915     11.1034      66.115    134.3672     18.2092      2.5267
      7938.5       8.915     11.4851     66.7669      131.25     20.0073      2.5193
        7939      8.9069      9.5495     67.0796    118.4119     19.0749      2.5521
      7939.5       8.915      9.1792     67.3923    106.4692     19.9192       2.562
        7940       8.915       9.643      67.705    109.1426     17.5637      2.5473
      7940.5       8.915     11.1633     67.9837    107.4948     17.8589       2.526
        7941       8.915     11.7911     67.8302    111.4189     17.9037      2.5148
      7941.5       8.915     11.4005     67.0695    127.5236     18.9389      2.5262
        7942       8.915     10.6533     65.4449    119.6929     19.3589      2.5366
      7942.5       8.915     10.3002       63.85    111.3194     17.2308      2.5484
        7943       8.915      8.5383     62.0779      83.136     14.1062      2.5644
      7943.5       8.915      7.8924     60.7704     77.0793     12.4672      2.5749
        7944       8.915      8.2315     59.7496      67.434      11.732       2.579
      7944.5       8.915      7.7112     59.3381     62.3748     12.4211       2.581
        7945       8.915      8.2295     59.4864     67.5902     10.6279      2.5752
      7945.5       8.915      8.6807     60.1226     70.4039     10.4535      2.5732
        7946       8.915      7.8215     61.0527     71.1453     11.8387      2.5702
      7946.5       8.915      9.0947     61.8695     69.7437     11.4879      2.5617
        7947       8.915     10.4741     62.8401     68.0575     11.4287      2.5483
      7947.5       8.915      8.6304     64.0211      70.283     11.7781      2.5457
        7948       8.915      9.2328     65.2535     77.1475     12.6802      2.5671
      7948.5       8.915      8.1491     66.0828     82.5134     15.3152      2.5826
        7949       8.915      4.9905     66.4906     89.4959      15.354      2.6028
      7949.5       8.915      8.4596     66.1898      95.877      17.878       2.604
        7950       8.915      8.8024     65.5033     85.5423     18.8653      2.5791
      7950.5       8.915      8.0899     64.8779     84.6138     16.3233      2.5767
        7951       8.915      7.9794     64.2525     83.0177      15.342      2.5716
      7951.5       8.915      8.3083     63.5919     81.3765     14.8596      2.5614
        7952       8.915      9.7547      63.071     82.9026     15.4964      2.5584
      7952.5       8.915       8.554     62.4984     82.6204     16.0574       2.568
        7953       8.915      7.8712     61.9496     73.8135     14.0371      2.5721
      7953.5       8.915      9.0869     61.2706     78.3488     14.1181       2.581
        7954       8.915      7.4088        60.5     79.1077     13.8093      2.5892
      7954.5       8.915      6.6764     59.9314     76.2541     13.2961      2.5929
        7955       8.915      7.2245     59.6144     77.9634     14.6434      2.5898
      7955.5       8.915      7.0176      59.811     77.5218     13.2231      2.5773
        7956       8.915      8.0486     60.6538     70.7558     12.9221      2.5684
      7956.5       8.915      8.9337     61.4967     72.3052     13.4757      2.5645
        7957       8.915      8.6056     62.0845      79.313     12.3754      2.5616
      7957.5       8.915      8.5903      62.275      85.916     12.8438      2.5544
        7958       8.915      9.5693     62.4655     80.4881     13.4119       2.543
      7958.5       8.915     10.7512     63.1574     83.8871     13.9088      2.5275
        7959       8.915     10.0752     64.2399     88.0373     13.2462      2.5059
      7959.5       8.915     12.9743     64.6843    121.1172     14.3354       2.491
        7960       8.915      13.211     64.5477    134.0412      15.573      2.5117
      7960.5       8.915     11.3291     64.1176    120.6953      16.084      2.5417
        7961       8.915     10.2358     63.9752    100.4307     19.9896        2.54
      7961.5       8.915     10.5569     64.4875     96.4346     16.6281      2.5278
        7962       8.915     10.7638     65.2116    107.5047     14.7909      2.5181
      7962.5       8.915     12.4109     65.3107    116.7133     13.5499      2.5309
        7963      8.9149     10.1667     64.4728    105.3736     19.5546      2.5562
      7963.5       8.915      8.8786     63.1614     94.7912     18.0557      2.5815
        7964       8.915      9.5306     60.9599     85.4789     15.4538      2.6104
      7964.5       8.915      5.0663     59.6138     83.9569     14.9037      2.6279
        7965       8.915      5.3312     58.6351      59.104     12.4301      2.6347
      7965.5       8.915      4.2861       58.48     50.4795       9.247      2.6424
        7966       8.915      3.0729     58.8407     59.3095      9.0839      2.6506
      7966.5       8.915      3.8969     59.4742     71.9285     10.0305      2.6266
        7967       8.915       6.299      60.256     71.1303     10.1117      2.6079
      7967.5       8.915      6.4698     61.2122     74.3661     13.1188      2.6028
        7968       8.915       6.023     62.0626     76.4053      12.155      2.5976
      7968.5       8.915      7.3947     62.5558     75.9109     13.1033      2.6015
        7969       8.915      6.1418     62.8513     77.7925     13.3158      2.6061
      7969.5       8.915      8.7427     62.6436     87.8333     14.2993      2.5827
        7970       8.915      7.9631     62.2087     82.5561     13.5612      2.5681
      7970.5       8.915      8.4039      61.785     82.8271     12.9063      2.5626
        7971       8.915      8.9476     61.4611     80.5592     15.0701       2.571
      7971.5       8.915      8.2276     61.1484     84.0628     14.4878      2.5791
        7972       8.915      7.5956     60.8961     80.0822     11.9487      2.5829
      7972.5       8.915      7.8323     60.8961     84.3421       14.41      2.5884
        7973       8.915      7.3882     61.0932      75.593     12.9758      2.5941
      7973.5       8.915      6.8853     61.4059     76.5249     12.1478       2.582
        7974       8.915      7.9663     61.7186     78.2996     12.5005      2.5745
      7974.5       8.915      8.3718     61.8737      78.398     14.1134      2.5718
        7975       8.915      8.3564     61.6478     78.5523     13.8903       2.569
      7975.5       8.915      8.1247     61.3849     75.4226     12.6795      2.5804
        7976       8.915      7.1857     61.6843     71.5829     11.6654      2.6009
      7976.5       8.915      5.8905     63.1175     66.1345     12.5316      2.6197
        7977       8.915      7.0847     65.1585     80.5994     14.7862      2.5518
      7977.5       8.915     11.0591     66.5263    133.2229     17.7363      2.5188
        7978       8.915     11.4124     66.6024    158.2562      15.172      2.5291
      7978.5       8.915     11.1089     65.8716    129.4723      14.018      2.5362
        7979       8.915     10.4131     64.7501     94.2123     14.1646      2.5414
      7979.5       8.915      9.5991     63.8805     95.5969     12.0518      2.5561
