#--------------------------------------------------#
#-------------------ENVERUS, INC.------------------#
#------------------WWW.ENVERUS.COM-----------------#
#------------------COPYRIGHT 2020------------------#
#--------------------------------------------------#
#THIS FILE MAY BE USED ONLY IN ACCORDANCE WITH A CURRENT SUBSCRIPTION AGREEMENT BETWEEN
#THE USER AND ENVERUS, INC. NO PART OF THIS FILE MAY BE REPRODUCED, USED, COPIED,
#MODIFIED, PROPAGATED, OR DISTRIBUTED EXCEPT IN ACCORDANCE WITH THE SUBSCRIPTION
#AGREEMENT. UNAUTHORIZED USE OR DISTRIBUTION OF ALL OR ANY PART OF THIS FILE MAY VIOLATE
#COPYRIGHT, TRADEMARK, AND/OR OTHER LAWS AND IS SUBJECT TO CIVIL AS WELL AS CRIMINAL
#SANCTIONS.
#--------------------------------------------------#
#THIS FILE IS PROVIDED "AS-IS" AND ALL WARRANTIES ARE EXPRESSLY DISCLAIMED, WHETHER
#EXPRESS, ORAL, IMPLIED, STATUTORY OR OTHERWISE, INCLUDING ANY IMPLIED WARRANTY OF FITNESS
#FOR A PARTICULAR PURPOSE, MERCHANTABILITY, TITLE OR NON-INFRINGEMENT, AND ANY WARRANTIES
#ARISING BY VIRTUE OF CUSTOM OF TRADE OR COURSE OF DEALING.  FURTHER, ENVERUS, INC.
#AND ITS LICENSORS DO NOT REPRESENT OR WARRANT THAT THIS FILE WILL MEET USER'S
#REQUIREMENTS OR ARE SUITABLE FOR USER'S NEEDS OR THAT THE DATA OR RESULTS PROVIDED IN
#CONJUNCTION THEREWITH ARE CORRECT, ACCURATE, TIMELY OR RELIABLE. THESE DISCLAIMERS SHALL
#APPLY REGARDLESS OF ANY FAILURE OF ESSENTIAL PURPOSE OF ANY LIMITED REMEDY.  SOME
#JURISDICTIONS DO NOT ALLOW THE EXCLUSION OF CERTAIN WARRANTIES SO SOME OF THE ABOVE
#EXCLUSIONS MAY NOT APPLY. IN NO EVENT SHALL ENVERUS, INC. OR ANY OF ITS AFFILIATES
#BE LIABLE UNDER ANY LEGAL THEORY, WHETHER IN TORT (INCLUDING WITHOUT LIMITATION
#NEGLIGENCE), CONTRACT, STRICT LIABILITY, STATUTORY OR OTHERWISE, FOR ANY SPECIAL,
#INCIDENTAL, CONSEQUENTIAL, EXEMPLARY, PUNITIVE OR INDIRECT DAMAGE OF ANY KIND, INCLUDING
#WITHOUT LIMITATION LOSS OF REVENUE, PROFITS, GOODWILL, USE, AND/OR DATA OR THE COST OF
#PROCUREMENT OF SUBSTITUTE GOODS OR SERVICES, EVEN IF APPRISED OF THE POSSIBILITY OF SUCH
#DAMAGES IN ADVANCE.
#--------------------------------------------------#

~VERSION INFORMATION
VERS. 2.0 : CWLS LOG ASCII STANDARD - VERSION 2.0
WRAP.  NO : ONE LINE PER DEPTH STEP
~WELL INFORMATION
#MNEMONIC     .UNIT              VALUE :DESCRIPTION
STRT       .FT                86 :START DEPTH
STOP       .FT                5215 :STOP DEPTH
STEP       .FT                   0.500 :STEP
NULL       .                  -999.990 :NULL
UWI        .              42389101440000 :UNIQUE WELL ID
API        .              42389101440000 :API NUMBER
COMP       .         :COMPANY
WELL       .         1, :WELL
DATE       .                            :LOG DATE
~CURVE INFORMATION
#MNEMONIC     .UNIT      API CODE :CURVE DESCRIPTION
DEPTH       .FT                      :MEASURED DEPTH
DT.US/FT        UNKNOWN   :DT
GR.API        UNKNOWN   :GR
~A    DEPTH    DT    GR
# ...
 2278.5     69.572   11.731
 2279     69.678   12.289
 2279.5     69.783   11.494
 2280     69.841   10.699
 2280.5     69.688   9.904
 2281     69.534   10.067
 2281.5     69.381   10.518
 2282     69.227   10.968
 2282.5     69.074   11.419
 2283     68.921   11.397
 2283.5     68.767   10.958
 2284     68.614   10.519
 2284.5     68.532   10.08
 2285     68.733   9.64
 2285.5     68.933   10.26
 2286     69.133   11.213
 2286.5     69.333   12.165
 2287     69.533   10.999
 2287.5     69.734   9.735
 2288     69.908   9.779
 2288.5     69.604   10.925
 2289     69.299   11.562
 2289.5     69.111   10.299
 2290     69.321   9.035
 2290.5     69.531   9.246
 2291     69.741   9.833
 2291.5     69.802   10.42
 2292     69.647   11.007
 2292.5     69.493   10.838
 2293     69.338   10.092
 2293.5     69.184   9.347
 2294     69.103   8.601
 2294.5     69.297   8.929
 2295     69.492   9.648
 2295.5     69.686   10.366
 2296     69.881   11.084
 2296.5     70.075   11.803
 2297     70.27   12.521
 2297.5     70.464   13.239
 2298     70.659   13.957
 2298.5     70.853   13.303
 2299     70.972   12.214
 2299.5     70.79   11.125
 2300     70.608   10.037
 2300.5     70.426   12.077
 2301     70.244   14.436
 2301.5     70.061   16.205
 2302     69.879   14.826
 2302.5     69.697   13.446
 2303     69.515   12.166
 2303.5     69.527   11.174
 2304     69.623   10.183
 2304.5     69.719   9.192
 2305     69.816   9.34
 2305.5     69.912   11.13
 2306     69.768   12.92
 2306.5     69.609   13.061
 2307     69.45   12.266
 2307.5     69.292   11.858
 2308     69.133   12.673
 2308.5     68.974   13.488
 2309     69.151   14.303
 2309.5     69.413   15.041
 2310     69.674   12.632
 2310.5     69.936   10.224
 2311     70.198   9.596
 2311.5     70.242   10.316
 2312     70.106   11.037
 2312.5     69.969   11.757
 2313     69.833   12.477
 2313.5     69.696   13.197
 2314     69.56   13.283
 2314.5     69.423   12.656
 2315     69.286   12.03
 2315.5     69.427   11.531
 2316     69.573   11.937
 2316.5     69.719   12.342
 2317     69.865   12.748
 2317.5     70.011   12.728
 2318     70.157   11.933
 2318.5     70.189   11.138
 2319     69.972   11.753
 2319.5     69.755   12.431
 2320     69.538   13.109
 2320.5     69.321   13.787
 2321     69.104   13.18
 2321.5     68.887   12.105
 2322     68.89   11.03
 2322.5     68.985   10.617
 2323     69.081   11.363
 2323.5     69.176   12.11
 2324     69.272   11.865
 2324.5     69.367   10.964
 2325     69.463   11.369
 2325.5     69.558   11.775
 2326     69.654   12.18
 2326.5     69.749   12.585
 2327     69.844   12.991
 2327.5     69.94   12.337
 2328     70.035   11.594
 2328.5     70.131   10.851
 2329     70.013   10.108
 2329.5     69.875   9.366
 2330     69.738   8.623
 2330.5     69.6   7.88
 2331     69.463   8.071
 2331.5     69.325   8.593
 2332     69.188   9.115
 2332.5     69.262   9.637
 2333     69.382   10.159
 2333.5     69.502   10.681
 2334     69.623   11.203
 2334.5     69.743   11.725
 2335     69.863   12.247
 2335.5     69.984   12.769
 2336     70.104   12.421
 2336.5     70.224   11.929
 2337     70.267   11.438
 2337.5     70.134   10.947
 2338     70.001   10.455
 2338.5     69.869   9.964
 2339     69.736   10.545
 2339.5     69.603   11.691
 2340     69.47   12.328
 2340.5     69.337   11.9
 2341     69.204   11.472
 2341.5     69.071   11.044
 2342     69.047   10.616
 2342.5     69.208   10.188
 2343     69.368   9.76
 2343.5     69.528   10.284
 2344     69.664   11.324
 2344.5     69.543   12.364
 2345     69.422   13.404
 2345.5     69.3   14.445
 2346     69.179   14.189
 2346.5     69.058   12.693
 2347     68.937   11.378
 2347.5     68.815   11.9
 2348     69.081   12.422
 2348.5     69.351   12.944
 2349     69.621   10.031
 2349.5     69.811   11.539
 2350     69.612   13.046
 2350.5     69.414   14.554
 2351     69.215   15.828
 2351.5     69.016   14.945
 2352     68.817   14.062
 2352.5     69.306   13.18
 2353     69.775   12.297
 2353.5     69.565   12.259
 2354     69.355   12.462
 2354.5     69.145   12.664
 2355     68.936   12.867
 2355.5     68.726   13.069
 2356     69.284   13.272
 2356.5     69.968   13.474
 2357     69.839   13.676
 2357.5     69.652   14.351
 2358     69.464   16.281
 2358.5     69.277   15.983
 2359     69.089   15.407
 2359.5     69.228   14.831
 2360     69.485   14.255
 2360.5     69.742   13.678
 2361     69.797   13.102
 2361.5     69.54   12.526
 2362     69.284   11.95
 2362.5     69.027   11.737
 2363     68.888   12.415
 2363.5     69.425   13.093
 2364     69.808   13.771
 2364.5     69.671   14.422
 2365     69.533   14.692
 2365.5     69.396   14.962
 2366     69.258   15.232
 2366.5     69.121   15.502
 2367     68.983   15.772
 2367.5     68.887   15.513
 2368     69.064   14.456
 2368.5     69.24   13.399
 2369     69.416   12.342
 2369.5     69.593   11.627
 2370     69.769   14.669
 2370.5     69.945   13.939
 2371     70.122   13.209
 2371.5     69.666   12.479
 2372     69.202   11.749
 2372.5     69.166   11.019
 2373     69.372   10.948
 2373.5     69.578   11.762
 2374     69.657   12.577
 2374.5     69.445   13.392
 2375     69.232   14.207
 2375.5     69.02   14.452
 2376     68.807   13.167
 2376.5     68.594   12.757
 2377     68.382   14.032
 2377.5     68.169   15.307
 2378     67.957   16.582
 2378.5     67.744   17.473
 2379     67.401   16.188
 2379.5     67.035   14.904
 2380     66.67   13.619
 2380.5     70.441   13.404
 2381     70.393   15.795
 2381.5     70.148   16.408
 2382     68.264   14.898
 2382.5     66.381   13.388
 2383     64.497   12.778
 2383.5     62.614   12.9
 2384     59.442   13.021
 2384.5     56.267   13.143
 2385     53.805   13.265
 2385.5     52.819   12.382
 2386     52.734   11.281
 2386.5     52.716   10.181
 2387     52.699   9.08
 2387.5     52.682   8.542
 2388     52.664   8.588
 2388.5     52.647   8.633
 2389     52.907   8.679
 2389.5     53.854   9.022
 2390     54.802   10.37
 2390.5     55.749   11.718
 2391     55.237   13.065
 2391.5     55.311   12.644
 2392     55.412   12.172
 2392.5     55.513   11.7
 2393     55.615   11.228
 2393.5     55.716   10.756
 2394     55.817   10.284
 2394.5     55.919   9.812
 2395     56.02   9.34
 2395.5     56.121   8.868
 2396     55.63   8.396
 2396.5     55.093   8.301
 2397     54.63   8.616
 2397.5     54.221   8.931
 2398     53.812   9.246
 2398.5     53.403   9.561
 2399     52.994   9.877
 2399.5     52.585   10.192
 2400     52.176   10.507
 2400.5     52.226   10.822
 2401     52.281   10.576
 2401.5     52.335   10.324
 2402     52.39   10.071
 2402.5     52.445   9.818
 2403     52.44   9.565
 2403.5     52.417   9.313
 2404     52.394   9.06
 2404.5     52.372   8.807
 2405     52.349   8.554
 2405.5     52.326   9.493
 2406     52.303   10.491
 2406.5     52.28   11.489
 2407     52.257   12.487
 2407.5     52.235   12.395
 2408     52.212   11.928
 2408.5     52.189   11.462
 2409     52.166   10.996
 2409.5     52.143   10.53
 2410     52.12   10.097
 2410.5     53.179   11.049
 2411     52.936   12.001
 2411.5     52.693   12.952
 2412     52.968   13.904
 2412.5     54.782   14.856
 2413     56.596   15.808
 2413.5     58.41   16.76
 2414     68.908   17.712
 2414.5     63.439   17.762
 2415     54.253   17.213
 2415.5     54.946   16.664
 2416     55.64   16.116
 2416.5     56.333   22.927
 2417     57.026   28.094
 2417.5     57.44   29.74
 2418     56.964   30.876
 2418.5     56.487   29.884
 2419     56.01   28.891
 2419.5     55.534   26.213
 2420     54.928   19.807
 2420.5     52.484   13.401
 2421     52.134   10.202
 2421.5     52.66   8.916
 2422     53.186   9.539
 2422.5     53.712   10.162
 2423     54.238   10.785
 2423.5     53.784   11.408
 2424     53.235   12.031
 2424.5     52.672   12.654
 2425     51.979   12.788
 2425.5     51.285   11.102
 2426     50.88   9.416
 2426.5     51.21   7.729
 2427     51.281   7.958
 2427.5     50.916   8.608
 2428     50.552   9.259
 2428.5     50.274   9.909
