#--------------------------------------------------#
#-------------------ENVERUS, INC.------------------#
#------------------WWW.ENVERUS.COM-----------------#
#------------------COPYRIGHT 2020------------------#
#--------------------------------------------------#
#THIS FILE MAY BE USED ONLY IN ACCORDANCE WITH A CURRENT SUBSCRIPTION AGREEMENT BETWEEN
#THE USER AND ENVERUS, INC. NO PART OF THIS FILE MAY BE REPRODUCED, USED, COPIED,
#MODIFIED, PROPAGATED, OR DISTRIBUTED EXCEPT IN ACCORDANCE WITH THE SUBSCRIPTION
#AGREEMENT. UNAUTHORIZED USE OR DISTRIBUTION OF ALL OR ANY PART OF THIS FILE MAY VIOLATE
#COPYRIGHT, TRADEMARK, AND/OR OTHER LAWS AND IS SUBJECT TO CIVIL AS WELL AS CRIMINAL
#SANCTIONS.
#--------------------------------------------------#
#THIS FILE IS PROVIDED "AS-IS" AND ALL WARRANTIES ARE EXPRESSLY DISCLAIMED, WHETHER
#EXPRESS, ORAL, IMPLIED, STATUTORY OR OTHERWISE, INCLUDING ANY IMPLIED WARRANTY OF FITNESS
#FOR A PARTICULAR PURPOSE, MERCHANTABILITY, TITLE OR NON-INFRINGEMENT, AND ANY WARRANTIES
#ARISING BY VIRTUE OF CUSTOM OF TRADE OR COURSE OF DEALING.  FURTHER, ENVERUS, INC.
#AND ITS LICENSORS DO NOT REPRESENT OR WARRANT THAT THIS FILE WILL MEET USER'S
#REQUIREMENTS OR ARE SUITABLE FOR USER'S NEEDS OR THAT THE DATA OR RESULTS PROVIDED IN
#CONJUNCTION THEREWITH ARE CORRECT, ACCURATE, TIMELY OR RELIABLE. THESE DISCLAIMERS SHALL
#APPLY REGARDLESS OF ANY FAILURE OF ESSENTIAL PURPOSE OF ANY LIMITED REMEDY.  SOME
#JURISDICTIONS DO NOT ALLOW THE EXCLUSION OF CERTAIN WARRANTIES SO SOME OF THE ABOVE
#EXCLUSIONS MAY NOT APPLY. IN NO EVENT SHALL ENVERUS, INC. OR ANY OF ITS AFFILIATES
#BE LIABLE UNDER ANY LEGAL THEORY, WHETHER IN TORT (INCLUDING WITHOUT LIMITATION
#NEGLIGENCE), CONTRACT, STRICT LIABILITY, STATUTORY OR OTHERWISE, FOR ANY SPECIAL,
#INCIDENTAL, CONSEQUENTIAL, EXEMPLARY, PUNITIVE OR INDIRECT DAMAGE OF ANY KIND, INCLUDING
#WITHOUT LIMITATION LOSS OF REVENUE, PROFITS, GOODWILL, USE, AND/OR DATA OR THE COST OF
#PROCUREMENT OF SUBSTITUTE GOODS OR SERVICES, EVEN IF APPRISED OF THE POSSIBILITY OF SUCH
#DAMAGES IN ADVANCE.
#--------------------------------------------------#

~VERSION INFORMATION
VERS. 2.0 : CWLS LOG ASCII STANDARD - VERSION 2.0
WRAP.  NO : ONE LINE PER DEPTH STEP
~WELL INFORMATION
#MNEMONIC     .UNIT              VALUE :DESCRIPTION
STRT       .FT                86 :START DEPTH
STOP       .FT                5215 :STOP DEPTH
STEP       .FT                   0.500 :STEP
NULL       .                  -999.990 :NULL
UWI        .              42389101440000 :UNIQUE WELL ID
API        .              42389101440000 :API NUMBER
COMP       .         :COMPANY
WELL       .         1, :WELL
DATE       .                            :LOG DATE
~CURVE INFORMATION
#MNEMONIC     .UNIT      API CODE :CURVE DESCRIPTION
DEPTH       .FT                      :MEASURED DEPTH
DT.US/FT        UNKNOWN   :DT
GR.API        UNKNOWN   :GR
~A    DEPTH    DT    GR
# ...
 5017     49.725   12.703
 5017.5     49.869   13.246
 5018     50.012   13.743
 5018.5     50.155   13.674
 5019     50.299   13.605
 5019.5     50.442   13.296
 5020     50.585   12.258
 5020.5     50.729   11.221
 5021     50.852   10.183
 5021.5     50.594   10.227
 5022     50.337   10.326
 5022.5     50.13   10.424
 5023     50.172   10.663
 5023.5     50.214   11.537
 5024     50.256   12.411
 5024.5     50.299   13.285
 5025     50.341   14.159
 5025.5     50.383   15.034
 5026     50.425   14.13
 5026.5     50.467   13.208
 5027     50.509   12.286
 5027.5     50.551   12.466
 5028     50.593   13.133
 5028.5     50.635   13.801
 5029     50.677   14.468
 5029.5     50.72   14.32
 5030     50.757   13.167
 5030.5     50.61   12.015
 5031     50.463   11.162
 5031.5     50.316   11.963
 5032     50.17   12.764
 5032.5     50.023   13.565
 5033     49.876   14.366
 5033.5     49.641   15.167
 5034     49.386   15.968
 5034.5     49.132   16.768
 5035     49.023   16.376
 5035.5     49.09   15.196
 5036     49.156   14.016
 5036.5     49.223   12.836
 5037     49.289   11.656
 5037.5     49.278   10.476
 5038     49.04   10.158
 5038.5     48.802   10.747
 5039     48.564   11.335
 5039.5     48.326   11.924
 5040     48.286   12.512
 5040.5     48.478   13.101
 5041     48.669   13.69
 5041.5     48.861   14.278
 5042     49.053   14.361
 5042.5     49.245   13.866
 5043     49.437   13.372
 5043.5     49.629   12.878
 5044     49.821   12.697
 5044.5     50.013   13.564
 5045     50.204   14.432
 5045.5     50.396   14.753
 5046     50.588   14.243
 5046.5     50.728   13.733
 5047     50.749   13.223
 5047.5     50.77   12.712
 5048     50.79   12.202
 5048.5     50.811   11.692
 5049     50.832   11.182
 5049.5     50.408   10.672
 5050     49.838   10.162
 5050.5     50.021   9.652
 5051     50.204   10.119
 5051.5     50.387   11.32
 5052     50.57   12.521
 5052.5     50.581   13.721
 5053     50.378   14.922
 5053.5     50.175   16.122
 5054     49.972   17.323
 5054.5     49.768   15.835
 5055     49.565   14.217
 5055.5     49.362   14.069
 5056     49.159   14.869
 5056.5     49.123   15.67
 5057     49.472   16.47
 5057.5     49.82   17.271
 5058     50.168   18.071
 5058.5     50.516   18.871
 5059     50.864   17.18
 5059.5     50.679   15.48
 5060     50.274   13.781
 5060.5     49.869   12.081
 5061     49.68   11.244
 5061.5     49.942   12.359
 5062     50.205   13.474
 5062.5     50.467   14.588
 5063     50.73   15.703
 5063.5     50.992   16.817
 5064     51.255   17.932
 5064.5     51.168   16.791
 5065     50.978   14.63
 5065.5     50.787   12.47
 5066     50.596   12.593
 5066.5     50.406   13.033
 5067     50.215   13.472
 5067.5     50.024   13.912
 5068     49.833   13.993
 5068.5     49.643   12.212
 5069     49.452   10.43
 5069.5     49.261   10.801
 5070     49.071   11.651
 5070.5     49.181   12.502
 5071     49.364   13.325
 5071.5     49.548   13.483
 5072     49.731   13.642
 5072.5     49.914   13.8
 5073     50.097   13.959
 5073.5     50.281   13.879
 5074     50.343   13.305
 5074.5     50.105   12.732
 5075     49.867   12.159
 5075.5     49.629   11.585
 5076     49.391   11.012
 5076.5     49.159   11.247
 5077     49.465   11.859
 5077.5     49.772   12.47
 5078     50.079   13.082
 5078.5     50.386   13.693
 5079     50.517   14.305
 5079.5     50.302   14.916
 5080     50.088   15.528
 5080.5     49.873   16.995
 5081     49.659   18.91
 5081.5     49.64   19.919
 5082     49.784   18.646
 5082.5     49.927   17.374
 5083     50.07   16.104
 5083.5     50.213   16.637
 5084     50.357   17.17
 5084.5     50.5   17.702
 5085     50.643   18.235
 5085.5     50.787   17.714
 5086     50.93   16.847
 5086.5     51.073   15.98
 5087     51.061   15.827
 5087.5     50.988   16.493
 5088     50.914   17.159
 5088.5     50.841   17.825
 5089     50.767   18.492
 5089.5     50.694   19.158
 5090     50.621   17.478
 5090.5     50.547   15.203
 5091     50.474   14.293
 5091.5     50.4   14.967
 5092     50.327   15.642
 5092.5     50.254   16.316
 5093     50.224   16.991
 5093.5     50.276   17.665
 5094     50.329   18.34
 5094.5     50.381   19.014
 5095     50.434   17.874
 5095.5     50.486   16.543
 5096     50.539   15.212
 5096.5     50.323   15.235
 5097     50.007   16.075
 5097.5     49.69   16.914
 5098     49.784   17.754
 5098.5     49.958   18.593
 5099     50.131   18.283
 5099.5     50.304   17.841
 5100     50.477   17.398
 5100.5     50.557   16.956
 5101     50.261   16.514
 5101.5     49.964   17.384
 5102     49.667   18.752
 5102.5     49.37   20.12
 5103     49.073   20.603
 5103.5     48.949   19.793
 5104     49.06   18.983
 5104.5     49.171   18.343
 5105     49.282   18.942
 5105.5     49.393   19.542
 5106     49.504   20.141
 5106.5     49.615   20.74
 5107     49.726   21.339
 5107.5     49.837   21.082
 5108     49.948   19.784
 5108.5     50.059   18.486
 5109     50.17   17.189
 5109.5     50.281   15.891
 5110     50.392   16.308
 5110.5     50.503   17.24
 5111     50.614   18.173
 5111.5     50.725   15.097
 5112     50.836   11.93
 5112.5     50.947   11.3
 5113     51.058   10.67
 5113.5     51.169   10.04
 5114     51.021   9.409
 5114.5     50.749   9.437
 5115     50.477   9.581
 5115.5     50.369   9.724
 5116     50.614   9.868
 5116.5     50.859   10.012
 5117     51.104   10.883
 5117.5     51.349   12.12
 5118     51.327   13.356
 5118.5     51.148   14.593
 5119     50.969   15.83
 5119.5     50.79   15.038
 5120     50.611   14.082
 5120.5     50.432   13.127
 5121     50.494   12.171
 5121.5     50.586   11.215
 5122     50.678   10.259
 5122.5     50.769   10.087
 5123     50.861   11.284
 5123.5     50.953   12.481
 5124     51.044   12.974
 5124.5     51.02   12.816
 5125     50.772   12.659
 5125.5     50.524   12.501
 5126     50.276   12.344
 5126.5     50.028   12.186
 5127     49.78   12.513
 5127.5     49.909   13.56
 5128     50.306   14.608
 5128.5     50.703   15.655
 5129     51.101   15.701
 5129.5     41.583   15.112
 5130     45.073   14.522
 5130.5     50.546   13.932
 5131     51.033   13.342
 5131.5     51.472   13.228
 5132     51.911   13.699
 5132.5     52.351   14.171
 5133     51.682   14.643
 5133.5     50.759   15.114
 5134     51.694   16.294
 5134.5     52.935   19.566
 5135     52.596   22.837
 5135.5     52.257   26.109
 5136     51.919   29.381
 5136.5     52.763   30.964
 5137     54.185   30.478
 5137.5     55.637   30.314
 5138     59.463   33.03
 5138.5     63.29   35.746
 5139     67.117   38.461
 5139.5     71.29   41.837
 5140     75.537   47.025
 5140.5     67.024   52.212
 5141     64.639   57.4
 5141.5     64.078   62.587
 5142     64.734   61.582
 5142.5     65.389   59.78
 5143     66.045   57.979
 5143.5     69.414   59.587
 5144     69.952   63.276
 5144.5     69.816   66.965
 5145     69.388   70.654
 5145.5     68.96   74.343
 5146     68.532   73.253
 5146.5     67.435   70.941
 5147     66.153   68.629
 5147.5     66.887   66.317
 5148     67.622   66.529
 5148.5     68.356   68.343
 5149     67.403   70.156
 5149.5     68.911   70.414
 5150     69.721   66.527
 5150.5     66.102   62.641
 5151     66.686   59.098
 5151.5     67.352   61.685
 5152     68.019   64.272
 5152.5     68.685   66.858
 5153     68.36   69.445
 5153.5     67.86   68.323
 5154     67.36   65.871
 5154.5     66.86   65.573
 5155     68.365   65.571
 5155.5     69.952   65.568
 5156     70.924   65.566
 5156.5     70.612   79.247
 5157     70.301   79.812
 5157.5     69.989   80.376
 5158     69.053   80.94
 5158.5     67.415   81.504
 5159     65.539   82.069
 5159.5     63.317   82.012
 5160     58.841   80.999
 5160.5     53.838   64.468
 5161     69.284   64.866
 5161.5     72.74   65.264
 5162     75.718   72.219
 5162.5     76.97   93.13
 5163     76.766   120.699
 5163.5     74.64   121.097
 5164     72.515   118.057
 5164.5     70.897   101.01
 5165     70.793   65.635
 5165.5     70.689   64.365
 5166     70.584   63.096
 5166.5     69.81   61.826
