#--------------------------------------------------#
#-------------------ENVERUS, INC.------------------#
#------------------WWW.ENVERUS.COM-----------------#
#------------------COPYRIGHT 2020------------------#
#--------------------------------------------------#
#THIS FILE MAY BE USED ONLY IN ACCORDANCE WITH A CURRENT SUBSCRIPTION AGREEMENT BETWEEN
#THE USER AND ENVERUS, INC. NO PART OF THIS FILE MAY BE REPRODUCED, USED, COPIED,
#MODIFIED, PROPAGATED, OR DISTRIBUTED EXCEPT IN ACCORDANCE WITH THE SUBSCRIPTION
#AGREEMENT. UNAUTHORIZED USE OR DISTRIBUTION OF ALL OR ANY PART OF THIS FILE MAY VIOLATE
#COPYRIGHT, TRADEMARK, AND/OR OTHER LAWS AND IS SUBJECT TO CIVIL AS WELL AS CRIMINAL
#SANCTIONS.
#--------------------------------------------------#
#THIS FILE IS PROVIDED "AS-IS" AND ALL WARRANTIES ARE EXPRESSLY DISCLAIMED, WHETHER
#EXPRESS, ORAL, IMPLIED, STATUTORY OR OTHERWISE, INCLUDING ANY IMPLIED WARRANTY OF FITNESS
#FOR A PARTICULAR PURPOSE, MERCHANTABILITY, TITLE OR NON-INFRINGEMENT, AND ANY WARRANTIES
#ARISING BY VIRTUE OF CUSTOM OF TRADE OR COURSE OF DEALING.  FURTHER, ENVERUS, INC.
#AND ITS LICENSORS DO NOT REPRESENT OR WARRANT THAT THIS FILE WILL MEET USER'S
#REQUIREMENTS OR ARE SUITABLE FOR USER'S NEEDS OR THAT THE DATA OR RESULTS PROVIDED IN
#CONJUNCTION THEREWITH ARE CORRECT, ACCURATE, TIMELY OR RELIABLE. THESE DISCLAIMERS SHALL
#APPLY REGARDLESS OF ANY FAILURE OF ESSENTIAL PURPOSE OF ANY LIMITED REMEDY.  SOME
#JURISDICTIONS DO NOT ALLOW THE EXCLUSION OF CERTAIN WARRANTIES SO SOME OF THE ABOVE
#EXCLUSIONS MAY NOT APPLY. IN NO EVENT SHALL ENVERUS, INC. OR ANY OF ITS AFFILIATES
#BE LIABLE UNDER ANY LEGAL THEORY, WHETHER IN TORT (INCLUDING WITHOUT LIMITATION
#NEGLIGENCE), CONTRACT, STRICT LIABILITY, STATUTORY OR OTHERWISE, FOR ANY SPECIAL,
#INCIDENTAL, CONSEQUENTIAL, EXEMPLARY, PUNITIVE OR INDIRECT DAMAGE OF ANY KIND, INCLUDING
#WITHOUT LIMITATION LOSS OF REVENUE, PROFITS, GOODWILL, USE, AND/OR DATA OR THE COST OF
#PROCUREMENT OF SUBSTITUTE GOODS OR SERVICES, EVEN IF APPRISED OF THE POSSIBILITY OF SUCH
#DAMAGES IN ADVANCE.
#--------------------------------------------------#

~VERSION INFORMATION
VERS. 2.0 : CWLS LOG ASCII STANDARD - VERSION 2.0
WRAP.  NO : ONE LINE PER DEPTH STEP
~WELL INFORMATION
#MNEMONIC     .UNIT              VALUE :DESCRIPTION
STRT       .FT                86 :START DEPTH
STOP       .FT                5215 :STOP DEPTH
STEP       .FT                   0.500 :STEP
NULL       .                  -999.990 :NULL
UWI        .              42389101440000 :UNIQUE WELL ID
API        .              42389101440000 :API NUMBER
COMP       .         :COMPANY
WELL       .         1, :WELL
DATE       .                            :LOG DATE
~CURVE INFORMATION
#MNEMONIC     .UNIT      API CODE :CURVE DESCRIPTION
DEPTH       .FT                      :MEASURED DEPTH
DT.US/FT        UNKNOWN   :DT
GR.API        UNKNOWN   :GR
~A    DEPTH    DT    GR
# ...
 4716     49.906   12.308
 4716.5     49.959   11.787
 4717     50.011   11.266
 4717.5     50.064   10.745
 4718     50.117   10.224
 4718.5     50.17   10.281
 4719     50.092   11.142
 4719.5     49.956   12.004
 4720     49.821   12.691
 4720.5     49.686   12.05
 4721     49.55   11.409
 4721.5     49.415   10.767
 4722     49.28   10.126
 4722.5     49.144   9.982
 4723     49.009   10.651
 4723.5     48.873   11.32
 4724     48.738   11.99
 4724.5     48.727   12.659
 4725     48.762   13.329
 4725.5     48.796   13.042
 4726     48.83   12.374
 4726.5     48.864   11.707
 4727     48.898   11.039
 4727.5     48.932   10.371
 4728     48.966   9.745
 4728.5     49.001   10.481
 4729     49.035   11.218
 4729.5     49.069   11.954
 4730     49.103   12.691
 4730.5     49.137   13.427
 4731     49.171   13.71
 4731.5     49.205   13.209
 4732     49.24   12.708
 4732.5     49.274   12.207
 4733     49.308   11.705
 4733.5     49.3   11.204
 4734     49.154   10.703
 4734.5     49.009   10.202
 4735     48.864   10.611
 4735.5     48.718   11.263
 4736     48.573   11.916
 4736.5     48.428   12.541
 4737     48.437   11.023
 4737.5     48.567   9.504
 4738     48.696   9.488
 4738.5     48.826   10.323
 4739     48.956   11.158
 4739.5     49.086   11.992
 4740     49.216   12.827
 4740.5     49.346   13.661
 4741     49.476   13.719
 4741.5     49.606   13.018
 4742     49.736   12.316
 4742.5     49.866   11.615
 4743     49.996   11.32
 4743.5     49.835   11.186
 4744     49.596   11.051
 4744.5     49.357   10.917
 4745     49.118   11.213
 4745.5     49.084   12.016
 4746     49.265   12.82
 4746.5     49.447   13.623
 4747     49.629   14.427
 4747.5     49.811   15.231
 4748     49.992   15.254
 4748.5     50.174   13.656
 4749     49.942   12.059
 4749.5     49.651   12.512
 4750     49.359   13.074
 4750.5     49.068   13.636
 4751     49.192   14.198
 4751.5     49.64   14.333
 4752     50.088   13.033
 4752.5     50.535   11.733
 4753     50.754   10.434
 4753.5     50.545   9.998
 4754     50.336   10.692
 4754.5     50.127   11.385
 4755     49.918   12.079
 4755.5     49.709   12.773
 4756     49.5   13.125
 4756.5     49.291   12.413
 4757     49.229   11.7
 4757.5     49.229   10.988
 4758     49.229   10.276
 4758.5     49.229   10.987
 4759     49.23   11.728
 4759.5     49.23   12.47
 4760     49.23   13.211
 4760.5     49.252   13.953
 4761     49.456   14.694
 4761.5     49.66   14.369
 4762     49.864   13.847
 4762.5     50.069   13.326
 4763     50.273   12.805
 4763.5     50.477   12.423
 4764     50.681   13.176
 4764.5     50.886   13.929
 4765     51.036   14.682
 4765.5     50.865   14.819
 4766     50.693   13.732
 4766.5     50.522   12.646
 4767     50.35   11.591
 4767.5     50.179   12.394
 4768     50.007   13.198
 4768.5     49.836   14.001
 4769     49.664   14.805
 4769.5     49.493   15.608
 4770     49.321   14.919
 4770.5     49.175   13.918
 4771     49.159   12.916
 4771.5     49.143   11.969
 4772     49.128   12.48
 4772.5     49.112   12.99
 4773     49.096   13.501
 4773.5     49.08   14.012
 4774     49.071   14.522
 4774.5     49.248   14.216
 4775     49.424   13.758
 4775.5     49.6   13.299
 4776     49.776   13.31
 4776.5     49.953   13.74
 4777     49.981   14.17
 4777.5     49.981   14.599
 4778     49.981   15.029
 4778.5     49.981   15.458
 4779     49.982   15.888
 4779.5     49.544   14.577
 4780     48.839   13.111
 4780.5     47.718   11.644
 4781     45.24   10.178
 4781.5     45.24   10.476
 4782     46.666   11.733
 4782.5     52.54   12.99
 4783     57.546   14.247
 4783.5     60.058   13.58
 4784     62.489   12.645
 4784.5     63.912   11.71
 4785     64.233   10.776
 4785.5     61.507   10.291
 4786     58.781   10.09
 4786.5     56.054   9.888
 4787     55.237   9.687
 4787.5     55.706   9.486
 4788     56.175   10.638
 4788.5     55.428   11.965
 4789     54.364   13.293
 4789.5     53.301   14.62
 4790     53.793   15.531
 4790.5     54.585   14.447
 4791     51.794   13.363
 4791.5     51.579   12.279
 4792     53.119   11.196
 4792.5     56.352   10.112
 4793     59.586   9.028
 4793.5     62.036   7.944
 4794     68.247   7.128
 4794.5     68.591   8.335
 4795     68.495   9.541
 4795.5     67.617   10.747
 4796     66   11.954
 4796.5     64.141   13.16
 4797     62.041   13.569
 4797.5     59.941   13.044
 4798     57.84   12.519
 4798.5     57.148   11.994
 4799     56.871   11.469
 4799.5     56.919   10.944
 4800     62.341   11.096
 4800.5     67.359   12.764
 4801     67.485   14.432
 4801.5     66.712   16.047
 4802     66.443   13.653
 4802.5     67.653   11.258
 4803     65.01   11.013
 4803.5     62.366   11.995
 4804     59.723   12.978
 4804.5     58.608   13.96
 4805     58.488   14.312
 4805.5     58.369   13.692
 4806     58.249   13.072
 4806.5     66.867   12.452
 4807     67.687   11.832
 4807.5     68.506   11.447
 4808     68.353   12.089
 4808.5     68.031   12.731
 4809     67.71   11.027
 4809.5     67.389   8.829
 4810     67.15   10.312
 4810.5     68.412   12.084
 4811     68.117   12.808
 4811.5     67.131   12.754
 4812     67.058   12.699
 4812.5     67.337   12.645
 4813     67.615   12.591
 4813.5     66.898   12.536
 4814     65.86   12.482
 4814.5     66.213   12.066
 4815     66.566   11.264
 4815.5     66.919   10.461
 4816     67.272   9.659
 4816.5     67.625   8.857
 4817     67.978   8.054
 4817.5     68.331   8.139
 4818     68.684   10.018
 4818.5     67.887   11.897
 4819     67.07   13.776
 4819.5     66.253   15.269
 4820     65.436   13.031
 4820.5     67.353   10.794
 4821     66.136   10.744
 4821.5     68.096   11.547
 4822     71.27   11.771
 4822.5     68.677   10.969
 4823     66.084   10.167
 4823.5     63.491   9.365
 4824     60.897   9.325
 4824.5     58.304   9.851
 4825     54.085   10.378
 4825.5     52.211   10.904
 4826     52.264   11.431
 4826.5     52.318   11.957
 4827     52.372   12.483
 4827.5     52.295   12.98
 4828     51.955   12.12
 4828.5     51.616   11.261
 4829     51.277   10.401
 4829.5     51.602   10.783
 4830     51.947   11.675
 4830.5     52.014   12.568
 4831     50.842   13.46
 4831.5     51.044   13.547
 4832     51.247   12.7
 4832.5     51.333   11.854
 4833     51.18   11.007
 4833.5     51.027   10.458
 4834     50.875   11.075
 4834.5     50.722   11.692
 4835     50.57   12.309
 4835.5     50.417   12.927
 4836     50.264   13.544
 4836.5     50.112   14.052
 4837     50.122   13.09
 4837.5     50.191   12.128
 4838     50.261   12.173
 4838.5     50.33   12.647
 4839     50.399   13.12
 4839.5     50.468   13.594
 4840     50.538   14.067
 4840.5     50.607   13.756
 4841     50.676   12.687
 4841.5     50.746   11.618
 4842     50.134   10.548
 4842.5     50.14   9.836
 4843     50.147   10.203
 4843.5     50.154   10.57
 4844     50.16   10.938
 4844.5     50.167   11.305
 4845     50.174   11.672
 4845.5     50.18   11.008
 4846     50.187   10.879
 4846.5     50.194   11.48
 4847     50.2   12.082
 4847.5     50.207   12.684
 4848     50.214   13.286
 4848.5     50.22   12.968
 4849     50.227   12.565
 4849.5     50.234   12.163
 4850     50.24   11.761
 4850.5     50.247   11.359
 4851     50.254   10.957
 4851.5     50.261   10.554
 4852     50.267   10.152
 4852.5     50.274   9.75
 4853     50.281   9.348
 4853.5     50.287   8.946
 4854     50.294   8.544
 4854.5     50.301   8.696
 4855     50.307   9.183
 4855.5     50.3   9.67
 4856     50.251   10.156
 4856.5     50.201   10.643
 4857     50.151   11.13
 4857.5     50.101   11.603
 4858     50.052   11.263
 4858.5     50.042   10.922
 4859     50.066   10.582
 4859.5     50.091   10.241
 4860     50.115   9.9
 4860.5     50.139   9.56
 4861     50.164   9.939
 4861.5     50.188   10.424
 4862     50.213   10.909
 4862.5     50.237   11.394
 4863     50.262   11.879
 4863.5     50.286   12.365
 4864     50.311   12.85
 4864.5     50.335   13.335
 4865     50.36   13.82
 4865.5     50.384   13.021
 4866     50.409   12.085
