#--------------------------------------------------#
#-------------------ENVERUS, INC.------------------#
#------------------WWW.ENVERUS.COM-----------------#
#------------------COPYRIGHT 2020------------------#
#--------------------------------------------------#
#THIS FILE MAY BE USED ONLY IN ACCORDANCE WITH A CURRENT SUBSCRIPTION AGREEMENT BETWEEN
#THE USER AND ENVERUS, INC. NO PART OF THIS FILE MAY BE REPRODUCED, USED, COPIED,
#MODIFIED, PROPAGATED, OR DISTRIBUTED EXCEPT IN ACCORDANCE WITH THE SUBSCRIPTION
#AGREEMENT. UNAUTHORIZED USE OR DISTRIBUTION OF ALL OR ANY PART OF THIS FILE MAY VIOLATE
#COPYRIGHT, TRADEMARK, AND/OR OTHER LAWS AND IS SUBJECT TO CIVIL AS WELL AS CRIMINAL
#SANCTIONS.
#--------------------------------------------------#
#THIS FILE IS PROVIDED "AS-IS" AND ALL WARRANTIES ARE EXPRESSLY DISCLAIMED, WHETHER
#EXPRESS, ORAL, IMPLIED, STATUTORY OR OTHERWISE, INCLUDING ANY IMPLIED WARRANTY OF FITNESS
#FOR A PARTICULAR PURPOSE, MERCHANTABILITY, TITLE OR NON-INFRINGEMENT, AND ANY WARRANTIES
#ARISING BY VIRTUE OF CUSTOM OF TRADE OR COURSE OF DEALING.  FURTHER, ENVERUS, INC.
#AND ITS LICENSORS DO NOT REPRESENT OR WARRANT THAT THIS FILE WILL MEET USER'S
#REQUIREMENTS OR ARE SUITABLE FOR USER'S NEEDS OR THAT THE DATA OR RESULTS PROVIDED IN
#CONJUNCTION THEREWITH ARE CORRECT, ACCURATE, TIMELY OR RELIABLE. THESE DISCLAIMERS SHALL
#APPLY REGARDLESS OF ANY FAILURE OF ESSENTIAL PURPOSE OF ANY LIMITED REMEDY.  SOME
#JURISDICTIONS DO NOT ALLOW THE EXCLUSION OF CERTAIN WARRANTIES SO SOME OF THE ABOVE
#EXCLUSIONS MAY NOT APPLY. IN NO EVENT SHALL ENVERUS, INC. OR ANY OF ITS AFFILIATES
#BE LIABLE UNDER ANY LEGAL THEORY, WHETHER IN TORT (INCLUDING WITHOUT LIMITATION
#NEGLIGENCE), CONTRACT, STRICT LIABILITY, STATUTORY OR OTHERWISE, FOR ANY SPECIAL,
#INCIDENTAL, CONSEQUENTIAL, EXEMPLARY, PUNITIVE OR INDIRECT DAMAGE OF ANY KIND, INCLUDING
#WITHOUT LIMITATION LOSS OF REVENUE, PROFITS, GOODWILL, USE, AND/OR DATA OR THE COST OF
#PROCUREMENT OF SUBSTITUTE GOODS OR SERVICES, EVEN IF APPRISED OF THE POSSIBILITY OF SUCH
#DAMAGES IN ADVANCE.
#--------------------------------------------------#

~VERSION INFORMATION
VERS. 2.0 : CWLS LOG ASCII STANDARD - VERSION 2.0
WRAP.  NO : ONE LINE PER DEPTH STEP
~WELL INFORMATION
#MNEMONIC     .UNIT              VALUE :DESCRIPTION
STRT       .FT                10841 :START DEPTH
STOP       .FT                18209 :STOP DEPTH
STEP       .FT                   0.500 :STEP
NULL       .                  -999.99 :NULL
UWI        .                42371326180000 :UNIQUE WELL ID
API        .                42371326180000 :API NUMBER
COMP       .         :COMPANY
WELL       .        :WELL
DATE       .                 :LOG DATE
FLD       .                 :FIELD NAME
LOC       .                  UNK :LOCATION
CNTY       .                 UNK :COUNTY
STAT       .                 UNK :STATE
CTRY       .                 UNK :COUNTY
SRVC       .                 UNK :SERVICE COMPANY
~CURVE INFORMATION
#MNEMONIC     .UNIT      API CODE :CURVE DESCRIPTION
DEPTH       .FT                      :MEASURED DEPTH
CAL.IN        UNKNOWN   :CAL
DT.MSEC/FT        UNKNOWN   :DT
GR.API        UNKNOWN   :GR
ILD.OHM        UNKNOWN   :ILD
ILS.OHM        UNKNOWN   :ILS
SP.MV        UNKNOWN   :SP
~A    DEPTH    CAL    DT    GR    ILD    ILS    SP
# ...
 14288     10.01718   80.03909   65.94615   5.10423   7.80189   -11.98255
 14288.5     9.85571   80.13443   61.11704   5.02648   9.41179   -12.34574
 14289     9.72178   80.21057   55.14385   4.94872   11.06889   -12.70892
 14289.5     9.78738   80.27514   49.81877   4.87097   10.02065   -12.20574
 14290     9.90837   80.3642   49.26639   4.8499   8.63862   -11.60835
 14290.5     10.02935   80.61713   53.15423   4.91921   7.2566   -11.01096
 14291     10.15033   80.96499   55.53808   4.94056   6.47359   -10.6941
 14291.5     10.24289   81.3911   55.60423   4.75047   6.43868   -10.96054
 14292     10.33455   80.79193   55.97198   4.56039   6.85514   -11.22697
 14292.5     10.35475   77.75709   57.11974   4.53901   7.2716   -11.49341
 14293     10.34203   75.96096   57.61531   4.55357   7.68807   -11.75984
 14293.5     10.3293   78.31782   55.90964   4.58571   8.10453   -12.02628
 14294     10.32226   80.65847   55.56398   4.63885   8.30122   -12.19638
 14294.5     10.32538   80.15313   56.081   4.69199   8.46015   -12.35128
 14295     10.32851   78.25691   56.84092   4.8639   8.61908   -12.2394
 14295.5     10.33163   78.24744   56.84122   5.07608   7.96927   -11.84693
 14296     10.33475   81.42062   56.20234   5.28826   7.31556   -11.45447
 14296.5     10.33787   84.62569   54.75895   5.50045   6.94925   -11.06201
 14297     10.341   86.52306   52.15123   5.7041   8.06479   -10.66954
 14297.5     10.34887   85.43074   49.75684   5.86426   9.18902   -10.91354
 14298     10.35717   85.94016   51.35578   6.02442   10.31349   -11.18369
 14298.5     10.36548   86.73006   52.95471   6.18458   10.65962   -11.45383
 14299     10.37378   86.47062   53.67229   6.34474   10.64559   -11.72398
 14299.5     10.38209   86.2283   53.67833   6.25167   9.73275   -11.52817
 14300     10.45996   86.26258   54.50807   6.07714   8.81992   -11.29419
 14300.5     10.54321   86.3813   56.34218   5.90262   7.90708   -11.06021
 14301     10.62647   87.00048   58.88278   5.6281   7.79093   -10.82623
 14301.5     10.70972   87.60914   61.64558   5.31449   7.73843   -10.8087
 14302     10.75249   87.46669   67.02571   5.00088   7.5418   -11.11456
 14302.5     10.56584   87.27503   71.30241   4.68728   7.23973   -11.42042
 14303     10.37919   86.24151   69.2798   4.55544   6.93766   -11.72628
 14303.5     10.19254   84.71449   63.55994   4.50951   6.78146   -12.03214
 14304     10.00588   81.45212   61.0036   4.46358   6.84394   -12.01768
 14304.5     10.19155   79.4025   63.26895   4.41765   6.77864   -11.83306
 14305     10.16084   78.88782   65.22396   4.52217   6.66352   -11.64844
 14305.5     9.98253   78.37315   63.58416   4.66605   6.80746   -11.46381
 14306     10.10865   76.20422   61.26666   4.80994   6.98809   -11.27919
 14306.5     10.15413   75.12171   60.33486   4.95382   7.3637   -11.09457
 14307     10.18369   75.55106   62.38449   5.09771   7.91875   -10.90994
 14307.5     10.21324   77.73795   64.43412   5.24159   8.22165   -10.74601
 14308     10.23709   76.55414   65.97519   5.44162   8.23674   -11.12758
 14308.5     10.24776   73.85279   67.22076   5.89597   7.74179   -11.50915
 14309     10.25843   73.40882   66.70944   6.35033   7.24684   -11.89071
 14309.5     10.2691   75.15583   61.28727   6.4831   8.22195   -12.0965
 14310     10.27978   77.02705   50.9493   6.42457   12.02213   -11.74599
 14310.5     10.29045   79.32612   44.18055   6.36604   15.93768   -11.39548
 14311     10.27014   80.98329   49.09731   6.30751   15.86097   -11.04497
 14311.5     10.21661   80.85467   56.32914   6.24898   12.4579   -10.8464
 14312     10.16308   79.14863   61.37119   6.19045   9.05483   -11.29485
 14312.5     10.10956   78.99604   65.2853   6.13192   8.2627   -11.7433
 14313     10.05198   78.39639   67.3328   6.07339   7.69424   -12.19175
 14313.5     9.99419   77.67913   68.33262   6.01486   7.71517   -12.53528
 14314     9.93991   77.32781   66.26226   5.95634   8.25308   -12.31574
 14314.5     9.97167   77.29608   61.54465   6.05723   10.17574   -12.0962
 14315     10.00342   77.38093   57.56148   6.32684   11.01864   -11.87667
 14315.5     10.03518   77.29554   56.4045   6.59645   11.03402   -11.65713
 14316     10.06578   76.94614   61.33129   6.86606   10.38175   -11.43759
 14316.5     10.08487   77.23471   65.24216   7.13567   9.72948   -11.21805
 14317     10.10396   77.95808   65.57496   7.40528   9.81972   -11.36828
 14317.5     10.12305   80.19347   62.08414   7.48095   10.60744   -11.65495
 14318     10.14213   80.92795   58.64573   7.53175   11.84681   -11.94163
 14318.5     10.09484   81.32437   56.96152   7.58255   12.11993   -12.2283
 14319     10.0386   81.72078   58.69482   7.63335   11.19827   -12.03028
 14319.5     10.02503   81.75244   62.26906   7.68415   10.27661   -11.79613
 14320     10.01145   81.39146   65.70849   7.73495   9.80203   -11.56197
 14320.5     9.99996   79.74772   66.47307   7.78575   9.55991   -11.32781
 14321     9.99983   78.63053   64.73641   7.83655   9.83113   -11.25945
 14321.5     9.99971   78.49003   63.09393   7.88735   10.10234   -11.43074
 14322     9.99236   78.93095   64.54563   8.08465   11.16403   -11.60203
 14322.5     9.9628   78.71625   65.99733   8.38917   12.45621   -11.77332
 14323     9.93324   77.70607   64.15948   8.69368   13.34308   -11.94462
 14323.5     9.90369   77.3622   62.00379   8.99819   12.88641   -12.11591
 14324     9.87413   78.84364   61.2397   9.30271   12.42973   -12.2872
 14324.5     9.86021   78.6712   61.27936   9.60722   12.43376   -12.40741
 14325     9.8914   77.67656   61.56482   9.91173   13.16752   -12.52732
 14325.5     9.92259   76.68193   61.85028   10.21624   13.65056   -12.64722
 14326     9.95377   75.63583   61.71949   10.52076   13.09699   -11.98249
 14326.5     9.98496   74.56574   60.35121   10.5505   14.08533   -11.23447
 14327     10.01615   74.52775   58.98294   10.38868   15.76902   -11.03172
 14327.5     10.0268   76.86396   58.09078   10.22686   17.45271   -11.33729
 14328     9.96903   80.87944   58.83995   10.06134   17.95104   -11.64285
 14328.5     9.91126   81.74162   59.89338   9.81187   15.68814   -11.94842
 14329     9.88437   79.65705   62.73959   9.5624   13.42524   -11.96539
 14329.5     9.92267   79.02104   66.69517   9.31294   11.16234   -11.96902
 14330     9.96097   79.84678   68.5585   9.06347   10.59763   -11.84443
 14330.5     9.99928   79.99208   67.73338   8.56639   10.93744   -11.4718
 14331     10.03758   79.04937   66.96556   8.01563   11.27726   -11.09917
 14331.5     10.03507   77.71763   68.0628   7.46487   11.51059   -11.09037
 14332     10.03075   79.0273   69.77924   7.3016   10.99882   -11.47169
 14332.5     10.02643   83.65585   71.49567   7.23899   10.48705   -11.853
 14333     10.02211   87.58279   70.58469   7.17639   9.97528   -12.23431
 14333.5     10.01779   89.2648   69.32308   7.11379   9.55396   -12.21976
 14334     10.01447   89.38429   68.06148   7.05118   9.83386   -12.02243
 14334.5     10.01118   89.31922   65.13351   6.98858   10.11375   -11.82509
 14335     10.00789   89.16388   61.48701   6.92598   10.35645   -11.62776
 14335.5     10.0046   89.00237   57.8766   6.86337   10.19832   -11.43043
 14336     10.00131   88.6163   57.87325   6.68947   10.04019   -11.2331
 14336.5     9.99802   88.15939   59.10329   6.46332   9.85001   -11.03577
 14337     10.0254   88.18874   60.4131   6.23716   9.21416   -11.18289
 14337.5     10.11814   88.21808   60.8166   6.011   8.42971   -11.61836
 14338     10.21088   88.23028   59.32285   5.78485   7.62869   -12.05384
 14338.5     10.30363   88.19866   56.86202   5.55869   6.82767   -12.30967
 14339     10.39637   88.16703   55.81961   5.33254   6.90479   -11.93723
 14339.5     10.46334   88.05267   57.23381   5.10638   7.07496   -11.56478
 14340     10.34883   88.98113   58.64801   4.88022   7.24513   -11.19233
 14340.5     10.23433   90.56439   59.62321   4.65407   7.09293   -10.81989
 14341     10.12004   91.36135   59.97726   4.42791   6.8082   -10.87093
 14341.5     10.0368   90.27555   61.62639   4.38928   6.52347   -11.4236
