###############################################
##         ENVERUS                           ##
##         ESS - Open Hole                   ##
##         PERMIAN / DELAWARE                ##
##         Nov 04 2023  V4.0                 ##
##         42-371-32680-00-00                ##
###############################################
## Copyright 2017-2023  ENVERUS.  All Rights Reserved. 
## Confidential - Property of ENVERUS, use governed by terms and 
## conditions found within the existing Information Services Subscription Agreement 
## (as may be amended, the “ISSA”) between Customer and ENVERUS. 
## 
~VERSION INFORMATION
# MNEM.UNIT                               DATA : DESCRIPTION OF MNEMONIC
#-----.-----     ----------------------------- : -----------------------------
VERS.                                     2.00 : CWLS LOG ASCII STANDARD - VERSION 2.00
WRAP.                                       NO : MULTIPLE LINES PER DEPTH STEP
VEND.                                  ENVERUS : VENDOR
TYPE.                          ESS - OPEN HOLE : ENVERUS ESSENTIAL CURVES – ACCESSIBLE THROUGH ENVERUS PRISM(TM)
DOC.                                  31991434 : ENVERUS HEADER RAW DOCUMENT ID
#___________________________________________________________________________________________________ 
~WELL INFORMATION 
# uAv5E/S3ZwrMaovXfwZJbnQ+z8RwnTA5GIEFL0LfM7mdkMX/8iXP+LiYgCnT3sJm4ejuYgXNUZeSPI/Yhcow4w== 
# MNEM.UNIT                                              DATA : DESCRIPTION OF MNEMONIC 
#-----.-----                    ----------------------------- : ----------------------------- 
CNTY.                                                   PECOS : COUNTY 
STATE.                                                  TEXAS : STATE 
CNTRY.                                                    USA : COUNTRY 
API.                                             42-371-32680 : API (10 Digit) 
API_14.                                    42-371-32680-00-00 : API (14 Digits) 
API_14_std.                                 42-371-32680-0000 : API (14 Digits Standard) 
UWI.                                           42371326800000 : UNIQUE WELL ID 
WELL.                                     MARALO - STEWART  1 : WELL NAME
STRT.FT                                                  21.0 : START DEPTH
STOP.FT                                               21630.0 : STOP DEPTH
STEP.FT                                                   0.5 : STEP BETWEEN DEPTHS
NULL.                                                 -999.25 : NULL VALUE
COMP.                                            MARALO, INC. : COMPANY 
DATE.                                             11-DEC-1978 : LOG DATE
#___________________________________________________________________________________________________ 
~CURVE INFORMATION 
# MNEM.UNIT           : CURVE DESCRIPTION 
#-----.-----          : ----------------------------- 
 DEPT.FT               : MEASURED DEPTH 
 GR__D.API             : GAMMA RAY (GR) 
 DT__D.US/FT           : SONIC DELTA TRANSIT TIME (DT) 
 RESD__D.OHMM          : DEEP INDUCTION RESISTIVITY (ILD - ILD) 
 #___________________________________________________________________________________________________ 
~A         DEPT          GR__D          DT__D        RESD__D
# ...
         5169.0          7.740         49.328       -999.250
         5169.5          6.233         49.380       -999.250
         5170.0          4.727         49.432       -999.250
         5170.5          4.178         49.483       -999.250
         5171.0          4.211         49.534       -999.250
         5171.5          4.245         49.459       -999.250
         5172.0          4.278         49.384       -999.250
         5172.5          4.868         49.308       -999.250
         5173.0          6.248         49.258       -999.250
         5173.5          7.629         49.447       -999.250
         5174.0          9.009         49.636       -999.250
         5174.5         10.390         49.825       -999.250
         5175.0          8.950         50.014       -999.250
         5175.5          7.358         50.204       -999.250
         5176.0          5.765         50.381       -999.250
         5176.5          4.173         50.505       -999.250
         5177.0          7.235         49.794       -999.250
         5177.5         10.358         48.393       -999.250
         5178.0         13.481         47.759       -999.250
         5178.5         16.604         48.708       -999.250
         5179.0         19.728         49.657       -999.250
         5179.5         22.851         50.210       -999.250
         5180.0         25.974         52.785       -999.250
         5180.5         29.655         59.174       -999.250
         5181.0         33.356         64.915       -999.250
         5181.5         37.058         69.189       -999.250
         5182.0         40.759         70.681       -999.250
         5182.5         44.460         71.543       -999.250
         5183.0         48.160         70.843       -999.250
         5183.5         50.272         67.709       -999.250
         5184.0         52.385         64.928       -999.250
         5184.5         54.497         64.080       -999.250
         5185.0         56.172         64.589       -999.250
         5185.5         57.563         65.098       -999.250
         5186.0         58.954         65.607       -999.250
         5186.5         65.954         66.116       -999.250
         5187.0         78.173         66.470       -999.250
         5187.5         83.069         66.420       -999.250
         5188.0         79.524         66.485       -999.250
         5188.5         75.979         66.180       -999.250
         5189.0         72.435         65.558       -999.250
         5189.5         68.890         64.937       -999.250
         5190.0         65.345         65.225       -999.250
         5190.5         61.801         65.807       -999.250
         5191.0         58.500         66.389       -999.250
         5191.5         66.453         66.858       -999.250
         5192.0         66.079         66.473       -999.250
         5192.5         63.319         65.968       -999.250
         5193.0         60.560         65.437       -999.250
         5193.5         57.800         65.145       -999.250
         5194.0         55.041         65.626       -999.250
         5194.5         54.144         66.534       -999.250
         5195.0         58.301         66.917       -999.250
         5195.5         62.459         66.863       -999.250
         5196.0         66.617         66.659       -999.250
         5196.5         65.562         66.118       -999.250
         5197.0         61.683         65.260       -999.250
         5197.5         57.804         65.157       -999.250
         5198.0         56.791         65.833       -999.250
         5198.5         62.971         66.508       -999.250
         5199.0         69.150         67.136       -999.250
         5199.5         75.330         67.182       -999.250
         5200.0         81.510         67.228       -999.250
         5200.5         87.690         66.700       -999.250
         5201.0         93.870         66.103       -999.250
         5201.5         97.830         65.920       -999.250
         5202.0         95.324         66.004       -999.250
         5202.5         92.819         66.312       -999.250
         5203.0         90.314         66.087       -999.250
         5203.5         87.809         65.466       -999.250
         5204.0         82.162         64.845       -999.250
         5204.5         73.434         62.583       -999.250
         5205.0         64.705         62.461       -999.250
         5205.5         55.977         67.062       -999.250
         5206.0         47.853         69.194       -999.250
         5206.5         68.684         71.326       -999.250
         5207.0         88.679         72.925       -999.250
         5207.5        101.019         73.050       -999.250
         5208.0        105.781         71.894       -999.250
         5208.5        105.832         69.420       -999.250
         5209.0        105.882         66.973       -999.250
         5209.5         74.725         66.273       -999.250
         5210.0         58.305         65.573       -999.250
         5210.5         55.654         64.864       -999.250
         5211.0         53.002         64.148       -999.250
         5211.5         49.749         63.431       -999.250
         5212.0         43.981         62.712       -999.250
         5212.5         38.212         62.324       -999.250
         5213.0         32.444         62.498       -999.250
         5213.5         33.558         62.672       -999.250
         5214.0         37.433         62.846       -999.250
         5214.5         41.308         63.021       -999.250
         5215.0         45.183         63.407       -999.250
         5215.5         49.226         65.256       -999.250
         5216.0         54.970         66.658       -999.250
         5216.5         60.714         67.924       -999.250
         5217.0         66.458         69.190       -999.250
         5217.5         72.202         70.188       -999.250
         5218.0         77.946         71.095       -999.250
         5218.5         72.496         71.907       -999.250
         5219.0         66.435         71.599       -999.250
         5219.5         60.374         71.239       -999.250
         5220.0         54.313         70.523       -999.250
         5220.5         48.252         69.807       -999.250
         5221.0         42.191         69.090       -999.250
         5221.5         40.205         68.817       -999.250
         5222.0         39.751         69.590       -999.250
         5222.5         39.296         70.930       -999.250
         5223.0         38.842         72.051       -999.250
         5223.5         38.387         73.172       -999.250
         5224.0         37.933         74.293       -999.250
         5224.5         37.478         74.395       -999.250
         5225.0         37.024         73.751       -999.250
         5225.5         36.569         73.107       -999.250
         5226.0         39.591         72.464       -999.250
         5226.5         43.041         71.931       -999.250
         5227.0         43.943         73.044       -999.250
         5227.5         42.872         74.156       -999.250
         5228.0         41.802         75.269       -999.250
         5228.5         40.731         76.120       -999.250
         5229.0         40.547         76.465       -999.250
         5229.5         42.656         76.810       -999.250
         5230.0         42.556         76.784       -999.250
         5230.5         40.856         76.632       -999.250
         5231.0         39.156         75.680       -999.250
         5231.5         37.457         74.516       -999.250
         5232.0         35.993         73.352       -999.250
         5232.5         34.679         73.140       -999.250
         5233.0         33.636         74.377       -999.250
         5233.5         34.864         75.613       -999.250
         5234.0         36.092         78.356       -999.250
         5234.5         37.320         78.790       -999.250
