#--------------------------------------------------#
#-------------------ENVERUS, INC.------------------#
#------------------WWW.ENVERUS.COM-----------------#
#------------------COPYRIGHT 2020------------------#
#--------------------------------------------------#
#THIS FILE MAY BE USED ONLY IN ACCORDANCE WITH A CURRENT SUBSCRIPTION AGREEMENT BETWEEN
#THE USER AND ENVERUS, INC. NO PART OF THIS FILE MAY BE REPRODUCED, USED, COPIED,
#MODIFIED, PROPAGATED, OR DISTRIBUTED EXCEPT IN ACCORDANCE WITH THE SUBSCRIPTION
#AGREEMENT. UNAUTHORIZED USE OR DISTRIBUTION OF ALL OR ANY PART OF THIS FILE MAY VIOLATE
#COPYRIGHT, TRADEMARK, AND/OR OTHER LAWS AND IS SUBJECT TO CIVIL AS WELL AS CRIMINAL
#SANCTIONS.
#--------------------------------------------------#
#THIS FILE IS PROVIDED "AS-IS" AND ALL WARRANTIES ARE EXPRESSLY DISCLAIMED, WHETHER
#EXPRESS, ORAL, IMPLIED, STATUTORY OR OTHERWISE, INCLUDING ANY IMPLIED WARRANTY OF FITNESS
#FOR A PARTICULAR PURPOSE, MERCHANTABILITY, TITLE OR NON-INFRINGEMENT, AND ANY WARRANTIES
#ARISING BY VIRTUE OF CUSTOM OF TRADE OR COURSE OF DEALING.  FURTHER, ENVERUS, INC.
#AND ITS LICENSORS DO NOT REPRESENT OR WARRANT THAT THIS FILE WILL MEET USER'S
#REQUIREMENTS OR ARE SUITABLE FOR USER'S NEEDS OR THAT THE DATA OR RESULTS PROVIDED IN
#CONJUNCTION THEREWITH ARE CORRECT, ACCURATE, TIMELY OR RELIABLE. THESE DISCLAIMERS SHALL
#APPLY REGARDLESS OF ANY FAILURE OF ESSENTIAL PURPOSE OF ANY LIMITED REMEDY.  SOME
#JURISDICTIONS DO NOT ALLOW THE EXCLUSION OF CERTAIN WARRANTIES SO SOME OF THE ABOVE
#EXCLUSIONS MAY NOT APPLY. IN NO EVENT SHALL ENVERUS, INC. OR ANY OF ITS AFFILIATES
#BE LIABLE UNDER ANY LEGAL THEORY, WHETHER IN TORT (INCLUDING WITHOUT LIMITATION
#NEGLIGENCE), CONTRACT, STRICT LIABILITY, STATUTORY OR OTHERWISE, FOR ANY SPECIAL,
#INCIDENTAL, CONSEQUENTIAL, EXEMPLARY, PUNITIVE OR INDIRECT DAMAGE OF ANY KIND, INCLUDING
#WITHOUT LIMITATION LOSS OF REVENUE, PROFITS, GOODWILL, USE, AND/OR DATA OR THE COST OF
#PROCUREMENT OF SUBSTITUTE GOODS OR SERVICES, EVEN IF APPRISED OF THE POSSIBILITY OF SUCH
#DAMAGES IN ADVANCE.
#--------------------------------------------------#

~VERSION INFORMATION
VERS. 2.0 : CWLS LOG ASCII STANDARD - VERSION 2.0
WRAP.  NO : ONE LINE PER DEPTH STEP
~WELL INFORMATION
#MNEMONIC     .UNIT              VALUE :DESCRIPTION
STRT       .FT                101 :START DEPTH
STOP       .FT                5444 :STOP DEPTH
STEP       .FT                   0.500 :STEP
NULL       .                  -999.99 :NULL
UWI        .                42389004350000 :UNIQUE WELL ID
API        .                42389004350000 :API NUMBER
COMP       .         :COMPANY
WELL       .        :WELL
DATE       .                 :LOG DATE
FLD       .                 :FIELD NAME
LOC       .                  UNK :LOCATION
CNTY       .                 UNK :COUNTY
STAT       .                 UNK :STATE
CTRY       .                 UNK :COUNTY
SRVC       .                 UNK :SERVICE COMPANY
~CURVE INFORMATION
#MNEMONIC     .UNIT      API CODE :CURVE DESCRIPTION
DEPTH       .FT                      :MEASURED DEPTH
DT.MSEC/FT        UNKNOWN   :DT
GR.API        UNKNOWN   :GR
~A    DEPTH    DT    GR
# ...
 1868     40.05166   6.85261
 1868.5     40.03849   6.60398
 1869     40.02531   6.60851
 1869.5     40.01214   8.63851
 1870     39.99896   10.66851
 1870.5     39.98579   12.69851
 1871     39.97261   14.7285
 1871.5     39.95944   16.7585
 1872     39.94626   18.7885
 1872.5     39.93309   20.8185
 1873     39.91992   18.46671
 1873.5     39.90674   15.9666
 1874     39.89357   13.4665
 1874.5     39.88039   10.96639
 1875     39.86722   8.46629
 1875.5     39.85404   5.96618
 1876     39.84087   4.49491
 1876.5     39.82769   4.49515
 1877     39.81452   4.49538
 1877.5     39.80134   4.49562
 1878     39.78817   5.96154
 1878.5     39.77499   7.96837
 1879     39.76182   7.65966
 1879.5     39.74864   6.3016
 1880     68.79167   4.94353
 1880.5     68.03428   3.58547
 1881     68.28473   2.81283
 1881.5     68.53518   2.93819
 1882     68.78563   3.06354
 1882.5     69.03608   3.18889
 1883     68.70552   3.31424
 1883.5     67.42555   3.43959
 1884     66.14558   3.53974
 1884.5     64.86561   3.40398
 1885     68.62853   3.26823
 1885.5     68.27553   3.13248
 1886     67.92254   2.99673
 1886.5     68.08542   2.86097
 1887     68.5566   2.9024
 1887.5     69.02777   3.3553
 1888     69.12543   3.8082
 1888.5     68.62736   4.2611
 1889     68.1293   4.714
 1889.5     67.63123   5.1669
 1890     67.13317   5.56705
 1890.5     67.50352   4.44707
 1891     68.11275   3.32709
 1891.5     68.72198   2.78115
 1892     69.3312   3.2557
 1892.5     69.94043   3.73025
 1893     70.54966   4.2048
 1893.5     71.15889   4.15073
 1894     71.66257   3.87537
 1894.5     71.61389   3.60002
 1895     71.5652   3.32466
 1895.5     71.51652   3.04931
 1896     71.46784   2.77395
 1896.5     71.41916   2.4986
 1897     68.72587   3.01509
 1897.5     66.60083   3.6814
 1898     64.47579   4.34771
 1898.5     67.04605   5.01403
 1899     70.01184   5.68034
 1899.5     66.23848   5.45302
 1900     62.46512   4.71216
 1900.5     58.69176   4.64404
 1901     54.9184   5.22739
 1901.5     51.14888   5.81074
 1902     47.80425   6.39409
 1902.5     44.45962   6.97744
 1903     43.43485   7.56079
 1903.5     47.17785   8.14414
 1904     50.92085   8.37187
 1904.5     54.66385   7.26666
 1905     44.36228   6.16145
 1905.5     48.31178   5.05624
 1906     52.26128   3.95103
 1906.5     56.21079   4.28668
 1907     60.16029   4.72577
 1907.5     64.10979   5.16486
 1908     68.0593   5.60394
 1908.5     67.75272   6.04303
 1909     70.04702   6.30721
 1909.5     72.34131   5.81153
 1910     67.04437   5.8253
 1910.5     68.88482   6.1816
 1911     72.29851   6.53791
 1911.5     73.19009   6.89422
 1912     67.9157   7.25052
 1912.5     66.72852   7.60683
 1913     67.5246   6.73678
 1913.5     68.32068   5.64185
 1914     69.11675   4.54692
 1914.5     69.91283   3.5477
 1915     61.28394   3.38176
 1915.5     61.36413   3.21581
 1916     61.44432   3.04987
 1916.5     40.32976   2.88392
 1917     39.95999   2.9949
 1917.5     42.47418   3.6
 1918     47.48223   4.20511
 1918.5     52.49028   4.81021
 1919     57.49832   5.41532
 1919.5     57.84171   5.48212
 1920     57.48433   5.283
 1920.5     57.29706   5.08388
 1921     57.52103   5.21416
 1921.5     57.745   5.66704
 1922     57.96897   6.11991
 1922.5     58.01919   6.57279
 1923     56.41136   7.02566
 1923.5     54.80353   7.24609
 1924     54.35539   6.87799
 1924.5     54.45159   6.5099
 1925     54.45179   6.1418
 1925.5     52.03247   5.7737
 1926     52.71572   5.40561
 1926.5     55.11192   5.03751
 1927     57.50811   4.66942
 1927.5     61.05124   4.30132
 1928     65.30528   4.26188
 1928.5     69.55932   5.00816
 1929     67.5826   5.75443
 1929.5     64.50407   6.50071
 1930     61.42553   7.24699
 1930.5     58.347   7.99327
 1931     53.27489   8.73954
 1931.5     52.09398   11.20273
 1932     53.72068   15.15453
 1932.5     54.90531   19.10633
 1933     55.05524   23.05813
 1933.5     55.20518   29.06102
 1934     55.35511   62.66469
 1934.5     55.46488   78.86791
 1935     54.92824   86.75266
 1935.5     54.39159   88.90931
 1936     53.85494   83.54189
 1936.5     53.31829   58.65205
 1937     52.78164   39.95055
 1937.5     52.24499   26.37256
 1938     51.97421   12.79458
 1938.5     52.07438   8.96614
 1939     52.17455   6.20767
 1939.5     52.45435   3.78343
 1940     53.28612   3.13041
 1940.5     54.1179   2.47739
 1941     56.11565   2.36123
 1941.5     59.31712   2.77265
 1942     62.51859   3.18407
 1942.5     65.41444   3.59549
 1943     67.56857   4.00691
 1943.5     69.72269   4.41833
 1944     71.87681   5.28097
 1944.5     73.47638   6.28894
 1945     69.86269   7.29692
 1945.5     67.62003   8.30489
 1946     67.89795   9.31286
 1946.5     65.18551   10.32084
 1947     63.5882   11.32881
 1947.5     64.61457   12.33679
 1948     65.20682   12.87231
 1948.5     64.20494   12.8724
 1949     63.20305   11.86685
 1949.5     68.99992   9.11527
 1950     67.81882   6.36369
 1950.5     66.63772   3.61212
 1951     66.50894   2.7732
 1951.5     67.95341   3.64377
 1952     69.39788   4.51434
 1952.5     67.96407   5.38491
 1953     64.04602   6.25547
 1953.5     60.12797   7.12604
 1954     58.99648   7.99661
 1954.5     58.00003   8.86718
 1955     58.5313   8.43213
 1955.5     60.83593   7.54482
 1956     63.14057   6.65751
 1956.5     65.44521   6.20558
 1957     67.74985   6.11585
 1957.5     67.69487   6.02612
 1958     66.25497   5.93639
 1958.5     64.81508   5.84666
 1959     63.37518   5.69827
 1959.5     67.95648   5.39989
 1960     62.70797   5.10151
 1960.5     62.41421   4.80313
 1961     64.26819   4.50475
 1961.5     66.12216   4.20637
 1962     67.97613   3.90799
 1962.5     69.83011   3.60961
 1963     70.45798   4.19495
 1963.5     69.65241   4.89161
 1964     68.84685   5.58827
 1964.5     68.04128   6.28493
 1965     67.23571   6.98159
 1965.5     66.43015   6.79477
 1966     67.2696   6.20056
 1966.5     68.23409   5.60636
 1967     69.19858   5.01216
 1967.5     70.07685   4.41795
 1968     68.77219   4.7143
 1968.5     69.46965   5.09812
 1969     70.16712   5.48193
 1969.5     70.86458   5.86575
 1970     62.34148   6.24956
 1970.5     52.75481   6.50423
 1971     51.5529   6.08367
 1971.5     50.351   5.66311
 1972     49.75314   5.24255
 1972.5     51.68307   4.82199
 1973     53.61299   4.40143
 1973.5     54.93696   3.98087
 1974     54.52454   3.56031
 1974.5     54.11212   3.13975
 1975     53.8288   2.86161
 1975.5     54.16527   3.29259
 1976     54.50174   3.72358
 1976.5     54.83821   4.15457
 1977     54.03389   4.26395
 1977.5     53.1796   4.06471
 1978     52.32531   3.86547
 1978.5     51.47102   3.66624
 1979     51.66693   3.467
 1979.5     51.93516   3.26777
 1980     52.2034   3.58767
 1980.5     52.47164   6.22575
 1981     52.49342   8.86383
 1981.5     52.39201   11.50191
 1982     52.29059   14.13999
 1982.5     52.34044   16.77807
 1983     52.52549   19.41615
 1983.5     52.71055   22.05423
 1984     52.8956   25.2108
 1984.5     53.08065   25.63296
 1985     53.2657   26.05513
 1985.5     53.15628   24.28045
 1986     52.91108   20.21423
 1986.5     52.66589   16.148
 1987     52.42069   12.08178
 1987.5     52.4092   8.01555
 1988     52.60364   5.76198
 1988.5     52.79808   5.71206
 1989     52.99253   5.66214
 1989.5     53.11121   5.61222
 1990     53.03387   5.5623
 1990.5     52.95652   5.51239
 1991     52.87918   5.56564
 1991.5     52.80184   6.26236
 1992     52.7245   6.95907
 1992.5     52.8038   7.65578
 1993     53.02948   8.35249
 1993.5     53.25516   9.04921
 1994     53.48085   8.60712
 1994.5     53.70653   8.08651
 1995     53.53678   7.5659
 1995.5     53.21685   7.04529
 1996     52.89692   6.52468
 1996.5     52.577   6.00407
 1997     52.25707   5.87789
 1997.5     52.15841   6.0397
 1998     52.23867   6.2015
 1998.5     52.31893   6.3633
 1999     52.39919   6.52511
 1999.5     52.47945   6.68691
 2000     52.41147   6.84871
 2000.5     52.30601   6.61226
 2001     52.20056   6.25011
 2001.5     52.0951   5.88797
