~Version Information Block
 VERS.                2.00:     CWLS LOG ASCII STANDARD - VERSION 2.000000
 WRAP.                  NO:     One Line Per Depth Step
#
~Well Information Block
#MNEM.UNIT                     Data                         Information
#----------   ------------------------------------------   ----------------
# Enverus has updated the API/UWI.  The previous names are renamed to  PREV_API / PREV_UWI
API.                             42-371-39483-90-00 : API (14 Digits with Dashes)
UWI.                                 42371394839000 : UNIQUE WELL ID

 STRT.FT                                    10010.0000:     START DEPTH
 STOP.FT                                    11812.0000:     STOP DEPTH
 STEP.FT                                        0.5000:     STEP
 NULL.                                       -999.2500:     NULL VALUE
 COMP.                           PATRIOT RESOURCES INC:     COMPANY
 WELL.                        ROOSTERFISH UNIT 22NE 1H:     WELL
 FLD .                             WOLFBONE TREND AREA:     FIELD
 LOC .                                                :     LOCATION
 SEC .                                              22:     SECTION
 CNTY.                                          PEACOS:     COUNTY
 STAT.                                           TEXAS:     STATE
 CTRY.                                           U.S.A:     COUNTRY
 SRVC.                                    SCHLUMBERGER:     SERVICE COMPANY
 DATE.                                      03/18/2017:     DATE
PREV_APII .                                  42371394830000:     API NUMBER
 PREV_UWI .                                  42371394830000:     UWI NUMBER
 TVD .                                              NO:     TVD flag
 WSTA.                                             LOC:     Well status
#
~Curve Information Block
#MNEM.UNIT       API CODE      Curve Description
#----------    -------------   -------------------
 DEPT.FT                   :   Depth in Feet
 ECGR.GAPI     35 310 01 01:   Environmentally Corrected Gamma Ray
 CALI.IN       70 280 01 01:   Caliper
 TENS.LBS                  :   Tension
 SPHI_476.V/V  61 890 01 01:   Sonic Porosity 47.6 Matrix
 DT  .US/F     60 520 08 01:   Delta-T
 DTSM.US/F                 :   Delta-T Shear Measurement
 STIT.FT/H                 :   STIT
#
~Parameter Information Block
#MNEM.UNIT            Value               Description
#----------    --------------------    -------------------
 RUN .                         ONE:    Run Number
 PDAT.                          GL:    Permanent Datum
 EPD .FT                        25:    Elevation Of Perm. Datum
 LMF .               KELLY BUSHING:    Log Measured From
 EKB .FT                          :    Elevation Of Kelly Bushing
 DF .FT                           :    Elevation Of Derrick Floor
 GL .FT                         25:    Elevation Of Ground Level
 TD  .FT                     18979:    Total Depth
 CSGD.FT                      5100:    Casing Bottom (Driller) 1
 CSGL.FT                     18979:    Casing Bottom (Logger) 1
 MUD .                   OIL BASED:    Drilling Fluid Type
 MUDV .CP                      102:    Drilling Fluid Viscosity
 MUDD .LB/USG                 13.0:    Drilling Fluid Density
 FL .ML/30MIN                     :    Drilling Fluid Loss
 PH.                           8.8:    Drilling Fluid Ph
 MUDS .                           :    Mud Sample Source
 RM .OHMM                         :    Resistivity Of Mud Sample
 RMT .DEGF                        :    Mud Sample Temperature
 RMF .OHMM                        :    Mud Filtrate Resistivity
 RMFT.DEGF                        :    Mud Filtrate Sample Temperature
 RMC .OHMM                        :    Mud Cake Resistivity
 RMCT.DEGF                        :    Mud Cake Sample Temperature
 RMB .OHMM                        :    Mud Resistivity At Bht
 TMAX .DEGF                    152:    Bottom Hole Temperature
#
~Other Information Block
<DescLogPlotStart>   NEURALOG PLOT DEFINITION
PLOTDEFVERSION: 3
LASFILE: D:\nds\projects\poojawells\December data\PoojaWells Digitizing_Cassidy
DEPTHSCALE: 240.000000
RESOLUTION: 144
DEPTHLABELFREQ: 100.000000
HEAVYGRIDFREQ: 100.000000
MEDIUMGRIDFREQ: 50.000000
LIGHTGRIDFREQ: 10.000000
#
#   TRACK 1
#
STARTTRACK: 
 LEFTX: 0.500000 inch
 RIGHTX: 3.000000 inch
 SCALETYPE: Linear
 NUMCHARTDIVISIONS: 10
CURVE: ECGR  0.000000   150.000000 (0,0,255)      Solid             2     Y    
BACKUP: 150.000000 300.000000 (0,0,255)      Solid             2    
CURVE: CALI  6.000000   16.000000  (0,131,131)    Dot               2     Y    
BACKUP: -4.000000  6.000000   (0,131,131)    Dot               2    
CURVE: TENS  10000.000000 0.000000   (255,0,255)    Short_Dash        2     N  
ENDTRACK: 
#
#   TRACK 2
#
STARTTRACK: 
 LEFTX: 3.500000 inch
 RIGHTX: 8.500000 inch
 SCALETYPE: Linear
 NUMCHARTDIVISIONS: 10
CURVE: SPHI_476 0.300000   -0.100000  (255,0,0)      Solid             2     N 
CURVE: DT    140.000000 40.000000  (255,131,0)    Dot               2     N    
CURVE: DTSM  240.000000 40.000000  (255,255,0)    Short_Dash        2     N    
ENDTRACK: 
#
#   TRACK 3
#
STARTTRACK: 
 LEFTX: 8.500000 inch
 RIGHTX: 9.256944 inch
 SCALETYPE: Linear
 NUMCHARTDIVISIONS: 10
CURVE: STIT  0.000000   50.000000  (0,0,255)      Solid             2     N    
ENDTRACK: 
<DescLogPlotEnd>
~A DEPTH     ECGR             CALI             TENS             SPHI_476             DT               DTSM             STIT            
# ...
   11169.000 82.61808149      8.34487213       4594.97206704    0.27075209       85.79645293      158.24512535     0.64790485      
   11169.500 86.96909882      8.35018628       4594.97206704    0.27075209       86.01671309      159.93500464     0.64835021      
   11170.000 95.95667207      8.35953254       4594.97206704    0.27743733       86.80826370      161.49489322     0.64879556      
   11170.500 105.93441200     8.36889840       4609.36637457    0.28412256       87.70194986      161.64345404     0.64924092      
   11171.000 102.69584654     8.37865629       4622.75463458    0.28802228       87.98050139      160.75208914     0.64968627      
   11171.500 102.30376709     8.39090057       4607.83933609    0.28052925       86.84018106      159.83286908     0.65013163      
   11172.000 100.63633705     8.40297039       4591.08811215    0.26830084       85.28461217      158.86234734     0.65057698      
   11172.500 104.37702591     8.41541882       4577.26114705    0.25682451       83.92453669      157.99354561     0.65102234      
   11173.000 106.96771549     8.42914929       4571.30523855    0.25292479       83.25818754      155.69972471     0.65146769      
   11173.500 104.91935206     8.39218640       4585.74794509    0.25626741       83.71934025      153.00037042     0.65191305      
   11174.000 95.93613800      8.34786661       4589.89085200    0.26193748       84.49995281      155.64086913     0.65235840      
   11174.500 86.42310856      8.34985076       4575.33516144    0.26683999       85.23520127      156.35528097     0.65280376      
   11175.000 78.39923626      8.46858341       4560.81727072    0.27242340       85.87644550      159.03277599     0.65324911      
   11175.500 84.00090583      8.59248192       4546.68794892    0.27530176       86.44103497      158.10693293     0.65369447      
   11176.000 92.15722147      8.73300458       4556.37379380    0.27760446       86.79187939      156.86388583     0.65413982      
   11176.500 94.92571272      8.87028822       4592.94057897    0.27576602       86.45359717      160.45633081     0.65458518      
   11177.000 87.34486113      8.57211504       4629.50736414    0.28313835       87.59104823      161.86629526     0.65503053      
   11177.500 81.16695714      8.34277938       4641.52700186    0.29303621       88.81873079      159.91643454     0.65547589      
   11178.000 86.25352133      8.36359603       4619.18063315    0.29558496       89.55244686      165.20891365     0.65592124      
   11178.500 95.22998569      8.37833584       4594.97206704    0.29582173       89.56125520      164.93036212     0.65636660      
   11179.000 101.06805771     8.39185342       4537.36033520    0.29214485       88.79259819      162.78551532     0.65681195      
   11179.500 102.75659499     8.40234845       4474.51117318    0.28884201       88.37047354      161.03064067     0.65725731      
   11180.000 103.35316638     8.40177695       4535.11572227    0.28833079       88.17200557      166.60167131     0.65770266      
   11180.500 101.82919492     8.40165633       4650.03990423    0.28988696       88.46332405      162.11699164     0.65814802      
   11181.000 99.12925075      8.40009392       4697.40065898    0.29410028       88.99373259      160.83963390     0.65859337      
   11181.500 96.34745606      8.39620373       4723.89265957    0.29635866       89.36977716      161.69916435     0.65903873      
   11182.000 92.74026766      8.39243477       4689.27920979    0.29855153       89.77715877      161.69373231     0.65948408      
   11182.500 91.05501721      8.38868114       4596.27582068    0.30083565       90.06963788      163.34166714     0.65992944      
   11183.000 97.37302673      8.38494385       4593.96889629    0.29928134       89.93036212      161.63941879     0.66037479      
   11183.500 109.88271576     8.38121477       4594.97206704    0.29747632       89.60306407      164.37177098     0.66082015      
   11184.000 117.56414425     8.37748669       4610.33519553    0.29582173       89.37325905      167.22742044     0.66126550      
   11184.500 114.72265879     8.37377208       4619.76256983    0.29805014       89.79108635      166.76965689     0.66171086      
   11185.000 110.65626112     8.37364131       4607.19273743    0.29816196       89.65181058      165.50988066     0.66215621      
   11185.500 100.19313562     8.37362023       4594.97206704    0.30018957       90.22284123      165.28587334     0.66260157      
   11186.000 94.64217942      8.37360561       4579.95554339    0.30032822       90.20717270      164.15028529     0.66304692      
   11186.500 90.94809537      8.37359575       4567.18416439    0.30026584       90.01915042      162.70587938     0.66349228      
   11187.000 100.37198459     8.37358814       4607.98750365    0.30038256       90.34818942      161.05108517     0.66393763      
   11187.500 111.29685663     8.37356770       4650.62630881    0.30027855       91.39275766      154.97922875     0.66438299      
   11188.000 115.38317934     8.37350784       4622.13551980    0.30027855       91.67479109      150.05318609     0.66482834      
   11188.500 110.37588341     8.37169754       4588.45437616    0.30027855       92.52646240      145.76737770     0.66527370      
   11189.000 85.12323771      8.36207649       4554.93482309    0.30027855       95.64066852      137.14853801     0.66571905      
   11189.500 56.07852295      8.35243434       4560.33519553    0.13871866       67.22841226      130.48763871     0.66616441      
   11190.000 40.72912062      8.34279825       4600.55865922    0.15208914       69.17827298      127.80342220     0.66660976      
   11190.500 38.96358717      8.33319584       4640.78212291    0.15511142       69.34540390      125.65459610     0.66705512      
   11191.000 42.36452860      8.32371297       4631.98324022    0.16689415       71.15320334      128.91364903     0.66750047      
   11191.500 44.73310304      8.32138742       4606.84357542    0.18623955       73.86072423      132.89693593     0.66794583      
   11192.000 58.55751624      8.33453205       4573.74301676    0.20830084       76.56824513      125.93314763     0.66839118      
   11192.500 75.58524153      8.34731385       4539.10614525    0.23028595       79.78934540      133.94150418     0.66883653      
   11193.000 93.21330671      8.36000194       4596.36871508    0.25257943       83.23642061      142.17867091     0.66928189      
   11193.500 111.43028292     8.37370897       4646.64804469    0.27003995       85.84493965      150.41583764     0.66972724      
   11194.000 109.40222419     8.40466588       4674.23184358    0.28203316       87.08913649      157.96657382     0.67017260      
   11194.500 106.52864421     8.43835953       4661.66201117    0.28696498       88.09192201      160.86350975     0.67061795      
   11195.000 96.30908205      8.46266944       4650.83798883    0.29164345       88.88579387      163.55750099     0.67106331      
   11195.500 98.35790108      8.47373210       4585.39505188    0.29632312       89.38718663      166.27934739     0.67150866      
   11196.000 100.35369284     8.48471923       4547.48603352    0.29637883       89.73073352      167.62116992     0.67195402      
   11196.500 108.15474643     8.49572594       4590.58260176    0.29913649       89.89786444      167.43732591     0.67239937      
   11197.000 111.27951247     8.50715852       4633.67916999    0.29972145       90.06963788      168.52367688     0.67284473      
   11197.500 116.84120506     8.53651731       4676.77573823    0.29972145       89.94888420      169.02506964     0.67329008      
   11198.000 115.68331625     8.52985858       4682.12290503    0.29972145       90.06346341      168.83008357     0.67373544      
   11198.500 117.29761427     8.51822184       4594.97206704    0.29972145       90.23184119      169.66573816     0.67418079      
   11199.000 113.07730092     8.49906758       4529.13008779    0.29510864       89.36919492      167.92943361     0.67462615      
