###############################################
##         ENVERUS                           ##
##         ESS - Open Hole                   ##
##         PERMIAN / DELAWARE                ##
##         Nov 04 2023  V4.0                 ##
##         42-389-30075-00-00                ##
###############################################
## Copyright 2017-2023  ENVERUS.  All Rights Reserved. 
## Confidential - Property of ENVERUS, use governed by terms and 
## conditions found within the existing Information Services Subscription Agreement 
## (as may be amended, the “ISSA”) between Customer and ENVERUS. 
## 
~VERSION INFORMATION
# MNEM.UNIT                               DATA : DESCRIPTION OF MNEMONIC
#-----.-----     ----------------------------- : -----------------------------
VERS.                                     2.00 : CWLS LOG ASCII STANDARD - VERSION 2.00
WRAP.                                       NO : MULTIPLE LINES PER DEPTH STEP
VEND.                                  ENVERUS : VENDOR
TYPE.                          ESS - OPEN HOLE : ENVERUS ESSENTIAL CURVES – ACCESSIBLE THROUGH ENVERUS PRISM(TM)
DOC.                                  32306518 : ENVERUS HEADER RAW DOCUMENT ID
#___________________________________________________________________________________________________ 
~WELL INFORMATION 
# kPY+8M9YT4rQMtoZY4hkcKqQFbcx8dAfbukAxGfLCr0mY2TilAra5+x7Ygngqds2nYZXTdz9AGmqNniTAH+qTQ== 
# MNEM.UNIT                                              DATA : DESCRIPTION OF MNEMONIC 
#-----.-----                    ----------------------------- : ----------------------------- 
CNTY.                                                  REEVES : COUNTY 
STATE.                                                  TEXAS : STATE 
CNTRY.                                                    USA : COUNTRY 
API.                                             42-389-30075 : API (10 Digit) 
API_14.                                    42-389-30075-00-00 : API (14 Digits) 
API_14_std.                                 42-389-30075-0000 : API (14 Digits Standard) 
UWI.                                           42389300750000 : UNIQUE WELL ID 
WELL.                                        CAMPBELL STATE 1 : WELL NAME
STRT.FT                                                   5.0 : START DEPTH
STOP.FT                                               20980.0 : STOP DEPTH
STEP.FT                                                   0.5 : STEP BETWEEN DEPTHS
NULL.                                                 -999.25 : NULL VALUE
#___________________________________________________________________________________________________ 
~CURVE INFORMATION 
# MNEM.UNIT           : CURVE DESCRIPTION 
#-----.-----          : ----------------------------- 
 DEPT.FT               : MEASURED DEPTH 
 CALI.IN               : CALIPER (CAL - CAL) 
 GR.API                : GAMMA RAY (GR) 
 DT.US/FT              : SONIC DELTA TRANSIT TIME (DT) 
 NPHI.V/V              : NEUTRON POROSITY (NPHI) 
 #___________________________________________________________________________________________________ 
~A         DEPT           CALI             GR             DT           NPHI
# ...
        20198.0          7.029         52.688       -999.250        0.06125
        20198.5          7.012         52.587       -999.250        0.06306
        20199.0          7.014         52.487       -999.250        0.06487
        20199.5          7.017         50.998       -999.250        0.06668
        20200.0          7.020         47.705       -999.250        0.07044
        20200.5          7.023         50.212       -999.250        0.08527
        20201.0          7.012         53.698       -999.250        0.09234
        20201.5          6.993         55.863       -999.250        0.09791
        20202.0          6.975         53.844       -999.250        0.10348
        20202.5          6.956         51.826       -999.250        0.10904
        20203.0          6.938         49.808       -999.250        0.10644
        20203.5          6.919         47.789       -999.250        0.10153
        20204.0          6.901         48.763       -999.250        0.09662
        20204.5          6.882         50.302       -999.250        0.09171
        20205.0          6.882         51.842       -999.250        0.08680
        20205.5          6.891         53.179       -999.250        0.08189
        20206.0          6.900         53.534       -999.250        0.07698
        20206.5          6.909         53.889       -999.250        0.07207
        20207.0          6.918         54.244       -999.250        0.06927
        20207.5          6.927         54.599       -999.250        0.06685
        20208.0          6.937         52.420       -999.250        0.06444
        20208.5          6.946         49.817       -999.250        0.06266
        20209.0          6.955         47.213       -999.250        0.06104
        20209.5          6.964         44.609       -999.250        0.05943
        20210.0          6.973         42.005       -999.250        0.05781
        20210.5          6.982         39.401       -999.250        0.05620
        20211.0          6.991         36.797       -999.250        0.05459
        20211.5          7.000         36.024       -999.250        0.05297
        20212.0          7.010         35.757       -999.250        0.05222
        20212.5          7.019         35.489       -999.250        0.05373
        20213.0          7.028         35.221       -999.250        0.06311
        20213.5          7.037         41.043       -999.250        0.07351
        20214.0          7.046         48.605       -999.250        0.08391
        20214.5          7.055         56.167       -999.250        0.08655
        20215.0          7.064         60.595       -999.250        0.08785
        20215.5          7.074         62.867       -999.250        0.08915
        20216.0          7.083         65.138       -999.250        0.09045
        20216.5          7.092         68.766       -999.250        0.09200
        20217.0          7.156         74.130       -999.250        0.10331
        20217.5          7.234         79.495       -999.250        0.11463
        20218.0          7.311         83.586       -999.250        0.12594
        20218.5          7.389         85.013       -999.250        0.13725
        20219.0          7.467         86.441       -999.250        0.14857
        20219.5          7.544         87.868       -999.250        0.15988
        20220.0          7.622         89.295       -999.250        0.16168
        20220.5          7.631         90.723       -999.250        0.15855
        20221.0          7.630         90.464       -999.250        0.15541
        20221.5          7.628         90.197       -999.250        0.15227
        20222.0          7.627         89.929       -999.250        0.14913
        20222.5          7.626         89.662       -999.250        0.14592
        20223.0          7.625         87.674       -999.250        0.14250
        20223.5          7.624         85.664       -999.250        0.13908
        20224.0          7.622         83.654       -999.250        0.13566
        20224.5          7.619         81.645       -999.250        0.13224
        20225.0          7.553         79.635       -999.250        0.12882
        20225.5          7.487         77.625       -999.250        0.12539
        20226.0          7.421         75.615       -999.250        0.12197
        20226.5          7.355         74.913       -999.250        0.11649
        20227.0          7.289         74.883       -999.250        0.10955
        20227.5          7.223         74.853       -999.250        0.10260
        20228.0          7.179         74.823       -999.250        0.09565
        20228.5          7.164         74.794       -999.250        0.08870
        20229.0          7.148         74.764       -999.250        0.08176
        20229.5          7.133         74.055       -999.250        0.07481
        20230.0          7.118         63.003       -999.250        0.07292
        20230.5          7.102         53.086       -999.250        0.07418
        20231.0          7.086         53.437       -999.250        0.07545
        20231.5          7.063         53.788       -999.250        0.07672
        20232.0          7.039         54.139       -999.250        0.06772
        20232.5          7.015         54.490       -999.250        0.04764
        20233.0          6.992         54.840       -999.250        0.02756
        20233.5          6.968         53.858       -999.250        0.02308
        20234.0          6.945         51.479       -999.250        0.02513
        20234.5          6.921         49.101       -999.250        0.02719
        20235.0          6.897         46.722       -999.250        0.02925
        20235.5          6.874         44.343       -999.250        0.03130
        20236.0          6.850         41.964       -999.250        0.03336
        20236.5          6.827         39.585       -999.250        0.03490
        20237.0          6.809         37.206       -999.250        0.03539
        20237.5          6.796         34.853       -999.250        0.03587
        20238.0          6.783         33.914       -999.250        0.03636
        20238.5          6.770         32.975       -999.250        0.03684
        20239.0          6.758         32.036       -999.250        0.03733
        20239.5          6.745         36.509       -999.250        0.07224
        20240.0          6.732         44.751       -999.250        0.10853
        20240.5          6.889         75.459       -999.250        0.14483
        20241.0          7.042         95.823       -999.250        0.15177
        20241.5          7.037         97.944       -999.250        0.14624
        20242.0          7.032         95.969       -999.250        0.14070
        20242.5          7.027         93.994       -999.250        0.13517
        20243.0          7.022         92.019       -999.250        0.12627
        20243.5          7.018         88.307       -999.250        0.11652
        20244.0          7.013         80.666       -999.250        0.10676
        20244.5          7.008         73.025       -999.250        0.09701
        20245.0          7.003         65.383       -999.250        0.08726
        20245.5          6.998         57.742       -999.250        0.07751
        20246.0          6.994         50.101       -999.250        0.06775
        20246.5          6.989         46.151       -999.250        0.05800
        20247.0          6.984         44.354       -999.250        0.06015
        20247.5          6.979         42.557       -999.250        0.06500
        20248.0          6.974         40.760       -999.250        0.06984
        20248.5          6.986         38.963       -999.250        0.07154
        20249.0          7.040         37.166       -999.250        0.07169
        20249.5          7.094         38.300       -999.250        0.07184
        20250.0          7.148         44.566       -999.250        0.07168
        20250.5          7.202         50.831       -999.250        0.07094
