#--------------------------------------------------#
#-------------------ENVERUS, INC.------------------#
#------------------WWW.ENVERUS.COM-----------------#
#------------------COPYRIGHT 2020------------------#
#--------------------------------------------------#
#THIS FILE MAY BE USED ONLY IN ACCORDANCE WITH A CURRENT SUBSCRIPTION AGREEMENT BETWEEN
#THE USER AND ENVERUS, INC. NO PART OF THIS FILE MAY BE REPRODUCED, USED, COPIED,
#MODIFIED, PROPAGATED, OR DISTRIBUTED EXCEPT IN ACCORDANCE WITH THE SUBSCRIPTION
#AGREEMENT. UNAUTHORIZED USE OR DISTRIBUTION OF ALL OR ANY PART OF THIS FILE MAY VIOLATE
#COPYRIGHT, TRADEMARK, AND/OR OTHER LAWS AND IS SUBJECT TO CIVIL AS WELL AS CRIMINAL
#SANCTIONS.
#--------------------------------------------------#
#THIS FILE IS PROVIDED "AS-IS" AND ALL WARRANTIES ARE EXPRESSLY DISCLAIMED, WHETHER
#EXPRESS, ORAL, IMPLIED, STATUTORY OR OTHERWISE, INCLUDING ANY IMPLIED WARRANTY OF FITNESS
#FOR A PARTICULAR PURPOSE, MERCHANTABILITY, TITLE OR NON-INFRINGEMENT, AND ANY WARRANTIES
#ARISING BY VIRTUE OF CUSTOM OF TRADE OR COURSE OF DEALING.  FURTHER, ENVERUS, INC.
#AND ITS LICENSORS DO NOT REPRESENT OR WARRANT THAT THIS FILE WILL MEET USER'S
#REQUIREMENTS OR ARE SUITABLE FOR USER'S NEEDS OR THAT THE DATA OR RESULTS PROVIDED IN
#CONJUNCTION THEREWITH ARE CORRECT, ACCURATE, TIMELY OR RELIABLE. THESE DISCLAIMERS SHALL
#APPLY REGARDLESS OF ANY FAILURE OF ESSENTIAL PURPOSE OF ANY LIMITED REMEDY.  SOME
#JURISDICTIONS DO NOT ALLOW THE EXCLUSION OF CERTAIN WARRANTIES SO SOME OF THE ABOVE
#EXCLUSIONS MAY NOT APPLY. IN NO EVENT SHALL ENVERUS, INC. OR ANY OF ITS AFFILIATES
#BE LIABLE UNDER ANY LEGAL THEORY, WHETHER IN TORT (INCLUDING WITHOUT LIMITATION
#NEGLIGENCE), CONTRACT, STRICT LIABILITY, STATUTORY OR OTHERWISE, FOR ANY SPECIAL,
#INCIDENTAL, CONSEQUENTIAL, EXEMPLARY, PUNITIVE OR INDIRECT DAMAGE OF ANY KIND, INCLUDING
#WITHOUT LIMITATION LOSS OF REVENUE, PROFITS, GOODWILL, USE, AND/OR DATA OR THE COST OF
#PROCUREMENT OF SUBSTITUTE GOODS OR SERVICES, EVEN IF APPRISED OF THE POSSIBILITY OF SUCH
#DAMAGES IN ADVANCE.
#--------------------------------------------------#

~VERSION INFORMATION
VERS. 2.0 : CWLS LOG ASCII STANDARD - VERSION 2.0
WRAP. NO : ONE LINE PER DEPTH STEP
~WELL INFORMATION
#MNEMONIC     .UNIT              VALUE :DESCRIPTION
STRT       .FT                7.00000 :START DEPTH
STOP       .FT                16581.00000 :STOP DEPTH
STEP       .FT                0.50000 :STEP
NULL       .                -999.25000 :NULL VALUE
UWI       .                42389300260000 :UNIQUE WELL ID
API       .                42389300260000 :API NUMBER
COMP       .                 :COMPANY
WELL       .                 :WELL
FLD       .                 :FIELD
LOC       .                 :LOCATION
CNTY       .                 :COUNTY
STAT       .                 :STATE
CTRY       .                 :COUNTRY
SRVC       .                 :SERVICE COMPANY
DATE       .                 :DATE
~CURVE INFORMATION
#MNEMONIC     .UNIT      API CODE :CURVE DESCRIPTION
DEPTH       .FT                      :MEASURED DEPTH
CAL       .IN        UNKNOWN   :CAL
DT       .US/FT        UNKNOWN   :DT
GR       .GAPI        UNKNOWN   :GR
~A    DEPTH    CAL    DT    GR
# ...
6681.50000    -999.25000    73.22195    61.32533
6682.00000    -999.25000    72.77204    63.59377
6682.50000    -999.25000    72.76380    65.05487
6683.00000    -999.25000    72.75556    60.61894
6683.50000    -999.25000    72.74732    56.61869
6684.00000    -999.25000    72.73908    57.58156
6684.50000    -999.25000    72.73084    58.54442
6685.00000    -999.25000    72.72260    59.50729
6685.50000    -999.25000    72.71436    60.01391
6686.00000    -999.25000    72.70613    58.80204
6686.50000    -999.25000    72.69789    57.59018
6687.00000    -999.25000    72.68965    57.41339
6687.50000    -999.25000    72.68141    58.00096
6688.00000    -999.25000    72.67317    58.58854
6688.50000    -999.25000    72.82372    59.17611
6689.00000    -999.25000    73.22986    59.54371
6689.50000    -999.25000    73.63600    55.36272
6690.00000    -999.25000    74.04215    51.23587
6690.50000    -999.25000    74.44829    52.74445
6691.00000    -999.25000    74.85443    54.25303
6691.50000    -999.25000    75.06779    55.76161
6692.00000    -999.25000    75.09266    57.27018
6692.50000    -999.25000    75.11753    58.77876
6693.00000    -999.25000    75.14240    60.28734
6693.50000    -999.25000    74.95008    61.79592
6694.00000    -999.25000    74.36025    56.70234
6694.50000    -999.25000    73.77042    56.20298
6695.00000    -999.25000    73.18059    59.29187
6695.50000    -999.25000    72.59077    62.38076
6696.00000    -999.25000    72.67092    65.46965
6696.50000    -999.25000    72.85748    68.55854
6697.00000    -999.25000    73.04405    71.64743
6697.50000    -999.25000    73.23062    74.73632
6698.00000    -999.25000    73.41718    77.82521
6698.50000    -999.25000    73.60375    71.47149
6699.00000    -999.25000    73.79032    65.08153
6699.50000    -999.25000    73.97688    58.69156
6700.00000    -999.25000    74.40793    52.30160
6700.50000    -999.25000    75.06357    52.96012
6701.00000    -999.25000    75.71922    55.04613
6701.50000    -999.25000    76.37487    55.51857
6702.00000    -999.25000    76.39721    51.84155
6702.50000    -999.25000    76.17443    49.67316
6703.00000    -999.25000    75.95165    51.94261
6703.50000    -999.25000    75.72887    54.21207
6704.00000    -999.25000    75.50609    56.48152
6704.50000    -999.25000    75.39489    58.75098
6705.00000    -999.25000    75.48391    58.56460
6705.50000    -999.25000    75.57294    57.75355
6706.00000    -999.25000    75.66197    56.94249
6706.50000    -999.25000    75.75099    58.29299
6707.00000    -999.25000    75.84002    61.67199
6707.50000    -999.25000    75.84781    65.05099
6708.00000    -999.25000    75.78496    68.43000
6708.50000    -999.25000    75.72210    71.80900
6709.00000    -999.25000    75.49224    72.39918
6709.50000    -999.25000    74.67477    69.90603
6710.00000    -999.25000    73.85730    67.41287
6710.50000    -999.25000    73.03984    64.91972
6711.00000    -999.25000    72.29054    62.42657
6711.50000    -999.25000    71.91141    60.22172
6712.00000    -999.25000    71.53228    59.81467
6712.50000    -999.25000    71.15315    59.40761
6713.00000    -999.25000    70.80426    58.23226
6713.50000    -999.25000    70.46001    56.35988
6714.00000    -999.25000    70.11577    56.88837
6714.50000    -999.25000    69.77152    59.50927
6715.00000    -999.25000    70.05197    62.13017
6715.50000    -999.25000    71.54724    64.75106
6716.00000    -999.25000    72.79177    67.37196
6716.50000    -999.25000    72.94402    68.05935
6717.00000    -999.25000    73.09626    66.44981
6717.50000    -999.25000    73.24851    64.84027
6718.00000    -999.25000    72.70001    63.23073
6718.50000    -999.25000    71.25347    65.19674
6719.00000    -999.25000    69.92342    70.89170
6719.50000    -999.25000    70.13082    76.58666
6720.00000    -999.25000    70.33821    80.05655
6720.50000    -999.25000    70.54560    80.26185
6721.00000    -999.25000    70.75300    80.46715
6721.50000    -999.25000    70.74462    77.88680
6722.00000    -999.25000    70.63294    74.64023
6722.50000    -999.25000    70.52125    71.39366
6723.00000    -999.25000    70.40956    68.14709
6723.50000    -999.25000    70.29787    64.90052
6724.00000    -999.25000    70.18618    61.65395
6724.50000    -999.25000    70.15829    58.81619
6725.00000    -999.25000    70.67341    60.35755
6725.50000    -999.25000    71.18854    61.89891
6726.00000    -999.25000    71.70366    63.44027
6726.50000    -999.25000    72.21878    64.98163
6727.00000    -999.25000    71.67336    64.80383
6727.50000    -999.25000    70.69266    63.45905
6728.00000    -999.25000    70.84558    62.11427
6728.50000    -999.25000    71.85441    60.76949
6729.00000    -999.25000    72.86323    58.01518
6729.50000    -999.25000    72.04928    54.46265
6730.00000    -999.25000    69.95338    50.91012
6730.50000    -999.25000    69.03632    53.47447
6731.00000    -999.25000    69.30566    56.41937
6731.50000    -999.25000    69.57500    57.42943
6732.00000    -999.25000    69.84434    55.66199
6732.50000    -999.25000    69.92916    53.89455
6733.00000    -999.25000    68.34182    52.51880
6733.50000    -999.25000    67.65084    54.74800
6734.00000    -999.25000    68.07759    57.00366
6734.50000    -999.25000    68.50433    59.37367
6735.00000    -999.25000    68.93108    61.74369
6735.50000    -999.25000    69.35783    64.11370
6736.00000    -999.25000    69.78459    66.48372
6736.50000    -999.25000    70.41290    68.85374
6737.00000    -999.25000    73.34512    71.22375
6737.50000    -999.25000    74.25229    73.59377
6738.00000    -999.25000    73.33067    73.12021
6738.50000    -999.25000    72.40905    70.33622
6739.00000    -999.25000    71.48743    67.55223
6739.50000    -999.25000    70.56580    79.86719
6740.00000    -999.25000    69.64418    84.22363
6740.50000    -999.25000    69.12972    84.92958
6741.00000    -999.25000    72.61110    85.63553
6741.50000    -999.25000    73.61044    86.34148
6742.00000    -999.25000    72.32525    86.70385
6742.50000    -999.25000    71.04006    85.77814
6743.00000    -999.25000    69.75487    84.85243
6743.50000    -999.25000    69.29151    83.92673
6744.00000    -999.25000    71.13868    83.00102
6744.50000    -999.25000    72.98585    78.96910
6745.00000    -999.25000    72.56362    72.96612
6745.50000    -999.25000    72.12165    66.96314
6746.00000    -999.25000    71.67967    62.53843
6746.50000    -999.25000    71.23770    66.79838
6747.00000    -999.25000    79.17269    71.05833
6747.50000    -999.25000    77.58387    75.06472
6748.00000    -999.25000    75.99506    70.91850
6748.50000    -999.25000    74.40624    66.77228
6749.00000    -999.25000    72.81743    62.62607
6749.50000    -999.25000    71.22861    58.47985
6750.00000    -999.25000    69.63980    58.19685
6750.50000    -999.25000    69.39903    67.81260
6751.00000    -999.25000    71.04342    77.42835
6751.50000    -999.25000    72.68781    77.29360
6752.00000    -999.25000    74.33220    76.08108
6752.50000    -999.25000    75.97659    77.17200
6753.00000    -999.25000    77.13882    84.62834
6753.50000    -999.25000    75.52310    92.08468
6754.00000    -999.25000    73.90737    92.60738
6754.50000    -999.25000    72.29165    91.79630
6755.00000    -999.25000    70.67592    92.19862
6755.50000    -999.25000    70.55914    97.04911
6756.00000    -999.25000    70.80292    99.37174
6756.50000    -999.25000    71.04671    96.97622
6757.00000    -999.25000    71.29049    94.58070
6757.50000    -999.25000    71.53427    92.18518
6758.00000    -999.25000    71.77806    92.43188
6758.50000    -999.25000    72.02184    97.58464
6759.00000    -999.25000    72.26563    102.73741
6759.50000    -999.25000    72.50941    107.89018
6760.00000    -999.25000    72.75320    113.04295
6760.50000    -999.25000    72.99698    113.06996
6761.00000    -999.25000    73.24077    105.14776
6761.50000    -999.25000    73.48455    97.22557
6762.00000    -999.25000    73.71446    89.30337
6762.50000    -999.25000    71.34267    81.38117
6763.00000    -999.25000    68.97088    73.45897
