#--------------------------------------------------#
#-------------------ENVERUS, INC.------------------#
#------------------WWW.ENVERUS.COM-----------------#
#------------------COPYRIGHT 2020------------------#
#--------------------------------------------------#
#THIS FILE MAY BE USED ONLY IN ACCORDANCE WITH A CURRENT SUBSCRIPTION AGREEMENT BETWEEN
#THE USER AND ENVERUS, INC. NO PART OF THIS FILE MAY BE REPRODUCED, USED, COPIED,
#MODIFIED, PROPAGATED, OR DISTRIBUTED EXCEPT IN ACCORDANCE WITH THE SUBSCRIPTION
#AGREEMENT. UNAUTHORIZED USE OR DISTRIBUTION OF ALL OR ANY PART OF THIS FILE MAY VIOLATE
#COPYRIGHT, TRADEMARK, AND/OR OTHER LAWS AND IS SUBJECT TO CIVIL AS WELL AS CRIMINAL
#SANCTIONS.
#--------------------------------------------------#
#THIS FILE IS PROVIDED "AS-IS" AND ALL WARRANTIES ARE EXPRESSLY DISCLAIMED, WHETHER
#EXPRESS, ORAL, IMPLIED, STATUTORY OR OTHERWISE, INCLUDING ANY IMPLIED WARRANTY OF FITNESS
#FOR A PARTICULAR PURPOSE, MERCHANTABILITY, TITLE OR NON-INFRINGEMENT, AND ANY WARRANTIES
#ARISING BY VIRTUE OF CUSTOM OF TRADE OR COURSE OF DEALING.  FURTHER, ENVERUS, INC.
#AND ITS LICENSORS DO NOT REPRESENT OR WARRANT THAT THIS FILE WILL MEET USER'S
#REQUIREMENTS OR ARE SUITABLE FOR USER'S NEEDS OR THAT THE DATA OR RESULTS PROVIDED IN
#CONJUNCTION THEREWITH ARE CORRECT, ACCURATE, TIMELY OR RELIABLE. THESE DISCLAIMERS SHALL
#APPLY REGARDLESS OF ANY FAILURE OF ESSENTIAL PURPOSE OF ANY LIMITED REMEDY.  SOME
#JURISDICTIONS DO NOT ALLOW THE EXCLUSION OF CERTAIN WARRANTIES SO SOME OF THE ABOVE
#EXCLUSIONS MAY NOT APPLY. IN NO EVENT SHALL ENVERUS, INC. OR ANY OF ITS AFFILIATES
#BE LIABLE UNDER ANY LEGAL THEORY, WHETHER IN TORT (INCLUDING WITHOUT LIMITATION
#NEGLIGENCE), CONTRACT, STRICT LIABILITY, STATUTORY OR OTHERWISE, FOR ANY SPECIAL,
#INCIDENTAL, CONSEQUENTIAL, EXEMPLARY, PUNITIVE OR INDIRECT DAMAGE OF ANY KIND, INCLUDING
#WITHOUT LIMITATION LOSS OF REVENUE, PROFITS, GOODWILL, USE, AND/OR DATA OR THE COST OF
#PROCUREMENT OF SUBSTITUTE GOODS OR SERVICES, EVEN IF APPRISED OF THE POSSIBILITY OF SUCH
#DAMAGES IN ADVANCE.
#--------------------------------------------------#

~VERSION INFORMATION
VERS. 2.0 : CWLS LOG ASCII STANDARD - VERSION 2.0
WRAP. NO : ONE LINE PER DEPTH STEP
~WELL INFORMATION
#MNEMONIC     .UNIT              VALUE :DESCRIPTION
STRT       .FT                101.00000 :START DEPTH
STOP       .FT                5802.00000 :STOP DEPTH
STEP       .FT                0.50000 :STEP
NULL       .                -999.25000 :NULL VALUE
UWI       .                42389010150000 :UNIQUE WELL ID
API       .                42389010150000 :API NUMBER
COMP       .                 :COMPANY
WELL       .                 :WELL
FLD       .                 :FIELD
LOC       .                 :LOCATION
CNTY       .                 :COUNTY
STAT       .                 :STATE
CTRY       .                 :COUNTRY
SRVC       .                 :SERVICE COMPANY
DATE       .                 :DATE
~CURVE INFORMATION
#MNEMONIC     .UNIT      API CODE :CURVE DESCRIPTION
DEPTH       .FT                      :MEASURED DEPTH
DT       .US/FT        UNKNOWN   :DT
GR       .GAPI        UNKNOWN   :GR
~A    DEPTH    DT    GR
# ...
5744.00000    73.51615    40.38383
5744.50000    72.18023    42.48295
5745.00000    70.84432    44.58207
5745.50000    69.76760    46.68119
5746.00000    70.65395    48.55494
5746.50000    71.54030    47.91947
5747.00000    72.42664    44.89752
5747.50000    73.31299    41.44095
5748.00000    74.19933    37.98438
5748.50000    75.18958    33.33662
5749.00000    76.21484    28.66753
5749.50000    77.24010    23.99844
5750.00000    78.26537    21.73255
5750.50000    79.29063    22.57979
5751.00000    80.31590    23.42703
5751.50000    81.34116    24.31071
5752.00000    81.42259    25.56952
5752.50000    80.64238    26.82833
5753.00000    79.86217    27.95790
5753.50000    79.08196    26.95726
5754.00000    78.30175    26.02763
5754.50000    80.10503    25.39201
5755.00000    83.14527    24.75639
5755.50000    84.06965    24.12078
5756.00000    83.55973    23.70936
5756.50000    83.04981    23.53423
5757.00000    82.71088    23.35910
5757.50000    82.74770    23.30478
5758.00000    82.78452    24.30275
5758.50000    82.82135    25.30073
5759.00000    82.85817    26.29871
5759.50000    82.89500    27.29668
5760.00000    78.37537    28.29466
5760.50000    71.92785    29.19841
5761.00000    73.74285    26.58981
5761.50000    75.55785    25.30721
5762.00000    77.37285    25.65803
5762.50000    79.18785    26.00886
5763.00000    81.00285    26.04431
5763.50000    82.81785    25.58385
5764.00000    72.42563    25.12339
5764.50000    75.55840    25.14063
5765.00000    77.99822    25.45948
5765.50000    80.43804    25.77834
5766.00000    80.73522    25.08449
5766.50000    79.74130    24.22473
5767.00000    78.74739    24.85101
5767.50000    77.75348    26.14237
5768.00000    76.75957    27.43373
5768.50000    75.76566    28.72510
5769.00000    74.77175    30.68649
5769.50000    79.30757    33.47354
5770.00000    76.98396    36.14746
5770.50000    74.66035    37.01547
5771.00000    72.33675    37.88348
5771.50000    72.49720    38.73238
5772.00000    73.31932    38.50369
5772.50000    74.14145    38.27500
5773.00000    74.96357    37.65474
5773.50000    73.90490    37.35601
5774.00000    72.30863    37.65334
5774.50000    70.71235    37.95067
5775.00000    70.76729    38.24800
5775.50000    70.77303    38.54532
5776.00000    69.44355    38.07171
5776.50000    68.11407    37.30769
5777.00000    66.78459    36.54367
5777.50000    65.45511    35.77965
5778.00000    65.31274    35.01563
5778.50000    68.15165    34.25161
5779.00000    70.99055    33.48759
5779.50000    70.75854    35.55485
5780.00000    69.29953    37.87641
5780.50000    67.84053    39.89648
5781.00000    66.38152    40.84020
5781.50000    64.92252    41.78392
5782.00000    63.46351    42.72764
5782.50000    62.35108    43.67136
5783.00000    63.70132    44.04543
5783.50000    65.05157    44.12368
5784.00000    66.40181    40.27079
5784.50000    67.75205    21.00394
5785.00000    69.10229    1.73709
5785.50000    69.88795    -0.00602
5786.00000    66.45798    -0.01589
5786.50000    63.02802    -0.02576
5787.00000    62.23480    -0.03562
5787.50000    66.22368    -0.04549
5788.00000    66.83837    -0.05536
5788.50000    67.45306    -0.06523
5789.00000    68.06776    -0.07510
5789.50000    68.87727    -0.08496
5790.00000    70.53280    -0.09483
5790.50000    72.18834    -0.10470
5791.00000    73.84388    -0.11457
5791.50000    75.49942    -0.12444
5792.00000    77.15496    -0.13431
5792.50000    76.48262    -0.14417
5793.00000    75.80074    -0.15404
5793.50000    75.11886    -0.16391
5794.00000    73.74443    -0.17378
5794.50000    72.13760    -0.18365
5795.00000    70.89059    -0.19351
5795.50000    72.07749    -0.20338
5796.00000    69.53103    -0.21325
5796.50000    66.70016    -0.22312
5797.00000    63.71282    -0.23299
5797.50000    60.72548    -0.24285
5798.00000    59.29376    -0.25272
5798.50000    60.15879    -0.26259
5799.00000    59.82395    -0.27246
5799.50000    59.59156    -0.28233
5800.00000    62.63100    -0.29219
5800.50000    64.91155    -0.30206
5801.00000    67.19210    -0.31193
5801.50000    69.47264    -0.32180
5802.00000    71.75319    -0.33167
