#--------------------------------------------------#
#-------------------ENVERUS, INC.------------------#
#------------------WWW.ENVERUS.COM-----------------#
#------------------COPYRIGHT 2020------------------#
#--------------------------------------------------#
#THIS FILE MAY BE USED ONLY IN ACCORDANCE WITH A CURRENT SUBSCRIPTION AGREEMENT BETWEEN
#THE USER AND ENVERUS, INC. NO PART OF THIS FILE MAY BE REPRODUCED, USED, COPIED,
#MODIFIED, PROPAGATED, OR DISTRIBUTED EXCEPT IN ACCORDANCE WITH THE SUBSCRIPTION
#AGREEMENT. UNAUTHORIZED USE OR DISTRIBUTION OF ALL OR ANY PART OF THIS FILE MAY VIOLATE
#COPYRIGHT, TRADEMARK, AND/OR OTHER LAWS AND IS SUBJECT TO CIVIL AS WELL AS CRIMINAL
#SANCTIONS.
#--------------------------------------------------#
#THIS FILE IS PROVIDED "AS-IS" AND ALL WARRANTIES ARE EXPRESSLY DISCLAIMED, WHETHER
#EXPRESS, ORAL, IMPLIED, STATUTORY OR OTHERWISE, INCLUDING ANY IMPLIED WARRANTY OF FITNESS
#FOR A PARTICULAR PURPOSE, MERCHANTABILITY, TITLE OR NON-INFRINGEMENT, AND ANY WARRANTIES
#ARISING BY VIRTUE OF CUSTOM OF TRADE OR COURSE OF DEALING.  FURTHER, ENVERUS, INC.
#AND ITS LICENSORS DO NOT REPRESENT OR WARRANT THAT THIS FILE WILL MEET USER'S
#REQUIREMENTS OR ARE SUITABLE FOR USER'S NEEDS OR THAT THE DATA OR RESULTS PROVIDED IN
#CONJUNCTION THEREWITH ARE CORRECT, ACCURATE, TIMELY OR RELIABLE. THESE DISCLAIMERS SHALL
#APPLY REGARDLESS OF ANY FAILURE OF ESSENTIAL PURPOSE OF ANY LIMITED REMEDY.  SOME
#JURISDICTIONS DO NOT ALLOW THE EXCLUSION OF CERTAIN WARRANTIES SO SOME OF THE ABOVE
#EXCLUSIONS MAY NOT APPLY. IN NO EVENT SHALL ENVERUS, INC. OR ANY OF ITS AFFILIATES
#BE LIABLE UNDER ANY LEGAL THEORY, WHETHER IN TORT (INCLUDING WITHOUT LIMITATION
#NEGLIGENCE), CONTRACT, STRICT LIABILITY, STATUTORY OR OTHERWISE, FOR ANY SPECIAL,
#INCIDENTAL, CONSEQUENTIAL, EXEMPLARY, PUNITIVE OR INDIRECT DAMAGE OF ANY KIND, INCLUDING
#WITHOUT LIMITATION LOSS OF REVENUE, PROFITS, GOODWILL, USE, AND/OR DATA OR THE COST OF
#PROCUREMENT OF SUBSTITUTE GOODS OR SERVICES, EVEN IF APPRISED OF THE POSSIBILITY OF SUCH
#DAMAGES IN ADVANCE.
#--------------------------------------------------#

~VERSION INFORMATION
VERS. 2.0 : CWLS LOG ASCII STANDARD - VERSION 2.0
WRAP.  NO : ONE LINE PER DEPTH STEP
~WELL INFORMATION
#MNEMONIC     .UNIT              VALUE :DESCRIPTION
STRT       .FT                101 :START DEPTH
STOP       .FT                5444 :STOP DEPTH
STEP       .FT                   0.500 :STEP
NULL       .                  -999.99 :NULL
UWI        .                42389004350000 :UNIQUE WELL ID
API        .                42389004350000 :API NUMBER
COMP       .         :COMPANY
WELL       .        :WELL
DATE       .                 :LOG DATE
FLD       .                 :FIELD NAME
LOC       .                  UNK :LOCATION
CNTY       .                 UNK :COUNTY
STAT       .                 UNK :STATE
CTRY       .                 UNK :COUNTY
SRVC       .                 UNK :SERVICE COMPANY
~CURVE INFORMATION
#MNEMONIC     .UNIT      API CODE :CURVE DESCRIPTION
DEPTH       .FT                      :MEASURED DEPTH
DT.MSEC/FT        UNKNOWN   :DT
GR.API        UNKNOWN   :GR
~A    DEPTH    DT    GR
# ...
 1466.5     67.40143   8.97876
 1467     64.74991   7.58278
 1467.5     61.19555   7.18592
 1468     57.64119   6.78907
 1468.5     54.08683   6.39222
 1469     52.94535   5.99536
 1469.5     53.94492   5.59851
 1470     53.65536   5.20166
 1470.5     53.18805   4.8048
 1471     52.72074   5.16732
 1471.5     52.25343   7.08724
 1472     52.12944   9.00716
 1472.5     53.01356   10.92709
 1473     53.89768   12.84701
 1473.5     54.7818   13.42063
 1474     55.66592   13.48147
 1474.5     55.15673   13.47399
 1475     55.11686   12.83096
 1475.5     56.3158   12.18793
 1476     57.51474   11.5449
 1476.5     58.69135   10.90187
 1477     58.3911   10.25884
 1477.5     58.09084   9.61581
 1478     57.79059   8.97278
 1478.5     57.49034   8.32975
 1479     57.45431   7.68672
 1479.5     57.89807   7.45949
 1480     58.34184   7.58678
 1480.5     58.7856   7.71407
 1481     59.19308   7.84135
 1481.5     59.08626   7.96864
 1482     58.97944   8.09593
 1482.5     58.87263   8.22322
 1483     58.76581   8.3505
 1483.5     60.89415   8.47779
 1484     63.30727   8.60508
 1484.5     65.34624   8.43611
 1485     67.03806   8.03927
 1485.5     68.72987   7.64243
 1486     64.70447   7.2456
 1486.5     62.6703   6.84876
 1487     65.96095   6.45193
 1487.5     69.2516   6.3391
 1488     71.18854   7.25204
 1488.5     70.81898   7.94493
 1489     70.44942   7.30189
 1489.5     70.39023   6.65886
 1490     70.41401   6.01582
 1490.5     69.44125   6.64983
 1491     63.27127   7.34317
 1491.5     60.17371   8.03651
 1492     59.75383   8.37135
 1492.5     59.33396   7.91162
 1493     59.58785   7.45189
 1493.5     59.86957   6.99216
 1494     60.1513   6.53243
 1494.5     60.43303   6.0727
 1495     60.71476   5.99681
 1495.5     60.97789   6.32634
 1496     61.08688   6.65587
 1496.5     61.19587   6.9854
 1497     61.30486   7.31493
 1497.5     61.41385   7.64446
 1498     61.52284   8.69219
 1498.5     56.07149   10.00781
 1499     57.58152   11.32343
 1499.5     59.09155   12.63905
 1500     60.60159   13.95466
 1500.5     62.11162   11.82196
 1501     63.62165   7.07938
 1501.5     63.70879   6.68793
 1502     63.72564   6.92946
 1502.5     63.74248   7.17098
 1503     63.37747   7.41251
 1503.5     62.00255   7.65404
 1504     60.62763   7.58439
 1504.5     59.75946   7.33348
 1505     59.98348   7.08256
 1505.5     60.2075   6.83165
 1506     60.43153   6.58074
 1506.5     60.52335   6.32982
 1507     58.90789   6.07891
 1507.5     57.29242   5.82799
 1508     56.65402   5.57708
 1508.5     56.58077   5.32617
 1509     49.5469   5.14486
 1509.5     49.97752   5.00951
 1510     50.40814   4.87417
 1510.5     50.83876   4.73882
 1511     51.26938   4.60347
 1511.5     51.7   4.46813
 1512     51.49869   5.12672
 1512.5     50.55041   5.97791
 1513     49.60213   6.82911
 1513.5     50.09221   7.6803
 1514     52.39178   8.53149
 1514.5     54.69135   8.77171
 1515     56.99091   8.6228
 1515.5     59.29048   8.47388
 1516     61.14282   8.32497
 1516.5     60.25995   8.6668
 1517     59.37709   9.76485
 1517.5     58.49422   10.86291
 1518     60.95148   10.50258
 1518.5     65.51367   9.79101
 1519     70.07586   9.07944
 1519.5     70.04593   8.36786
 1520     69.65113   7.65629
 1520.5     68.05505   6.94471
 1521     64.22149   6.23314
 1521.5     64.22286   5.52157
 1522     67.04593   5.27872
 1522.5     62.51068   5.12982
 1523     63.23436   4.98091
 1523.5     63.95805   4.83201
 1524     60.13937   4.68311
 1524.5     55.02025   4.5342
 1525     55.5584   4.3853
 1525.5     58.91087   4.23639
 1526     62.26334   4.50164
 1526.5     63.7861   5.39062
 1527     63.76146   6.27959
 1527.5     63.73682   7.16856
 1528     65.10634   8.05753
 1528.5     66.59745   8.94651
 1529     68.08856   9.83548
 1529.5     69.57967   11.57908
 1530     66.22669   13.78162
 1530.5     62.66477   15.98417
 1531     59.10285   18.18672
 1531.5     57.00436   20.38927
 1532     57.36075   22.59182
 1532.5     57.71715   24.79437
 1533     57.71256   26.99692
 1533.5     57.55543   29.19946
 1534     57.3983   29.54617
 1534.5     57.25556   27.88886
 1535     57.36048   28.79452
 1535.5     57.46539   30.10518
 1536     57.57031   31.41585
 1536.5     57.67523   31.76132
 1537     58.93576   29.23127
 1537.5     60.42704   26.70123
 1538     61.91832   24.17118
 1538.5     63.4096   21.64113
 1539     68.22126   19.11108
 1539.5     73.51633   16.58103
 1540     78.8114   14.05099
 1540.5     83.35823   11.52094
 1541     86.41017   8.99089
 1541.5     85.09282   8.87398
 1542     79.05841   8.84612
 1542.5     73.024   8.81827
 1543     66.98959   8.79042
 1543.5     60.95518   8.76257
 1544     54.18766   8.73472
 1544.5     54.70627   8.70687
 1545     54.96757   8.67902
 1545.5     53.81799   8.65117
 1546     52.66841   8.62332
 1546.5     51.51882   8.59547
 1547     54.88927   9.60459
 1547.5     54.49442   10.71023
 1548     54.09956   11.81586
 1548.5     59.74056   12.9215
 1549     66.00863   12.34732
 1549.5     72.27669   11.28545
 1550     78.82834   10.35353
 1550.5     87.35777   10.55475
 1551     91.09338   10.75596
 1551.5     84.41278   10.95717
 1552     77.73217   11.15839
 1552.5     71.05157   10.74777
 1553     70.06124   9.35286
 1553.5     70.88984   8.31065
 1554     71.71843   8.4115
 1554.5     72.54703   8.07527
 1555     55.77302   7.51417
 1555.5     52.34494   6.95307
 1556     48.91685   6.39197
 1556.5     45.48876   5.83087
 1557     42.96052   7.40815
 1557.5     49.62126   8.6081
 1558     56.28199   8.60878
 1558.5     62.94272   8.60946
 1559     69.5185   8.51792
 1559.5     75.78775   8.04704
 1560     73.55178   7.57617
 1560.5     67.61549   7.10529
 1561     61.67919   6.63441
 1561.5     55.74289   6.16353
 1562     57.19409   5.69265
 1562.5     62.99496   6.56529
 1563     68.79583   7.694
 1563.5     74.5967   8.82271
 1564     78.45578   9.95143
 1564.5     74.23477   11.08014
 1565     70.01377   11.03645
 1565.5     69.18798   10.40575
 1566     70.58449   9.77506
 1566.5     71.981   9.14436
 1567     71.31204   8.51367
 1567.5     70.07451   7.88297
 1568     68.83699   7.25227
 1568.5     67.59946   6.62158
 1569     66.36194   6.11014
 1569.5     66.41632   6.17084
 1570     68.97871   6.23154
 1570.5     71.54109   6.29224
 1571     71.68855   6.35294
 1571.5     71.66801   6.41364
 1572     71.64747   6.47434
 1572.5     71.62694   6.53504
 1573     71.6064   6.47441
 1573.5     71.58586   6.11712
 1574     67.55288   5.75983
 1574.5     65.79609   5.40254
 1575     69.85495   5.04524
 1575.5     70.74011   4.6897
 1576     67.98956   5.01912
 1576.5     67.10969   5.34854
 1577     67.38778   5.67796
 1577.5     67.66587   6.00739
 1578     63.59593   6.33681
 1578.5     65.90873   6.54888
 1579     68.22153   6.39994
 1579.5     70.02298   6.251
 1580     69.0322   6.10207
 1580.5     68.04142   5.95313
 1581     68.27559   5.80419
 1581.5     69.1516   5.97174
 1582     67.6564   6.14776
 1582.5     66.29256   6.32378
 1583     67.48106   6.4998
 1583.5     68.66957   6.67582
 1584     69.85808   6.85183
 1584.5     71.04658   6.52745
 1585     72.17593   5.96636
 1585.5     70.95596   5.40528
 1586     69.73598   4.84419
 1586.5     68.51601   4.28311
 1587     67.54198   4.88971
 1587.5     70.12429   5.61791
 1588     70.10277   6.07171
 1588.5     69.654   5.89786
 1589     69.20523   5.72401
 1589.5     68.75646   5.55016
 1590     72.45665   5.37631
 1590.5     72.45631   5.20247
 1591     72.45596   5.02862
 1591.5     71.31794   5.58899
 1592     70.09773   6.16705
 1592.5     68.87753   6.74511
 1593     62.1206   7.32317
 1593.5     60.27089   7.90123
 1594     58.42119   8.15536
 1594.5     56.57148   7.3854
 1595     54.72177   6.61544
 1595.5     57.03361   6.96421
 1596     59.81815   8.12398
 1596.5     62.60269   9.28374
 1597     65.38724   7.9271
 1597.5     65.7298   6.55673
 1598     64.64503   5.18637
 1598.5     63.56027   5.78114
 1599     66.48253   6.95117
 1599.5     71.6354   8.1212
