#--------------------------------------------------#
#-------------------ENVERUS, INC.------------------#
#------------------WWW.ENVERUS.COM-----------------#
#------------------COPYRIGHT 2020------------------#
#--------------------------------------------------#
#THIS FILE MAY BE USED ONLY IN ACCORDANCE WITH A CURRENT SUBSCRIPTION AGREEMENT BETWEEN
#THE USER AND ENVERUS, INC. NO PART OF THIS FILE MAY BE REPRODUCED, USED, COPIED,
#MODIFIED, PROPAGATED, OR DISTRIBUTED EXCEPT IN ACCORDANCE WITH THE SUBSCRIPTION
#AGREEMENT. UNAUTHORIZED USE OR DISTRIBUTION OF ALL OR ANY PART OF THIS FILE MAY VIOLATE
#COPYRIGHT, TRADEMARK, AND/OR OTHER LAWS AND IS SUBJECT TO CIVIL AS WELL AS CRIMINAL
#SANCTIONS.
#--------------------------------------------------#
#THIS FILE IS PROVIDED "AS-IS" AND ALL WARRANTIES ARE EXPRESSLY DISCLAIMED, WHETHER
#EXPRESS, ORAL, IMPLIED, STATUTORY OR OTHERWISE, INCLUDING ANY IMPLIED WARRANTY OF FITNESS
#FOR A PARTICULAR PURPOSE, MERCHANTABILITY, TITLE OR NON-INFRINGEMENT, AND ANY WARRANTIES
#ARISING BY VIRTUE OF CUSTOM OF TRADE OR COURSE OF DEALING.  FURTHER, ENVERUS, INC.
#AND ITS LICENSORS DO NOT REPRESENT OR WARRANT THAT THIS FILE WILL MEET USER'S
#REQUIREMENTS OR ARE SUITABLE FOR USER'S NEEDS OR THAT THE DATA OR RESULTS PROVIDED IN
#CONJUNCTION THEREWITH ARE CORRECT, ACCURATE, TIMELY OR RELIABLE. THESE DISCLAIMERS SHALL
#APPLY REGARDLESS OF ANY FAILURE OF ESSENTIAL PURPOSE OF ANY LIMITED REMEDY.  SOME
#JURISDICTIONS DO NOT ALLOW THE EXCLUSION OF CERTAIN WARRANTIES SO SOME OF THE ABOVE
#EXCLUSIONS MAY NOT APPLY. IN NO EVENT SHALL ENVERUS, INC. OR ANY OF ITS AFFILIATES
#BE LIABLE UNDER ANY LEGAL THEORY, WHETHER IN TORT (INCLUDING WITHOUT LIMITATION
#NEGLIGENCE), CONTRACT, STRICT LIABILITY, STATUTORY OR OTHERWISE, FOR ANY SPECIAL,
#INCIDENTAL, CONSEQUENTIAL, EXEMPLARY, PUNITIVE OR INDIRECT DAMAGE OF ANY KIND, INCLUDING
#WITHOUT LIMITATION LOSS OF REVENUE, PROFITS, GOODWILL, USE, AND/OR DATA OR THE COST OF
#PROCUREMENT OF SUBSTITUTE GOODS OR SERVICES, EVEN IF APPRISED OF THE POSSIBILITY OF SUCH
#DAMAGES IN ADVANCE.
#--------------------------------------------------#

~VERSION INFORMATION
VERS. 2.0 : CWLS LOG ASCII STANDARD - VERSION 2.0
WRAP.  NO : ONE LINE PER DEPTH STEP
~WELL INFORMATION
#MNEMONIC     .UNIT              VALUE :DESCRIPTION
STRT       .FT                51 :START DEPTH
STOP       .FT                6194 :STOP DEPTH
STEP       .FT                   0.500 :STEP
NULL       .                  -999.990 :NULL
UWI        .              42389004340000 :UNIQUE WELL ID
API        .              42389004340000 :API NUMBER
COMP       .         :COMPANY
WELL       .         1, :WELL
DATE       .                            :LOG DATE
~CURVE INFORMATION
#MNEMONIC     .UNIT      API CODE :CURVE DESCRIPTION
DEPTH       .FT                      :MEASURED DEPTH
GR.API        UNKNOWN   :GR
DT.US/FT        UNKNOWN   :DT
~A    DEPTH    GR    DT
# ...
 3147     7.244   69.547
 3147.5     7.525   70.833
 3148     7.806   71.344
 3148.5     8.087   71.268
 3149     7.822   71.192
 3149.5     7.273   71.116
 3150     6.724   71.04
 3150.5     6.175   70.964
 3151     5.626   70.858
 3151.5     5.499   70.726
 3152     5.553   70.594
 3152.5     5.608   70.462
 3153     5.662   70.33
 3153.5     5.717   70.198
 3154     5.771   70.094
 3154.5     5.826   70.213
 3155     5.88   70.333
 3155.5     5.935   70.453
 3156     5.856   70.572
 3156.5     5.327   70.692
 3157     4.799   70.812
 3157.5     4.27   70.932
 3158     3.742   71.051
 3158.5     3.213   71.171
 3159     2.685   71.291
 3159.5     2.283   71.316
 3160     2.858   70.997
 3160.5     3.434   70.678
 3161     4.01   70.358
 3161.5     4.585   70.039
 3162     4.938   69.807
 3162.5     4.937   69.894
 3163     4.937   69.981
 3163.5     4.937   70.069
 3164     5.193   70.156
 3164.5     5.691   70.243
 3165     6.189   70.33
 3165.5     6.687   70.418
 3166     7.185   70.505
 3166.5     7.684   70.541
 3167     8.182   70.419
 3167.5     8.68   70.297
 3168     9.178   70.175
 3168.5     9.676   70.054
 3169     9.686   69.932
 3169.5     9.407   69.81
 3170     9.129   69.688
 3170.5     8.85   69.566
 3171     8.571   69.629
 3171.5     8.293   69.774
 3172     8.014   69.919
 3172.5     7.736   70.064
 3173     7.457   70.06
 3173.5     7.178   70.035
 3174     6.9   70.009
 3174.5     6.621   69.997
 3175     6.342   70.114
 3175.5     6.064   70.231
 3176     5.879   70.348
 3176.5     6.077   70.466
 3177     6.274   70.583
 3177.5     6.472   70.7
 3178     6.67   70.817
 3178.5     6.868   70.934
 3179     7.066   71.051
 3179.5     7.264   71.168
 3180     7.462   71.285
 3180.5     7.659   71.402
 3181     7.857   71.008
 3181.5     8.055   70.521
 3182     8.253   70.366
 3182.5     8.451   70.535
 3183     8.649   70.705
 3183.5     8.793   70.875
 3184     8.612   71.044
 3184.5     8.431   71.214
 3185     8.25   71.384
 3185.5     8.07   71.459
 3186     7.889   71.392
 3186.5     7.708   71.325
 3187     7.527   71.257
 3187.5     7.347   71.19
 3188     7.166   71.123
 3188.5     6.985   71.055
 3189     6.951   70.988
 3189.5     7.159   70.921
 3190     7.367   70.853
 3190.5     7.575   70.786
 3191     7.783   70.718
 3191.5     7.991   70.651
 3192     8.199   70.584
 3192.5     8.407   70.516
 3193     8.615   70.449
 3193.5     8.823   70.382
 3194     9.031   70.314
 3194.5     9.239   70.247
 3195     9.132   70.18
 3195.5     8.766   70.112
 3196     8.401   70.045
 3196.5     8.035   69.978
 3197     7.67   69.91
 3197.5     7.305   69.843
 3198     7.319   69.776
 3198.5     7.688   69.708
 3199     8.058   69.784
 3199.5     8.427   69.89
 3200     8.797   69.997
 3200.5     9.166   70.103
 3201     9.536   70.21
 3201.5     9.162   70.048
 3202     8.66   69.942
 3202.5     8.159   69.993
 3203     7.657   70.045
 3203.5     7.156   70.096
 3204     6.655   70.097
 3204.5     6.153   70.052
 3205     5.748   70.008
 3205.5     6.258   69.963
 3206     6.769   69.918
 3206.5     7.279   69.909
 3207     7.789   69.947
 3207.5     8.3   69.985
 3208     8.413   70.023
 3208.5     8.143   70.061
 3209     7.873   70.099
 3209.5     7.604   70.136
 3210     7.334   70.174
 3210.5     7.064   70.212
 3211     6.795   70.25
 3211.5     6.525   70.183
 3212     6.255   70.111
 3212.5     5.986   70.039
 3213     5.716   69.967
 3213.5     5.446   69.895
 3214     5.177   69.823
 3214.5     4.907   69.751
 3215     4.703   69.679
 3215.5     5.243   69.688
 3216     5.783   69.834
 3216.5     6.323   69.981
 3217     6.862   70.127
 3217.5     6.501   70.274
 3218     6.139   70.421
 3218.5     5.778   70.487
 3219     5.912   70.413
 3219.5     6.194   70.34
 3220     6.477   70.266
 3220.5     6.76   70.193
 3221     7.042   70.119
 3221.5     7.325   70.046
 3222     7.607   69.972
 3222.5     7.307   69.899
 3223     6.935   69.905
 3223.5     6.563   69.988
 3224     6.191   70.07
 3224.5     5.819   70.153
 3225     5.447   70.235
 3225.5     5.075   70.318
 3226     5.238   70.401
 3226.5     5.81   70.483
 3227     6.382   70.566
 3227.5     6.954   70.448
 3228     8.346   70.287
 3228.5     10.603   70.127
 3229     12.859   69.966
 3229.5     15.115   69.805
 3230     17.371   69.857
 3230.5     19.628   69.977
 3231     21.884   70.097
 3231.5     24.14   70.216
 3232     26.396   70.336
 3232.5     28.653   70.395
 3233     28.359   70.322
 3233.5     26.77   70.248
 3234     25.182   70.175
 3234.5     23.593   70.101
 3235     22.005   70.028
 3235.5     20.416   69.954
 3236     18.828   69.881
 3236.5     17.239   69.807
 3237     15.663   69.854
 3237.5     15.106   70.043
 3238     14.549   70.232
 3238.5     13.992   70.421
 3239     13.435   70.611
 3239.5     12.877   70.597
 3240     12.508   70.534
 3240.5     12.921   70.471
 3241     13.333   70.408
 3241.5     13.746   70.345
 3242     14.014   70.282
 3242.5     13.126   70.219
 3243     12.237   70.156
 3243.5     11.348   70.093
 3244     10.46   70.03
 3244.5     9.79   69.967
 3245     10.358   69.904
 3245.5     10.926   69.841
 3246     11.494   69.842
 3246.5     11.32   69.948
 3247     10.404   70.055
 3247.5     9.487   70.162
 3248     8.571   70.268
 3248.5     7.654   70.269
 3249     6.738   70.158
 3249.5     5.821   70.046
 3250     4.905   69.935
 3250.5     3.989   69.823
 3251     3.509   69.712
 3251.5     3.095   69.615
 3252     2.681   69.739
 3252.5     2.568   69.864
 3253     2.865   69.988
 3253.5     3.163   70.113
 3254     3.46   70.237
 3254.5     3.757   70.362
 3255     4.055   70.422
 3255.5     4.352   70.293
 3256     4.649   70.164
 3256.5     4.946   70.035
 3257     5.244   69.906
 3257.5     5.541   69.905
 3258     5.838   69.957
 3258.5     6.136   70.009
 3259     6.433   70.06
 3259.5     6.73   70.112
 3260     7.027   70.162
 3260.5     6.936   70.137
 3261     6.704   70.113
 3261.5     6.472   70.089
 3262     6.241   70.065
 3262.5     6.009   70.041
 3263     5.858   70.017
 3263.5     6.213   69.993
 3264     6.568   69.969
 3264.5     6.922   69.997
 3265     7.277   70.028
 3265.5     7.632   70.059
 3266     7.987   70.09
 3266.5     8.342   70.122
 3267     7.963   70.153
 3267.5     7.438   70.184
 3268     6.913   70.215
 3268.5     6.388   70.246
 3269     5.863   70.277
 3269.5     5.338   70.309
 3270     4.813   70.34
 3270.5     4.288   70.371
 3271     3.763   70.402
 3271.5     3.238   70.433
 3272     3.327   70.464
 3272.5     3.672   70.479
 3273     4.017   70.418
 3273.5     4.361   70.358
 3274     4.706   70.297
 3274.5     5.05   70.237
 3275     5.395   70.201
 3275.5     5.624   70.211
 3276     5.35   70.221
 3276.5     5.077   70.231
 3277     4.803   70.241
 3277.5     4.529   70.251
 3278     4.255   70.262
 3278.5     3.981   70.249
 3279     3.707   70.234
 3279.5     3.434   70.218
 3280     3.16   70.202
 3280.5     2.886   70.187
 3281     2.612   70.171
 3281.5     2.636   70.155
 3282     3.222   70.14
 3282.5     3.808   70.124
 3283     4.394   70.108
 3283.5     4.98   70.093
 3284     5.566   70.077
 3284.5     6.152   70.089
 3285     6.697   70.131
 3285.5     6.429   70.174
 3286     6.162   70.216
 3286.5     5.894   70.259
 3287     5.626   70.301
 3287.5     5.358   70.344
 3288     5.234   70.386
 3288.5     5.575   70.429
 3289     5.917   70.453
 3289.5     6.259   70.427
 3290     6.601   70.401
 3290.5     6.943   70.376
 3291     7.285   70.402
 3291.5     7.07   70.479
 3292     6.709   70.557
 3292.5     6.348   70.635
 3293     5.986   70.713
 3293.5     5.977   70.628
 3294     6.343   70.524
 3294.5     6.71   70.42
 3295     7.076   70.316
 3295.5     7.442   70.212
 3296     7.808   70.108
 3296.5     7.73   70.003
 3297     7.149   69.973
 3297.5     6.568   70.056
 3298     5.987   70.139
 3298.5     5.406   70.223
 3299     4.825   70.306
 3299.5     4.523   70.389
 3300     5.207   70.472
 3300.5     5.892   70.486
 3301     6.575   70.364
