###############################################
##         ENVERUS                           ##
##         ESS - Open Hole                   ##
##         PERMIAN / DELAWARE                ##
##         Nov 04 2023  V4.0                 ##
##         42-389-00802-00-00                ##
###############################################
## Copyright 2017-2023  ENVERUS.  All Rights Reserved. 
## Confidential - Property of ENVERUS, use governed by terms and 
## conditions found within the existing Information Services Subscription Agreement 
## (as may be amended, the “ISSA”) between Customer and ENVERUS. 
## 
~VERSION INFORMATION
# MNEM.UNIT                               DATA : DESCRIPTION OF MNEMONIC
#-----.-----     ----------------------------- : -----------------------------
VERS.                                     2.00 : CWLS LOG ASCII STANDARD - VERSION 2.00
WRAP.                                       NO : MULTIPLE LINES PER DEPTH STEP
VEND.                                  ENVERUS : VENDOR
TYPE.                          ESS - OPEN HOLE : ENVERUS ESSENTIAL CURVES – ACCESSIBLE THROUGH ENVERUS PRISM(TM)
DOC.                                  31817456 : ENVERUS HEADER RAW DOCUMENT ID
#___________________________________________________________________________________________________ 
~WELL INFORMATION 
# RyAIq6UWQPnCIzV1aSVljU5sZzU8mzXCuHzh8Tf3VVfaeSb2oya67RMqigcBPLsftsjdPp3J13KbDcbgGgUr7w== 
# MNEM.UNIT                                              DATA : DESCRIPTION OF MNEMONIC 
#-----.-----                    ----------------------------- : ----------------------------- 
CNTY.                                                  REEVES : COUNTY 
STATE.                                                  TEXAS : STATE 
CNTRY.                                                    USA : COUNTRY 
API.                                             42-389-00802 : API (10 Digit) 
API_14.                                    42-389-00802-00-00 : API (14 Digits) 
API_14_std.                                 42-389-00802-0000 : API (14 Digits Standard) 
UWI.                                           42389008020000 : UNIQUE WELL ID 
WELL.                                                      1, : WELL NAME
STRT.FT                                                 103.0 : START DEPTH
STOP.FT                                                5419.0 : STOP DEPTH
STEP.FT                                                   0.5 : STEP BETWEEN DEPTHS
NULL.                                                 -999.25 : NULL VALUE
#___________________________________________________________________________________________________ 
~CURVE INFORMATION 
# MNEM.UNIT           : CURVE DESCRIPTION 
#-----.-----          : ----------------------------- 
 DEPT.FT               : MEASURED DEPTH 
 GR.API                : GAMMA RAY (GR) 
 DT.US/FT              : SONIC DELTA TRANSIT TIME (DT) 
 #___________________________________________________________________________________________________ 
~A         DEPT             GR             DT
# ...
         3235.0         10.475         67.987
         3235.5          9.272         68.083
         3236.0          8.070         68.179
         3236.5          6.867         68.275
         3237.0          5.665         68.371
         3237.5          5.416         68.467
         3238.0          5.840         68.365
         3238.5          6.265         68.256
         3239.0          6.689         68.148
         3239.5          7.114         68.040
         3240.0          7.512         67.932
         3240.5          6.592         67.946
         3241.0          5.671         67.964
         3241.5          4.750         67.983
         3242.0          3.875         68.001
         3242.5          4.015         68.020
         3243.0          4.155         68.038
         3243.5          4.295         68.056
         3244.0          4.435         68.075
         3244.5          4.576         68.093
         3245.0          4.716         68.112
         3245.5          4.856         68.130
         3246.0          4.996         68.149
         3246.5          5.136         68.167
         3247.0          5.276         68.185
         3247.5          5.416         68.204
         3248.0          5.556         68.222
         3248.5          5.793         68.241
         3249.0          6.064         68.261
         3249.5          6.334         68.283
         3250.0          6.605         68.304
         3250.5          6.875         68.326
         3251.0          6.313         68.347
         3251.5          5.434         68.369
         3252.0          4.554         68.391
         3252.5          4.372         68.412
         3253.0          5.680         68.434
         3253.5          6.988         68.455
         3254.0          8.295         68.477
         3254.5          8.435         68.498
         3255.0          7.266         68.520
         3255.5          6.097         68.542
         3256.0          4.928         68.563
         3256.5          3.759         68.585
         3257.0          2.590         68.606
         3257.5          2.647         68.628
         3258.0          3.067         68.596
         3258.5          3.487         68.535
         3259.0          3.907         68.474
         3259.5          4.327         68.413
         3260.0          4.747         68.351
         3260.5          5.167         68.290
         3261.0          5.127         68.229
         3261.5          4.686         68.213
         3262.0          4.246         68.199
         3262.5          3.805         68.184
         3263.0          3.386         68.170
         3263.5          3.803         68.156
         3264.0          4.220         68.142
         3264.5          4.637         68.128
         3265.0          5.054         68.113
         3265.5          5.471         68.099
         3266.0          5.888         68.085
         3266.5          6.305         68.071
         3267.0          6.722         68.056
         3267.5          6.973         68.042
         3268.0          5.969         68.028
         3268.5          4.965         68.014
         3269.0          3.961         67.999
         3269.5          3.496         67.985
         3270.0          6.404         67.971
         3270.5          7.474         67.957
         3271.0          6.886         67.943
         3271.5          6.299         67.973
         3272.0          5.711         68.014
         3272.5          5.613         68.055
         3273.0          5.884         68.096
         3273.5          6.155         68.137
         3274.0          6.425         68.178
         3274.5          6.696         68.219
         3275.0          7.127         68.260
         3275.5          7.691         68.301
         3276.0          8.254         68.342
         3276.5          8.817         68.383
         3277.0          9.380         68.352
         3277.5          9.944         68.271
         3278.0         10.507         68.189
         3278.5         11.070         68.108
         3279.0          9.157         68.027
         3279.5          6.523         67.946
         3280.0          3.890         67.864
         3280.5          4.195         67.948
         3281.0          4.981         68.048
         3281.5          5.766         68.148
         3282.0          6.552         68.248
         3282.5          7.338         68.348
         3283.0          8.124         68.448
         3283.5          8.910         68.547
         3284.0          9.696         68.502
         3284.5         10.481         68.353
         3285.0         10.544         68.204
         3285.5          9.716         68.055
         3286.0          8.888         67.906
         3286.5          8.059         67.902
         3287.0          7.231         67.996
         3287.5          6.403         68.091
         3288.0          5.575         68.185
         3288.5          4.747         68.280
         3289.0          3.919         68.374
         3289.5          3.090         68.329
         3290.0          3.503         68.278
         3290.5          4.211         68.227
         3291.0          4.919         68.176
         3291.5          5.628         68.125
         3292.0          6.336         68.074
         3292.5          7.044         68.052
         3293.0          7.107         68.110
         3293.5          3.709         68.168
         3294.0          3.857         68.124
         3294.5          4.086         68.080
         3295.0          4.315         68.036
         3295.5          4.544         67.992
         3296.0          3.763         67.948
         3296.5          2.023         67.905
         3297.0          0.895         67.861
         3297.5          2.038         67.831
         3298.0          3.181         67.855
         3298.5          4.324         67.880
         3299.0          5.467         67.904
         3299.5          4.899         67.929
         3300.0          4.209         67.953
         3300.5          6.055         67.978
         3301.0          7.165         68.002
         3301.5          7.436         68.027
         3302.0          7.707         68.051
         3302.5          7.978         68.076
         3303.0          8.248         68.100
         3303.5          8.092         68.125
         3304.0          7.407         68.149
         3304.5          6.721         68.174
         3305.0          6.036         68.198
         3305.5          5.351         68.223
         3306.0          4.666         68.247
         3306.5          3.980         68.272
         3307.0          3.295         68.343
         3307.5          2.610         68.435
         3308.0          1.924         68.527
         3308.5          1.684         68.619
         3309.0          2.699         68.711
         3309.5          3.714         68.703
         3310.0          4.728         68.637
         3310.5          4.630         68.571
         3311.0          4.476         68.506
         3311.5          4.321         68.440
         3312.0          4.167         68.374
         3312.5          4.012         68.308
         3313.0          3.857         68.308
         3313.5          3.703         68.413
         3314.0          3.548         68.518
         3314.5          3.887         68.623
         3315.0          4.661         68.728
         3315.5          5.434         68.780
         3316.0          6.208         68.713
         3316.5          6.981         68.646
         3317.0          7.754         68.580
         3317.5          7.989         68.513
         3318.0          7.549         68.447
         3318.5          7.108         67.670
         3319.0          6.667         65.115
         3319.5          6.227         66.355
         3320.0          5.786         67.595
         3320.5          5.345         68.521
         3321.0          4.904         68.513
         3321.5          4.464         68.506
