~Version Information Block
 VERS.                2.00:     CWLS LOG ASCII STANDARD - VERSION 2.000000
 WRAP.                  NO:     One Line Per Depth Step
#
~Well Information Block
#MNEM.UNIT                     Data                         Information
#----------   ------------------------------------------   ----------------
 STRT.FT                                     5200.0000:     START DEPTH
 STOP.FT                                    11550.0000:     STOP DEPTH
 STEP.FT                                        0.5000:     STEP
 NULL.                                       -999.2500:     NULL VALUE
 COMP.               AMERICAN QUASAR PETROLEUM COMPANY:     COMPANY
 WELL.                               MCCARTER # 1 - 31:     WELL
 FLD .                                         WILDCAT:     FIELD
 LOC .                                                :     LOCATION
 CNTY.                                          REEVES:     COUNTY
 STAT.                                           TEXAS:     STATE
 CTRY.                                             USA:     COUNTRY
 SRVC.                                                :     SERVICE COMPANY
 DATE.                                      08/07/2015:     DATE
 API .                                  42389311800000:     API NUMBER
 UWI .                                  42389311800000:     UWI NUMBER
 TVD .                                              NO:     TVD flag
 WSTA.                                             LOC:     Well status
#
~Curve Information Block
#MNEM.UNIT       API CODE      Curve Description
#----------    -------------   -------------------
 DEPT.FT                   :   Depth in Feet
 GR  .GAPI                 :   Gamma Ray
 LLD .OHMM                 :   Latero-Log Deep (Resistivity)
 CALI.IN                   :   Caliper
 DT  .US/F                 :   Delta-T
#
~Parameter Information Block
#MNEM.UNIT            Value               Description
#----------    --------------------    -------------------
 RUN .                         ONE:    Run Number
 PDAT.                          GL:    Permanent Datum
 EPD .FT                          :    Elevation Of Perm. Datum
 LMF .               KELLY BUSHING:    Log Measured From
 EKB .FT                          :    Elevation Of Kelly Bushing
 DF .FT                           :    Elevation Of Derrick Floor
 GL .FT                           :    Elevation Of Ground Level
 TD  .FT                          :    Total Depth
 CSGD.FT                          :    Casing Bottom (Driller) 1
 CSGL.FT                          :    Casing Bottom (Logger) 1
 MUD .                            :    Drilling Fluid Type
 MUDV .CP                         :    Drilling Fluid Viscosity
 MUDD .LB/USG                     :    Drilling Fluid Density
 FL .ML/30MIN                     :    Drilling Fluid Loss
 PH.                              :    Drilling Fluid Ph
 MUDS .                           :    Mud Sample Source
 RM .OHMM                         :    Resistivity Of Mud Sample
 RMT .DEGF                        :    Mud Sample Temperature
 RMF .OHMM                        :    Mud Filtrate Resistivity
 RMFT.DEGF                        :    Mud Filtrate Sample Temperature
 RMC .OHMM                        :    Mud Cake Resistivity
 RMCT.DEGF                        :    Mud Cake Sample Temperature
 RMB .OHMM                        :    Mud Resistivity At Bht
 TMAX .DEGF                       :    Bottom Hole Temperature    
#
~Other Information Block
<DescLogPlotStart>   NEURALOG PLOT DEFINITION
PLOTDEFVERSION: 3
LASFILE: E:\Nair Innovations\Texas - NII\Shivam\42389311800000\42389311800000_G
DEPTHSCALE: 239.999996
RESOLUTION: 200
DEPTHLABELFREQ: 100.000000
HEAVYGRIDFREQ: 100.000000
MEDIUMGRIDFREQ: 50.000000
LIGHTGRIDFREQ: 10.000000
#
#   TRACK 1
#
STARTTRACK: 
 LEFTX: 0.500000 inch
 RIGHTX: 3.000000 inch
 SCALETYPE: Linear
 NUMCHARTDIVISIONS: 10
CURVE: GR    0.000000   125.000000 (0,0,255)      Solid             2     Y    
BACKUP: 125.000000 250.000000 (0,0,255)      Solid             2    
CURVE: CALI  6.000000   16.000000  (0,0,255)      Solid             2     N    
ENDTRACK: 
#
#   TRACK 2
#
STARTTRACK: 
 LEFTX: 3.500000 inch
 RIGHTX: 8.500000 inch
 SCALETYPE: Log
 NUMCYCLES: 4
 STARTCYCLE: 2
CURVE: LLD   0.200000   2000.000000 (0,131,131)    Solid             2     Y   
BACKUP: 2000.000000 20000000.000000 (0,131,131)    Solid             2    
ENDTRACK: 
#
#   TRACK 3
#
STARTTRACK: 
 LEFTX: 3.500000 inch
 RIGHTX: 8.500000 inch
 SCALETYPE: Linear
 NUMCHARTDIVISIONS: 10
CURVE: DT    100.000000 40.000000  (0,131,131)    Solid             2     Y    
BACKUP: 160.000000 100.000000 (0,131,131)    Solid             2    
BACKUP: 40.000000  -20.000000 (0,131,131)    Solid             2    
ENDTRACK: 
<DescLogPlotEnd>
<DepthTrack type='Reference' track='1' Label='0' color='0' hor='0' />
<Reference font='144,0,-900,0,500,0,16777216,Arial' />
~A DEPTH     GR               LLD              CALI             DT              
# ...
   11090.500 74.44384785      6.96180272       12.70078013      84.74525475     
   11091.000 74.68599019      6.82489742       12.70119572      84.98501499     
   11091.500 75.25118473      6.55444627       12.70161132      86.55694306     
   11092.000 76.09456787      6.39793783       12.70202691      87.93286713     
   11092.500 77.67395338      6.55633684       12.70244250      89.16866467     
   11093.000 77.95321701      6.76220156       12.70285810      89.78021978     
   11093.500 76.62168463      7.16743335       12.70327369      88.22177822     
   11094.000 75.44227910      7.55412739       12.70368928      87.38261738     
   11094.500 74.64048345      8.08556978       12.70410487      86.52987013     
   11095.000 71.36387554      8.39888885       12.70452047      85.81040231     
   11095.500 67.45957993      8.83731991       12.70493606      85.17717728     
   11096.000 63.30164129      9.42988027       12.70535165      85.09942414     
   11096.500 62.67627646      9.80864226       12.70576724      84.99710290     
   11097.000 65.12891936      10.33399025      12.70618284      84.89690310     
   11097.500 71.88697568      9.94438368       12.70659843      85.17307692     
   11098.000 74.92970888      9.96379504       12.70701402      85.64915085     
   11098.500 78.81869764      8.60054710       12.70742961      86.08334998     
   11099.000 82.04654106      8.38530008       12.70784521      86.24375624     
   11099.500 86.22937290      7.26819866       12.70826080      85.87322557     
   11100.000 86.24080846      6.89061997       12.70867639      85.43160016     
   11100.500 79.40123009      6.62495006       12.70909198      84.98997476     
   11101.000 75.10117758      6.39793783       12.70950758      84.68531469     
   11101.500 72.48779528      6.33916418       12.70992317      84.92507493     
   11102.000 70.81716019      6.12658372       12.71033876      85.50301698     
   11102.500 69.17925625      5.74341366       12.71075435      86.74288217     
   11103.000 66.86219771      5.30372049       12.71116995      88.30236525     
   11103.500 65.82652490      5.04460408       12.71158554      90.44520564     
   11104.000 67.33697515      5.89759221       12.71200113      90.85914086     
   11104.500 69.36263749      8.02784450       12.71241672      89.54489510     
   11105.000 70.60825077      11.02841148      12.71283232      88.39920080     
   11105.500 68.92391586      13.76275397      12.71324791      87.20279720     
   11106.000 64.14387066      14.70831972      12.71366350      85.94721642     
   11106.500 62.05565557      15.89267478      12.71407909      84.65899555     
   11107.000 61.31531090      16.72906887      12.71449469      83.25319044     
   11107.500 62.89298275      17.32572602      12.71491028      81.37145948     
   11108.000 62.88261006      16.58209400      12.71532588      80.49695313     
   11108.500 62.85891577      15.17119205      12.71574204      80.85132352     
   11109.000 62.93291325      13.74912419      12.71615954      81.20409143     
   11109.500 65.05757233      11.83976252      12.71655618      82.20995735     
   11110.000 67.47911664      10.77086435      12.71658349      83.20460176     
   11110.500 69.62652549      9.49683981       12.71647423      84.11094713     
   11111.000 70.33837188      8.43831529       12.71669987      84.92514543     
   11111.500 69.57506116      8.23424548       12.69699494      85.22077384     
   11112.000 68.43170535      8.05824406       12.69645766      86.13059185     
   11112.500 67.78314826      7.45242357       12.69659560      86.66157059     
   11113.000 68.10285067      7.14720449       12.69660679      87.13936552     
   11113.500 69.19241850      6.76220156       12.69660679      86.84315684     
   11114.000 71.50679808      6.33916418       12.69660679      86.24375624     
   11114.500 73.37817799      5.77185705       12.69660679      85.98625375     
   11115.000 75.06104258      5.36892962       12.69660679      85.76423576     
   11115.500 75.84783553      5.69342604       12.69660679      85.58441558     
   11116.000 76.60436965      6.05329612       12.69660679      85.16483516     
   11116.500 74.61471861      5.62338647       12.69660679      85.29213128     
   11117.000 72.18121215      5.36892962       12.69660679      86.45557236     
   11117.500 69.85403432      5.41870773       12.69660679      87.55325792     
   11118.000 70.21463504      6.05329612       12.69660679      88.64135864     
   11118.500 71.38027610      7.75559579       12.69660679      89.00979021     
   11119.000 69.63527752      10.14941048      12.69660679      89.18081918     
   11119.500 64.27785157      12.31995592      12.69660679      87.92207792     
   11120.000 62.84873965      13.17004048      12.69660679      86.78321678     
   11120.500 61.95426022      14.25258774      12.69660679      85.77822178     
   11121.000 61.60590208      15.52535933      12.69660679      84.92507493     
   11121.500 60.95495388      16.25224164      12.69660679      84.38561439     
   11122.000 58.76143477      16.22027182      12.69660679      83.66633367     
   11122.500 60.11341136      16.13405089      12.69660679      84.02530803     
   11123.000 62.92324155      15.66093081      12.69660679      84.50549451     
   11123.500 67.53237947      13.76275397      12.69660679      84.32567433     
   11124.000 67.96929781      10.87426024      12.69660679      84.79367889     
   11124.500 64.56770494      5.74152458       12.69660679      92.11941192     
   11125.000 59.74158551      3.38025743       12.69660679      99.49919478     
   11125.500 54.91864595      2.79580171       12.69660679      99.29383216     
   11126.000 54.13205656      2.56593960       12.69660679      99.31068931     
   11126.500 60.85315985      4.40702095       12.69660679      99.31068931     
   11127.000 66.37478696      6.88817455       12.69660679      109.56043956    
   11127.500 70.60694506      6.82489742       12.69660679      98.41458541     
   11128.000 71.23851111      6.57754857       12.69660679      94.49510490     
   11128.500 68.20279069      6.54059032       12.69660679      90.57562438     
   11129.000 63.76860260      6.45752113       12.69660679      86.84315684     
   11129.500 62.84235045      6.31799433       12.69660679      86.52353529     
   11130.000 64.36426567      6.20666501       12.69660679      86.61221132     
   11130.500 66.60566867      6.17953573       12.69660679      86.70111019     
   11131.000 68.05786502      6.14235064       12.69660679      86.78064414     
   11131.500 67.40180523      6.10941934       12.69660679      87.21808923     
   11132.000 65.66117606      6.10941934       12.69660679      87.45352522     
   11132.500 63.47022262      6.10941934       12.69660679      86.44175471     
   11133.000 63.12647654      6.28093044       12.69660679      85.52483987     
   11133.500 63.41535760      5.94171075       12.69660679      85.04495504     
   11134.000 64.41930568      5.94360400       12.69660679      85.04975025     
   11134.500 65.88528205      5.89428033       12.69660679      85.65274725     
   11135.000 68.36592309      5.86599186       12.69660679      86.27442570     
   11135.500 70.79804049      5.83440248       12.69660679      86.72445500     
   11136.000 71.59347812      5.95099628       12.69660679      86.78238901     
   11136.500 71.51738232      6.05373768       12.69660679      86.74911089     
   11137.000 69.22710381      6.05256372       12.69660679      86.72327672     
   11137.500 67.29410240      6.25794241       12.69660679      86.42357642     
   11138.000 66.25690314      6.34183916       12.69660679      85.46149260     
   11138.500 65.68484459      6.42659661       12.69660679      85.18199949     
   11139.000 65.60275933      6.45725641       12.69660679      85.03547858     
   11139.500 67.11693055      6.39796814       12.69660679      85.70640121     
