#--------------------------------------------------#
#-------------------ENVERUS, INC.------------------#
#------------------WWW.ENVERUS.COM-----------------#
#------------------COPYRIGHT 2020------------------#
#--------------------------------------------------#
#THIS FILE MAY BE USED ONLY IN ACCORDANCE WITH A CURRENT SUBSCRIPTION AGREEMENT BETWEEN
#THE USER AND ENVERUS, INC. NO PART OF THIS FILE MAY BE REPRODUCED, USED, COPIED,
#MODIFIED, PROPAGATED, OR DISTRIBUTED EXCEPT IN ACCORDANCE WITH THE SUBSCRIPTION
#AGREEMENT. UNAUTHORIZED USE OR DISTRIBUTION OF ALL OR ANY PART OF THIS FILE MAY VIOLATE
#COPYRIGHT, TRADEMARK, AND/OR OTHER LAWS AND IS SUBJECT TO CIVIL AS WELL AS CRIMINAL
#SANCTIONS.
#--------------------------------------------------#
#THIS FILE IS PROVIDED "AS-IS" AND ALL WARRANTIES ARE EXPRESSLY DISCLAIMED, WHETHER
#EXPRESS, ORAL, IMPLIED, STATUTORY OR OTHERWISE, INCLUDING ANY IMPLIED WARRANTY OF FITNESS
#FOR A PARTICULAR PURPOSE, MERCHANTABILITY, TITLE OR NON-INFRINGEMENT, AND ANY WARRANTIES
#ARISING BY VIRTUE OF CUSTOM OF TRADE OR COURSE OF DEALING.  FURTHER, ENVERUS, INC.
#AND ITS LICENSORS DO NOT REPRESENT OR WARRANT THAT THIS FILE WILL MEET USER'S
#REQUIREMENTS OR ARE SUITABLE FOR USER'S NEEDS OR THAT THE DATA OR RESULTS PROVIDED IN
#CONJUNCTION THEREWITH ARE CORRECT, ACCURATE, TIMELY OR RELIABLE. THESE DISCLAIMERS SHALL
#APPLY REGARDLESS OF ANY FAILURE OF ESSENTIAL PURPOSE OF ANY LIMITED REMEDY.  SOME
#JURISDICTIONS DO NOT ALLOW THE EXCLUSION OF CERTAIN WARRANTIES SO SOME OF THE ABOVE
#EXCLUSIONS MAY NOT APPLY. IN NO EVENT SHALL ENVERUS, INC. OR ANY OF ITS AFFILIATES
#BE LIABLE UNDER ANY LEGAL THEORY, WHETHER IN TORT (INCLUDING WITHOUT LIMITATION
#NEGLIGENCE), CONTRACT, STRICT LIABILITY, STATUTORY OR OTHERWISE, FOR ANY SPECIAL,
#INCIDENTAL, CONSEQUENTIAL, EXEMPLARY, PUNITIVE OR INDIRECT DAMAGE OF ANY KIND, INCLUDING
#WITHOUT LIMITATION LOSS OF REVENUE, PROFITS, GOODWILL, USE, AND/OR DATA OR THE COST OF
#PROCUREMENT OF SUBSTITUTE GOODS OR SERVICES, EVEN IF APPRISED OF THE POSSIBILITY OF SUCH
#DAMAGES IN ADVANCE.
#--------------------------------------------------#

~VERSION INFORMATION
VERS. 2.0 : CWLS LOG ASCII STANDARD - VERSION 2.0
WRAP.  NO : ONE LINE PER DEPTH STEP
~WELL INFORMATION
#MNEMONIC     .UNIT              VALUE :DESCRIPTION
STRT       .FT                75 :START DEPTH
STOP       .FT                5648 :STOP DEPTH
STEP       .FT                   0.500 :STEP
NULL       .                  -999.990 :NULL
UWI        .              42371363570000 :UNIQUE WELL ID
API        .              42371363570000 :API NUMBER
COMP       .         APACHE CORPORATION :COMPANY
WELL       .        SCHLOSSER, FRED ESTATE -B-  13 :WELL
DATE       .                16-MAY-1992 :LOG DATE
~CURVE INFORMATION
#MNEMONIC     .UNIT      API CODE :CURVE DESCRIPTION
DEPTH       .FT                      :MEASURED DEPTH
DT.US/FT        UNKNOWN   :DT
GR.API        UNKNOWN   :GR
~A    DEPTH    DT    GR
# ...
 4786.5     50.398   6.542
 4787     50.196   6.516
 4787.5     49.83   7.114
 4788     49.409   7.712
 4788.5     48.989   8.31
 4789     48.596   8.557
 4789.5     48.274   8.289
 4790     47.953   8.021
 4790.5     47.632   7.753
 4791     47.311   7.765
 4791.5     47.3   8.356
 4792     47.345   8.948
 4792.5     47.347   8.983
 4793     47.247   8.586
 4793.5     47.349   8.19
 4794     47.423   7.793
 4794.5     47.381   7.397
 4795     47.339   7
 4795.5     47.297   6.604
 4796     47.254   6.423
 4796.5     47.212   6.344
 4797     47.249   6.266
 4797.5     47.412   7.011
 4798     47.576   7.855
 4798.5     47.739   8.699
 4799     47.902   9.236
 4799.5     48.065   9.748
 4800     48.884   10.26
 4800.5     50.045   10.772
 4801     50.781   11.283
 4801.5     50.714   11.336
 4802     50.647   9.351
 4802.5     50.52   7.366
 4803     50.333   6.32
 4803.5     50.145   6.051
 4804     49.946   5.782
 4804.5     48.728   5.513
 4805     48.728   6.707
 4805.5     48.728   8.073
 4806     48.728   8.284
 4806.5     48.729   7.666
 4807     48.729   6.656
 4807.5     48.717   5.426
 4808     48.699   4.487
 4808.5     48.681   4.435
 4809     48.663   4.505
 4809.5     48.645   5.615
 4810     48.627   6.724
 4810.5     48.56   7.834
 4811     48.379   8.943
 4811.5     48.197   8.494
 4812     48.031   7.837
 4812.5     47.978   8.026
 4813     47.925   8.537
 4813.5     47.872   9.049
 4814     47.819   9.154
 4814.5     47.765   8.397
 4815     47.712   7.64
 4815.5     47.659   6.883
 4816     47.627   7.038
 4816.5     47.698   8.404
 4817     47.768   9.618
 4817.5     47.839   9.673
 4818     47.91   9.484
 4818.5     47.98   8.258
 4819     48.051   7.26
 4819.5     48.121   7.006
 4820     48.034   6.752
 4820.5     47.801   6.497
 4821     47.567   6.717
 4821.5     47.334   7.057
 4822     47.212   7.397
 4822.5     47.258   7.738
 4823     47.304   8.078
 4823.5     47.351   8.419
 4824     47.397   8.759
 4824.5     47.443   9.093
 4825     47.489   9.384
 4825.5     47.527   9.675
 4826     47.562   9.845
 4826.5     47.596   9.247
 4827     47.631   8.649
 4827.5     47.68   8.052
 4828     47.774   7.454
 4828.5     47.868   7.368
 4829     47.962   8.081
 4829.5     48.056   8.794
 4830     48.15   9.507
 4830.5     48.189   9.743
 4831     48.174   9.623
 4831.5     48.159   9.503
 4832     48.112   9.383
 4832.5     48.064   9.263
 4833     48.016   9.142
 4833.5     48.037   9.022
 4834     48.077   8.977
 4834.5     47.893   9.122
 4835     47.746   9.267
 4835.5     47.781   9.413
 4836     47.815   9.558
 4836.5     47.85   9.42
 4837     47.885   9.209
 4837.5     47.919   8.998
 4838     47.954   8.788
 4838.5     48.029   8.577
 4839     48.133   8.366
 4839.5     48.156   7.927
 4840     48.035   7.315
 4840.5     48.045   6.703
 4841     48.214   6.091
 4841.5     48.383   6.217
 4842     48.514   7.174
 4842.5     48.537   8.13
 4843     48.56   9.087
 4843.5     48.582   9.997
 4844     48.605   9.39
 4844.5     48.633   8.783
 4845     48.688   8.177
 4845.5     48.743   7.57
 4846     48.798   6.964
 4846.5     48.666   7.695
 4847     48.435   9.197
 4847.5     48.205   10.699
 4848     48.075   12.201
 4848.5     48.051   12.185
 4849     48.027   11.337
 4849.5     48.038   10.489
 4850     48.128   9.641
 4850.5     48.219   11.38
 4851     48.344   14.001
 4851.5     48.481   13.533
 4852     48.618   13.066
 4852.5     48.755   13.366
 4853     48.891   13.794
 4853.5     49.002   13.504
 4854     49.112   13.213
 4854.5     49.222   12.923
 4855     49.378   12.633
 4855.5     49.588   15.615
 4856     49.799   18.392
 4856.5     48.596   17.222
 4857     48.914   15.055
 4857.5     49.289   12.618
 4858     49.401   10.181
 4858.5     49.122   7.815
 4859     48.842   7.737
 4859.5     48.605   7.659
 4860     48.504   7.582
 4860.5     48.437   7.504
 4861     48.437   7.427
 4861.5     48.437   7.349
 4862     48.437   7.271
 4862.5     48.594   7.97
 4863     48.783   8.704
 4863.5     48.645   9.437
 4864     48.285   10.171
 4864.5     48.457   10.905
 4865     48.63   11.616
 4865.5     48.402   11.269
 4866     48.057   10.922
 4866.5     48.286   10.575
 4867     48.595   10.228
 4867.5     49.296   11.317
 4868     50.184   12.509
 4868.5     48.013   13.433
 4869     47.386   13.229
 4869.5     48.385   12.966
 4870     49.256   11.506
 4870.5     49.656   10.046
 4871     50.056   9.146
 4871.5     50.155   10.36
 4872     49.629   11.575
 4872.5     49.104   12.79
 4873     48.652   14.004
 4873.5     48.543   12.907
 4874     48.434   11.796
 4874.5     48.325   10.684
 4875     48.555   10.577
 4875.5     48.786   10.555
 4876     49.017   11.892
 4876.5     49.012   13.229
 4877     48.433   13.079
 4877.5     50.08   11.438
 4878     51.727   9.797
 4878.5     53.373   8.156
 4879     62.177   6.856
 4879.5     64.305   6.52
 4880     63.608   6.57
 4880.5     59.584   6.621
 4881     55.011   6.671
 4881.5     56.969   7.567
 4882     58.927   7.837
 4882.5     56.602   7.889
 4883     53.276   8.623
 4883.5     50.449   9.357
 4884     52.449   9.624
 4884.5     54.449   8.887
 4885     54.202   8.15
 4885.5     53.421   7.924
 4886     52.641   8.196
 4886.5     51.86   8.468
 4887     53.318   8.488
 4887.5     57.849   7.941
 4888     61.308   7.395
 4888.5     62.429   6.848
 4889     63.551   6.301
 4889.5     64.55   5.754
 4890     64.769   5.208
 4890.5     63.925   4.661
 4891     62.629   4.178
 4891.5     59.779   3.827
 4892     60.746   3.476
 4892.5     61.449   3.648
 4893     58.427   4.283
 4893.5     55.406   4.918
 4894     50.199   5.553
 4894.5     56.203   6.129
 4895     60.86   5.959
 4895.5     64.665   5.789
 4896     65.133   5.619
 4896.5     65.6   5.356
 4897     66.043   4.742
 4897.5     66.116   4.129
 4898     65.688   3.903
 4898.5     64.687   5.348
 4899     63.686   6.793
 4899.5     54.547   7.542
 4900     51.2   6.186
 4900.5     63.449   4.83
 4901     66.138   3.722
 4901.5     67.119   3.641
 4902     66.948   3.56
 4902.5     66.776   3.479
 4903     66.604   3.36
 4903.5     64.792   2.97
 4904     65.44   2.58
 4904.5     66.088   2.393
 4905     65.731   2.628
 4905.5     65.082   2.863
 4906     64.433   3.251
 4906.5     64.769   3.763
 4907     65.679   4.274
 4907.5     65.027   4.578
 4908     62.516   4.514
 4908.5     63.514   4.45
 4909     64.511   4.386
 4909.5     64.333   3.827
 4910     64.013   3.232
 4910.5     64.6   2.638
 4911     66.767   2.18
 4911.5     66.883   2.103
 4912     66.29   2.027
 4912.5     67.006   1.95
 4913     66.775   1.874
 4913.5     66.36   2.224
 4914     65.946   2.584
 4914.5     66.018   2.945
 4915     66.318   3.305
 4915.5     66.619   3.666
 4916     66.92   4.026
 4916.5     65.337   4.387
 4917     63.386   5.041
 4917.5     60.334   5.801
 4918     55.56   6.561
 4918.5     51.589   7.322
 4919     49.212   8.082
 4919.5     48.209   8.734
 4920     48.149   9.246
 4920.5     48.254   9.758
 4921     48.709   9.811
 4921.5     49.165   9.638
 4922     49.564   9.465
 4922.5     49.501   9.292
 4923     49.439   9.119
 4923.5     49.376   8.946
 4924     49.313   8.773
 4924.5     49.25   8.601
 4925     49.187   8.428
 4925.5     49.124   8.255
 4926     49.087   8.082
 4926.5     49.181   7.909
 4927     49.275   8.23
 4927.5     49.369   8.812
 4928     49.463   9.395
 4928.5     49.557   9.977
 4929     49.502   10.559
 4929.5     49.242   10.57
 4930     48.992   10.57
 4930.5     48.786   8.743
 4931     48.58   8.106
 4931.5     48.389   8.015
 4932     48.643   7.925
 4932.5     48.897   7.894
 4933     49.093   8.434
 4933.5     48.964   8.975
 4934     48.836   9.515
 4934.5     48.708   9.334
 4935     48.58   7.504
 4935.5     48.451   7.438
 4936     48.481   7.371
 4936.5     48.562   7.305
 4937     48.643   7.239
 4937.5     48.723   7.173
 4938     48.535   7.107
 4938.5     48.327   7.351
 4939     48.433   7.882
 4939.5     48.666   8.412
 4940     48.899   8.942
