#--------------------------------------------------#
#-------------------ENVERUS, INC.------------------#
#------------------WWW.ENVERUS.COM-----------------#
#------------------COPYRIGHT 2020------------------#
#--------------------------------------------------#
#THIS FILE MAY BE USED ONLY IN ACCORDANCE WITH A CURRENT SUBSCRIPTION AGREEMENT BETWEEN
#THE USER AND ENVERUS, INC. NO PART OF THIS FILE MAY BE REPRODUCED, USED, COPIED,
#MODIFIED, PROPAGATED, OR DISTRIBUTED EXCEPT IN ACCORDANCE WITH THE SUBSCRIPTION
#AGREEMENT. UNAUTHORIZED USE OR DISTRIBUTION OF ALL OR ANY PART OF THIS FILE MAY VIOLATE
#COPYRIGHT, TRADEMARK, AND/OR OTHER LAWS AND IS SUBJECT TO CIVIL AS WELL AS CRIMINAL
#SANCTIONS.
#--------------------------------------------------#
#THIS FILE IS PROVIDED "AS-IS" AND ALL WARRANTIES ARE EXPRESSLY DISCLAIMED, WHETHER
#EXPRESS, ORAL, IMPLIED, STATUTORY OR OTHERWISE, INCLUDING ANY IMPLIED WARRANTY OF FITNESS
#FOR A PARTICULAR PURPOSE, MERCHANTABILITY, TITLE OR NON-INFRINGEMENT, AND ANY WARRANTIES
#ARISING BY VIRTUE OF CUSTOM OF TRADE OR COURSE OF DEALING.  FURTHER, ENVERUS, INC.
#AND ITS LICENSORS DO NOT REPRESENT OR WARRANT THAT THIS FILE WILL MEET USER'S
#REQUIREMENTS OR ARE SUITABLE FOR USER'S NEEDS OR THAT THE DATA OR RESULTS PROVIDED IN
#CONJUNCTION THEREWITH ARE CORRECT, ACCURATE, TIMELY OR RELIABLE. THESE DISCLAIMERS SHALL
#APPLY REGARDLESS OF ANY FAILURE OF ESSENTIAL PURPOSE OF ANY LIMITED REMEDY.  SOME
#JURISDICTIONS DO NOT ALLOW THE EXCLUSION OF CERTAIN WARRANTIES SO SOME OF THE ABOVE
#EXCLUSIONS MAY NOT APPLY. IN NO EVENT SHALL ENVERUS, INC. OR ANY OF ITS AFFILIATES
#BE LIABLE UNDER ANY LEGAL THEORY, WHETHER IN TORT (INCLUDING WITHOUT LIMITATION
#NEGLIGENCE), CONTRACT, STRICT LIABILITY, STATUTORY OR OTHERWISE, FOR ANY SPECIAL,
#INCIDENTAL, CONSEQUENTIAL, EXEMPLARY, PUNITIVE OR INDIRECT DAMAGE OF ANY KIND, INCLUDING
#WITHOUT LIMITATION LOSS OF REVENUE, PROFITS, GOODWILL, USE, AND/OR DATA OR THE COST OF
#PROCUREMENT OF SUBSTITUTE GOODS OR SERVICES, EVEN IF APPRISED OF THE POSSIBILITY OF SUCH
#DAMAGES IN ADVANCE.
#--------------------------------------------------#

~VERSION INFORMATION
VERS. 2.0 : CWLS LOG ASCII STANDARD - VERSION 2.0
WRAP.  NO : ONE LINE PER DEPTH STEP
~WELL INFORMATION
#MNEMONIC     .UNIT              VALUE :DESCRIPTION
STRT       .FT                10841 :START DEPTH
STOP       .FT                18209 :STOP DEPTH
STEP       .FT                   0.500 :STEP
NULL       .                  -999.99 :NULL
UWI        .                42371326180000 :UNIQUE WELL ID
API        .                42371326180000 :API NUMBER
COMP       .         :COMPANY
WELL       .        :WELL
DATE       .                 :LOG DATE
FLD       .                 :FIELD NAME
LOC       .                  UNK :LOCATION
CNTY       .                 UNK :COUNTY
STAT       .                 UNK :STATE
CTRY       .                 UNK :COUNTY
SRVC       .                 UNK :SERVICE COMPANY
~CURVE INFORMATION
#MNEMONIC     .UNIT      API CODE :CURVE DESCRIPTION
DEPTH       .FT                      :MEASURED DEPTH
CAL.IN        UNKNOWN   :CAL
DT.MSEC/FT        UNKNOWN   :DT
GR.API        UNKNOWN   :GR
ILD.OHM        UNKNOWN   :ILD
ILS.OHM        UNKNOWN   :ILS
SP.MV        UNKNOWN   :SP
~A    DEPTH    CAL    DT    GR    ILD    ILS    SP
# ...
 15696     10.16459   51.77638   17.75263   46.73944   462.27807   -14.3449
 15696.5     10.26509   51.93674   15.67141   52.20113   954.58196   -14.04681
 15697     10.2994   52.14403   13.82374   54.24455   1366.75681   -13.74085
 15697.5     10.30725   51.4194   12.29524   53.39639   1646.86046   -13.4349
 15698     10.31477   51.28048   12.50882   52.51512   1751.60828   -13.20527
 15698.5     10.29656   51.83924   12.38036   51.63385   1756.22911   -13.07626
 15699     10.27835   52.398   12.12842   51.62302   1760.84994   -12.94726
 15699.5     10.26014   53.01491   12.82989   53.91508   1743.6964   -13.03118
 15700     10.24193   54.95099   15.16195   56.20715   1712.92667   -13.26837
 15700.5     10.22395   56.15016   17.494   54.1108   1682.15694   -13.50556
 15701     10.20626   57.03002   18.85801   51.49863   1522.79463   -13.74275
 15701.5     10.18857   57.1941   18.78539   48.88646   1277.41676   -13.95431
 15702     10.17088   57.31811   18.1206   46.27429   977.40794   -13.80046
 15702.5     10.17948   57.53124   16.53482   46.28449   662.57761   -13.64661
 15703     10.19074   56.11431   16.3089   49.26098   755.9218   -13.49276
 15703.5     10.20201   52.32202   17.70774   55.18803   922.21756   -13.33891
 15704     10.21883   49.63721   19.29423   61.11509   1041.93205   -13.26456
 15704.5     10.26357   49.04801   20.88071   50.45923   1132.36528   -13.36299
 15705     10.29524   48.83828   20.89629   35.22582   1234.48678   -13.46143
 15705.5     10.29533   51.49083   19.6305   23.5479   1481.72794   -13.55986
 15706     10.29541   61.27656   18.57627   13.76205   1709.55705   -13.38632
 15706.5     10.38939   65.59036   20.46276   11.18206   503.48587   -13.12237
 15707     10.54834   76.38246   26.03153   8.60207   153.78463   -12.85842
 15707.5     10.66485   80.46146   33.59853   7.82279   5.98399   -12.59446
 15708     10.34678   77.86124   40.43437   7.24309   4.74105   -12.33051
 15708.5     10.23317   75.94664   45.33357   6.6634   5.99342   -12.06656
 15709     10.23326   73.93423   49.1301   6.17055   6.97279   -11.80261
 15709.5     10.3351   71.44231   54.99752   5.74963   7.70488   -11.86671
 15710     10.474   70.48806   61.64385   5.82557   7.58799   -11.98136
 15710.5     10.57454   72.94957   69.43926   5.97663   7.39785   -12.096
 15711     10.59519   76.37428   74.4927   6.12769   6.9393   -12.11987
 15711.5     10.60221   78.92675   76.90972   6.14425   6.48074   -12.11761
 15712     10.60924   79.80284   78.03175   6.01369   6.37474   -12.11536
 15712.5     10.61626   79.39245   78.35794   5.88313   6.55869   -12.1131
 15713     10.62329   79.13628   77.72563   5.98095   6.65456   -12.11084
 15713.5     10.63031   82.01071   78.74203   6.2258   6.59421   -12.10859
 15714     10.623   87.77487   80.37484   6.45191   6.53385   -12.10633
 15714.5     10.61267   92.54406   81.46461   6.38708   6.47479   -12.10408
 15715     10.60234   93.96459   79.91161   6.32224   6.60477   -12.10182
 15715.5     10.59201   90.97282   78.74988   6.24757   6.73475   -12.09957
 15716     10.58168   80.26757   78.01303   5.67536   6.86473   -12.09731
 15716.5     10.57135   79.63869   77.41272   5.08088   6.48799   -12.09506
 15717     10.65757   81.3464   75.64653   4.46525   5.99339   -12.15743
 15717.5     10.76809   79.2844   70.05544   3.85966   4.20669   -12.22711
 15718     11.11718   75.48215   62.72928   3.94992   3.16639   -12.29678
 15718.5     11.56101   75.22392   54.72378   4.51428   2.88103   -12.36646
 15719     12.2944   75.50506   51.79674   4.78319   3.33734   -12.43614
 15719.5     12.16676   75.44078   52.81283   4.87266   4.24652   -12.38078
 15720     11.07817   75.43085   54.40015   5.00514   5.86098   -12.31282
 15720.5     10.55555   75.60031   55.49466   5.63096   7.48902   -12.24486
 15721     10.42105   75.76978   54.80041   6.25677   8.06183   -12.1769
 15721.5     10.5003   75.82827   52.97789   6.88259   8.2372   -12.10894
 15722     10.59118   75.84477   51.20069   7.20787   8.19976   -12.07027
 15722.5     10.59127   75.89426   52.11401   7.37617   8.1882   -12.06802
 15723     10.59136   75.94639   54.56138   7.41001   8.22041   -12.06577
 15723.5     10.58652   75.99734   59.26325   7.10265   8.12082   -12.19064
 15724     10.52362   76.00015   63.41166   6.79528   7.78296   -12.54459
 15724.5     10.50802   76.00296   67.25274   6.48792   7.4451   -12.89854
 15725     10.55838   76.00577   68.15624   6.18056   7.14677   -13.25248
 15725.5     10.54936   76.00858   67.15181   5.8732   6.86673   -13.4035
 15726     10.3128   76.01139   63.47902   5.56584   6.31583   -13.10931
 15726.5     10.13179   76.0142   60.11099   5.49148   4.51477   -12.81512
 15727     10.13304   76.01701   59.10004   5.44611   4.1063   -12.52093
 15727.5     10.1971   76.01982   62.16053   5.40074   4.4239   -12.22674
 15728     10.26115   76.02263   68.50561   5.3921   4.95726   -11.93256
 15728.5     10.30787   76.02294   73.52397   5.56071   5.40447   -11.72279
 15729     10.34565   75.87688   72.61758   5.72933   5.76712   -12.02376
 15729.5     10.38229   74.48964   69.99637   5.89794   6.50615   -12.32473
 15730     10.41292   73.72855   66.68523   6.06655   7.65993   -12.6257
 15730.5     10.43457   75.13141   64.96538   5.86636   8.81372   -12.70364
 15731     10.45623   80.71697   65.64409   5.6383   8.1909   -12.6169
 15731.5     10.46115   86.64768   66.7474   5.58961   6.63625   -12.53015
 15732     10.44867   89.65568   64.99442   5.60353   5.08159   -12.44341
 15732.5     10.43619   86.3104   60.43173   5.61746   4.25935   -12.46117
 15733     10.42577   79.858   55.50118   5.63151   5.09354   -12.72279
 15733.5     10.42586   74.77177   54.43673   5.64568   5.97744   -12.98441
 15734     10.42595   72.04187   57.49417   5.65984   6.97269   -13.24604
 15734.5     10.42604   73.04184   62.30498   5.78413   7.9358   -13.50766
 15735     10.42613   75.77968   62.89189   6.15128   7.81712   -13.76928
 15735.5     10.42622   77.58919   60.23329   6.51843   7.69843   -13.65334
 15736     10.42631   77.78813   59.21183   6.83882   7.57975   -13.46132
 15736.5     10.4264   76.8007   61.99469   7.09366   7.53869   -13.2693
 15737     10.42649   75.80565   64.71409   7.34851   7.56932   -13.07728
 15737.5     10.42658   76.00733   65.15673   7.48265   7.59994   -12.88526
 15738     10.46734   76.56668   64.04732   7.40168   7.63057   -12.77485
 15738.5     10.51767   76.8022   64.94602   7.32071   7.66119   -13.19345
 15739     10.50723   76.68029   66.78147   7.23974   7.69182   -13.61204
 15739.5     10.36331   75.99796   67.95827   7.15877   8.14892   -14.03064
 15740     10.46222   75.57586   67.23479   7.0778   8.84372   -14.44923
 15740.5     10.56571   75.54562   66.24731   6.99683   9.17799   -14.16424
 15741     10.52553   76.2802   65.90231   6.94136   8.54313   -13.75731
 15741.5     10.48614   76.54316   65.82003   6.91915   7.90827   -13.35039
 15742     10.45264   76.39484   65.73775   6.89694   7.27341   -13.1852
 15742.5     10.41915   76.15029   66.04465   6.87474   7.21639   -13.6038
 15743     10.43246   75.92454   68.403   6.85253   7.32537   -14.02241
 15743.5     10.47394   75.93612   70.56316   6.83032   7.43436   -14.44101
 15744     10.51542   76.07264   72.22561   6.80811   7.54334   -14.85479
 15744.5     10.55328   76.47479   72.58143   6.7859   7.5015   -14.85256
 15745     10.55337   77.23291   72.46835   6.7637   7.34778   -14.85033
 15745.5     10.55346   78.24001   72.35526   6.74149   7.19405   -14.7368
 15746     10.56645   78.26319   70.87618   6.71928   7.04032   -14.55938
 15746.5     10.60009   77.89866   68.17367   6.69707   7.06938   -14.38195
 15747     10.63372   77.49018   67.19549   6.67486   7.24539   -14.20452
 15747.5     10.65309   77.3962   69.04648   6.65266   7.4214   -14.0271
 15748     10.67066   77.66942   73.15325   6.64504   7.59102   -13.84967
 15748.5     10.68823   78.31396   77.87889   6.65922   7.46428   -13.75319
 15749     10.70581   78.74405   81.20177   6.67341   7.33754   -13.75096
