#--------------------------------------------------#
#-------------------ENVERUS, INC.------------------#
#------------------WWW.ENVERUS.COM-----------------#
#------------------COPYRIGHT 2020------------------#
#--------------------------------------------------#
#THIS FILE MAY BE USED ONLY IN ACCORDANCE WITH A CURRENT SUBSCRIPTION AGREEMENT BETWEEN
#THE USER AND ENVERUS, INC. NO PART OF THIS FILE MAY BE REPRODUCED, USED, COPIED,
#MODIFIED, PROPAGATED, OR DISTRIBUTED EXCEPT IN ACCORDANCE WITH THE SUBSCRIPTION
#AGREEMENT. UNAUTHORIZED USE OR DISTRIBUTION OF ALL OR ANY PART OF THIS FILE MAY VIOLATE
#COPYRIGHT, TRADEMARK, AND/OR OTHER LAWS AND IS SUBJECT TO CIVIL AS WELL AS CRIMINAL
#SANCTIONS.
#--------------------------------------------------#
#THIS FILE IS PROVIDED "AS-IS" AND ALL WARRANTIES ARE EXPRESSLY DISCLAIMED, WHETHER
#EXPRESS, ORAL, IMPLIED, STATUTORY OR OTHERWISE, INCLUDING ANY IMPLIED WARRANTY OF FITNESS
#FOR A PARTICULAR PURPOSE, MERCHANTABILITY, TITLE OR NON-INFRINGEMENT, AND ANY WARRANTIES
#ARISING BY VIRTUE OF CUSTOM OF TRADE OR COURSE OF DEALING.  FURTHER, ENVERUS, INC.
#AND ITS LICENSORS DO NOT REPRESENT OR WARRANT THAT THIS FILE WILL MEET USER'S
#REQUIREMENTS OR ARE SUITABLE FOR USER'S NEEDS OR THAT THE DATA OR RESULTS PROVIDED IN
#CONJUNCTION THEREWITH ARE CORRECT, ACCURATE, TIMELY OR RELIABLE. THESE DISCLAIMERS SHALL
#APPLY REGARDLESS OF ANY FAILURE OF ESSENTIAL PURPOSE OF ANY LIMITED REMEDY.  SOME
#JURISDICTIONS DO NOT ALLOW THE EXCLUSION OF CERTAIN WARRANTIES SO SOME OF THE ABOVE
#EXCLUSIONS MAY NOT APPLY. IN NO EVENT SHALL ENVERUS, INC. OR ANY OF ITS AFFILIATES
#BE LIABLE UNDER ANY LEGAL THEORY, WHETHER IN TORT (INCLUDING WITHOUT LIMITATION
#NEGLIGENCE), CONTRACT, STRICT LIABILITY, STATUTORY OR OTHERWISE, FOR ANY SPECIAL,
#INCIDENTAL, CONSEQUENTIAL, EXEMPLARY, PUNITIVE OR INDIRECT DAMAGE OF ANY KIND, INCLUDING
#WITHOUT LIMITATION LOSS OF REVENUE, PROFITS, GOODWILL, USE, AND/OR DATA OR THE COST OF
#PROCUREMENT OF SUBSTITUTE GOODS OR SERVICES, EVEN IF APPRISED OF THE POSSIBILITY OF SUCH
#DAMAGES IN ADVANCE.
#--------------------------------------------------#

~VERSION INFORMATION
VERS. 2.0 : CWLS LOG ASCII STANDARD - VERSION 2.0
WRAP.  NO : ONE LINE PER DEPTH STEP
~WELL INFORMATION
#MNEMONIC     .UNIT              VALUE :DESCRIPTION
STRT       .FT                102 :START DEPTH
STOP       .FT                5463 :STOP DEPTH
STEP       .FT                   0.500 :STEP
NULL       .                  -999.990 :NULL
UWI        .              42371363560000 :UNIQUE WELL ID
API        .              42371363560000 :API NUMBER
COMP       .         APACHE CORPORATION :COMPANY
WELL       .        SCHLOSSER, FRED ESTATE -B-  11 :WELL
DATE       .                22-JUN-1992 :LOG DATE
~CURVE INFORMATION
#MNEMONIC     .UNIT      API CODE :CURVE DESCRIPTION
DEPTH       .FT                      :MEASURED DEPTH
DT.US/FT        UNKNOWN   :DT
GR.API        UNKNOWN   :GR
~A    DEPTH    DT    GR
# ...
 1382.5     -999.990   22.985
 1383     -999.990   27.746
 1383.5     -999.990   32.224
 1384     -999.990   36.729
 1384.5     -999.990   36.76
 1385     -999.990   32.489
 1385.5     -999.990   25.187
 1386     -999.990   16.041
 1386.5     -999.990   11.329
 1387     -999.990   11.052
 1387.5     -999.990   10.775
 1388     -999.990   11.093
 1388.5     -999.990   11.422
 1389     -999.990   11.958
 1389.5     -999.990   16.944
 1390     -999.990   24.981
 1390.5     -999.990   32.603
 1391     -999.990   36.867
 1391.5     -999.990   34.211
 1392     -999.990   31.104
 1392.5     -999.990   26.291
 1393     -999.990   20.608
 1393.5     -999.990   13.24
 1394     -999.990   13.241
 1394.5     -999.990   16.862
 1395     -999.990   20.651
 1395.5     -999.990   24.891
 1396     -999.990   30.192
 1396.5     -999.990   34.161
 1397     -999.990   36.555
 1397.5     -999.990   36.235
 1398     -999.990   39.497
 1398.5     -999.990   42.759
 1399     -999.990   45.135
 1399.5     -999.990   47.171
 1400     -999.990   49.207
 1400.5     -999.990   47.227
 1401     -999.990   42.844
 1401.5     -999.990   44.117
 1402     -999.990   37.415
 1402.5     -999.990   30.465
 1403     -999.990   23.26
 1403.5     -999.990   18.374
 1404     -999.990   15.923
 1404.5     -999.990   13.663
 1405     -999.990   12.699
 1405.5     -999.990   11.735
 1406     -999.990   10.771
 1406.5     -999.990   9.807
 1407     -999.990   9.108
 1407.5     -999.990   8.714
 1408     -999.990   8.579
 1408.5     -999.990   8.643
 1409     -999.990   10.574
 1409.5     -999.990   12.756
 1410     -999.990   14.938
 1410.5     -999.990   20.039
 1411     -999.990   22.089
 1411.5     -999.990   21.565
 1412     -999.990   18.686
 1412.5     -999.990   15.807
 1413     -999.990   13.124
 1413.5     -999.990   12.762
 1414     -999.990   12.401
 1414.5     -999.990   12.089
 1415     -999.990   12.136
 1415.5     -999.990   12.183
 1416     -999.990   11.437
 1416.5     -999.990   10.505
 1417     -999.990   9.626
 1417.5     -999.990   9.683
 1418     -999.990   9.74
 1418.5     -999.990   9.797
 1419     -999.990   9.73
 1419.5     -999.990   9.325
 1420     -999.990   8.92
 1420.5     -999.990   9.095
 1421     -999.990   10.374
 1421.5     -999.990   9.908
 1422     -999.990   9.442
 1422.5     -999.990   8.976
 1423     -999.990   8.51
 1423.5     -999.990   8.73
 1424     -999.990   9.912
 1424.5     -999.990   11.094
 1425     -999.990   12.276
 1425.5     -999.990   12.917
 1426     -999.990   11.908
 1426.5     -999.990   10.899
 1427     -999.990   9.945
 1427.5     -999.990   9.767
 1428     -999.990   9.59
 1428.5     -999.990   9.412
 1429     -999.990   9.235
 1429.5     -999.990   9.556
 1430     -999.990   9.965
 1430.5     -999.990   10.374
 1431     -999.990   10.783
 1431.5     -999.990   11.191
 1432     -999.990   11.6
 1432.5     -999.990   12.974
 1433     -999.990   15.161
 1433.5     -999.990   17.692
 1434     -999.990   19.402
 1434.5     -999.990   20.138
 1435     -999.990   20.875
 1435.5     -999.990   21.382
 1436     -999.990   20.023
 1436.5     -999.990   18.664
 1437     -999.990   16.234
 1437.5     -999.990   13.786
 1438     -999.990   12.482
 1438.5     -999.990   11.875
 1439     -999.990   11.268
 1439.5     -999.990   10.837
 1440     -999.990   10.62
 1440.5     -999.990   10.084
 1441     -999.990   9.539
 1441.5     -999.990   9.373
 1442     -999.990   10.511
 1442.5     -999.990   11.648
 1443     -999.990   12.453
 1443.5     -999.990   12.505
 1444     -999.990   12.965
 1444.5     -999.990   15.035
 1445     -999.990   17.106
 1445.5     -999.990   19.012
 1446     -999.990   20.26
 1446.5     -999.990   19.866
 1447     -999.990   19.14
 1447.5     -999.990   17.84
 1448     -999.990   16.54
 1448.5     -999.990   15.24
 1449     -999.990   13.94
 1449.5     -999.990   12.632
 1450     -999.990   11.302
 1450.5     -999.990   9.972
 1451     -999.990   9.022
 1451.5     -999.990   9.678
 1452     -999.990   12.496
 1452.5     -999.990   15.314
 1453     -999.990   17.528
 1453.5     -999.990   19.552
 1454     -999.990   20.53
 1454.5     -999.990   18.775
 1455     -999.990   15.612
 1455.5     -999.990   12.717
 1456     -999.990   11.26
 1456.5     -999.990   10.266
 1457     -999.990   10.128
 1457.5     -999.990   10.1
 1458     -999.990   13.148
 1458.5     -999.990   14.456
 1459     -999.990   14.577
 1459.5     -999.990   14.697
 1460     -999.990   14.742
 1460.5     -999.990   11.361
 1461     -999.990   10.427
 1461.5     -999.990   10.428
 1462     -999.990   11.222
 1462.5     -999.990   12.508
 1463     -999.990   13.793
 1463.5     -999.990   15.079
 1464     -999.990   16.364
 1464.5     -999.990   16.47
 1465     -999.990   15.847
 1465.5     -999.990   15.225
 1466     -999.990   12.978
 1466.5     -999.990   10.572
 1467     -999.990   8.653
 1467.5     -999.990   10.115
 1468     -999.990   12.089
 1468.5     -999.990   14.519
 1469     -999.990   16.597
 1469.5     -999.990   14.816
 1470     -999.990   13.142
 1470.5     -999.990   11.834
 1471     -999.990   10.655
 1471.5     -999.990   10.656
 1472     -999.990   10.657
 1472.5     -999.990   13.225
 1473     -999.990   15.138
 1473.5     -999.990   16.244
 1474     -999.990   17.498
 1474.5     -999.990   21.629
 1475     -999.990   24.996
 1475.5     -999.990   27.902
 1476     -999.990   29.778
 1476.5     -999.990   26.049
 1477     -999.990   19.61
 1477.5     -999.990   12.52
 1478     -999.990   9.42
 1478.5     -999.990   9.381
 1479     -999.990   10.313
 1479.5     -999.990   11.598
 1480     -999.990   12.884
 1480.5     -999.990   14.169
 1481     -999.990   13.834
 1481.5     -999.990   12.218
 1482     -999.990   10.848
 1482.5     -999.990   9.617
 1483     -999.990   9.364
 1483.5     -999.990   9.48
 1484     -999.990   9.597
 1484.5     -999.990   9.713
 1485     -999.990   9.91
 1485.5     -999.990   10.84
 1486     -999.990   11.77
 1486.5     -999.990   12.7
 1487     -999.990   12.343
 1487.5     -999.990   11.575
 1488     -999.990   10.806
 1488.5     -999.990   10.038
 1489     -999.990   9.27
 1489.5     -999.990   10.425
 1490     -999.990   11.828
 1490.5     -999.990   16.166
 1491     -999.990   21.339
 1491.5     -999.990   21.935
 1492     -999.990   20.475
 1492.5     -999.990   18.155
 1493     -999.990   13.017
 1493.5     -999.990   8.7
 1494     -999.990   6.782
 1494.5     -999.990   4.865
 1495     -999.990   5.064
 1495.5     -999.990   6.22
 1496     -999.990   7.376
 1496.5     -999.990   8.259
 1497     -999.990   8.642
 1497.5     -999.990   8.118
 1498     -999.990   7.155
 1498.5     -999.990   6.548
 1499     -999.990   6.627
 1499.5     -999.990   6.706
 1500     -999.990   7.319
 1500.5     -999.990   8.275
 1501     -999.990   9.232
 1501.5     -999.990   10.327
 1502     -999.990   11.576
 1502.5     -999.990   12.824
 1503     -999.990   15.349
 1503.5     -999.990   18.888
 1504     -999.990   22.427
 1504.5     -999.990   25.677
 1505     -999.990   25.565
 1505.5     -999.990   17.86
 1506     -999.990   14.983
 1506.5     -999.990   12.106
 1507     -999.990   9.567
 1507.5     -999.990   9.907
 1508     -999.990   10.248
 1508.5     -999.990   10.589
 1509     -999.990   10.929
 1509.5     -999.990   12.291
 1510     -999.990   12.092
 1510.5     -999.990   11.587
 1511     -999.990   12.563
 1511.5     -999.990   14.781
 1512     -999.990   16.999
 1512.5     -999.990   17.599
 1513     -999.990   17.323
 1513.5     -999.990   15.659
 1514     -999.990   11.213
 1514.5     -999.990   8.971
 1515     -999.990   7.429
 1515.5     -999.990   7.576
 1516     -999.990   9.252
 1516.5     -999.990   10.929
 1517     -999.990   12.605
 1517.5     -999.990   12.67
 1518     -999.990   12.101
 1518.5     -999.990   11.533
 1519     -999.990   11.573
 1519.5     -999.990   12.83
 1520     -999.990   13.048
 1520.5     -999.990   12.041
 1521     -999.990   11.034
 1521.5     -999.990   11.605
 1522     -999.990   16.065
