#--------------------------------------------------#
#-------------------ENVERUS, INC.------------------#
#------------------WWW.ENVERUS.COM-----------------#
#------------------COPYRIGHT 2020------------------#
#--------------------------------------------------#
#THIS FILE MAY BE USED ONLY IN ACCORDANCE WITH A CURRENT SUBSCRIPTION AGREEMENT BETWEEN
#THE USER AND ENVERUS, INC. NO PART OF THIS FILE MAY BE REPRODUCED, USED, COPIED,
#MODIFIED, PROPAGATED, OR DISTRIBUTED EXCEPT IN ACCORDANCE WITH THE SUBSCRIPTION
#AGREEMENT. UNAUTHORIZED USE OR DISTRIBUTION OF ALL OR ANY PART OF THIS FILE MAY VIOLATE
#COPYRIGHT, TRADEMARK, AND/OR OTHER LAWS AND IS SUBJECT TO CIVIL AS WELL AS CRIMINAL
#SANCTIONS.
#--------------------------------------------------#
#THIS FILE IS PROVIDED "AS-IS" AND ALL WARRANTIES ARE EXPRESSLY DISCLAIMED, WHETHER
#EXPRESS, ORAL, IMPLIED, STATUTORY OR OTHERWISE, INCLUDING ANY IMPLIED WARRANTY OF FITNESS
#FOR A PARTICULAR PURPOSE, MERCHANTABILITY, TITLE OR NON-INFRINGEMENT, AND ANY WARRANTIES
#ARISING BY VIRTUE OF CUSTOM OF TRADE OR COURSE OF DEALING.  FURTHER, ENVERUS, INC.
#AND ITS LICENSORS DO NOT REPRESENT OR WARRANT THAT THIS FILE WILL MEET USER'S
#REQUIREMENTS OR ARE SUITABLE FOR USER'S NEEDS OR THAT THE DATA OR RESULTS PROVIDED IN
#CONJUNCTION THEREWITH ARE CORRECT, ACCURATE, TIMELY OR RELIABLE. THESE DISCLAIMERS SHALL
#APPLY REGARDLESS OF ANY FAILURE OF ESSENTIAL PURPOSE OF ANY LIMITED REMEDY.  SOME
#JURISDICTIONS DO NOT ALLOW THE EXCLUSION OF CERTAIN WARRANTIES SO SOME OF THE ABOVE
#EXCLUSIONS MAY NOT APPLY. IN NO EVENT SHALL ENVERUS, INC. OR ANY OF ITS AFFILIATES
#BE LIABLE UNDER ANY LEGAL THEORY, WHETHER IN TORT (INCLUDING WITHOUT LIMITATION
#NEGLIGENCE), CONTRACT, STRICT LIABILITY, STATUTORY OR OTHERWISE, FOR ANY SPECIAL,
#INCIDENTAL, CONSEQUENTIAL, EXEMPLARY, PUNITIVE OR INDIRECT DAMAGE OF ANY KIND, INCLUDING
#WITHOUT LIMITATION LOSS OF REVENUE, PROFITS, GOODWILL, USE, AND/OR DATA OR THE COST OF
#PROCUREMENT OF SUBSTITUTE GOODS OR SERVICES, EVEN IF APPRISED OF THE POSSIBILITY OF SUCH
#DAMAGES IN ADVANCE.
#--------------------------------------------------#

~VERSION INFORMATION
VERS. 2.0 : CWLS LOG ASCII STANDARD - VERSION 2.0
WRAP. NO : ONE LINE PER DEPTH STEP
~WELL INFORMATION
#MNEMONIC     .UNIT              VALUE :DESCRIPTION
STRT       .FT                101.00000 :START DEPTH
STOP       .FT                5802.00000 :STOP DEPTH
STEP       .FT                0.50000 :STEP
NULL       .                -999.25000 :NULL VALUE
UWI       .                42389010150000 :UNIQUE WELL ID
API       .                42389010150000 :API NUMBER
COMP       .                 :COMPANY
WELL       .                 :WELL
FLD       .                 :FIELD
LOC       .                 :LOCATION
CNTY       .                 :COUNTY
STAT       .                 :STATE
CTRY       .                 :COUNTRY
SRVC       .                 :SERVICE COMPANY
DATE       .                 :DATE
~CURVE INFORMATION
#MNEMONIC     .UNIT      API CODE :CURVE DESCRIPTION
DEPTH       .FT                      :MEASURED DEPTH
DT       .US/FT        UNKNOWN   :DT
GR       .GAPI        UNKNOWN   :GR
~A    DEPTH    DT    GR
# ...
5400.50000    67.01918    26.85873
5401.00000    67.60933    28.35144
5401.50000    69.11231    27.74764
5402.00000    70.61528    25.86853
5402.50000    72.11826    25.45453
5403.00000    73.62123    26.38845
5403.50000    75.12420    27.32236
5404.00000    74.19570    28.52566
5404.50000    69.83216    30.99632
5405.00000    67.22373    33.46697
5405.50000    68.39618    35.93763
5406.00000    69.56863    37.18996
5406.50000    70.74108    37.54185
5407.00000    71.91353    37.89374
5407.50000    71.15031    38.24563
5408.00000    70.00173    38.59752
5408.50000    69.73996    38.94941
5409.00000    70.65313    38.65370
5409.50000    71.56629    38.15659
5410.00000    72.47946    37.65947
5410.50000    73.39263    37.16235
5411.00000    69.69822    36.66523
5411.50000    69.80797    36.12997
5412.00000    70.41216    35.58681
5412.50000    71.01636    35.04366
5413.00000    70.21342    34.50050
5413.50000    69.46670    33.95735
5414.00000    68.83373    33.41419
5414.50000    68.20077    32.87103
5415.00000    67.56780    32.36013
5415.50000    66.81433    31.89321
5416.00000    65.97055    31.42628
5416.50000    65.12677    30.95936
5417.00000    64.28300    30.49243
5417.50000    64.78035    29.40782
5418.00000    65.40170    28.16790
5418.50000    65.92604    26.92798
5419.00000    66.41531    25.68806
5419.50000    66.90457    24.81158
5420.00000    67.39384    26.19364
5420.50000    67.88311    27.58944
5421.00000    68.79911    29.74891
5421.50000    69.72848    31.90839
5422.00000    69.61188    34.06787
5422.50000    69.15425    36.22734
5423.00000    68.69661    35.95933
5423.50000    68.23898    35.11509
5424.00000    67.38120    34.27084
5424.50000    66.27540    33.41678
5425.00000    65.16961    32.46780
5425.50000    64.06381    31.51883
5426.00000    64.08254    30.56986
5426.50000    64.84081    30.73794
5427.00000    65.59907    30.91047
5427.50000    65.45312    31.08300
5428.00000    64.50541    31.25554
5428.50000    63.55770    31.42807
5429.00000    62.60999    31.60061
5429.50000    61.66227    31.56020
5430.00000    61.53357    30.89627
5430.50000    63.55272    30.23235
5431.00000    65.91989    29.56842
5431.50000    68.81317    30.74774
5432.00000    71.70644    32.23290
5432.50000    74.59971    33.71807
5433.00000    77.49298    41.54295
5433.50000    70.40069    50.65801
5434.00000    69.96545    59.77308
5434.50000    69.53020    61.71443
5435.00000    68.77296    54.52258
5435.50000    66.13567    47.35282
5436.00000    63.49838    40.18880
5436.50000    60.86109    33.51746
5437.00000    58.22381    29.48100
5437.50000    57.18546    26.49331
5438.00000    60.24291    26.78847
5438.50000    63.30036    27.08363
5439.00000    66.35780    27.37880
5439.50000    69.41525    27.67396
5440.00000    69.74278    32.31425
5440.50000    69.38346    34.46277
5441.00000    69.02413    35.87047
5441.50000    68.66481    37.27818
5442.00000    68.30548    37.99541
5442.50000    67.94616    37.87439
5443.00000    67.58684    37.75337
5443.50000    67.22751    37.63235
5444.00000    66.97862    37.51133
5444.50000    68.17048    38.57924
5445.00000    69.36235    40.68128
5445.50000    70.55421    42.78333
5446.00000    71.67431    44.88537
5446.50000    70.11188    46.98741
5447.00000    68.54944    47.84107
5447.50000    68.58364    46.96157
5448.00000    69.40316    46.08206
5448.50000    70.15137    46.12727
5449.00000    68.21266    46.70820
5449.50000    66.27395    47.28913
5450.00000    64.33524    46.56183
5450.50000    62.39653    42.37791
5451.00000    63.05083    38.19399
5451.50000    64.42937    36.08399
5452.00000    65.80791    37.11943
5452.50000    67.18644    38.15487
5453.00000    68.18278    39.19031
5453.50000    69.01151    40.22575
5454.00000    70.05702    41.26119
5454.50000    71.15784    39.84851
5455.00000    72.48923    38.23812
5455.50000    73.82062    37.14011
5456.00000    75.15201    36.71538
5456.50000    76.48340    36.29064
5457.00000    77.81479    35.86590
5457.50000    79.14618    35.44116
5458.00000    77.21603    35.01642
5458.50000    74.46090    31.61124
5459.00000    71.70577    27.81202
5459.50000    68.95064    24.01280
5460.00000    69.56982    22.10944
5460.50000    76.66851    23.30521
5461.00000    73.10385    24.50098
5461.50000    69.53920    25.69675
5462.00000    66.85620    26.69942
5462.50000    69.51668    26.41519
5463.00000    72.17716    26.13095
5463.50000    74.83764    26.77065
5464.00000    77.49811    29.04883
5464.50000    78.77375    31.32700
5465.00000    76.04009    33.40144
5465.50000    73.30644    32.02421
5466.00000    70.57278    30.64699
5466.50000    67.83913    28.46816
5467.00000    69.58874    25.67501
5467.50000    77.39934    22.88185
5468.00000    82.44931    22.48272
5468.50000    81.76108    22.98156
5469.00000    81.07284    23.48040
5469.50000    80.38461    23.97923
5470.00000    79.69637    24.47807
5470.50000    79.00813    23.24027
5471.00000    78.39736    22.73830
5471.50000    78.10936    22.97207
5472.00000    77.82137    23.20584
5472.50000    77.53337    23.43961
5473.00000    77.68578    23.67338
5473.50000    78.39884    23.90715
5474.00000    79.11190    24.06179
5474.50000    79.82496    24.19321
5475.00000    79.30001    24.32462
5475.50000    77.48317    24.45604
5476.00000    76.63865    24.58745
5476.50000    76.57987    24.71887
5477.00000    76.52110    24.85028
5477.50000    76.46232    25.17758
5478.00000    76.40354    25.78177
5478.50000    76.27545    26.38595
5479.00000    75.22847    26.50711
5479.50000    74.18150    26.38824
5480.00000    73.13452    26.26937
5480.50000    72.08755    26.15051
5481.00000    71.04057    26.03164
5481.50000    73.03164    25.91277
5482.00000    74.16762    26.40382
5482.50000    73.15321    27.02065
5483.00000    72.13880    27.63747
5483.50000    71.12440    28.25430
5484.00000    70.10999    28.92620
5484.50000    69.35562    29.64203
5485.00000    69.91542    30.35785
5485.50000    70.47522    31.07368
5486.00000    71.03501    31.78950
5486.50000    71.59481    31.59350
5487.00000    72.15461    29.78960
5487.50000    72.71440    27.45354
5488.00000    73.27420    25.72665
5488.50000    72.80132    25.93176
5489.00000    70.18718    26.13687
5489.50000    69.22325    26.34198
5490.00000    70.18073    26.54709
5490.50000    71.13820    26.73250
5491.00000    72.09568    26.33786
5491.50000    73.05315    25.94322
5492.00000    74.01062    25.54858
5492.50000    74.96810    25.15395
5493.00000    74.54241    24.75931
5493.50000    73.74345    24.36467
5494.00000    72.94448    25.71945
5494.50000    72.14551    26.42462
5495.00000    71.34655    26.10509
5495.50000    70.72475    25.78556
5496.00000    71.69708    25.61529
5496.50000    72.66941    25.46299
5497.00000    73.64174    25.31069
5497.50000    74.40963    25.15839
5498.00000    73.10710    25.00609
5498.50000    71.80456    24.84908
5499.00000    70.50203    24.60528
5499.50000    69.19949    24.36148
5500.00000    67.89696    24.11767
5500.50000    69.04951    23.87387
5501.00000    70.36231    23.63007
5501.50000    71.34358    23.38627
5502.00000    71.12412    23.46505
5502.50000    70.90465    23.76931
5503.00000    70.68518    24.07356
5503.50000    70.28873    24.37781
5504.00000    64.66245    24.68207
5504.50000    59.58422    24.98632
5505.00000    61.75357    25.29057
5505.50000    63.92293    26.33894
5506.00000    66.09228    27.99935
5506.50000    68.26164    29.65976
5507.00000    67.96838    31.32017
5507.50000    66.97127    32.98058
5508.00000    65.97415    34.64099
5508.50000    64.97704    36.30140
5509.00000    63.97993    38.15648
5509.50000    62.98281    40.14123
5510.00000    61.98570    42.12598
5510.50000    60.98859    41.31476
5511.00000    59.99147    40.15802
5511.50000    73.57914    39.29663
5512.00000    73.56680    41.26964
5512.50000    69.85348    43.24266
5513.00000    65.94869    45.21567
5513.50000    62.04390    46.20326
5514.00000    58.13912    42.65975
5514.50000    60.21165    39.11624
