~VERSION INFORMATION
 VERS.                2.0:   CWLS LOG ASCII STANDARD - VERSION 2.0
 WRAP.                 NO:   ONE LINE PER DEPTH STEP
~WELL INFORMATION
#MNEM.UNIT      DATA TYPE    INFORMATION
#----------   ------------   ------------------------------
 STRT.FT          50.0000:   START DEPTH
 STOP.FT        5375.0000:   STOP DEPTH
 STEP.FT           0.5000:   STEP LENGTH
 NULL.          -999.2500:   NULL VALUE
 COMP.  A.N. NORWOOD, INC:   COMPANY
 WELL.        MCINTYRE #1:   WELL
 FLD .  ROJO CABALLOS, S.:   FIELD
 LOC .                   :   LOCATION
 CNTY.              PECOS:   COUNTY
 STAT.              TEXAS:   STATE
 CTRY. UNITED STATES OF AMERICA:   COUNTRY
 SRVC.              Welex:   SERVICE COMPANY
 DATE.        06-May-1983:   LOGDATE
 API .     42371342980000:   API NUMBER
~CURVE INFORMATION
#MNEM.UNIT       API CODE    CURVE DESCRIPTION
#----------   ------------   ------------------------------
 DEPT.F      0   1   0  0:   1 MEASURED DEPTH
 GRD .GAPI   45 310 01 00:   GAMMA RAY FROM DENSITY LOG
 NPOR_LS.DEC 42 890 01 00:   NEUTRON POROSITY LIMESTONE
 CALD.IN     45 280 60 00:   CALIPER FROM DENSITY LOG
 CORR.G/C3   45 356 01 00:   DENSITY CORRECTION
 RHOB.G/C3   45 350 01 00:   BULK DENSITY
 DPOR_LS.DEC 45 890 10 00:   DENSITY POROSITY LIMESTONE
 DT  .US/F   60 500 00 00:   DELTA-T (INTERVAL TRANSIT TIME)
 SPR .MV     07 010 01 00:   SPONTANEOUS POTENTIAL FROM RESISTIVITY LOG
 ILD .OHMM   07 120 46 00:   INDUCTION DEEP RESISTIVITY
 ILM .OHMM   07 120 44 00:   INDUCTION MEDIUM RESISTIVITY
~PARAMETER INFORMATION
#MNEM.UNIT          VALUE    DESCRIPTION
#----------   ------------   ------------------------------
 PD  .                 GL:   PERMANENT DATUM
 EPD .FT             2768:   ELEVATION PERMANENT DATUM
 LMF .                 KB:   LOG MEASURED FROM
 DAPD.FT               10:   FEET ABOVE PERMANENT DATUM
 DMF .                 KB:   DRILLING MEASURED FROM
 EKB .FT             2778:   KELLY BUSHING
 EDF .FT             2777:   DRILLING FLOOR
 EGL .FT             2768:   GROUND LEVEL
 DATE.           05/06/83:   RUN DATE
 RUN .                  1:   RUN NUMBER
 DD  .FT             5380:   DEPTH DRILLER
 DL  .FT             5377:   DEPTH LOGGER
 BLI .FT             5375:   BOTTOM LOG INTERVAL
 TLI .FT               50:   TOP LOG INTERVAL
 CS  .IN            8.625:   CASING SIZE
 CBD .FT             1596:   CASING BOTTOM DRILLER
 CBL .FT             1613:   CASING BOTTOM LOGGER
 BS  .IN             7.75:   BIT SIZE
 BSD .FT             5380:   BIT SIZE AT DEPTH
 DFT .           SALT GEL:   DRILLING FLUID TYPE
 DFD .               10.2:   DRILLING FLUID DENSITY
 DFV .                 33:   DRILLING FLUID VISCOSITY
 DFPH.                9.5:   DRILLING FLUID PH
 DFL .                 18:   DRILLING FLUID LOSS
 MSS .               CIRC:   MUD SAMPLE SOURCE
 RMS .OHMM           0.09:   RESISTIVITY MUD SAMPLE
 MST .DEGF             72:   MUD SAMPLE TEMPERATURE
 RMF .OHMM           0.08:   RESISTIVITY MUD FILTRATE SAMPLE
 MFST.DEGF             72:   MUD FILTRATE SAMPLE TEMPERATURE
 MFSS.               MEAS:   MUD FILTRATE SAMPLE SOURCE
 MCSS.               MEAS:   MUD CAKE SAMPLE SOURCE
 RMB .OHMM          0.059:   RESISTIVITY MUD AT BHT
 BHT .DEGF            112:   BOTTOM HOLE TEMPERATURE
 TCS .HRS               4:   TIME CIRCULATED STOPPED
 MRT .DEGF            112:   MAXIMUM RECORDED TEMPERATURE
 LUN .               3415:   LOGGING UNIT NUMBER
 LUL .             ODESSA:   LOGGING UNIT LOCATION
 ENGI.             LAWSON:   RECORDING ENGINEER
 WITN.            NORWOOD:   WITNESSED BY
 ORIG.      1" 2.5" PRINT:   ORIGIN OF DATA
 UWI .     42371342980000:   UNIQUE WELL ID
~OTHER INFORMATION
~A    DEPT        GRD      NPOR_LS      CALD        CORR        RHOB       DPOR_LS        DT         SPR         ILD         ILM    
# ...
  4777.5000      9.7319     -0.0067      8.7874      0.0169      2.9185     -0.0999     48.8117    -29.9110    700.8044     24.1646 
  4778.0000      9.5314     -0.0068      8.8033      0.0332      2.9375     -0.0999     49.0217    -29.9369    631.6612     24.1234 
  4778.5000      9.3133     -0.0068      8.8031      0.0376      2.9372   -999.2500     49.2317    -29.9628    563.9347     24.1603 
  4779.0000      9.7281     -0.0067      8.8055      0.0390      2.9240   -999.2500     49.2904    -29.9887    511.4798     24.2035 
  4779.5000      9.9466     -0.0067      8.8079      0.0400      2.9135   -999.2500     49.2949    -30.0146    463.9040     24.2208 
  4780.0000     10.9053     -0.0068      8.8083      0.0408      2.9108   -999.2500     49.2994    -30.0405    420.7533     24.0477 
  4780.5000     11.7659     -0.0072      8.8028      0.0323      2.9103   -999.2500     49.3040    -30.0664    409.6563     23.8034 
  4781.0000     11.8580     -0.0075      8.7792      0.0286      2.9104   -999.2500     49.2664    -30.1103    409.7235     23.3964 
  4781.5000     10.6164     -0.0077      8.7587      0.0259      2.9038     -0.0991     49.1670    -30.1729    425.5834     23.2471 
  4782.0000      8.4028     -0.0075      8.7735      0.0200      2.8779     -0.0991     48.9578    -30.2355    454.8397     23.8376 
  4782.5000      7.1167     -0.0074      8.7604      0.0042      2.8488     -0.0956     48.6978    -30.2981    489.4281     24.3612 
  4783.0000      8.2007     -0.0073      8.7497     -0.0283      2.8268     -0.0782     48.4628    -30.3607    608.8571     24.5508 
  4783.5000      8.6074     -0.0074      8.7526     -0.0264      2.8226     -0.0646     48.2421    -30.4504    708.5642     24.7738 
  4784.0000      9.0141     -0.0073      8.7625     -0.0190      2.8265     -0.0684     48.1274    -30.6336    982.5775     24.8613 
  4784.5000      9.4144     -0.0071      8.8038     -0.0117      2.8351     -0.0763     48.1614    -30.8169   1217.0076     24.8567 
  4785.0000      9.1600     -0.0069      8.8507     -0.0081      2.8493     -0.0869     48.1688    -30.9856   1376.8782     24.6537 
  4785.5000      8.8536     -0.0065      8.8977     -0.0063      2.8826     -0.0936     48.1761    -30.9824   1524.1451     24.5400 
  4786.0000      8.3938     -0.0063      8.8767     -0.0027      2.8958     -0.0975     48.1812    -31.1126   1695.9323     24.4807 
  4786.5000      8.0022     -0.0061      8.8296      0.0065      2.9091     -0.0989     48.1854    -31.3082   1807.5153     24.4214 
  4787.0000      7.6586     -0.0059      8.7996      0.0157      2.9156     -0.0989     48.1875    -31.3927   1885.9362     24.3624 
  4787.5000      7.4615     -0.0061      8.8301      0.0357      2.9238   -999.2500     48.1453    -31.5475   1896.5377     24.3034 
  4788.0000      7.3707     -0.0062      8.8761      0.0656      2.9464   -999.2500     48.0578    -31.6560   1904.2173     24.3492 
  4788.5000      7.3551     -0.0062      8.9221      0.0711      2.9618   -999.2500     47.9636    -31.7232   1911.9268     24.3970 
  4789.0000      7.3396     -0.0062      8.9403      0.0738      2.9772   -999.2500     47.9641    -31.7189   -999.2500     24.4289 
  4789.5000      7.3240     -0.0060      8.9554      0.0744      2.9848   -999.2500     47.9120    -31.7040   -999.2500     24.3216 
  4790.0000      7.3085     -0.0059      8.9798      0.0736      2.9799   -999.2500     47.8447    -31.7352   -999.2500     24.1516 
  4790.5000      7.2929     -0.0062      8.9830      0.0491      2.9538   -999.2500     47.8152    -31.7584   -999.2500     23.9973 
  4791.0000      7.4702     -0.0059      8.9830      0.0364      2.9313   -999.2500     47.8011    -31.8180   -999.2500     24.0150 
  4791.5000      7.7274     -0.0056      8.9933      0.0262      2.9167   -999.2500     47.8022    -31.8898   -999.2500     24.0327 
  4792.0000      7.9847     -0.0061      9.0041      0.0159      2.9014   -999.2500     47.7756    -31.9615   -999.2500     24.0504 
  4792.5000      8.2231     -0.0057      9.0149      0.0126      2.8919   -999.2500     47.7419    -32.0333   -999.2500     24.0681 
  4793.0000      8.2597     -0.0059      9.0257      0.0145      2.8935   -999.2500     47.7419    -32.1050   -999.2500     24.0858 
  4793.5000      8.1036     -0.0062      9.0366      0.0212      2.8979   -999.2500     47.7419    -32.1768   -999.2500     24.0591 
  4794.0000      7.6057     -0.0062      9.0474      0.0280      2.9039   -999.2500     47.8131    -32.2485   1936.5503     24.0170 
  4794.5000      7.6465     -0.0064      9.0582      0.0347      2.9256   -999.2500     47.9067    -32.3203   1937.8871     23.9749 
  4795.0000      7.7643     -0.0065      9.0690      0.0357      2.9215   -999.2500     47.9617    -32.3920   1937.0554     23.9329 
  4795.5000      7.6014     -0.0067      9.0798      0.0331      2.9115   -999.2500     47.9753    -32.4638   1927.6332     23.9045 
  4796.0000      7.7438     -0.0069      9.0906      0.0271      2.9086   -999.2500     48.0148    -32.5355   1732.9451     23.9015 
  4796.5000      8.1748     -0.0071      9.1014      0.0244      2.9056   -999.2500     48.0956    -32.6073   1501.2537     23.9334 
  4797.0000      8.4295     -0.0073      9.1122      0.0217      2.9000   -999.2500     48.1675    -32.6791   1291.3414     23.9823 
  4797.5000      9.4948     -0.0075      9.1230      0.0188      2.8901     -0.0995     48.2119    -32.7508   1147.4490     24.0191 
  4798.0000      9.6703     -0.0077      9.1338      0.0159      2.8606     -0.0918     48.2599    -32.8226   1133.5558     24.0618 
  4798.5000      8.8912     -0.0079      9.1446     -0.0078      2.8585     -0.0833     48.2823    -32.8943   1134.3395     24.1259 
  4799.0000      8.9330     -0.0080      9.1554     -0.0308      2.8606     -0.0865     48.2842    -33.0391   1135.1219     24.2876 
  4799.5000      9.8817     -0.0080      9.1662     -0.0294      2.8893     -0.0950     48.2861    -33.2011   1095.6074     24.6699 
  4800.0000     10.2325     -0.0081      9.1770     -0.0155      2.9198     -0.0994     48.1947    -33.2459   1047.6604     25.0584 
  4800.5000     10.3575     -0.0082      9.1878      0.0080      2.9345     -0.0994     48.1079    -33.2908   1001.8111     25.2105 
  4801.0000     10.4826     -0.0082      9.1986      0.0314      2.9361   -999.2500     48.0578    -33.3000    979.7571     25.1667 
  4801.5000     10.2367     -0.0083      9.2066      0.0418      2.9327   -999.2500     48.0545    -33.3023    986.3590     25.1015 
  4802.0000      9.8538     -0.0084      9.2122      0.0393      2.9232   -999.2500     48.0512    -33.3051   1031.8438     25.0616 
  4802.5000      9.8368     -0.0084      9.2179      0.0236      2.9137   -999.2500     48.0264    -33.3079   1090.0436     25.0477 
  4803.0000      9.8558     -0.0085      9.2235      0.0080      2.9094   -999.2500     48.0020    -33.3107   1200.3220     25.0724 
  4803.5000      9.7287     -0.0085      9.2291      0.0051      2.9054   -999.2500     48.0050    -33.3271   1344.5597     25.1114 
  4804.0000      9.6434     -0.0086      9.2348      0.0095      2.9007   -999.2500     48.0081    -33.4006   1669.2313     24.9417 
  4804.5000      9.7245     -0.0087      9.2404      0.0201      2.8928   -999.2500     48.0111    -33.4741   1874.8391     24.7732 
  4805.0000      9.6234     -0.0087      9.2461      0.0291      2.8886   -999.2500     48.0141    -33.5477   1896.5929     24.6465 
  4805.5000      9.1424     -0.0088      9.2517      0.0302      2.8869   -999.2500     48.0205    -33.6212   1900.3982     24.5719 
  4806.0000      8.8847     -0.0088      9.2574      0.0270      2.8852   -999.2500     48.0476    -33.6881   1900.3982     24.4344 
  4806.5000      8.9271     -0.0089      9.2630      0.0180      2.8834   -999.2500     48.0539    -33.6881   1850.9474     24.2977 
  4807.0000      9.2002     -0.0090      9.2686      0.0090      2.8824   -999.2500     48.0725    -33.6892   1785.9938     24.1574 
  4807.5000      9.4920     -0.0090      9.2743      0.0017      2.8827     -0.0994     48.1220    -33.6970   1723.3185     24.0146 
