#--------------------------------------------------#
#-------------------ENVERUS, INC.------------------#
#------------------WWW.ENVERUS.COM-----------------#
#------------------COPYRIGHT 2020------------------#
#--------------------------------------------------#
#THIS FILE MAY BE USED ONLY IN ACCORDANCE WITH A CURRENT SUBSCRIPTION AGREEMENT BETWEEN
#THE USER AND ENVERUS, INC. NO PART OF THIS FILE MAY BE REPRODUCED, USED, COPIED,
#MODIFIED, PROPAGATED, OR DISTRIBUTED EXCEPT IN ACCORDANCE WITH THE SUBSCRIPTION
#AGREEMENT. UNAUTHORIZED USE OR DISTRIBUTION OF ALL OR ANY PART OF THIS FILE MAY VIOLATE
#COPYRIGHT, TRADEMARK, AND/OR OTHER LAWS AND IS SUBJECT TO CIVIL AS WELL AS CRIMINAL
#SANCTIONS.
#--------------------------------------------------#
#THIS FILE IS PROVIDED "AS-IS" AND ALL WARRANTIES ARE EXPRESSLY DISCLAIMED, WHETHER
#EXPRESS, ORAL, IMPLIED, STATUTORY OR OTHERWISE, INCLUDING ANY IMPLIED WARRANTY OF FITNESS
#FOR A PARTICULAR PURPOSE, MERCHANTABILITY, TITLE OR NON-INFRINGEMENT, AND ANY WARRANTIES
#ARISING BY VIRTUE OF CUSTOM OF TRADE OR COURSE OF DEALING.  FURTHER, ENVERUS, INC.
#AND ITS LICENSORS DO NOT REPRESENT OR WARRANT THAT THIS FILE WILL MEET USER'S
#REQUIREMENTS OR ARE SUITABLE FOR USER'S NEEDS OR THAT THE DATA OR RESULTS PROVIDED IN
#CONJUNCTION THEREWITH ARE CORRECT, ACCURATE, TIMELY OR RELIABLE. THESE DISCLAIMERS SHALL
#APPLY REGARDLESS OF ANY FAILURE OF ESSENTIAL PURPOSE OF ANY LIMITED REMEDY.  SOME
#JURISDICTIONS DO NOT ALLOW THE EXCLUSION OF CERTAIN WARRANTIES SO SOME OF THE ABOVE
#EXCLUSIONS MAY NOT APPLY. IN NO EVENT SHALL ENVERUS, INC. OR ANY OF ITS AFFILIATES
#BE LIABLE UNDER ANY LEGAL THEORY, WHETHER IN TORT (INCLUDING WITHOUT LIMITATION
#NEGLIGENCE), CONTRACT, STRICT LIABILITY, STATUTORY OR OTHERWISE, FOR ANY SPECIAL,
#INCIDENTAL, CONSEQUENTIAL, EXEMPLARY, PUNITIVE OR INDIRECT DAMAGE OF ANY KIND, INCLUDING
#WITHOUT LIMITATION LOSS OF REVENUE, PROFITS, GOODWILL, USE, AND/OR DATA OR THE COST OF
#PROCUREMENT OF SUBSTITUTE GOODS OR SERVICES, EVEN IF APPRISED OF THE POSSIBILITY OF SUCH
#DAMAGES IN ADVANCE.
#--------------------------------------------------#

~VERSION INFORMATION
VERS. 2.0 : CWLS LOG ASCII STANDARD - VERSION 2.0
WRAP.  NO : ONE LINE PER DEPTH STEP
~WELL INFORMATION
#MNEMONIC     .UNIT              VALUE :DESCRIPTION
STRT       .FT                102 :START DEPTH
STOP       .FT                5463 :STOP DEPTH
STEP       .FT                   0.500 :STEP
NULL       .                  -999.990 :NULL
UWI        .              42371363560000 :UNIQUE WELL ID
API        .              42371363560000 :API NUMBER
COMP       .         APACHE CORPORATION :COMPANY
WELL       .        SCHLOSSER, FRED ESTATE -B-  11 :WELL
DATE       .                22-JUN-1992 :LOG DATE
~CURVE INFORMATION
#MNEMONIC     .UNIT      API CODE :CURVE DESCRIPTION
DEPTH       .FT                      :MEASURED DEPTH
DT.US/FT        UNKNOWN   :DT
GR.API        UNKNOWN   :GR
~A    DEPTH    DT    GR
# ...
 1105.5     -999.990   29.021
 1106     -999.990   29.437
 1106.5     -999.990   29.852
 1107     -999.990   28.707
 1107.5     -999.990   26.772
 1108     -999.990   22.315
 1108.5     -999.990   12.748
 1109     -999.990   12.956
 1109.5     -999.990   13.325
 1110     -999.990   13.694
 1110.5     -999.990   13.874
 1111     -999.990   13.313
 1111.5     -999.990   12.753
 1112     -999.990   12.192
 1112.5     -999.990   11.632
 1113     -999.990   12.008
 1113.5     -999.990   12.399
 1114     -999.990   12.79
 1114.5     -999.990   13.356
 1115     -999.990   14.166
 1115.5     -999.990   14.976
 1116     -999.990   15.787
 1116.5     -999.990   15.937
 1117     -999.990   15.268
 1117.5     -999.990   14.598
 1118     -999.990   13.928
 1118.5     -999.990   15.608
 1119     -999.990   20.348
 1119.5     -999.990   24.091
 1120     -999.990   27.168
 1120.5     -999.990   29.405
 1121     -999.990   29.951
 1121.5     -999.990   30.497
 1122     -999.990   30.626
 1122.5     -999.990   28.983
 1123     -999.990   27.34
 1123.5     -999.990   25.554
 1124     -999.990   23.687
 1124.5     -999.990   22.559
 1125     -999.990   22.134
 1125.5     -999.990   21.709
 1126     -999.990   22.95
 1126.5     -999.990   24.222
 1127     -999.990   25.493
 1127.5     -999.990   26.008
 1128     -999.990   25.549
 1128.5     -999.990   24.766
 1129     -999.990   23.324
 1129.5     -999.990   21.883
 1130     -999.990   20.441
 1130.5     -999.990   19.231
 1131     -999.990   20.542
 1131.5     -999.990   21.853
 1132     -999.990   22.124
 1132.5     -999.990   24.479
 1133     -999.990   28.623
 1133.5     -999.990   30.244
 1134     -999.990   31.864
 1134.5     -999.990   32.193
 1135     -999.990   26.929
 1135.5     -999.990   21.389
 1136     -999.990   16.399
 1136.5     -999.990   14.161
 1137     -999.990   12.843
 1137.5     -999.990   13.409
 1138     -999.990   15.072
 1138.5     -999.990   16.735
 1139     -999.990   18.397
 1139.5     -999.990   18.54
 1140     -999.990   17.81
 1140.5     -999.990   17.079
 1141     -999.990   16.48
 1141.5     -999.990   16.267
 1142     -999.990   16.054
 1142.5     -999.990   15.257
 1143     -999.990   14.242
 1143.5     -999.990   13.227
 1144     -999.990   12.211
 1144.5     -999.990   12.571
 1145     -999.990   13.051
 1145.5     -999.990   13.53
 1146     -999.990   13.55
 1146.5     -999.990   13.218
 1147     -999.990   12.885
 1147.5     -999.990   12.553
 1148     -999.990   12.22
 1148.5     -999.990   14.429
 1149     -999.990   16.6
 1149.5     -999.990   16.091
 1150     -999.990   15.582
 1150.5     -999.990   15.073
 1151     -999.990   15.001
 1151.5     -999.990   15.403
 1152     -999.990   15.805
 1152.5     -999.990   15.451
 1153     -999.990   14.466
 1153.5     -999.990   13.482
 1154     -999.990   12.497
 1154.5     -999.990   11.882
 1155     -999.990   13.173
 1155.5     -999.990   15.35
 1156     -999.990   17.142
 1156.5     -999.990   18.687
 1157     -999.990   17.021
 1157.5     -999.990   15.161
 1158     -999.990   13.301
 1158.5     -999.990   13.792
 1159     -999.990   16.3
 1159.5     -999.990   18.66
 1160     -999.990   18.548
 1160.5     -999.990   15.989
 1161     -999.990   13.431
 1161.5     -999.990   13.797
 1162     -999.990   14.624
 1162.5     -999.990   15.451
 1163     -999.990   16.163
 1163.5     -999.990   15.849
 1164     -999.990   15.536
 1164.5     -999.990   16.046
 1165     -999.990   18.012
 1165.5     -999.990   19.373
 1166     -999.990   19.234
 1166.5     -999.990   19.095
 1167     -999.990   17.063
 1167.5     -999.990   16.326
 1168     -999.990   17.052
 1168.5     -999.990   17.778
 1169     -999.990   18.504
 1169.5     -999.990   19.23
 1170     -999.990   19.196
 1170.5     -999.990   18.259
 1171     -999.990   17.322
 1171.5     -999.990   17.151
 1172     -999.990   17.296
 1172.5     -999.990   17.442
 1173     -999.990   19.295
 1173.5     -999.990   21.674
 1174     -999.990   23.552
 1174.5     -999.990   24.167
 1175     -999.990   24.781
 1175.5     -999.990   25.422
 1176     -999.990   26.22
 1176.5     -999.990   27.017
 1177     -999.990   27.815
 1177.5     -999.990   27.785
 1178     -999.990   26.385
 1178.5     -999.990   24.985
 1179     -999.990   23.651
 1179.5     -999.990   22.357
 1180     -999.990   21.064
 1180.5     -999.990   19.771
 1181     -999.990   20.623
 1181.5     -999.990   22.015
 1182     -999.990   24.052
 1182.5     -999.990   25.735
 1183     -999.990   25.734
 1183.5     -999.990   25.734
 1184     -999.990   24.076
 1184.5     -999.990   22.459
 1185     -999.990   23.814
 1185.5     -999.990   25.169
 1186     -999.990   26.524
 1186.5     -999.990   27.724
 1187     -999.990   27.139
 1187.5     -999.990   26.554
 1188     -999.990   25.969
 1188.5     -999.990   25.384
 1189     -999.990   27.447
 1189.5     -999.990   29.947
 1190     -999.990   32.113
 1190.5     -999.990   34.039
 1191     -999.990   34.82
 1191.5     -999.990   32.93
 1192     -999.990   30.333
 1192.5     -999.990   27.257
 1193     -999.990   24.182
 1193.5     -999.990   24.728
 1194     -999.990   26.152
 1194.5     -999.990   27.576
 1195     -999.990   28.565
 1195.5     -999.990   28.338
 1196     -999.990   27.177
 1196.5     -999.990   24.551
 1197     -999.990   23.322
 1197.5     -999.990   22.094
 1198     -999.990   20.977
 1198.5     -999.990   20.739
 1199     -999.990   20.501
 1199.5     -999.990   20.263
 1200     -999.990   24.976
 1200.5     -999.990   41.927
 1201     -999.990   41.303
 1201.5     -999.990   44.252
 1202     -999.990   47.201
 1202.5     -999.990   42.656
 1203     -999.990   36.892
 1203.5     -999.990   32.921
 1204     -999.990   28.969
 1204.5     -999.990   25.906
 1205     -999.990   29.636
 1205.5     -999.990   31.434
 1206     -999.990   29.776
 1206.5     -999.990   26.335
 1207     -999.990   23.028
 1207.5     -999.990   22.736
 1208     -999.990   22.445
 1208.5     -999.990   22.373
 1209     -999.990   24.444
 1209.5     -999.990   26.514
 1210     -999.990   28.585
 1210.5     -999.990   27.318
 1211     -999.990   25.998
 1211.5     -999.990   24.678
 1212     -999.990   23.416
 1212.5     -999.990   22.451
 1213     -999.990   21.486
 1213.5     -999.990   20.521
 1214     -999.990   19.556
 1214.5     -999.990   19.282
 1215     -999.990   20.279
 1215.5     -999.990   22.47
 1216     -999.990   24.662
 1216.5     -999.990   22.311
 1217     -999.990   18.543
 1217.5     -999.990   14.876
 1218     -999.990   11.695
 1218.5     -999.990   10.29
 1219     -999.990   11.048
 1219.5     -999.990   11.806
 1220     -999.990   12.563
 1220.5     -999.990   13.321
 1221     -999.990   12.883
 1221.5     -999.990   11.769
 1222     -999.990   10.656
 1222.5     -999.990   9.924
 1223     -999.990   9.642
 1223.5     -999.990   9.359
 1224     -999.990   9.076
 1224.5     -999.990   8.793
 1225     -999.990   8.51
 1225.5     -999.990   8.228
 1226     -999.990   7.945
 1226.5     -999.990   11.321
 1227     -999.990   15.268
 1227.5     -999.990   20.515
 1228     -999.990   25.762
 1228.5     -999.990   32.867
 1229     -999.990   38.937
 1229.5     -999.990   42.509
 1230     -999.990   45.817
 1230.5     -999.990   47.18
 1231     -999.990   45.251
 1231.5     -999.990   44.791
 1232     -999.990   44.637
 1232.5     -999.990   42.811
 1233     -999.990   40.347
 1233.5     -999.990   37.952
 1234     -999.990   35.942
 1234.5     -999.990   34.649
 1235     -999.990   35.244
 1235.5     -999.990   37.37
 1236     -999.990   39.432
 1236.5     -999.990   41.437
 1237     -999.990   42.037
 1237.5     -999.990   42.428
 1238     -999.990   42.819
 1238.5     -999.990   42.497
 1239     -999.990   40.547
 1239.5     -999.990   37.39
 1240     -999.990   33.425
 1240.5     -999.990   32.349
 1241     -999.990   31.714
 1241.5     -999.990   31.079
 1242     -999.990   31.51
 1242.5     -999.990   33.056
 1243     -999.990   34.076
 1243.5     -999.990   34.331
