#--------------------------------------------------#
#-------------------ENVERUS, INC.------------------#
#------------------WWW.ENVERUS.COM-----------------#
#------------------COPYRIGHT 2020------------------#
#--------------------------------------------------#
#THIS FILE MAY BE USED ONLY IN ACCORDANCE WITH A CURRENT SUBSCRIPTION AGREEMENT BETWEEN
#THE USER AND ENVERUS, INC. NO PART OF THIS FILE MAY BE REPRODUCED, USED, COPIED,
#MODIFIED, PROPAGATED, OR DISTRIBUTED EXCEPT IN ACCORDANCE WITH THE SUBSCRIPTION
#AGREEMENT. UNAUTHORIZED USE OR DISTRIBUTION OF ALL OR ANY PART OF THIS FILE MAY VIOLATE
#COPYRIGHT, TRADEMARK, AND/OR OTHER LAWS AND IS SUBJECT TO CIVIL AS WELL AS CRIMINAL
#SANCTIONS.
#--------------------------------------------------#
#THIS FILE IS PROVIDED "AS-IS" AND ALL WARRANTIES ARE EXPRESSLY DISCLAIMED, WHETHER
#EXPRESS, ORAL, IMPLIED, STATUTORY OR OTHERWISE, INCLUDING ANY IMPLIED WARRANTY OF FITNESS
#FOR A PARTICULAR PURPOSE, MERCHANTABILITY, TITLE OR NON-INFRINGEMENT, AND ANY WARRANTIES
#ARISING BY VIRTUE OF CUSTOM OF TRADE OR COURSE OF DEALING.  FURTHER, ENVERUS, INC.
#AND ITS LICENSORS DO NOT REPRESENT OR WARRANT THAT THIS FILE WILL MEET USER'S
#REQUIREMENTS OR ARE SUITABLE FOR USER'S NEEDS OR THAT THE DATA OR RESULTS PROVIDED IN
#CONJUNCTION THEREWITH ARE CORRECT, ACCURATE, TIMELY OR RELIABLE. THESE DISCLAIMERS SHALL
#APPLY REGARDLESS OF ANY FAILURE OF ESSENTIAL PURPOSE OF ANY LIMITED REMEDY.  SOME
#JURISDICTIONS DO NOT ALLOW THE EXCLUSION OF CERTAIN WARRANTIES SO SOME OF THE ABOVE
#EXCLUSIONS MAY NOT APPLY. IN NO EVENT SHALL ENVERUS, INC. OR ANY OF ITS AFFILIATES
#BE LIABLE UNDER ANY LEGAL THEORY, WHETHER IN TORT (INCLUDING WITHOUT LIMITATION
#NEGLIGENCE), CONTRACT, STRICT LIABILITY, STATUTORY OR OTHERWISE, FOR ANY SPECIAL,
#INCIDENTAL, CONSEQUENTIAL, EXEMPLARY, PUNITIVE OR INDIRECT DAMAGE OF ANY KIND, INCLUDING
#WITHOUT LIMITATION LOSS OF REVENUE, PROFITS, GOODWILL, USE, AND/OR DATA OR THE COST OF
#PROCUREMENT OF SUBSTITUTE GOODS OR SERVICES, EVEN IF APPRISED OF THE POSSIBILITY OF SUCH
#DAMAGES IN ADVANCE.
#--------------------------------------------------#

~VERSION INFORMATION
VERS. 2.0 : CWLS LOG ASCII STANDARD - VERSION 2.0
WRAP.  NO : ONE LINE PER DEPTH STEP
~WELL INFORMATION
#MNEMONIC     .UNIT              VALUE :DESCRIPTION
STRT       .FT                2 :START DEPTH
STOP       .FT                6341 :STOP DEPTH
STEP       .FT                   0.500 :STEP
NULL       .                  -999.990 :NULL
UWI        .              42389104050000 :UNIQUE WELL ID
API        .              42389104050000 :API NUMBER
COMP       .         ENDEAVOR ENERGY RESOURCES L.P. :COMPANY
WELL       .        TXL REEVES STATE UNIT  2 :WELL
DATE       .                            :LOG DATE
~CURVE INFORMATION
#MNEMONIC     .UNIT      API CODE :CURVE DESCRIPTION
DEPTH       .FT                      :MEASURED DEPTH
GR.API        UNKNOWN   :GR
DT.US/FT        UNKNOWN   :DT
~A    DEPTH    GR    DT
# ...
 5795     45.433   79.443
 5795.5     45.842   78.831
 5796     51.197   78.22
 5796.5     56.23   77.607
 5797     56.65   76.763
 5797.5     57.07   75.918
 5798     57.49   75.074
 5798.5     57.91   74.23
 5799     57.985   74.095
 5799.5     54.518   74.516
 5800     51.052   74.937
 5800.5     47.585   75.359
 5801     46.068   75.78
 5801.5     47.649   76.202
 5802     49.23   76.623
 5802.5     50.811   76.909
 5803     52.392   76.426
 5803.5     53.973   75.942
 5804     53.494   75.854
 5804.5     51.559   75.877
 5805     49.623   75.9
 5805.5     47.688   75.922
 5806     45.752   75.489
 5806.5     45.167   74.747
 5807     47.245   74.006
 5807.5     49.322   73.265
 5808     51.399   73.515
 5808.5     51.276   74.482
 5809     50.736   75.45
 5809.5     50.195   76.417
 5810     49.654   77.384
 5810.5     49.114   76.099
 5811     48.933   74.648
 5811.5     50.854   73.197
 5812     52.776   71.747
 5812.5     54.697   70.296
 5813     55.751   69.67
 5813.5     54.422   70.114
 5814     53.092   70.559
 5814.5     51.763   71.004
 5815     50.434   71.448
 5815.5     49.105   71.155
 5816     47.776   70.857
 5816.5     47.845   70.559
 5817     49.41   70.261
 5817.5     50.974   69.964
 5818     52.539   69.616
 5818.5     54.103   69.002
 5819     55.667   68.388
 5819.5     57.232   67.773
 5820     58.037   67.159
 5820.5     58.148   66.369
 5821     58.259   65.298
 5821.5     58.37   64.227
 5822     58.481   63.157
 5822.5     58.592   62.815
 5823     58.703   64.375
 5823.5     58.814   65.935
 5824     60.462   67.496
 5824.5     72.877   69.056
 5825     85.292   70.617
 5825.5     97.707   72.177
 5826     105.646   73.737
 5826.5     111.697   74.301
 5827     117.747   74.423
 5827.5     125.052   74.545
 5828     126.784   74.667
 5828.5     128.517   74.603
 5829     130.25   73.55
 5829.5     131.983   72.498
 5830     133.716   71.445
 5830.5     129.645   70.392
 5831     122.881   69.34
 5831.5     116.117   68.287
 5832     109.353   67.033
 5832.5     102.589   65.637
 5833     95.825   64.241
 5833.5     89.061   62.846
 5834     82.297   61.45
 5834.5     79.769   63.15
 5835     84.668   64.99
 5835.5     89.566   66.829
 5836     94.465   66.855
 5836.5     95.455   65.49
 5837     90.081   64.125
 5837.5     84.707   62.761
 5838     80.539   62.604
 5838.5     86.971   64.518
 5839     93.402   66.432
 5839.5     99.834   68.346
 5840     106.265   70.26
 5840.5     112.697   69.868
 5841     112.776   69.437
 5841.5     105.111   69.006
 5842     97.446   68.519
 5842.5     89.781   67.106
 5843     82.116   65.693
 5843.5     74.451   64.279
 5844     66.786   63.436
 5844.5     59.121   64.195
 5845     50.542   64.954
 5845.5     49.218   65.714
 5846     49.215   65.748
 5846.5     49.212   65.368
 5847     49.209   64.988
 5847.5     49.206   65.382
 5848     49.204   66.532
 5848.5     49.268   67.682
 5849     52.111   68.833
 5849.5     54.954   69.983
 5850     57.798   69.6
 5850.5     60.641   68.014
 5851     60.466   67.539
 5851.5     59.12   68.584
 5852     57.775   69.63
 5852.5     56.429   70.675
 5853     55.083   69.674
 5853.5     53.738   68.361
 5854     52.392   68.877
 5854.5     51.046   69.929
 5855     49.701   70.981
 5855.5     48.355   72.032
 5856     48.057   73.084
 5856.5     52.71   72.572
 5857     57.364   71.671
 5857.5     62.018   71.63
 5858     66.672   71.851
 5858.5     71.325   72.071
 5859     75.979   72.302
 5859.5     80.633   73.225
 5860     77.796   74.148
 5860.5     70.229   75.071
 5861     62.662   75.175
 5861.5     57.354   74.216
 5862     55.437   73.257
 5862.5     53.519   72.299
 5863     51.602   71.34
 5863.5     49.684   74.315
 5864     47.766   76.297
 5864.5     47.025   76.33
 5865     48.017   76.364
 5865.5     49.009   76.397
 5866     50.002   76.403
 5866.5     50.994   76.302
 5867     50.843   76.202
 5867.5     50.386   76.102
 5868     49.93   76.001
 5868.5     49.474   75.733
 5869     50.524   74.871
 5869.5     51.587   74.008
 5870     52.369   73.145
 5870.5     52.492   72.283
 5871     52.614   72.821
 5871.5     52.737   73.804
 5872     52.86   74.787
 5872.5     52.982   75.77
 5873     53.105   75.57
 5873.5     53.228   75.142
 5874     53.988   74.715
 5874.5     55.07   74.287
 5875     56.151   73.86
 5875.5     57.233   73.432
 5876     57.503   73.005
 5876.5     56.699   72.578
 5877     55.896   72.719
 5877.5     55.093   73.253
 5878     54.29   73.787
 5878.5     55.375   74.321
 5879     56.694   74.737
 5879.5     56.808   75.058
 5880     56.03   75.379
 5880.5     55.253   75.699
 5881     54.475   74.005
 5881.5     53.697   73.206
 5882     52.919   73.812
 5882.5     54.411   74.417
 5883     56.164   75.022
 5883.5     57.917   75.386
 5884     58.419   75.473
 5884.5     57.121   75.56
 5885     55.823   75.179
 5885.5     54.525   74.692
 5886     53.227   74.204
 5886.5     51.929   73.716
 5887     50.63   74.237
 5887.5     49.332   74.907
 5888     49.054   75.576
 5888.5     48.917   76.246
 5889     48.78   76.745
 5889.5     48.643   76.219
 5890     48.507   75.694
 5890.5     48.811   75.169
 5891     51.326   74.643
 5891.5     53.84   74.119
 5892     56.355   74.607
 5892.5     58.87   75.095
 5893     61.385   75.583
 5893.5     63.068   76.072
 5894     62.94   76.1
 5894.5     62.811   75.797
 5895     62.683   75.495
 5895.5     62.555   75.193
 5896     62.427   74.89
 5896.5     62.498   75.883
 5897     63.266   75.362
 5897.5     64.033   74.841
 5898     64.801   74.32
 5898.5     65.564   74.113
 5899     63.458   74.723
 5899.5     61.351   75.334
 5900     59.245   75.123
 5900.5     58.3   74.596
 5901     58.017   74.069
 5901.5     57.735   73.672
 5902     57.453   73.957
 5902.5     57.17   74.242
 5903     56.888   74.526
 5903.5     56.606   74.811
 5904     57.58   75.096
 5904.5     58.879   75.297
 5905     60.178   75.141
 5905.5     61.476   74.986
 5906     62.775   74.83
 5906.5     64.074   74.674
 5907     63.176   74.519
 5907.5     60.94   74.342
 5908     58.705   73.436
 5908.5     56.47   72.529
 5909     54.234   71.623
 5909.5     53.299   70.717
 5910     54.356   69.811
 5910.5     55.414   68.904
 5911     56.472   67.998
 5911.5     57.529   67.092
 5912     58.587   66.186
 5912.5     60.021   66.389
 5913     61.687   67.126
 5913.5     63.352   67.863
 5914     64.417   68.6
 5914.5     64.937   68.404
 5915     65.456   67.79
 5915.5     65.976   67.176
 5916     66.496   66.562
 5916.5     67.015   65.948
 5917     67.535   65.334
 5917.5     68.054   64.719
 5918     69.178   64.105
 5918.5     75.788   64.053
 5919     82.398   65.108
 5919.5     89.008   66.163
 5920     95.618   67.218
 5920.5     102.228   68.273
 5921     108.838   68.785
 5921.5     125.604   69.092
 5922     142.491   70.765
 5922.5     144.551   73.863
 5923     146.61   76.961
 5923.5     148.67   77.166
 5924     133.729   72.359
 5924.5     112.5   67.551
 5925     91.271   62.744
 5925.5     70.042   57.937
 5926     54.155   57.613
 5926.5     55.9   58.493
 5927     57.645   59.372
 5927.5     59.39   59.765
 5928     61.135   59.781
 5928.5     62.461   60.262
 5929     62.081   60.744
 5929.5     61.7   61.226
 5930     61.32   61.707
 5930.5     60.939   62.189
 5931     56.632   60.957
 5931.5     50.115   58.027
 5932     43.598   55.097
 5932.5     37.081   52.644
 5933     30.564   52.291
 5933.5     29.554   51.939
 5934     28.708   51.654
 5934.5     32.963   52.297
 5935     39.366   52.941
 5935.5     45.768   53.927
 5936     52.171   56.939
 5936.5     58.574   59.952
 5937     65.155   62.965
 5937.5     77.556   65.829
 5938     89.957   64.461
 5938.5     102.001   63.092
 5939     98.476   61.723
 5939.5     94.952   60.354
 5940     91.427   60.386
 5940.5     91.492   62.41
 5941     98.873   64.433
 5941.5     100.52   65.098
 5942     99.674   65.282
 5942.5     98.828   65.466
 5943     97.983   66.17
 5943.5     97.137   67.067
