~Version Information Block
 VERS.                2.00:     CWLS LOG ASCII STANDARD - VERSION 2.000000
 WRAP.                  NO:     One Line Per Depth Step
#
~Well Information Block
#MNEM.UNIT                     Data                         Information
#----------   ------------------------------------------   ----------------
# Enverus has updated the API/UWI.  The previous names are renamed to  PREV_API / PREV_UWI
API.                             42-371-39483-90-00 : API (14 Digits with Dashes)
UWI.                                 42371394839000 : UNIQUE WELL ID

 STRT.FT                                    10010.0000:     START DEPTH
 STOP.FT                                    11812.0000:     STOP DEPTH
 STEP.FT                                        0.5000:     STEP
 NULL.                                       -999.2500:     NULL VALUE
 COMP.                           PATRIOT RESOURCES INC:     COMPANY
 WELL.                        ROOSTERFISH UNIT 22NE 1H:     WELL
 FLD .                             WOLFBONE TREND AREA:     FIELD
 LOC .                                                :     LOCATION
 SEC .                                              22:     SECTION
 CNTY.                                          PEACOS:     COUNTY
 STAT.                                           TEXAS:     STATE
 CTRY.                                           U.S.A:     COUNTRY
 SRVC.                                    SCHLUMBERGER:     SERVICE COMPANY
 DATE.                                      03/18/2017:     DATE
PREV_APII .                                  42371394830000:     API NUMBER
 PREV_UWI .                                  42371394830000:     UWI NUMBER
 TVD .                                              NO:     TVD flag
 WSTA.                                             LOC:     Well status
#
~Curve Information Block
#MNEM.UNIT       API CODE      Curve Description
#----------    -------------   -------------------
 DEPT.FT                   :   Depth in Feet
 ECGR.GAPI     35 310 01 01:   Environmentally Corrected Gamma Ray
 CALI.IN       70 280 01 01:   Caliper
 TENS.LBS                  :   Tension
 SPHI_476.V/V  61 890 01 01:   Sonic Porosity 47.6 Matrix
 DT  .US/F     60 520 08 01:   Delta-T
 DTSM.US/F                 :   Delta-T Shear Measurement
 STIT.FT/H                 :   STIT
#
~Parameter Information Block
#MNEM.UNIT            Value               Description
#----------    --------------------    -------------------
 RUN .                         ONE:    Run Number
 PDAT.                          GL:    Permanent Datum
 EPD .FT                        25:    Elevation Of Perm. Datum
 LMF .               KELLY BUSHING:    Log Measured From
 EKB .FT                          :    Elevation Of Kelly Bushing
 DF .FT                           :    Elevation Of Derrick Floor
 GL .FT                         25:    Elevation Of Ground Level
 TD  .FT                     18979:    Total Depth
 CSGD.FT                      5100:    Casing Bottom (Driller) 1
 CSGL.FT                     18979:    Casing Bottom (Logger) 1
 MUD .                   OIL BASED:    Drilling Fluid Type
 MUDV .CP                      102:    Drilling Fluid Viscosity
 MUDD .LB/USG                 13.0:    Drilling Fluid Density
 FL .ML/30MIN                     :    Drilling Fluid Loss
 PH.                           8.8:    Drilling Fluid Ph
 MUDS .                           :    Mud Sample Source
 RM .OHMM                         :    Resistivity Of Mud Sample
 RMT .DEGF                        :    Mud Sample Temperature
 RMF .OHMM                        :    Mud Filtrate Resistivity
 RMFT.DEGF                        :    Mud Filtrate Sample Temperature
 RMC .OHMM                        :    Mud Cake Resistivity
 RMCT.DEGF                        :    Mud Cake Sample Temperature
 RMB .OHMM                        :    Mud Resistivity At Bht
 TMAX .DEGF                    152:    Bottom Hole Temperature
#
~Other Information Block
<DescLogPlotStart>   NEURALOG PLOT DEFINITION
PLOTDEFVERSION: 3
LASFILE: D:\nds\projects\poojawells\December data\PoojaWells Digitizing_Cassidy
DEPTHSCALE: 240.000000
RESOLUTION: 144
DEPTHLABELFREQ: 100.000000
HEAVYGRIDFREQ: 100.000000
MEDIUMGRIDFREQ: 50.000000
LIGHTGRIDFREQ: 10.000000
#
#   TRACK 1
#
STARTTRACK: 
 LEFTX: 0.500000 inch
 RIGHTX: 3.000000 inch
 SCALETYPE: Linear
 NUMCHARTDIVISIONS: 10
CURVE: ECGR  0.000000   150.000000 (0,0,255)      Solid             2     Y    
BACKUP: 150.000000 300.000000 (0,0,255)      Solid             2    
CURVE: CALI  6.000000   16.000000  (0,131,131)    Dot               2     Y    
BACKUP: -4.000000  6.000000   (0,131,131)    Dot               2    
CURVE: TENS  10000.000000 0.000000   (255,0,255)    Short_Dash        2     N  
ENDTRACK: 
#
#   TRACK 2
#
STARTTRACK: 
 LEFTX: 3.500000 inch
 RIGHTX: 8.500000 inch
 SCALETYPE: Linear
 NUMCHARTDIVISIONS: 10
CURVE: SPHI_476 0.300000   -0.100000  (255,0,0)      Solid             2     N 
CURVE: DT    140.000000 40.000000  (255,131,0)    Dot               2     N    
CURVE: DTSM  240.000000 40.000000  (255,255,0)    Short_Dash        2     N    
ENDTRACK: 
#
#   TRACK 3
#
STARTTRACK: 
 LEFTX: 8.500000 inch
 RIGHTX: 9.256944 inch
 SCALETYPE: Linear
 NUMCHARTDIVISIONS: 10
CURVE: STIT  0.000000   50.000000  (0,0,255)      Solid             2     N    
ENDTRACK: 
<DescLogPlotEnd>
~A DEPTH     ECGR             CALI             TENS             SPHI_476             DT               DTSM             STIT            
# ...
   11413.000 98.02781285      8.31522842       4693.02273394    0.27834755       86.86629526      159.08077994     0.68807339      
   11413.500 101.15237997     8.30729678       4704.25977654    0.27947282       86.94606229      159.08077994     0.68807339      
   11414.000 104.45095151     8.29932227       4691.68994413    0.28152008       87.35629273      159.08077994     0.68807339      
   11414.500 106.05120027     8.29087495       4678.77094972    0.28403900       87.76652317      159.51532033     0.68807339      
   11415.000 101.07571273     8.30579356       4654.32960894    0.28746518       88.11977716      158.47725162     0.68807339      
   11415.500 101.36666199     8.32877596       4629.18994413    0.28530641       87.82729805      156.85236769     0.68807339      
   11416.000 104.18252488     8.35192470       4639.66480447    0.28350975       87.55153203      158.68523677     0.68807339      
   11416.500 106.96144150     8.37301060       4662.01117318    0.28194986       87.42339833      158.08356546     0.68807339      
   11417.000 102.46152025     8.37353478       4678.77094972    0.27927577       87.07520891      156.88950789     0.68807339      
   11417.500 98.32466058      8.37400626       4678.77094972    0.27325905       86.03064067      155.73816156     0.68807339      
   11418.000 94.85271736      8.35676095       4675.69832402    0.27072423       85.70102136      155.28133705     0.68807339      
   11418.500 90.63207460      8.32787804       4665.70659923    0.27087147       85.73119777      154.55431755     0.68807339      
   11419.000 86.68468686      8.29878475       4655.43189132    0.27230402       85.98189415      153.78830084     0.68807339      
   11419.500 91.67474759      8.26907601       4661.65517622    0.27496518       86.30362117      154.06685237     0.68807339      
   11420.000 98.27008563      8.27162294       4681.29109645    0.27868862       86.83844011      154.81679880     0.68807339      
   11420.500 103.98206079     8.28572146       4702.07287270    0.28221010       87.37325905      155.58817227     0.68807339      
   11421.000 101.08022580     8.30011980       4689.94413408    0.28560222       87.90807799      156.35954575     0.68807339      
   11421.500 98.69831881      8.31456588       4667.59776536    0.28973794       88.39832869      157.35933148     0.68807339      
   11422.000 98.74582931      8.31728346       4653.98044693    0.29097008       88.60492108      158.80222841     0.68807339      
   11422.500 105.12762714     8.31737403       4666.55027933    0.29136490       88.67688022      159.65529248     0.68807339      
   11423.000 113.72756829     8.31740469       4678.77094972    0.29136490       88.59530442      160.53272981     0.68807339      
   11423.500 116.01872672     8.31742839       4678.77094972    0.29036212       88.48885794      160.19498607     0.68807339      
   11424.000 109.83076659     8.31747637       4678.77094972    0.28807004       88.23816156      160.06366892     0.68807339      
   11424.500 101.88424266     8.31755022       4676.25698324    0.28568245       87.98050139      159.91643454     0.68807339      
   11425.000 105.76411064     8.31767477       4666.20111732    0.28328691       87.42339833      159.08077994     0.68807339      
   11425.500 111.51532367     8.31852704       4656.14525140    0.28215877       87.42339833      159.00882080     0.68807339      
   11426.000 112.18491249     8.34102204       4656.77374302    0.28270593       87.34261838      158.92525534     0.68807339      
   11426.500 108.94989242     8.36432281       4669.34357542    0.28442499       87.64345404      158.84168988     0.68807339      
   11427.000 107.47297329     8.37351297       4682.36233041    0.28788301       88.20682451      159.41968431     0.68807339      
   11427.500 104.76048609     8.37364701       4696.72785315    0.29297408       88.74651811      160.75208914     0.68807339      
   11428.000 104.72499775     8.37362761       4703.28988206    0.29484418       89.18225229      160.78551532     0.68807339      
   11428.500 101.19177046     8.37356165       4692.11669770    0.29688997       89.46876244      159.91643454     0.68807339      
   11429.000 104.77317710     8.37338297       4680.94081292    0.29846578       89.79108635      163.25905292     0.68807339      
   11429.500 110.30147662     8.36471239       4678.88441764    0.29756223       89.65006964      161.03064067     0.68807339      
   11430.000 113.41182462     8.32672773       4678.46224476    0.29459409       89.08600279      162.07261504     0.68807339      
   11430.500 114.48124692     8.29099357       4679.23345312    0.29124168       88.53760446      160.85702827     0.68807339      
   11431.000 112.43387339     8.29902220       4712.65832414    0.28725305       88.09590131      159.33938469     0.68807339      
   11431.500 108.33183167     8.30794089       4726.56734947    0.28445745       87.70194986      159.37349015     0.68807339      
   11432.000 104.00234889     8.31651302       4704.22098076    0.28389111       87.65668524      158.80696270     0.68807339      
   11432.500 97.07989062      8.30095047       4678.77094972    0.28300169       87.61490251      158.24958298     0.68807339      
   11433.000 95.19042724      8.28869897       4678.77094972    0.28300570       87.57311978      157.87504974     0.68807339      
   11433.500 94.68023000      8.28917090       4678.77094972    0.28298400       87.43732591      157.40947075     0.68807339      
   11434.000 101.47670974     8.28931190       4700.18621974    0.28340218       87.50895344      157.40947075     0.68807339      
   11434.500 100.58278942     8.28934889       4734.63687151    0.28458073       87.68802228      157.90657810     0.68807339      
   11435.000 105.24062887     8.28933768       4710.19553073    0.28639272       88.01532033      158.52367688     0.68807339      
   11435.500 108.12938775     8.28932584       4685.05586592    0.28811513       88.25905292      159.14077566     0.68807339      
   11436.000 108.73391631     8.28932584       4653.63128492    0.28922934       88.28342618      159.63788301     0.68807339      
   11436.500 103.63265412     8.28932584       4622.90502793    0.29025070       88.39832869      160.44220056     0.68807339      
   11437.000 100.47236389     8.28932584       4638.46767757    0.29080780       88.53760446      161.31963788     0.68807339      
   11437.500 99.41071763      8.28932584       4650.83798883    0.28990251       88.49408078      161.68722642     0.68807339      
   11438.000 104.37200504     8.28932584       4693.78491620    0.28963788       88.42176847      161.83048150     0.68807339      
   11438.500 104.65896988     8.28932584       4734.63687151    0.28621170       88.03315139      161.61559889     0.68807339      
   11439.000 108.90744041     8.28932584       4711.59217877    0.28119777       87.27172659      161.28133705     0.68807339      
   11439.500 106.09649783     8.28932584       4686.45251397    0.27769731       86.73427752      160.62952646     0.68807339      
   11440.000 105.59342809     8.28932584       4678.77094972    0.27608436       86.50997288      158.80222841     0.68807339      
   11440.500 102.44117635     8.28932584       4678.77094972    0.27493832       86.30919220      159.86638936     0.68807339      
   11441.000 100.69577461     8.28932584       4687.15083799    0.27523677       86.35793872      160.19589752     0.68807339      
   11441.500 96.95394946      8.28932584       4698.32402235    0.27968663       86.96100279      160.88841133     0.68807339      
   11442.000 96.44608315      8.28932584       4706.84773162    0.28495125       87.72980501      160.81776564     0.68807339      
   11442.500 96.99768904      8.28932699       4706.63842213    0.28885794       88.32869081      161.07087079     0.68807339      
   11443.000 103.92425115     8.28932808       4706.75289887    0.29025070       88.47349046      161.50727329     0.68807339      
