###############################################
##         ENVERUS                           ##
##         ESS - Open Hole                   ##
##         PERMIAN / DELAWARE                ##
##         Nov 04 2023  V4.0                 ##
##         42-389-10119-00-00                ##
###############################################
## Copyright 2017-2023  ENVERUS.  All Rights Reserved. 
## Confidential - Property of ENVERUS, use governed by terms and 
## conditions found within the existing Information Services Subscription Agreement 
## (as may be amended, the “ISSA”) between Customer and ENVERUS. 
## 
~VERSION INFORMATION
# MNEM.UNIT                               DATA : DESCRIPTION OF MNEMONIC
#-----.-----     ----------------------------- : -----------------------------
VERS.                                     2.00 : CWLS LOG ASCII STANDARD - VERSION 2.00
WRAP.                                       NO : MULTIPLE LINES PER DEPTH STEP
VEND.                                  ENVERUS : VENDOR
TYPE.                          ESS - OPEN HOLE : ENVERUS ESSENTIAL CURVES – ACCESSIBLE THROUGH ENVERUS PRISM(TM)
DOC.                                  32008410 : ENVERUS HEADER RAW DOCUMENT ID
#___________________________________________________________________________________________________ 
~WELL INFORMATION 
# X8E3XgEZRMs+LiTqjMYqety/5rGXYLbzRNciiYBq17B6ClLelYcJjKNVvvPfWOVGxhvISow7q4Dbthq8gKP2Nw== 
# MNEM.UNIT                                              DATA : DESCRIPTION OF MNEMONIC 
#-----.-----                    ----------------------------- : ----------------------------- 
CNTY.                                                  REEVES : COUNTY 
STATE.                                                  TEXAS : STATE 
CNTRY.                                                    USA : COUNTRY 
API.                                             42-389-10119 : API (10 Digit) 
API_14.                                    42-389-10119-00-00 : API (14 Digits) 
API_14_std.                                 42-389-10119-0000 : API (14 Digits Standard) 
UWI.                                           42389101190000 : UNIQUE WELL ID 
WELL.                                                   1-40, : WELL NAME
STRT.FT                                                  58.0 : START DEPTH
STOP.FT                                                5338.0 : STOP DEPTH
STEP.FT                                                   0.5 : STEP BETWEEN DEPTHS
NULL.                                                 -999.25 : NULL VALUE
#___________________________________________________________________________________________________ 
~CURVE INFORMATION 
# MNEM.UNIT           : CURVE DESCRIPTION 
#-----.-----          : ----------------------------- 
 DEPT.FT               : MEASURED DEPTH 
 GR.API                : GAMMA RAY (GR) 
 DT.US/FT              : SONIC DELTA TRANSIT TIME (DT) 
 #___________________________________________________________________________________________________ 
~A         DEPT             GR             DT
# ...
         4582.0         10.482         47.448
         4582.5         10.160         47.865
         4583.0         10.019         48.281
         4583.5          9.877         48.358
         4584.0          9.918         48.096
         4584.5         10.281         47.834
         4585.0         10.645         47.572
         4585.5         11.008         47.310
         4586.0         11.371         47.058
         4586.5         11.735         47.328
         4587.0         11.359         47.598
         4587.5         10.863         47.868
         4588.0         10.367         48.138
         4588.5          9.871         48.409
         4589.0         10.602         48.679
         4589.5         11.551         48.949
         4590.0         12.501         48.946
         4590.5         13.450         48.653
         4591.0         14.399         48.359
         4591.5         13.945         48.065
         4592.0         13.256         47.772
         4592.5         12.567         47.845
         4593.0         11.878         47.919
         4593.5         11.188         47.993
         4594.0         10.499         48.066
         4594.5          9.810         48.140
         4595.0          9.121         48.213
         4595.5          8.432         48.200
         4596.0          8.555         48.096
         4596.5          8.847         47.992
         4597.0          9.138         47.889
         4597.5          9.429         47.785
         4598.0          9.721         47.681
         4598.5         10.012         47.577
         4599.0         11.469         47.474
         4599.5         13.171         47.734
         4600.0         11.059         47.997
         4600.5          9.552         48.259
         4601.0          9.838         48.521
         4601.5         10.123         48.783
         4602.0         10.544         48.647
         4602.5         11.251         48.501
         4603.0         11.959         48.355
         4603.5         12.666         48.208
         4604.0         13.374         48.261
         4604.5         14.081         48.529
         4605.0         14.255         48.797
         4605.5         13.319         49.065
         4606.0         12.382         49.052
         4606.5         11.445         48.712
         4607.0         10.508         48.371
         4607.5         10.959         48.695
         4608.0         11.744         48.975
         4608.5         12.529         48.331
         4609.0         12.647         47.687
         4609.5         11.285         47.562
         4610.0         10.668         47.990
         4610.5         11.793         48.418
         4611.0         12.542         48.846
         4611.5         12.432         49.274
         4612.0         12.322         49.372
         4612.5         12.212         49.065
         4613.0         12.103         48.758
         4613.5         12.638         48.451
         4614.0         13.337         48.144
         4614.5         14.036         46.328
         4615.0         14.735         44.502
         4615.5         15.434         45.853
         4616.0         15.017         47.203
         4616.5         14.322         40.477
         4617.0         13.627         43.184
         4617.5         12.932         45.891
         4618.0         12.237         48.598
         4618.5         12.312         47.062
         4619.0         12.597         46.423
         4619.5         12.883         46.966
         4620.0         12.994         47.508
         4620.5         12.663         48.050
         4621.0         12.332         41.935
         4621.5         12.001         42.934
         4622.0         11.670         43.933
         4622.5         11.340         44.932
         4623.0         11.009         44.201
         4623.5         10.678         41.665
         4624.0         10.347         39.277
         4624.5         10.016         39.217
         4625.0          9.685         39.157
         4625.5         10.071         39.097
         4626.0         10.681         39.038
         4626.5         11.291         44.079
         4627.0         11.901         42.018
         4627.5         12.501         39.957
         4628.0         13.071         40.305
         4628.5         13.642         42.579
         4629.0         14.212         44.853
         4629.5         15.685         47.127
         4630.0         15.329         49.401
         4630.5         14.337         49.345
         4631.0         13.345         45.772
         4631.5         12.353         42.198
         4632.0         12.346         39.493
         4632.5         12.664         46.336
         4633.0         12.981         44.729
         4633.5         13.299         43.122
         4634.0         13.617         43.156
         4634.5         13.689         44.772
         4635.0         13.027         46.387
         4635.5         12.365         42.888
         4636.0         11.703         39.269
         4636.5         11.041         38.910
         4637.0         10.379         38.566
         4637.5          9.963         38.579
         4638.0         10.355         38.593
         4638.5         10.747         38.606
         4639.0         11.139         38.620
         4639.5         11.531         40.322
         4640.0         11.924         43.477
         4640.5         12.316         46.738
         4641.0         12.819         44.435
         4641.5         13.693         42.131
         4642.0         14.567         39.828
         4642.5         15.440         41.907
         4643.0         15.935         44.489
         4643.5         15.202         43.044
         4644.0         14.469         41.600
         4644.5         13.737         40.155
         4645.0         13.004         38.804
         4645.5         12.271         41.064
         4646.0         11.538         43.323
         4646.5         10.805         45.582
         4647.0         10.072         45.660
         4647.5          9.340         42.776
         4648.0          8.607         39.892
         4648.5          9.047         39.611
         4649.0          9.983         41.731
         4649.5         10.919         43.850
         4650.0         11.855         44.492
         4650.5         11.339         43.281
         4651.0         10.223         42.070
         4651.5         10.072         40.859
         4652.0         10.336         39.648
         4652.5         10.600         38.472
         4653.0         10.865         40.383
         4653.5         11.129         42.293
         4654.0         11.393         44.204
         4654.5         11.657         39.348
         4655.0         11.921         40.930
         4655.5         12.051         44.342
         4656.0         11.626         47.753
         4656.5         11.200         38.952
         4657.0         10.774         40.670
         4657.5         10.984         42.413
         4658.0         11.483         44.157
         4658.5         11.982         45.901
         4659.0         12.480         47.644
         4659.5         12.979         49.388
         4660.0         13.478         46.966
         4660.5         13.977         45.701
         4661.0         14.264         47.010
         4661.5         13.631         48.320
         4662.0         12.999         48.747
         4662.5         12.367         47.593
         4663.0         11.735         47.156
         4663.5         11.103         47.846
         4664.0         11.175         48.537
         4664.5         11.591         48.618
         4665.0         12.007         47.597
         4665.5         12.422         46.576
         4666.0         12.838         45.554
         4666.5         13.254         46.636
         4667.0         12.761         47.950
         4667.5         11.823         48.158
         4668.0         10.885         46.320
         4668.5          9.947         45.572
