~Version Information Block
 VERS.                2.00:     CWLS LOG ASCII STANDARD - VERSION 2.000000
 WRAP.                  NO:     One Line Per Depth Step
#
~Well Information Block
#MNEM.UNIT                     Data                         Information
#----------   ------------------------------------------   ----------------
# Enverus has updated the API/UWI.  The previous names are renamed to  PREV_API / PREV_UWI
API.                             42-371-39483-90-00 : API (14 Digits with Dashes)
UWI.                                 42371394839000 : UNIQUE WELL ID

 STRT.FT                                    10010.0000:     START DEPTH
 STOP.FT                                    11812.0000:     STOP DEPTH
 STEP.FT                                        0.5000:     STEP
 NULL.                                       -999.2500:     NULL VALUE
 COMP.                           PATRIOT RESOURCES INC:     COMPANY
 WELL.                        ROOSTERFISH UNIT 22NE 1H:     WELL
 FLD .                             WOLFBONE TREND AREA:     FIELD
 LOC .                                                :     LOCATION
 SEC .                                              22:     SECTION
 CNTY.                                          PEACOS:     COUNTY
 STAT.                                           TEXAS:     STATE
 CTRY.                                           U.S.A:     COUNTRY
 SRVC.                                    SCHLUMBERGER:     SERVICE COMPANY
 DATE.                                      03/18/2017:     DATE
PREV_APII .                                  42371394830000:     API NUMBER
 PREV_UWI .                                  42371394830000:     UWI NUMBER
 TVD .                                              NO:     TVD flag
 WSTA.                                             LOC:     Well status
#
~Curve Information Block
#MNEM.UNIT       API CODE      Curve Description
#----------    -------------   -------------------
 DEPT.FT                   :   Depth in Feet
 ECGR.GAPI     35 310 01 01:   Environmentally Corrected Gamma Ray
 CALI.IN       70 280 01 01:   Caliper
 TENS.LBS                  :   Tension
 SPHI_476.V/V  61 890 01 01:   Sonic Porosity 47.6 Matrix
 DT  .US/F     60 520 08 01:   Delta-T
 DTSM.US/F                 :   Delta-T Shear Measurement
 STIT.FT/H                 :   STIT
#
~Parameter Information Block
#MNEM.UNIT            Value               Description
#----------    --------------------    -------------------
 RUN .                         ONE:    Run Number
 PDAT.                          GL:    Permanent Datum
 EPD .FT                        25:    Elevation Of Perm. Datum
 LMF .               KELLY BUSHING:    Log Measured From
 EKB .FT                          :    Elevation Of Kelly Bushing
 DF .FT                           :    Elevation Of Derrick Floor
 GL .FT                         25:    Elevation Of Ground Level
 TD  .FT                     18979:    Total Depth
 CSGD.FT                      5100:    Casing Bottom (Driller) 1
 CSGL.FT                     18979:    Casing Bottom (Logger) 1
 MUD .                   OIL BASED:    Drilling Fluid Type
 MUDV .CP                      102:    Drilling Fluid Viscosity
 MUDD .LB/USG                 13.0:    Drilling Fluid Density
 FL .ML/30MIN                     :    Drilling Fluid Loss
 PH.                           8.8:    Drilling Fluid Ph
 MUDS .                           :    Mud Sample Source
 RM .OHMM                         :    Resistivity Of Mud Sample
 RMT .DEGF                        :    Mud Sample Temperature
 RMF .OHMM                        :    Mud Filtrate Resistivity
 RMFT.DEGF                        :    Mud Filtrate Sample Temperature
 RMC .OHMM                        :    Mud Cake Resistivity
 RMCT.DEGF                        :    Mud Cake Sample Temperature
 RMB .OHMM                        :    Mud Resistivity At Bht
 TMAX .DEGF                    152:    Bottom Hole Temperature
#
~Other Information Block
<DescLogPlotStart>   NEURALOG PLOT DEFINITION
PLOTDEFVERSION: 3
LASFILE: D:\nds\projects\poojawells\December data\PoojaWells Digitizing_Cassidy
DEPTHSCALE: 240.000000
RESOLUTION: 144
DEPTHLABELFREQ: 100.000000
HEAVYGRIDFREQ: 100.000000
MEDIUMGRIDFREQ: 50.000000
LIGHTGRIDFREQ: 10.000000
#
#   TRACK 1
#
STARTTRACK: 
 LEFTX: 0.500000 inch
 RIGHTX: 3.000000 inch
 SCALETYPE: Linear
 NUMCHARTDIVISIONS: 10
CURVE: ECGR  0.000000   150.000000 (0,0,255)      Solid             2     Y    
BACKUP: 150.000000 300.000000 (0,0,255)      Solid             2    
CURVE: CALI  6.000000   16.000000  (0,131,131)    Dot               2     Y    
BACKUP: -4.000000  6.000000   (0,131,131)    Dot               2    
CURVE: TENS  10000.000000 0.000000   (255,0,255)    Short_Dash        2     N  
ENDTRACK: 
#
#   TRACK 2
#
STARTTRACK: 
 LEFTX: 3.500000 inch
 RIGHTX: 8.500000 inch
 SCALETYPE: Linear
 NUMCHARTDIVISIONS: 10
CURVE: SPHI_476 0.300000   -0.100000  (255,0,0)      Solid             2     N 
CURVE: DT    140.000000 40.000000  (255,131,0)    Dot               2     N    
CURVE: DTSM  240.000000 40.000000  (255,255,0)    Short_Dash        2     N    
ENDTRACK: 
#
#   TRACK 3
#
STARTTRACK: 
 LEFTX: 8.500000 inch
 RIGHTX: 9.256944 inch
 SCALETYPE: Linear
 NUMCHARTDIVISIONS: 10
CURVE: STIT  0.000000   50.000000  (0,0,255)      Solid             2     N    
ENDTRACK: 
<DescLogPlotEnd>
~A DEPTH     ECGR             CALI             TENS             SPHI_476             DT               DTSM             STIT            
# ...
   11626.500 122.70201600     8.42977528       4711.94011399    0.29582173       89.23398329      163.53760446     0.68807339      
   11627.000 120.44367809     8.42977528       4730.44941175    0.29582173       89.23398329      163.53760446     0.68807339      
   11627.500 118.46315016     8.42977528       4762.24182918    0.29582173       89.23398329      163.53760446     0.68807339      
   11628.000 118.79183232     8.42977528       4713.08858739    0.29582173       89.23398329      163.53760446     0.68807339      
   11628.500 118.66984951     8.42977528       4650.83798883    0.29582173       89.23398329      163.53760446     0.68807339      
   11629.000 122.34000499     8.42977528       4681.56424581    0.29526462       89.23398329      163.53760446     0.68807339      
   11629.500 123.40662474     8.42977528       4715.08379888    0.29526462       89.23398329      163.53760446     0.68807339      
   11630.000 126.85143699     8.42977528       4751.39664804    0.29526462       89.15273909      163.53760446     0.68807339      
   11630.500 126.16680964     8.42977528       4790.50279330    0.29526462       89.17130919      163.53760446     0.68807339      
   11631.000 129.24908819     8.42977528       4687.15083799    0.29400557       89.10399257      163.72562674     0.68807339      
   11631.500 126.06719285     8.42977528       4663.68715084    0.29039592       88.58635097      163.97632312     0.68807339      
   11632.000 121.01429466     8.42977528       4678.77094972    0.29040683       88.62116992      163.83008357     0.68807339      
   11632.500 113.98507333     8.42977413       4678.77094972    0.29358348       88.85793872      163.53760446     0.68807339      
   11633.000 115.82707304     8.42977304       4689.59497207    0.29359782       88.95543175      163.53760446     0.68807339      
   11633.500 118.00209427     8.42975472       4702.16480447    0.29230108       88.77785515      163.53760446     0.68807339      
   11634.000 119.98863318     8.42968961       4690.64245810    0.28953586       88.40181058      162.36304550     0.68807339      
   11634.500 119.60380720     8.42754466       4665.50279330    0.28713703       88.05646531      160.47353760     0.68807339      
   11635.000 118.77180816     8.41830864       4671.78770950    0.28649622       87.98159333      162.42339833     0.68807339      
   11635.500 117.24269254     8.40923987       4722.06703911    0.28684473       87.98631474      161.77576602     0.68807339      
   11636.000 121.99537566     8.40057462       4734.63687151    0.28493619       87.65153070      160.50139276     0.68807339      
   11636.500 127.78056755     8.39713294       4734.63687151    0.27777750       86.74516129      159.05292479     0.68807339      
   11637.000 132.57328604     8.39346085       4698.32402235    0.27224234       85.92940313      157.21448468     0.68807339      
   11637.500 127.07553763     8.38972640       4684.00837989    0.26796657       85.49066458      155.89733386     0.68807339      
   11638.000 118.58881223     8.38597306       4696.57821229    0.26244011       84.59427068      155.32431357     0.68807339      
   11638.500 112.10912504     8.38223074       4711.59217877    0.25715877       83.85310300      154.09470752     0.68807339      
   11639.000 107.64171369     8.37853556       4734.63687151    0.25484123       83.64966721      152.64623955     0.68807339      
   11639.500 107.60585067     8.37498305       4687.70949721    0.25236769       83.10584958      151.72701950     0.68807339      
   11640.000 105.90168471     8.36657216       4734.63687151    0.25341226       83.24512535      152.39554318     0.68807339      
   11640.500 105.22241449     8.35657216       4734.63687151    0.25650139       83.75000000      152.52785515     0.68807339      
   11641.000 102.89128298     8.34609992       4696.92737430    0.26128134       84.35933148      152.67409471     0.68807339      
   11641.500 107.05708460     8.34564992       4650.83798883    0.26072423       84.54038997      154.90250696     0.68807339      
   11642.000 110.76904308     8.34555760       4681.96328811    0.27097838       85.78226555      155.81861985     0.68807339      
   11642.500 115.41563952     8.34548503       4706.70391061    0.28076503       87.00557103      156.91638028     0.68807339      
   11643.000 120.08222431     8.34543948       4775.41899441    0.28283474       87.42339833      158.43074253     0.68807339      
   11643.500 123.09189705     8.34522934       4745.25139665    0.28357496       87.51740947      159.94434881     0.68807339      
   11644.000 124.58653962     8.33508766       4706.70391061    0.28414170       87.64275766      160.31155079     0.68807339      
   11644.500 124.19406916     8.32387244       4706.70391061    0.28469703       87.56267409      159.26880223     0.68807339      
   11645.000 123.79440450     8.31510048       4689.24581006    0.27595508       86.37883008      157.67061281     0.68807339      
   11645.500 122.71189155     8.30946254       4678.77094972    0.26711048       85.19498607      156.29178273     0.68807339      
   11646.000 121.27880343     8.30384422       4678.77094972    0.26117874       84.40111421      155.18105850     0.68807339      
   11646.500 114.87514367     8.29822170       4678.77094972    0.25722071       83.74883937      155.18105850     0.68807339      
   11647.000 107.96923912     8.29260245       4685.95371109    0.24974930       82.82961931      153.46357431     0.68807339      
   11647.500 103.73341067     8.28923065       4714.68475658    0.24623955       82.40947075      151.01563083     0.68807339      
   11648.000 101.02704924     8.28930588       4722.34636872    0.24866852       82.76926648      151.16824711     0.68807339      
   11648.500 99.12821558      8.28932579       4679.04238342    0.25154596       83.10584958      151.43161253     0.68807339      
   11649.000 98.76640390      8.28933103       4693.72717153    0.25292479       83.10584958      151.91322456     0.68807339      
   11649.500 106.58313799     8.28932857       4704.95061978    0.25668753       83.86682225      152.91814669     0.68807339      
   11650.000 115.42489020     8.28932584       4696.06477525    0.26175756       84.56925857      153.92949110     0.68807339      
   11650.500 124.28342428     8.28932584       4687.68913658    0.26516546       84.90111421      154.90250696     0.68807339      
   11651.000 131.77054501     8.28932584       4678.92957929    0.25853063       83.94150418      152.67409471     0.68807339      
   11651.500 137.66084250     8.28941156       4694.15410440    0.25641228       83.72110028      152.39554318     0.68807339      
   11652.000 133.84186657     8.28984341       4711.11311509    0.25459805       83.22910864      152.95264624     0.68807339      
   11652.500 129.74948761     8.29018480       4727.94031045    0.24674095       82.13091922      151.55988858     0.68807339      
   11653.000 121.89866493     8.28941902       4722.58827118    0.24592758       82.27019499      151.91197772     0.68807339      
   11653.500 113.66488325     8.28543006       4702.40223464    0.24546797       82.13091922      151.89288427     0.68807339      
   11654.000 106.06611995     8.37959235       4682.23463687    0.24456825       82.13091922      151.43580653     0.68807339      
   11654.500 105.49593640     8.94286041       4695.47486034    0.24556657       82.24206128      150.97872879     0.68807339      
   11655.000 118.97184864     9.47546796       4715.64245810    0.24733587       82.45125348      151.03621170     0.68807339      
   11655.500 125.54128954     9.34374648       4734.63687151    0.24809754       82.54874652      151.74011142     0.68807339      
   11656.000 126.42452381     9.19117235       4713.35206964    0.24923096       82.68802228      152.44401114     0.68807339      
   11656.500 114.32903085     8.60576097       4693.30782459    0.25078981       82.96657382      153.08022284     0.68807339      
