###############################################
##         ENVERUS                           ##
##         ESS - Open Hole                   ##
##         PERMIAN / DELAWARE                ##
##         Nov 04 2023  V4.0                 ##
##         42-389-00931-00-00                ##
###############################################
## Copyright 2017-2023  ENVERUS.  All Rights Reserved. 
## Confidential - Property of ENVERUS, use governed by terms and 
## conditions found within the existing Information Services Subscription Agreement 
## (as may be amended, the “ISSA”) between Customer and ENVERUS. 
## 
~VERSION INFORMATION
# MNEM.UNIT                               DATA : DESCRIPTION OF MNEMONIC
#-----.-----     ----------------------------- : -----------------------------
VERS.                                     2.00 : CWLS LOG ASCII STANDARD - VERSION 2.00
WRAP.                                       NO : MULTIPLE LINES PER DEPTH STEP
VEND.                                  ENVERUS : VENDOR
TYPE.                          ESS - OPEN HOLE : ENVERUS ESSENTIAL CURVES – ACCESSIBLE THROUGH ENVERUS PRISM(TM)
DOC.                                  31935239 : ENVERUS HEADER RAW DOCUMENT ID
#___________________________________________________________________________________________________ 
~WELL INFORMATION 
# S9zL0tdqvH3y2XIpNbXcuKF0SeIoK+7NE6VaQ02nn2+shQHF2oZWL/5TS96hefD+9qjP/MIJWV/WOidK809eGw== 
# MNEM.UNIT                                              DATA : DESCRIPTION OF MNEMONIC 
#-----.-----                    ----------------------------- : ----------------------------- 
CNTY.                                                  REEVES : COUNTY 
STATE.                                                  TEXAS : STATE 
CNTRY.                                                    USA : COUNTRY 
API.                                             42-389-00931 : API (10 Digit) 
API_14.                                    42-389-00931-00-00 : API (14 Digits) 
API_14_std.                                 42-389-00931-0000 : API (14 Digits Standard) 
UWI.                                           42389009310000 : UNIQUE WELL ID 
WELL.                                                      1, : WELL NAME
STRT.FT                                                 101.0 : START DEPTH
STOP.FT                                                5373.0 : STOP DEPTH
STEP.FT                                                   0.5 : STEP BETWEEN DEPTHS
NULL.                                                 -999.25 : NULL VALUE
#___________________________________________________________________________________________________ 
~CURVE INFORMATION 
# MNEM.UNIT           : CURVE DESCRIPTION 
#-----.-----          : ----------------------------- 
 DEPT.FT               : MEASURED DEPTH 
 GR.API                : GAMMA RAY (GR) 
 DT.US/FT              : SONIC DELTA TRANSIT TIME (DT) 
 #___________________________________________________________________________________________________ 
~A         DEPT             GR             DT
# ...
         4625.0         13.407         48.839
         4625.5         12.256         48.776
         4626.0         10.781         48.714
         4626.5          9.307         48.651
         4627.0          9.547         48.589
         4627.5          9.983         48.726
         4628.0         10.420         48.881
         4628.5         10.856         49.036
         4629.0         11.293         49.190
         4629.5         11.729         49.345
         4630.0         11.711         49.500
         4630.5         11.098         49.655
         4631.0         10.485         49.809
         4631.5          9.872         49.964
         4632.0          9.259         49.932
         4632.5          8.646         49.894
         4633.0          8.033         49.856
         4633.5          7.421         49.817
         4634.0          6.808         49.779
         4634.5          6.867         49.741
         4635.0          7.391         49.702
         4635.5          7.915         49.664
         4636.0          8.439         49.626
         4636.5          8.963         49.587
         4637.0          9.372         49.549
         4637.5          9.330         49.511
         4638.0          9.289         49.472
         4638.5          9.247         49.434
         4639.0          9.205         49.396
         4639.5          9.163         49.422
         4640.0          9.121         49.448
         4640.5          9.080         49.474
         4641.0          9.038         49.501
         4641.5          8.996         49.527
         4642.0          8.954         49.553
         4642.5          9.944         49.580
         4643.0         10.942         49.606
         4643.5         11.940         49.632
         4644.0         12.681         49.658
         4644.5         12.474         49.685
         4645.0         12.267         49.711
         4645.5         12.060         49.737
         4646.0         11.853         49.764
         4646.5         11.646         49.790
         4647.0         11.439         49.816
         4647.5         11.232         49.843
         4648.0         11.412         49.869
         4648.5         11.606         49.895
         4649.0         11.801         49.867
         4649.5         11.995         49.681
         4650.0         12.189         49.496
         4650.5         12.383         49.311
         4651.0         12.425         49.126
         4651.5         12.111         48.940
         4652.0         11.699         48.755
         4652.5         11.207         48.570
         4653.0         11.372         48.627
         4653.5         11.537         48.759
         4654.0         11.702         48.890
         4654.5         11.867         49.022
         4655.0         12.033         49.154
         4655.5         12.198         49.285
         4656.0         11.942         49.417
         4656.5         11.365         49.388
         4657.0         10.787         49.255
         4657.5         10.209         49.122
         4658.0         10.465         48.990
         4658.5         10.913         48.857
         4659.0         11.360         48.746
         4659.5         11.807         48.905
         4660.0         12.254         49.064
         4660.5         12.702         49.222
         4661.0         13.149         49.381
         4661.5         13.592         49.540
         4662.0         12.960         49.544
         4662.5         12.328         49.432
         4663.0         12.310         49.320
         4663.5         12.391         49.208
         4664.0         12.473         49.096
         4664.5         13.089         48.984
         4665.0         13.984         48.872
         4665.5         13.742         48.760
         4666.0         13.507         48.851
         4666.5         13.101         48.984
         4667.0         12.495         49.116
         4667.5         11.936         49.249
         4668.0         11.291         49.382
         4668.5         10.219         49.515
         4669.0         10.755         49.648
         4669.5         11.829         49.780
         4670.0         12.904         49.793
         4670.5         13.535         49.602
         4671.0         12.952         49.411
         4671.5         12.369         49.220
         4672.0         11.785         49.028
         4672.5         11.862         49.021
         4673.0         12.122         49.143
         4673.5         12.381         49.265
         4674.0         12.641         49.387
         4674.5         12.900         49.510
         4675.0         13.160         49.632
         4675.5         13.182         49.649
         4676.0         13.000         49.571
         4676.5         12.989         49.493
         4677.0         12.759         49.415
         4677.5         12.480         49.337
         4678.0         12.233         49.259
         4678.5         11.825         49.181
         4679.0         11.578         49.103
         4679.5         11.360         49.025
         4680.0         12.358         48.970
         4680.5         13.356         49.065
         4681.0         13.312         49.160
         4681.5         12.493         49.255
         4682.0         11.675         49.350
         4682.5         10.856         49.445
         4683.0         10.038         49.541
         4683.5          9.220         49.636
         4684.0          9.866         49.731
         4684.5         10.587         49.826
         4685.0         11.308         49.880
         4685.5         12.029         49.785
         4686.0         12.640         49.690
         4686.5         12.248         49.595
         4687.0         11.856         49.500
         4687.5         11.464         49.404
         4688.0         11.072         49.309
         4688.5         10.680         49.214
         4689.0         10.288         49.119
         4689.5          9.896         49.024
         4690.0          9.504         48.928
         4690.5          9.112         48.981
         4691.0          8.720         49.095
         4691.5          8.720         49.208
         4692.0          9.394         49.322
         4692.5         10.068         49.435
         4693.0         10.741         49.549
         4693.5         11.415         49.663
         4694.0         12.088         49.776
         4694.5         11.665         49.719
         4695.0         11.216         49.661
         4695.5         10.767         49.603
         4696.0         10.317         49.546
         4696.5          9.989         49.488
         4697.0         10.357         49.430
         4697.5         10.724         49.373
         4698.0         11.091         49.315
         4698.5         11.458         49.257
         4699.0         11.811         49.199
         4699.5         11.746         49.142
         4700.0         11.681         49.084
         4700.5         12.284         49.026
         4701.0         12.973         49.004
         4701.5         13.662         49.135
         4702.0         14.351         49.267
         4702.5         15.040         49.399
         4703.0         15.258         49.530
         4703.5         13.841         49.662
         4704.0         12.424         49.793
         4704.5         11.908         49.919
         4705.0         12.121         49.820
         4705.5         12.334         49.721
         4706.0         12.547         49.622
         4706.5         12.131         49.523
         4707.0         11.546         49.424
         4707.5         10.961         49.325
         4708.0         10.376         49.393
         4708.5          9.791         49.467
         4709.0         10.280         49.540
         4709.5         11.239         49.614
         4710.0         12.198         49.687
         4710.5         12.889         49.761
         4711.0         12.405         49.834
         4711.5         11.922         49.908
