~VERSION INFORMATION
 VERS.                2.0:   CWLS LOG ASCII STANDARD - VERSION 2.0
 WRAP.                 NO:   ONE LINE PER DEPTH STEP
~WELL INFORMATION
#MNEM.UNIT      DATA TYPE    INFORMATION
#----------   ------------   ------------------------------
 STRT.FT           0.0000:   START DEPTH
 STOP.FT        7147.0000:   STOP DEPTH
 STEP.FT           0.5000:   STEP LENGTH
 NULL.          -999.2500:   NULL VALUE
 COMP. MOBIL PRODUCING TEXAS & NEW MEEXICO INC:   COMPANY
 WELL. SCHLOSER FRED ESTATE B #2:   WELL
 FLD .      ROJO CABALLOS:   FIELD
 LOC .                   :   LOCATION
 CNTY.              PECOS:   COUNTY
 STAT.              TEXAS:   STATE
 CTRY. UNITED STATES OF AMERICA:   COUNTRY
 SRVC.       Schlumberger:   SERVICE COMPANY
 DATE.        10-Jun-1980:   LOGDATE
 API .     42371330900000:   API NUMBER
~CURVE INFORMATION
#MNEM.UNIT       API CODE    CURVE DESCRIPTION
#----------   ------------   ------------------------------
 DEPT.F                  :   
 GRD .GAPI   45 310 01 00:   GAMMA RAY FROM DENSITY LOG
 GRR .GAPI   11 310 01 00:   GAMMA RAY FROM RESISTIVITY LOG
 GRS .GAPI   60 310 01 00:   GAMMA RAY FROM SONIC LOG
 DT  .US/F   60 500 00 00:   DELTA-T (INTERVAL TRANSIT TIME)
 CALD.IN     45 280 60 00:   CALIPER FROM DENSITY LOG
 CORR.G/C3   45 356 01 00:   DENSITY CORRECTION
 RHOB.G/C3   45 350 01 00:   BULK DENSITY
 NPHI_LS.DEC 42 890 01 00:   NEUTRON POROSITY LIMESTONE
 DPHI_LS.DEC 45 890 10 00:   DENSITY POROSITY LIMESTONE
 LLD .OHMM   11 220 10 00:   LATEROLOG DEEP RESISTIVITY
 LLS .OHMM   11 220 09 00:   LATEROLOG SHALLOW RESISTIVITY
~PARAMETER INFORMATION
#MNEM.UNIT          VALUE    DESCRIPTION
#----------   ------------   ------------------------------
 PD  .                 GL:   PERMANENT DATUM
 EPD .FT             2752:   ELEVATION PERMANENT DATUM
 LMF .                 KB:   LOG MEASURED FROM
 DAPD.FT               13:   FEET ABOVE PERMANENT DATUM
 DMF .                 KB:   DRILLING MEASURED FROM
 EKB .FT             2765:   KELLY BUSHING
 EDF .FT             2764:   DRILLING FLOOR
 EGL .FT             2752:   GROUND LEVEL
 DATE.           06/10/80:   RUN DATE
 RUN .                  1:   RUN NUMBER
 DD  .FT             7150:   DEPTH DRILLER
 DL  .FT             7150:   DEPTH LOGGER
 BLI .FT             7147:   BOTTOM LOG INTERVAL
 TLI .FT             5000:   TOP LOG INTERVAL
 CS  .IN            8.625:   CASING SIZE
 CBD .FT             1919:   CASING BOTTOM DRILLER
 CBL .FT             1904:   CASING BOTTOM LOGGER
 BS  .IN            7.875:   BIT SIZE
 BSD .FT             7150:   BIT SIZE AT DEPTH
 DFT .              BRINE:   DRILLING FLUID TYPE
 DFD .                 10:   DRILLING FLUID DENSITY
 DFV .                 35:   DRILLING FLUID VISCOSITY
 DFPH.                9.5:   DRILLING FLUID PH
 DFL .                 20:   DRILLING FLUID LOSS
 MSS .               CIRC:   MUD SAMPLE SOURCE
 RMS .OHMM           .055:   RESISTIVITY MUD SAMPLE
 MST .DEGF             73:   MUD SAMPLE TEMPERATURE
 RMF .OHMM           .055:   RESISTIVITY MUD FILTRATE SAMPLE
 MFST.DEGF             73:   MUD FILTRATE SAMPLE TEMPERATURE
 MFSS.                  M:   MUD FILTRATE SAMPLE SOURCE
 RMB .OHMM            .03:   RESISTIVITY MUD AT BHT
 BHT .DEGF            107:   BOTTOM HOLE TEMPERATURE
 TCS .HRS            1615:   TIME CIRCULATED STOPPED
 TLAB.HRS            0300:   TIME LOGGER AT BOTTOM
 MRT .DEGF            107:   MAXIMUM RECORDED TEMPERATURE
 LUN .               8024:   LOGGING UNIT NUMBER
 LUL .               MONA:   LOGGING UNIT LOCATION
 ENGI.           MC BRIDE:   RECORDING ENGINEER
 CLNT.            :   CLIENT CODE
 ORIG.      1" 2.5" PRINT:   ORIGIN OF DATA
 UWI .     42371330900000:   UNIQUE WELL ID
 
~OTHER INFORMATION
~A    DEPT     GRD        GRR         GRS        DT       CALD       CORR       RHOB      NPHI_LS    DPHI_LS      LLD        LLS   
# ...
 6252.5000    83.8780    76.3273    70.3059    60.9402     8.9314    -0.0007     2.6382     0.1613     0.0504    50.4674    39.3555
 6253.0000    82.2539    83.8117    90.9196    60.9136     8.9578    -0.0056     2.6268     0.1641     0.0571    46.1306    35.7433
 6253.5000    72.6223    87.5419   101.8565    60.2343     8.9727    -0.0057     2.6298     0.1549     0.0560    44.3439    34.3918
 6254.0000    62.9372    78.1545    96.3943    59.0859     8.9617    -0.0044     2.6475     0.1396     0.0476    48.5450    35.7068
 6254.5000    55.3229    66.2731    75.1631    57.6772     8.9302    -0.0023     2.6528     0.1326     0.0355    58.5721    42.5997
 6255.0000    50.9010    60.4593    64.1284    57.2647     8.9212    -0.0011     2.6562     0.1289     0.0323    68.3548    52.2916
 6255.5000    48.4243    56.9873    61.8240    57.0765     8.9168    -0.0022     2.6586     0.1240     0.0331    71.5861    56.5695
 6256.0000    49.1110    54.2599    59.4065    56.8233     8.9277    -0.0043     2.6592     0.1205     0.0351    76.7897    58.5954
 6256.5000    47.8580    50.2001    56.7980    56.2080     8.9432    -0.0063     2.6597     0.1196     0.0349    77.7145    60.6590
 6257.0000    43.6629    46.1404    56.1841    55.5870     8.9528    -0.0087     2.6652     0.1142     0.0295    78.7523    64.4948
 6257.5000    37.2104    42.0805    53.6217    54.3412     8.9554    -0.0095     2.6724     0.0995     0.0237    84.4248    69.3522
 6258.0000    32.9132    37.4924    44.7866    53.0308     8.9580    -0.0074     2.6785     0.0853     0.0186   118.3078    99.1278
 6258.5000    32.0561    32.7721    37.2829    52.4040     8.9607    -0.0048     2.6792     0.0700     0.0182   174.0506   163.4225
 6259.0000    34.4374    29.9303    33.0218    52.5187     8.9633    -0.0023     2.6787     0.0626     0.0232   230.1248   219.1101
 6259.5000    37.5694    31.8823    33.9126    52.9002     8.9659     0.0002     2.6769     0.0612     0.0260   218.7905   224.1400
 6260.0000    43.3305    36.9091    35.7640    53.9332     8.9912     0.0027     2.6745     0.0638     0.0252   165.2548   163.2491
 6260.5000    50.4831    41.8232    39.2222    55.5601     9.0184     0.0036     2.6699     0.0673     0.0248   121.9827   116.8606
 6261.0000    55.7963    46.4927    42.6803    56.9156     9.0456     0.0044     2.6438     0.0726     0.0330    90.3023    83.6537
 6261.5000    58.5590    49.8369    46.4033    58.0693     9.0751     0.0048     2.6187     0.0773     0.0480    69.6102    59.8828
 6262.0000    58.9392    51.0472    52.8961    59.2979     9.1297     0.0039     2.5984     0.0814     0.0642    42.6611    42.8666
 6262.5000    59.1293    52.9867    56.4185    60.3307     9.1843     0.0016     2.5928     0.0856     0.0753    29.6614    30.7286
 6263.0000    60.4305    54.9263    57.2069    60.8297     9.2348    -0.0007     2.5883     0.0942     0.0783    25.0876    25.5211
 6263.5000    61.4181    56.8658    57.3535    61.0320     9.2743    -0.0030     2.5838     0.1038     0.0792    22.9125    23.1613
 6264.0000    62.7174    58.7586    57.9431    60.2229     9.3194    -0.0049     2.5908     0.1065     0.0771    22.4483    22.5641
 6264.5000    65.2844    60.5812    59.4313    59.7198     9.3345    -0.0049     2.6003     0.1029     0.0701    24.1912    24.5555
 6265.0000    76.6046    63.2222    62.2575    61.2392     9.3954    -0.0049     2.6088     0.1034     0.0612    26.5201    26.8366
 6265.5000    95.1073    67.0908    69.4400    63.7560     9.4276     0.0002     2.6174     0.1170     0.0570    28.4933    28.6878
 6266.0000   118.2657    84.1537    96.2488    66.1990     9.4597     0.0053     2.6086     0.1586     0.0612    24.3307    24.9270
 6266.5000   117.3233   110.0127   124.7764    68.3628     9.4991     0.0105     2.5914     0.1928     0.0743    19.8600    20.2622
 6267.0000    99.1295   120.3563   123.6993    67.1445     9.5504     0.0152     2.5776     0.1851     0.0820    16.5172    16.8530
 6267.5000    80.9968   109.1123   115.6534    65.7745     9.6295     0.0197     2.5683     0.1589     0.0907    13.7370    14.0175
 6268.0000    67.9773    82.3869    92.4885    65.2373     9.7085     0.0241     2.5565     0.1310     0.0978    10.9639    11.3114
 6268.5000    62.1435    67.9998    74.0055    66.4776     9.7876     0.0286     2.5495     0.1296     0.1024     8.2106     8.4699
 6269.0000    60.2137    62.1009    65.3665    67.6252     9.8527     0.0333     2.5451     0.1339     0.1064     6.3104     6.4284
 6269.5000    58.2230    60.3749    61.6718    67.8602     9.9027     0.0330     2.5381     0.1424     0.1098     5.3324     5.4671
 6270.0000    55.3546    59.4995    61.1367    67.3081     9.9712     0.0285     2.5309     0.1531     0.1146     5.1136     4.7144
 6270.5000    52.5648    56.5915    61.1861    66.7852    10.0514     0.0255     2.5237     0.1524     0.1173     5.0186     4.7963
 6271.0000    49.7026    52.7577    59.5742    66.8369    10.1316     0.0265     2.5159     0.1448     0.1196     5.5421     4.9482
 6271.5000    48.7188    50.5705    55.3095    67.2424    10.2118     0.0275     2.5065     0.1377     0.1247     5.8661     5.1093
 6272.0000    48.2302    48.3591    52.9962    69.0000    10.2830     0.0281     2.4936     0.1353     0.1361     5.8676     4.9684
 6272.5000    47.7806    46.4796    53.5724    71.1908    10.3505     0.0270     2.4752     0.1512     0.1479     5.0942     4.4975
 6273.0000    47.4955    46.6343    52.9082    72.5114    10.4114     0.0226     2.4514     0.1709     0.1615     3.8989     3.6973
 6273.5000    47.3881    46.9656    50.6658    73.5459    10.4700     0.0099     2.4404     0.1840     0.1731     3.1734     3.0394
 6274.0000    47.4481    47.2970    47.9521    73.8967    10.5307     0.0011     2.4274     0.1973     0.1779     3.0087     2.4784
 6274.5000    46.9119    47.6767    46.0470    73.6367    10.5939     0.0004     2.4203     0.2055     0.1819     2.9297     2.3229
 6275.0000    46.8056    47.1842    44.5283    73.6904    10.6564     0.0007     2.4127     0.2122     0.1868     2.9417     2.3530
 6275.5000    47.1187    46.4227    43.7451    73.8773    10.7189     0.0018     2.4080     0.2186     0.1912     2.9712     2.4020
 6276.0000    47.3921    46.1388    44.5960    74.3692    10.7740     0.0091     2.4072     0.2272     0.1907     2.9602     2.3720
 6276.5000    46.3018    47.2317    47.1746    75.0754    10.8290     0.0148     2.4103     0.2321     0.1875     2.9315     2.3162
 6277.0000    44.8375    48.3246    47.8588    75.6974    10.8983     0.0108     2.4144     0.2280     0.1843     2.9746     2.3503
 6277.5000    43.4797    48.2578    48.3748    75.9524    10.9649     0.0059     2.4175     0.2203     0.1819     3.0789     2.4321
 6278.0000    42.9646    47.1432    50.0383    76.0282    11.0021     0.0009     2.4196     0.2126     0.1815     3.4692     2.6357
 6278.5000    43.6609    47.1316    53.1813    75.6050    11.0393    -0.0027     2.4201     0.2132     0.1814     3.7824     2.8028
 6279.0000    44.0229    47.7592    55.3244    75.0835    11.0793    -0.0034     2.4186     0.2249     0.1830     3.8398     2.8085
 6279.5000    44.2930    48.8593    55.6212    74.2934    11.1199    -0.0028     2.4162     0.2349     0.1827     3.7223     2.7327
 6280.0000    45.4863    49.7436    53.6896    73.7375    11.1406    -0.0004     2.4126     0.2361     0.1815     3.5489     2.6008
 6280.5000    46.5406    49.7205    50.9995    74.0995    11.1488     0.0054     2.4090     0.2263     0.1804     3.3213     2.4183
 6281.0000    47.6322    48.4603    48.7769    74.5366    11.1570     0.0114     2.4054     0.2222     0.1875     3.1690     2.3066
 6281.5000    48.7048    46.3476    45.6240    75.7171    11.1635     0.0174     2.4098     0.2265     0.1904     3.1171     2.2556
 6282.0000    49.3718    44.5797    44.3158    76.5219    11.1646     0.0216     2.4187     0.2358     0.1852     3.1376     2.2222
 6282.5000    48.3229    43.3070    44.0326    76.8133    11.1635     0.0228     2.4231     0.2393     0.1785     3.1269     2.2244
