~VERSION INFORMATION
VERS.           1.2   :CWLS Log ASCII Standard - VERSION 1.2
WRAP.           NO    :One Line per depth step
PROD.  Schlumberger   :LAS Producer
PROG.  DLIS to ASCII 17C0-152                          :LAS Program name and version
CREA.        2014/05/28 16:07                          :LAS Creation date {YYYY/MM/DD hh:mm}
DLIS_CREA.  2014-May-27 22:17                          :DLIS Creation date and time {YYYY-MMM-DD hh:mm}
SOURCE.     db5fefe1-f67d-4e3f-8816-ab53d5f8be46       :DLIS File Name
#--------------------------------------------------
~WELL INFORMATION
#MNEM.UNIT      DATA             DESCRIPTION
#---- ------ --------------   -----------------------------
# Enverus has updated the API/UWI.  The previous names are renamed to  PREV_API / PREV_UWI
API.  API (14 Digits with Dashes) : 42-389-34023-90-00
UWI.              UNIQUE WELL ID : 42389340239000

STRT .F      9586.5000       :START DEPTH     
STOP .F      10811.5000      :STOP DEPTH     
STEP .F       0.5000         :STEP       
NULL .          -999.25      :NULL VALUE
COMP .                 COMPANY:  J. Cleo Thompson                   
WELL .                    WELL:  Okapi State Unit B35 #2H           
FLD  .                   FIELD:  Wolfbone (Trend Area)              
LOC  .                LOCATION:  260' FNL & 500' FEL                
CNTY .                  COUNTY:  Reeves                             
STAT .                   STATE:  Texas                              
CTRY .                 COUNTRY:                                     
SRVC .         SERVICE COMPANY:  Schlumberger                       
LATI .DEG             LATITUDE:  31.112200 degrees                  
LONG .DEG            LONGITUDE:  -103.28900 degrees                 
PREV_API  .              API NUMBER:  42-389-34023                       
DATE .                LOG DATE:  27-May-2014
PREV_UWI  .          UNIQUE WELL ID:                                     
#-----------------------------------------------------------------------------
~PARAMETER INFORMATION
#MNEM.UNIT    VALUE                      DESCRIPTION
#---- -----   --------------------       ------------------------
CN   .        J. Cleo Thompson           :Company Name
WN   .        Okapi State Unit B35 #2H   :Well Name
FN   .        Wolfbone (Trend Area)      :Field Name
FL   .        260' FNL & 500' FEL        :Field Location
FL1  .        Section  35  Block  50 T8S  Abstract 4369 :Field Location, Line 1
COUN .        Reeves                     :County or Parish
STAT .        Texas                      :State or Province
NATI .                                   :Nation
DATE .        27-May-2014                :Tools Above Rotary Table Date
APIN .        42-389-34023               :API Well Number
SECT .        35                         :Section
TOWN .        50 T8S                     :Township
RANG .        4369                       :Range
DMF  .        KB                         :Drilling Measured From (Name of Drilling Elevation Reference)
LMF  .        KB                         :Logging Measured From (Name of Logging Elevation Reference)
PDAT .        GL                         :Permanent Datum
ENGI .        AJ Massis                  :Engineer s Name
WITN .        Bennie McNett              :Witness s Name
LATI .        31.112200 degrees          :Latitude
LONG .        -103.28900 degrees         :Longitude
LUL  .        Midland                    :Logging Unit Location
LUN  .        9105                       :Logging Unit Number
RUN  .        1B                         :Run Number
SON  .                                   :Service Order Number
BHT  .DEGF     162.00000                 :Bottom Hole Temperature
BS   .IN         8.50000                 :Bit Size
MDEN .G/C3       2.71000                 :Matrix Density for Density Porosity
DFD  .LB/G      10.70000                 :Drilling Fluid Density
DFV  .S         46.00000                 :Drilling Fluid Viscosity
DFL  .C3        10.00000                 :Drilling Fluid Loss
RMFS .OHMM       0.30000                 :Resistivity of Mud Filtrate Sample
EKB  .F       2829.00000                 :Elevation of Kelly Bushing
EGL  .F       2807.00000                 :Elevation of Ground Level
BLI  .F       11012.00000                :Bottom Log Interval
BSAL .PPM     132000.00000               :Borehole Salinity
FLEV .F          8.00000                 :Depth of Drilling Fluid Level to LMF (Log Measured From)
MCST .DEGF      68.00000                 :Mudcake Sample Temperature
MFST .DEGF      80.20000                 :Mud Filtrate Sample Temperature
MRT  .DEGF     162.00000                 :Maximum Recorded Temperature
MST  .DEGF      80.20000                 :Mud Sample Temperature
RMCS .OHMM    -999.25000                 :Resistivity of Mud Cake Sample
RMS  .OHMM       0.30000                 :Resistivity of Mud Sample
RW   .OHMM       1.00000                 :Connate Water Resistivity
TDD  .F       11012.00000                :Driller Total Depth
TDL  .F       11012.00000                :Logger Total Depth
TLI  .F       9676.00000                 :Top Log Interval
HIDE .        Wolfbone (Trend Area)      :Header Identifier
MATR .        LIME                       :Rock Matrix for Neutron Porosity Corrections
FNUM .           1.00000                 :F-Numerator for Formation Factor Formula
FEXP .           2.00000                 :Exponent "m" for Formation Factor Formula
DFT  .        Salt Brine                 :Drilling Fluid Type
DFPH .           9.00000                 :Drilling Fluid pH
MCSS .                                   :Mudcake Sample Source
MFSS .                                   :Mud Filtrate Sample Source
FD   .G/C3       1.10000                 :Fluid Density
MSS  .        Active Tank                :Mud Sample Source
OS1  .                                   :Other Services Line 1
OS2  .                                   :Other Services Line 2
OS3  .                                   :Other Services Line 3
OS4  .                                   :Other Services Line 4
OS5  .                                   :Other Services Line 5
R1   .        Tools run as per toolsketch :Remarks Line 1
R2   .        Logs performed on a Limestone matrix (2.71

g/cc  47.6 us/ft ). Mud Properties  MW =

10.7 g/cc  FD = 1.1 g/cc. :Remarks Line 2
R3   .        Max recorded temperature from downhole

thermometer = 162 degF. :Remarks Line 3
R4   .        Logs run from TD to casing. GR & Neutron

logged from casing to 200ft as per client

request. :Remarks Line 4
R5   .        Tools got stuck near TD and calipers had to be closed in order to get free. :Remarks Line 5
R6   .        Well was washed out for many intervals. :Remarks Line 6
R7   .        Repeat done at casing due to getting stuck at TD :Remarks Line 7
R8   .                                   :Remarks Line 8
TCS  .        18 00 00                   :Time Circulation Stopped
TLAB .        16 19 01                   :Time Logger At Bottom
EPD  .C3         2807.000000             :Elevation of Permanent Datum above Mean Sea Level
APD  .F          22.000000               :Elevation of Depth Reference (LMF) above Permanent Datum
#-----------------------------------------------------------------------------
~CURVE INFORMATION
#MNEM.UNIT   API CODE                                  DESCRIPTION
#---- -----  --------                                  -----------------------
DEPT .F                                                :DEPTH (BOREHOLE) {F12.4}
CDF  .LBF                                              :Calibrated Downhole Force {F11.4}
CTEM .DEGF                                             :Cartridge Temperature {F11.4}
DCAL .IN                                               :Differential Caliper {F11.4}
DTCO .US/F                                             :Delta-T Compressional {F11.4}
DTSM .US/F                                             :Delta-T Shear {F11.4}
ED   .F                                                :East Departure {F11.4}
GR_EDTC.GAPI                                           :Gamma Ray {F11.4}
GTEM .DEGF                                             :Generalized Borehole Temperature {F11.4}
HAZI .DEG                                              :Hole Azimuth Relative to True North {F11.4}
HAZIM.DEG                                              :Memorized Hole Azimuth {F11.4}
ITT  .S                                                :Integrated Transit Time {F11.4}
ND   .F                                                :North Departure {F11.4}
P1AZ .DEG                                              :Pad 1 Azimuth in Horizontal Plane (0 = True North) {F11.4}
PR   .                                                 :Poisson s Ratio {F11.4}
RB   .DEG                                              :Relative Bearing {F11.4}
SDEV .DEG                                              :Sonde Deviation {F11.4}
SDEVM.DEG                                              :Memorized Sonde Deviation {F11.4}
SPHI .CFCF                                             :Sonic Porosity {F11.4}
STIT .F                                                :Stuck Tool Indicator, Total {F11.4}
TENS .LBF                                              :Cable Tension {F11.4}
#-----------------------------------------------------------------------------
# 
#      DEPT        CDF        CTEM       DCAL       DTCO       DTSM        ED      GR_EDTC      GTEM       HAZI      HAZIM       ITT         ND        P1AZ        PR         RB        SDEV      SDEVM       SPHI       STIT       TENS
#
~A  
# ...
  10391.5000  1231.1512   165.5529     0.1708    75.8404   126.5893     0.0000    62.6802   156.7033   285.6697   288.0137     0.0291     0.0000   107.6409     0.2201   181.9704     1.5123     1.5999     0.1997     0.0000  4073.0002
  10392.0000  1229.7019   165.5529     0.1708    74.6334   125.3140     0.0000    61.6622   156.7076   285.5925   287.6323     0.0290     0.0000   104.8509     0.2252   179.2587     1.4973     1.6563     0.1912     0.0000  4114.3335
  10392.5000  1230.7866   165.5529     0.1708    74.0273   124.3157     0.0000    65.8884   156.7119   286.1456   287.1382     0.0290     0.0000   102.2149     0.2253   176.0709     1.5104     1.7039     0.1869     0.0000  4126.0000
  10393.0000  1233.8551   165.5529     0.1708    73.6163   123.1984     0.0000    67.8997   156.7161   287.0279   286.7132     0.0289     0.0000    99.2213     0.2223   172.1962     1.5497     1.7280     0.1840     0.0000  4125.6670
  10393.5000  1236.3031   165.5529     0.1708    72.9222   121.4885     0.0000    64.1478   156.7204   287.8907   286.5205     0.0289     0.0000    96.2737     0.2184   168.3872     1.6041     1.7231     0.1791     0.0000  4100.0000
  10394.0000  1225.2125   165.5529     0.1708    71.2557   120.5725     0.0000    53.9907   156.7247   288.4695   286.6661     0.0289     0.0000    93.5784     0.2316   165.1148     1.6562     1.6917     0.1673     0.0000  4096.5000
  10394.5000  1224.9089   165.5529     0.1708    68.9473   118.4067     0.0000    48.0420   156.7289   288.6812   287.1913     0.0288     0.0000    91.1805     0.2435   162.5064     1.6895     1.6462     0.1510     0.0000  4077.3335
  10395.0000  1225.0438   165.5529     0.1708    66.8539   116.2645     0.0000    47.0798   156.7332   288.5357   287.9640     0.0288     0.0000    87.9035     0.2530   159.3762     1.6916     1.6022     0.1362     0.0000  4091.3335
  10395.5000  1231.0651   165.5529     0.1931    62.4408   112.9843     0.0000    50.7765   156.7374   288.2546   288.7083     0.0288     0.0000    84.9359     0.2801   156.6904     1.6616     1.5748     0.1050     0.0000  4082.6665
  10396.0000  1233.1476   165.5529     0.2153    61.0508   109.2450     0.0000    46.7852   156.7417   287.9915   289.0753     0.0287     0.0000    81.9013     0.2729   153.9185     1.6138     1.5727     0.0951     0.0000  4073.6667
  10396.5000  1236.8667   165.5529     0.2042    59.7275   107.8670     0.0000    35.6467   156.7460   287.8956   288.8232     0.0287     0.0000    78.8893     0.2789   151.0026     1.5650     1.5955     0.0858     0.0000  4114.0000
  10397.0000  1229.3596   165.5529     0.1820    58.6030   105.1383     0.0000    23.4109   156.7503   287.9718   287.9802     0.0287     0.0000    75.9424     0.2746   147.9797     1.5318     1.6354     0.0778     0.0000  4088.0000
  10397.5000  1222.1213   165.5529     0.1708    56.7843   101.9726     0.0000    17.4846   156.7545   288.1254   286.8032     0.0286     0.0000    73.6033     0.2753   145.4875     1.5265     1.6804     0.0650     0.0000  4079.3335
  10398.0000  1219.3650   165.5529     0.1708    56.2082   101.2520     0.0000    19.3986   156.7588   288.1776   285.6644     0.0286     0.0000    71.3420     0.2773   143.1745     1.5519     1.7173     0.0609     0.0000  4095.3330
  10398.5000  1224.5715   165.5529     0.1708    55.4668   101.1525     0.0000    20.2920   156.7631   288.0694   284.8997     0.0286     0.0000    69.1833     0.2850   141.1244     1.5890     1.7363     0.0556     0.0000  4094.6665
  10399.0000  1230.5087   165.5529     0.1820    56.7932   101.3857     0.0000    20.7172   156.7673   287.6323   284.7423     0.0286     0.0000    65.6093     0.2714   137.9893     1.6563     1.7329     0.0650     0.0000  4132.0000
  10399.5000  1235.2440   165.5529     0.1798    58.6855   103.0230     0.0000    19.6548   156.7716   287.1382   285.2748     0.0285     0.0000    62.2936     0.2598   135.1677     1.7039     1.7109     0.0784     0.0000  4106.0000
  10400.0000  1233.6931   165.5529     0.1798    59.4611   107.6827     0.0000    20.6728   156.7759   286.7132   286.3604     0.0285     0.0000    59.4465     0.2807   132.7462     1.7280     1.6805     0.0839     0.0000  4072.0000
  10400.5000  1228.6082   165.5529     0.1820    65.2860   109.9132     0.0000    27.5963   156.7801   286.5205   287.6307     0.0285     0.0000    56.9988     0.2274   130.4907     1.7231     1.6531     0.1251     0.0000  4092.5002
  10401.0000  1224.9020   165.5529     0.1798    68.5489   114.4339     0.0000    55.5971   156.7844   286.6661   288.5913     0.0284     0.0000    54.4661     0.2202   127.8124     1.6917     1.6382     0.1482     0.0000  4077.3335
  10401.5000  1224.7853   165.5529     0.1686    79.4793   119.3428     0.0000    91.8661   156.7887   287.1913   288.7816     0.0284     0.0000    51.8367     0.1015   124.6569     1.6462     1.6383     0.2255     0.0000  4089.3335
  10402.0000  1222.5737   165.5529     0.1931    77.3652   123.2746     0.0000   113.8321   156.7929   287.9640   287.9966     0.0284     0.0000    49.2932     0.1751   121.3390     1.6022     1.6518     0.2105     0.0000  4070.6670
  10402.5000  1229.0670   165.5529     0.1798    78.6161   127.2816     0.0000   114.4941   156.7972   288.7083   286.4109     0.0283     0.0000    46.6167     0.1916   117.9171     1.5748     1.6734     0.2193     0.0000  4055.9998
  10403.0000  1231.6799   165.5529     0.1931    79.1737   128.6144     0.0000   105.3568   156.8015   289.0753   284.4842     0.0283     0.0000    43.5931     0.1949   114.5260     1.5727     1.6966     0.2233     0.0000  4098.6665
  10403.5000  1228.8020   165.5529     0.1931    78.9692   130.5004     0.0000    98.1788   156.8058   288.8232   282.7498     0.0283     0.0000    40.9339     0.2111   112.1182     1.5955     1.7150     0.2218     0.0000  4048.6667
  10404.0000  1225.4130   165.5529     0.1931    79.2606   130.4400     0.0000    90.4424   156.8100   287.9802   281.6980     0.0282     0.0000    38.5299     0.2073   110.5571     1.6354     1.7241     0.2239     0.0000  4069.6667
  10404.5000  1226.6392   165.5529     0.1931    79.5137   130.6628     0.0000    85.7189   156.8143   286.8032   281.6254     0.0282     0.0000    36.0631     0.2059   109.2673     1.6804     1.7227     0.2257     0.0000  4075.3335
  10405.0000  1231.2333   165.5529     0.1931    79.3254   131.2369     0.0000    77.6490   156.8186   285.6644   282.5242     0.0281     0.0000    33.3179     0.2122   107.6612     1.7173     1.7145     0.2244     0.0000  4091.3335
  10405.5000  1234.3469   165.5529     0.1931    78.5588   129.5189     0.0000    68.1932   156.8228   284.8997   284.0818     0.0281     0.0000    30.2411     0.2090   105.3482     1.7363     1.7054     0.2189     0.0000  4080.0000
  10406.0000  1229.1914   165.5529     0.1931    78.2764   129.2564     0.0000    59.3415   156.8271   284.7423   285.7458     0.0281     0.0000    27.3423     0.2104   102.6055     1.7329     1.7012     0.2169     0.0000  4057.0000
  10406.5000  1226.1924   165.5529     0.1931    77.3246   128.3367     0.0000    65.9380   156.8314   285.1155   286.8967     0.0280     0.0000    25.4112     0.2150   100.2999     1.7164     1.7021     0.2102     0.0000  4057.0000
  10407.0000  1233.5804   165.5529     0.1931    75.7551   128.5240     0.0000    77.2664   156.8356   286.1094   285.8390     0.0280     0.0000    22.7290     0.2338    96.6226     1.6866     1.7012     0.1991     0.0000  4072.6665
  10407.5000  1234.2778   165.5529     0.1931    75.5714   128.0600     0.0000    97.6615   156.8399   287.3834   286.1659     0.0279     0.0000    19.8043     0.2328    92.4221     1.6579     1.7039     0.1978     0.0000  4063.3335
  10408.0000  1233.1566   165.5529     0.1931    74.7478   126.2147     0.0000   116.2949   156.8442   288.4552   284.3799     0.0279     0.0000    17.1691     0.2299    88.7135     1.6400     1.6983     0.1920     0.0000  4048.3335
  10408.5000  1232.7419   165.5529     0.1909    74.5378   126.1913     0.0000   129.3413   156.8484   288.8227   282.1950     0.0279     0.0000    14.6557     0.2321    85.8311     1.6369     1.6886     0.1905     0.0000  4050.6667
