#--------------------------------------------------#
#-------------------ENVERUS, INC.------------------#
#------------------WWW.ENVERUS.COM-----------------#
#------------------COPYRIGHT 2020------------------#
#--------------------------------------------------#
#THIS FILE MAY BE USED ONLY IN ACCORDANCE WITH A CURRENT SUBSCRIPTION AGREEMENT BETWEEN
#THE USER AND ENVERUS, INC. NO PART OF THIS FILE MAY BE REPRODUCED, USED, COPIED,
#MODIFIED, PROPAGATED, OR DISTRIBUTED EXCEPT IN ACCORDANCE WITH THE SUBSCRIPTION
#AGREEMENT. UNAUTHORIZED USE OR DISTRIBUTION OF ALL OR ANY PART OF THIS FILE MAY VIOLATE
#COPYRIGHT, TRADEMARK, AND/OR OTHER LAWS AND IS SUBJECT TO CIVIL AS WELL AS CRIMINAL
#SANCTIONS.
#--------------------------------------------------#
#THIS FILE IS PROVIDED "AS-IS" AND ALL WARRANTIES ARE EXPRESSLY DISCLAIMED, WHETHER
#EXPRESS, ORAL, IMPLIED, STATUTORY OR OTHERWISE, INCLUDING ANY IMPLIED WARRANTY OF FITNESS
#FOR A PARTICULAR PURPOSE, MERCHANTABILITY, TITLE OR NON-INFRINGEMENT, AND ANY WARRANTIES
#ARISING BY VIRTUE OF CUSTOM OF TRADE OR COURSE OF DEALING.  FURTHER, ENVERUS, INC.
#AND ITS LICENSORS DO NOT REPRESENT OR WARRANT THAT THIS FILE WILL MEET USER'S
#REQUIREMENTS OR ARE SUITABLE FOR USER'S NEEDS OR THAT THE DATA OR RESULTS PROVIDED IN
#CONJUNCTION THEREWITH ARE CORRECT, ACCURATE, TIMELY OR RELIABLE. THESE DISCLAIMERS SHALL
#APPLY REGARDLESS OF ANY FAILURE OF ESSENTIAL PURPOSE OF ANY LIMITED REMEDY.  SOME
#JURISDICTIONS DO NOT ALLOW THE EXCLUSION OF CERTAIN WARRANTIES SO SOME OF THE ABOVE
#EXCLUSIONS MAY NOT APPLY. IN NO EVENT SHALL ENVERUS, INC. OR ANY OF ITS AFFILIATES
#BE LIABLE UNDER ANY LEGAL THEORY, WHETHER IN TORT (INCLUDING WITHOUT LIMITATION
#NEGLIGENCE), CONTRACT, STRICT LIABILITY, STATUTORY OR OTHERWISE, FOR ANY SPECIAL,
#INCIDENTAL, CONSEQUENTIAL, EXEMPLARY, PUNITIVE OR INDIRECT DAMAGE OF ANY KIND, INCLUDING
#WITHOUT LIMITATION LOSS OF REVENUE, PROFITS, GOODWILL, USE, AND/OR DATA OR THE COST OF
#PROCUREMENT OF SUBSTITUTE GOODS OR SERVICES, EVEN IF APPRISED OF THE POSSIBILITY OF SUCH
#DAMAGES IN ADVANCE.
#--------------------------------------------------#

# EXPORTED FROM DI TRANSFORM
# DI TRANSFORM - A PRODUCT OF DRILLINGINFO, INC. - WWW.DRILLINGINFO.COM
#
~VERSION INFORMATION
 VERS.        2.0 : LAS ASCII STANDARD - VERSION 2.0
 WRAP.         NO : ONE LINE PER DEPTH STEP

~WELL INFORMATION
#MNEM.UNIT       DATA TYPE       INFORMATION
#---------       ---------       -----------
 STRT.FT           190 : START DEPTH
 STOP.FT         12010 : STOP DEPTH
 STEP.FT           0.5 : STEP LENGTH
 NULL.         -999.25 : NULL VALUE
 UWI.   42389335580000 : UNIQUE WELL ID
 API.   42389335580000 : WELL IDENTIFIER
 COMP.                 : COMPANY
 WELL.          DRD_55 : WELL NAME
 FLD.                  : FIELD NAME
 LOC.                  : WELL LOCATION
 CNTY.                 : COUNTY
 STAT.                 : STATE OR PROVINCE
 CTRY.                 : COUNTRY
 SRVC.                 : SERVICE COMPANY
 DATE.                 : DATE

~CURVE INFORMATION
#MNEM.UNIT       API CODE       CURVE DESCRIPTION
#---------       --------       -----------------
 DEPT.FT          : <MEASURED DEPTH>
 CAL.IN           : CALIPER
 DPHI.%           : DENSITY POROSITY
 DT.US/FT         : SONIC
 GR.GAPI          : GAMMA RAY
 NPHI.%           : NEUTRON POROSITY
 RHOB.G/CM3       : DENSITY

~PARAMETER INFORMATION
#MNEM.UNIT       VALUE       DESCRIPTION
#---------       -----       -----------
 EKB.FT      2793 : ELEVATION ABOVE MSL

~A      DEPT         CAL        DPHI          DT          GR        NPHI        RHOB
# ...
       11590      9.3198     13.0913     75.3954     60.3028     19.2016      2.5147
     11590.5      9.3198     11.2662     75.3157     56.5521     15.9925      2.5114
       11591      9.3198     12.4501     75.8287     60.2929     14.2666      2.5102
     11591.5      9.3198     11.9406     76.1666     65.7582     14.3763      2.5017
       11592      9.3198     12.4964     75.4328     70.0613     14.0892      2.4893
     11592.5      9.4108     13.8876       73.78     67.1379     16.4851      2.4916
       11593      9.4413      6.6237     71.5022     76.7495     20.7955      2.5569
     11593.5      9.4818      7.3147     70.6319     69.0605     16.0886      2.6028
       11594      9.5155      7.2052     72.2673     49.4957     19.1134      2.5618
     11594.5      9.6045      7.8695     75.0826     48.4156     16.6517      2.5298
       11595      9.5267     12.6502     77.2402     61.4603     14.1631      2.5488
     11595.5      9.4243      7.3276     77.1496     74.5026     19.1265      2.5436
       11596      9.3219     10.4555     76.0864     74.2082     19.3702      2.4933
     11596.5      9.2815     13.5255     75.3628      62.788     23.0917      2.4684
       11597      9.2794     14.0163     76.1335     59.5096     23.7982      2.4713
     11597.5      9.2794     14.9516     77.8644     60.0028     17.8866      2.4839
       11598      9.2794     12.4544     78.4258     63.6603     19.1578      2.5028
     11598.5      9.2794     13.6974     77.6588     70.7981     16.7806      2.5256
       11599      9.2794     12.0718     75.4656      75.626     15.7012      2.5231
     11599.5      9.2794     11.3941     72.6052     71.2636     18.0654      2.5112
       11600      9.2794      12.949     69.4113     69.0658     16.8564      2.5028
     11600.5      9.2794     12.6004     68.0691     48.4454     16.2114      2.5144
       11601      9.2794     12.6034     67.3156     39.9354      15.373      2.5292
     11601.5      9.2794      10.579     67.4351     38.7734     12.1429      2.5415
       11602      9.2673     10.3159     68.3856     36.3127     10.7527      2.5529
     11602.5      9.2389      8.7494     69.3041     39.9758     10.3697      2.5315
       11603      9.2329     10.9185     69.9709     41.6198     11.8862      2.5032
     11603.5      9.2794     12.5673     70.4741     48.3977     16.1861      2.4887
       11604      9.2794     13.9554     71.1606      53.714     15.0249      2.4924
     11604.5      9.2794     13.3245     72.6087     64.8671     15.0103      2.4981
       11605      9.2794     13.2311     74.7437      64.482     15.5339      2.4876
     11605.5      9.2794     13.3953     76.8302     69.5355     15.3984      2.4651
       11606      9.2794     15.4571     78.1082     71.6966     14.3565      2.4461
     11606.5      9.2794     14.3144     78.3707     79.0193     12.8748      2.4619
       11607      9.2794     15.5983     77.8783     82.6643     15.6354      2.4803
     11607.5      9.2794     13.0147      77.526      80.698     20.5997      2.4917
       11608      9.2794     14.2267     77.1846     78.9658     17.3826       2.453
     11608.5      9.2794     13.1802     76.5823     71.0419     19.6812      2.4143
       11609      9.2794     15.6924     74.9199      53.414     17.2086      2.4776
     11609.5      9.2794     17.3879     72.7792     49.6557      15.405      2.5438
       11610      9.2794      8.1589       70.65     47.5847     17.2217      2.5915
     11610.5      9.2794      7.2547     69.8291     42.7506     12.8749       2.556
       11611      9.2794      9.8525     69.9679     37.8152     14.0324      2.5084
     11611.5      9.2794     14.3661     70.8128     46.6234     14.6163      2.4866
       11612      9.2794     13.2707     71.9308     64.2896     14.0069      2.4801
     11612.5      9.2794     11.5321     73.4232      62.347     13.2704      2.5125
       11613      9.2794     15.0708     75.9862     57.7306     12.8324       2.543
     11613.5      9.3197     14.2466     78.2899     59.5729     20.4615      2.4804
       11614      9.4798      9.3598     79.3599     59.2327     21.5177      2.4191
     11614.5      9.6671     15.8913     78.1963     47.6575     18.2891      2.4068
       11615      9.6845       9.872      75.564     46.3769     21.1253       2.573
     11615.5      9.4863      9.4134     72.1232     44.8506     13.6688       2.511
       11616       9.346     11.2725      69.289     48.2346     11.2039      2.4837
     11616.5      9.2389     14.2668     67.7553     47.5869     15.3665      2.4713
       11617      9.2389     14.6506      66.322     47.2656     14.3945      2.4652
     11617.5      9.2389     15.7753     65.4837     43.6671     13.3376      2.5184
       11618      9.2389     13.6027     64.5621     41.1575      12.136      2.5763
     11618.5      9.2389      7.3898     64.5877     41.7549     10.1594      2.5928
       11619      9.2389      7.8019      65.765     42.5101      8.6718      2.5863
     11619.5      9.2389      7.1627     68.0576      44.354         9.4      2.5811
       11620      9.2389      7.4399     72.1891     46.9698      9.3584      2.5864
     11620.5      9.2389      7.3121     75.1271     49.9078      9.6973      2.6049
       11621      9.2389      5.3123      77.027     59.3423     16.7426       2.609
     11621.5      9.2389      9.4855      76.751     68.7166     27.4634      2.5382
       11622      9.2389     11.1048      74.111     77.7814     23.9094      2.6719
     11622.5      9.2389      1.4786     71.5943     61.1143     25.6995       2.711
       11623      9.2389      0.4373     69.2816     50.5296     23.4728      2.6924
     11623.5      9.2389      0.7196     69.6455     50.0252     19.1821      2.6475
       11624      9.2389      2.8911     72.1318     60.9958     13.9663      2.5586
     11624.5      9.2389     10.7036     75.4544     75.3674     18.8174      2.4881
       11625      9.2389     12.2474     78.3244     77.4808     16.4972      2.4072
     11625.5      9.4541      15.441     79.3358     88.5385     16.4796      2.2841
       11626     10.4066      19.048     78.2633    106.3207     32.0649      2.2486
     11626.5     11.3529       23.45     76.6882    111.0985     24.4677       2.342
       11627     11.3544     27.1333       75.36    115.4743     19.7348      2.3812
     11627.5     10.3988     22.3212     74.7937    100.8077     24.6976      2.4487
       11628      9.2712     17.5943     74.8062     73.9555     31.1017      2.5141
     11628.5      9.2449     10.1662     75.1903     70.2478     31.0242      2.5406
       11629      9.3549     12.2981     76.4483     73.8862     18.3307       2.523
     11629.5      9.4573      9.5025     78.2239     76.9915      16.088      2.4556
       11630      9.5223     14.3513     80.2402     90.7209     17.8181      2.4735
     11630.5      9.5944     11.0676     81.3341      87.174     17.5466      2.5645
       11631      9.4825      7.9344     81.3806     81.1364     19.9187      2.5275
     11631.5      9.3801      14.887     80.3447     78.0294     18.4015      2.4029
       11632      9.2777     23.6348     78.7358     76.1825     18.6531      2.4342
     11632.5      9.2468     13.0811     77.6713     78.9403     20.5451      2.5029
       11633      9.2389     13.4997     77.5667     67.0599     14.9226      2.4704
     11633.5      9.2643     14.3345       78.12     73.0704     15.4408      2.4553
       11634      9.2857     15.7296     78.6527     72.7793     13.8117      2.4967
     11634.5      9.3476      12.034     78.9936     70.7315     16.6554      2.5755
       11635      9.4008      7.3966     79.1459     69.6506     17.5952      2.5523
     11635.5      9.4309      8.5777     78.7062     78.6922     15.1403       2.438
       11636      9.4413     19.4002     77.0224     86.1346     16.2717      2.3223
     11636.5      9.5143     23.3069     74.7861     82.7113      21.582       2.368
       11637      9.5089     17.8753     72.6996     80.2746     18.8482      2.5085
