#--------------------------------------------------#
#-------------------ENVERUS, INC.------------------#
#------------------WWW.ENVERUS.COM-----------------#
#------------------COPYRIGHT 2020------------------#
#--------------------------------------------------#
#THIS FILE MAY BE USED ONLY IN ACCORDANCE WITH A CURRENT SUBSCRIPTION AGREEMENT BETWEEN
#THE USER AND ENVERUS, INC. NO PART OF THIS FILE MAY BE REPRODUCED, USED, COPIED,
#MODIFIED, PROPAGATED, OR DISTRIBUTED EXCEPT IN ACCORDANCE WITH THE SUBSCRIPTION
#AGREEMENT. UNAUTHORIZED USE OR DISTRIBUTION OF ALL OR ANY PART OF THIS FILE MAY VIOLATE
#COPYRIGHT, TRADEMARK, AND/OR OTHER LAWS AND IS SUBJECT TO CIVIL AS WELL AS CRIMINAL
#SANCTIONS.
#--------------------------------------------------#
#THIS FILE IS PROVIDED "AS-IS" AND ALL WARRANTIES ARE EXPRESSLY DISCLAIMED, WHETHER
#EXPRESS, ORAL, IMPLIED, STATUTORY OR OTHERWISE, INCLUDING ANY IMPLIED WARRANTY OF FITNESS
#FOR A PARTICULAR PURPOSE, MERCHANTABILITY, TITLE OR NON-INFRINGEMENT, AND ANY WARRANTIES
#ARISING BY VIRTUE OF CUSTOM OF TRADE OR COURSE OF DEALING.  FURTHER, ENVERUS, INC.
#AND ITS LICENSORS DO NOT REPRESENT OR WARRANT THAT THIS FILE WILL MEET USER'S
#REQUIREMENTS OR ARE SUITABLE FOR USER'S NEEDS OR THAT THE DATA OR RESULTS PROVIDED IN
#CONJUNCTION THEREWITH ARE CORRECT, ACCURATE, TIMELY OR RELIABLE. THESE DISCLAIMERS SHALL
#APPLY REGARDLESS OF ANY FAILURE OF ESSENTIAL PURPOSE OF ANY LIMITED REMEDY.  SOME
#JURISDICTIONS DO NOT ALLOW THE EXCLUSION OF CERTAIN WARRANTIES SO SOME OF THE ABOVE
#EXCLUSIONS MAY NOT APPLY. IN NO EVENT SHALL ENVERUS, INC. OR ANY OF ITS AFFILIATES
#BE LIABLE UNDER ANY LEGAL THEORY, WHETHER IN TORT (INCLUDING WITHOUT LIMITATION
#NEGLIGENCE), CONTRACT, STRICT LIABILITY, STATUTORY OR OTHERWISE, FOR ANY SPECIAL,
#INCIDENTAL, CONSEQUENTIAL, EXEMPLARY, PUNITIVE OR INDIRECT DAMAGE OF ANY KIND, INCLUDING
#WITHOUT LIMITATION LOSS OF REVENUE, PROFITS, GOODWILL, USE, AND/OR DATA OR THE COST OF
#PROCUREMENT OF SUBSTITUTE GOODS OR SERVICES, EVEN IF APPRISED OF THE POSSIBILITY OF SUCH
#DAMAGES IN ADVANCE.
#--------------------------------------------------#

~VERSION INFORMATION
VERS. 2.0 : CWLS LOG ASCII STANDARD - VERSION 2.0
WRAP.  NO : ONE LINE PER DEPTH STEP
~WELL INFORMATION
#MNEMONIC     .UNIT              VALUE :DESCRIPTION
STRT       .FT                2 :START DEPTH
STOP       .FT                6341 :STOP DEPTH
STEP       .FT                   0.500 :STEP
NULL       .                  -999.990 :NULL
UWI        .              42389104050000 :UNIQUE WELL ID
API        .              42389104050000 :API NUMBER
COMP       .         ENDEAVOR ENERGY RESOURCES L.P. :COMPANY
WELL       .        TXL REEVES STATE UNIT  2 :WELL
DATE       .                            :LOG DATE
~CURVE INFORMATION
#MNEMONIC     .UNIT      API CODE :CURVE DESCRIPTION
DEPTH       .FT                      :MEASURED DEPTH
GR.API        UNKNOWN   :GR
DT.US/FT        UNKNOWN   :DT
~A    DEPTH    GR    DT
# ...
 441.5     47.574   72.011
 442     47.701   72.543
 442.5     47.829   73.075
 443     47.956   72.059
 443.5     52.65   70.582
 444     58.068   70.311
 444.5     63.485   70.665
 445     68.902   71.019
 445.5     66.11   74.885
 446     62.391   81.632
 446.5     58.672   87.347
 447     59.02   86.113
 447.5     60.845   84.879
 448     62.669   83.645
 448.5     64.494   83.48
 449     64.936   84.153
 449.5     61.234   84.826
 450     57.531   85.499
 450.5     54.901   84.861
 451     53.428   83.381
 451.5     51.955   81.901
 452     50.482   80.421
 452.5     50.026   78.941
 453     52.925   77.461
 453.5     55.824   78.705
 454     58.723   80.038
 454.5     60.279   81.371
 455     55.072   82.704
 455.5     56.464   84.037
 456     58.116   85.371
 456.5     59.768   86.704
 457     61.42   88.037
 457.5     62.465   89.37
 458     62.826   90.703
 458.5     63.187   91.362
 459     63.547   90.479
 459.5     63.908   89.768
 460     64.268   90.295
 460.5     64.629   90.822
 461     64.99   91.349
 461.5     64.216   91.876
 462     62.34   92.403
 462.5     60.397   92.93
 463     58.154   90.486
 463.5     55.911   87.547
 464     53.668   84.608
 464.5     52.125   81.67
 465     52.306   78.731
 465.5     52.487   75.793
 466     52.668   69.745
 466.5     52.85   70.198
 467     53.031   70.651
 467.5     56.692   71.103
 468     60.464   71.556
 468.5     64.236   72.082
 469     68.008   75.524
 469.5     66.716   78.967
 470     65.082   82.409
 470.5     65.125   84.618
 471     66.215   83.867
 471.5     67.305   83.116
 472     68.394   83.371
 472.5     69.484   85.391
 473     69.114   87.41
 473.5     68.182   89.43
 474     67.25   89.516
 474.5     66.789   89.516
 475     67.63   89.516
 475.5     68.472   89.516
 476     67.626   90.44
 476.5     66.78   92.823
 477     65.187   95.207
 477.5     61.967   97.59
 478     58.747   95.539
 478.5     55.527   93.124
 479     52.307   90.708
 479.5     51.011   88.293
 480     51.013   85.878
 480.5     51.016   83.463
 481     51.018   81.048
 481.5     51.021   78.633
 482     51.023   78.124
 482.5     51.026   78.103
 483     51.028   78.083
 483.5     51.031   78.063
 484     51.034   77.768
 484.5     51.036   76.551
 485     51.535   75.334
 485.5     54.272   74.922
 486     57.01   75.912
 486.5     59.748   76.901
 487     58.649   77.891
 487.5     56.853   78.881
 488     55.056   79.87
 488.5     53.26   80.86
 489     51.446   81.5
 489.5     49.556   79.925
 490     47.667   78.35
 490.5     47.184   76.775
 491     48.195   75.2
 491.5     49.206   73.625
 492     50.217   72.05
 492.5     51.229   70.475
 493     52.24   70.883
 493.5     53.251   74.397
 494     52.52   77.911
 494.5     51.046   78.9
 495     49.571   78.182
 495.5     48.442   77.464
 496     48.497   76.746
 496.5     48.551   76.028
 497     48.605   75.31
 497.5     48.66   75.487
 498     48.714   76.014
 498.5     48.768   76.541
 499     48.822   77.068
 499.5     48.877   77.585
 500     48.931   77.645
 500.5     48.985   77.705
 501     49.685   77.765
 501.5     52.996   76.042
 502     56.308   74.255
 502.5     59.619   72.469
 503     62.93   72.937
 503.5     66.242   75.909
 504     69.553   78.881
 504.5     71.545   81.853
 505     67.909   84.825
 505.5     64.274   87.797
 506     60.638   90.769
 506.5     57.003   91.963
 507     55.569   89.268
 507.5     54.512   86.572
 508     53.749   83.877
 508.5     54.507   81.181
 509     55.264   78.486
 509.5     56.021   75.79
 510     55.661   73.095
 510.5     53.51   80.324
 511     51.36   88.315
 511.5     49.209   91.362
 512     47.059   87.094
 512.5     44.908   82.826
 513     44.467   78.559
 513.5     45.381   74.291
 514     46.295   71.44
 514.5     47.21   70.964
 515     48.124   70.488
 515.5     49.038   70.013
 516     49.953   69.537
 516.5     50.867   69.4
 517     50.814   70.984
 517.5     50.205   72.568
 518     49.596   74.152
 518.5     48.987   75.737
 519     48.379   77.321
 519.5     51.056   78.025
 520     55.429   77.26
 520.5     56.557   76.494
 521     57.033   75.729
 521.5     57.51   74.963
 522     57.986   74.198
 522.5     58.463   73.955
 523     58.939   74.232
 523.5     59.371   74.509
 524     56.663   74.786
 524.5     53.954   75.063
 525     52.381   77.753
 525.5     53.732   80.815
 526     55.029   83.876
 526.5     54.247   86.938
 527     53.465   89.999
 527.5     52.682   90.553
 528     51.9   88.637
 528.5     51.394   86.722
 529     51.264   84.806
 529.5     51.133   82.89
 530     51.003   82.851
 530.5     50.872   83.963
 531     50.741   85.075
 531.5     51.434   84.929
 532     52.461   82.922
 532.5     53.487   80.915
 533     54.514   78.909
 533.5     55.541   80.803
 534     56.568   82.995
 534.5     57.595   84.058
 535     58.622   83.252
 535.5     59.649   82.445
 536     60.676   81.639
 536.5     61.703   80.833
 537     62.73   80.027
 537.5     62.432   79.22
 538     61.412   83.554
 538.5     60.392   89.365
 539     59.371   95.177
 539.5     58.351   95.282
 540     57.331   92.119
 540.5     53.805   88.957
 541     49.954   85.794
 541.5     46.788   82.631
 542     48.548   80.683
 542.5     50.309   81.219
 543     52.069   81.756
 543.5     53.829   82.292
 544     54.993   82.829
 544.5     54.41   83.365
 545     53.827   81.937
 545.5     53.244   80.187
 546     52.66   78.437
 546.5     52.077   76.686
 547     51.494   74.936
 547.5     50.911   76.275
 548     50.328   77.837
 548.5     49.745   79.4
 549     49.161   80.962
 549.5     48.626   82.52
 550     48.131   81.542
 550.5     47.636   80.563
 551     47.141   79.585
 551.5     46.647   78.606
 552     46.152   77.628
 552.5     45.657   76.649
 553     45.162   75.671
 553.5     44.667   74.692
 554     45.33   73.714
 554.5     47.988   72.45
 555     50.645   70.936
 555.5     53.303   69.421
 556     55.961   72.043
 556.5     58.619   76.566
 557     59.245   81.089
 557.5     57.104   85.611
 558     54.963   84.627
 558.5     53.907   82.529
 559     55.173   80.43
 559.5     56.439   78.332
 560     57.706   76.234
 560.5     58.972   74.136
 561     60.238   73.876
 561.5     61.504   74.949
 562     62.77   76.022
 562.5     63.899   77.095
 563     61.801   78.168
 563.5     59.703   79.241
 564     59.203   80.808
 564.5     62.024   84.792
 565     64.394   88.776
 565.5     62.634   92.76
 566     60.874   96.744
 566.5     59.114   97.108
 567     57.354   94.412
 567.5     55.594   91.717
 568     53.834   89.022
 568.5     52.074   86.978
 569     50.314   85.704
 569.5     48.554   84.43
 570     49.415   83.157
 570.5     50.851   81.883
 571     52.288   80.61
 571.5     53.724   81.403
 572     54.301   83.1
 572.5     52.97   84.798
 573     51.639   85.254
 573.5     50.308   83.847
 574     49.609   82.439
 574.5     49.654   82.762
 575     49.698   84.606
 575.5     49.742   86.241
 576     49.787   83.487
 576.5     47.393   80.733
 577     45.369   77.979
 577.5     44.645   75.226
 578     43.922   72.472
 578.5     43.199   72.488
 579     42.475   74.234
 579.5     42.713   75.98
 580     44.685   77.726
 580.5     46.658   79.472
 581     48.631   81.218
 581.5     50.603   82.43
 582     52.576   83.538
 582.5     52.254   84.645
 583     48.046   85.753
 583.5     43.838   86.682
 584     40.846   82.687
 584.5     42.447   78.691
 585     44.048   77.526
 585.5     45.649   79.951
 586     47.251   82.377
 586.5     47.903   84.802
 587     46.639   87.228
 587.5     45.374   87.805
 588     44.11   84.725
 588.5     42.845   81.646
 589     41.581   78.566
 589.5     40.61   75.486
 590     41.02   70.862
 590.5     41.43   70.964
 591     41.84   71.067
 591.5     42.25   71.169
 592     42.66   71.272
 592.5     43.242   71.374
 593     45.235   75.341
 593.5     47.229   81.268
 594     49.223   87.195
 594.5     51.217   89.923
 595     51.272   90.51
 595.5     50.133   91.098
 596     48.993   90.674
 596.5     47.854   89.148
