#--------------------------------------------------#
#-------------------ENVERUS, INC.------------------#
#------------------WWW.ENVERUS.COM-----------------#
#------------------COPYRIGHT 2020------------------#
#--------------------------------------------------#
#THIS FILE MAY BE USED ONLY IN ACCORDANCE WITH A CURRENT SUBSCRIPTION AGREEMENT BETWEEN
#THE USER AND ENVERUS, INC. NO PART OF THIS FILE MAY BE REPRODUCED, USED, COPIED,
#MODIFIED, PROPAGATED, OR DISTRIBUTED EXCEPT IN ACCORDANCE WITH THE SUBSCRIPTION
#AGREEMENT. UNAUTHORIZED USE OR DISTRIBUTION OF ALL OR ANY PART OF THIS FILE MAY VIOLATE
#COPYRIGHT, TRADEMARK, AND/OR OTHER LAWS AND IS SUBJECT TO CIVIL AS WELL AS CRIMINAL
#SANCTIONS.
#--------------------------------------------------#
#THIS FILE IS PROVIDED "AS-IS" AND ALL WARRANTIES ARE EXPRESSLY DISCLAIMED, WHETHER
#EXPRESS, ORAL, IMPLIED, STATUTORY OR OTHERWISE, INCLUDING ANY IMPLIED WARRANTY OF FITNESS
#FOR A PARTICULAR PURPOSE, MERCHANTABILITY, TITLE OR NON-INFRINGEMENT, AND ANY WARRANTIES
#ARISING BY VIRTUE OF CUSTOM OF TRADE OR COURSE OF DEALING.  FURTHER, ENVERUS, INC.
#AND ITS LICENSORS DO NOT REPRESENT OR WARRANT THAT THIS FILE WILL MEET USER'S
#REQUIREMENTS OR ARE SUITABLE FOR USER'S NEEDS OR THAT THE DATA OR RESULTS PROVIDED IN
#CONJUNCTION THEREWITH ARE CORRECT, ACCURATE, TIMELY OR RELIABLE. THESE DISCLAIMERS SHALL
#APPLY REGARDLESS OF ANY FAILURE OF ESSENTIAL PURPOSE OF ANY LIMITED REMEDY.  SOME
#JURISDICTIONS DO NOT ALLOW THE EXCLUSION OF CERTAIN WARRANTIES SO SOME OF THE ABOVE
#EXCLUSIONS MAY NOT APPLY. IN NO EVENT SHALL ENVERUS, INC. OR ANY OF ITS AFFILIATES
#BE LIABLE UNDER ANY LEGAL THEORY, WHETHER IN TORT (INCLUDING WITHOUT LIMITATION
#NEGLIGENCE), CONTRACT, STRICT LIABILITY, STATUTORY OR OTHERWISE, FOR ANY SPECIAL,
#INCIDENTAL, CONSEQUENTIAL, EXEMPLARY, PUNITIVE OR INDIRECT DAMAGE OF ANY KIND, INCLUDING
#WITHOUT LIMITATION LOSS OF REVENUE, PROFITS, GOODWILL, USE, AND/OR DATA OR THE COST OF
#PROCUREMENT OF SUBSTITUTE GOODS OR SERVICES, EVEN IF APPRISED OF THE POSSIBILITY OF SUCH
#DAMAGES IN ADVANCE.
#--------------------------------------------------#

~VERSION INFORMATION
VERS. 2.0 : CWLS LOG ASCII STANDARD - VERSION 2.0
WRAP.  NO : ONE LINE PER DEPTH STEP
~WELL INFORMATION
#MNEMONIC     .UNIT              VALUE :DESCRIPTION
STRT       .FT                10841 :START DEPTH
STOP       .FT                18209 :STOP DEPTH
STEP       .FT                   0.500 :STEP
NULL       .                  -999.99 :NULL
UWI        .                42371326180000 :UNIQUE WELL ID
API        .                42371326180000 :API NUMBER
COMP       .         :COMPANY
WELL       .        :WELL
DATE       .                 :LOG DATE
FLD       .                 :FIELD NAME
LOC       .                  UNK :LOCATION
CNTY       .                 UNK :COUNTY
STAT       .                 UNK :STATE
CTRY       .                 UNK :COUNTY
SRVC       .                 UNK :SERVICE COMPANY
~CURVE INFORMATION
#MNEMONIC     .UNIT      API CODE :CURVE DESCRIPTION
DEPTH       .FT                      :MEASURED DEPTH
CAL.IN        UNKNOWN   :CAL
DT.MSEC/FT        UNKNOWN   :DT
GR.API        UNKNOWN   :GR
ILD.OHM        UNKNOWN   :ILD
ILS.OHM        UNKNOWN   :ILS
SP.MV        UNKNOWN   :SP
~A    DEPTH    CAL    DT    GR    ILD    ILS    SP
# ...
 11867.5     10.3498   80.40115   62.23582   6.83786   7.85977   -13.23807
 11868     10.30255   79.71752   59.50242   7.18079   9.50254   -13.66472
 11868.5     10.25529   79.03389   56.59697   7.28539   11.14531   -14.10918
 11869     10.21434   76.03587   53.95338   7.38999   12.23984   -14.58176
 11869.5     10.17386   75.78522   52.10953   7.4946   11.57774   -15.05433
 11870     10.13338   78.02634   50.26568   7.46002   10.57665   -15.5269
 11870.5     10.12587   79.11417   49.16433   7.25129   9.57556   -15.99948
 11871     10.12589   80.202   50.42541   7.04257   8.57447   -16.27753
 11871.5     10.12592   82.65858   53.92978   6.90314   7.57338   -16.52553
 11872     10.16841   84.05851   58.13185   7.01195   6.92822   -16.78685
 11872.5     10.25223   84.72438   56.19937   7.28574   7.54363   -18.14018
 11873     10.25226   85.48002   50.92254   8.25437   8.25941   -19.4935
 11873.5     10.24785   85.08204   43.21515   9.223   10.55165   -21.97566
 11874     10.22087   80.03104   36.97238   10.19164   19.53188   -25.12241
 11874.5     10.1939   75.83402   31.41668   11.16027   27.72488   -28.26916
 11875     10.16285   71.63701   31.18493   12.12891   25.95862   -31.41592
 11875.5     10.05025   69.08905   35.65982   13.39116   19.51535   -34.56267
 11876     9.93765   73.51516   42.95756   14.70829   12.71171   -37.70942
 11876.5     9.82504   78.30106   42.46655   16.02542   12.30787   -40.85617
 11877     9.71244   80.13432   35.83201   12.18099   21.77186   -44.00293
 11877.5     9.59983   78.89922   30.09381   9.84767   23.95698   -47.14968
 11878     9.4431   76.80097   27.66549   9.60476   19.8785   -50.29643
 11878.5     9.23019   82.24588   32.00742   9.65682   14.51953   -53.19443
 11879     9.15005   91.16406   35.88788   9.94657   9.16055   -56.03786
 11879.5     9.30194   95.9064   37.11362   11.10941   9.18138   -58.88129
 11880     9.45384   94.77984   32.16989   12.16128   26.24855   -61.72472
 11880.5     9.41515   85.14773   27.53456   12.79017   35.64101   -64.28511
 11881     9.3476   75.51561   23.26405   14.71608   42.68112   -66.10471
 11881.5     9.29021   71.77434   22.52662   17.85875   42.44969   -67.92431
 11882     9.2497   69.43356   22.81259   21.00143   32.30117   -69.74392
 11882.5     9.20918   70.57044   23.5884   23.50354   26.54416   -71.56352
 11883     9.16867   73.01498   23.94795   24.93376   24.07052   -73.27827
 11883.5     9.12815   73.49757   24.20138   24.22117   24.34014   -74.95683
 11884     9.1121   73.23925   24.62694   23.50857   25.75662   -76.63539
 11884.5     9.20558   73.08675   25.0525   23.31865   27.15938   -78.31395
 11885     9.29907   72.11911   24.81809   24.30574   28.19821   -78.98562
 11885.5     9.29471   71.39997   23.8662   25.29282   29.23705   -79.17916
 11886     9.18414   70.94061   22.29919   26.27991   30.35508   -78.5691
 11886.5     9.08774   70.48126   20.73218   27.267   34.19944   -77.95905
 11887     9.04976   70.0219   19.16517   27.81715   37.92627   -76.84925
 11887.5     9.04304   69.56264   19.34139   27.08897   38.82257   -75.46695
 11888     9.07683   69.10344   21.19616   25.93168   38.96946   -74.08466
 11888.5     9.10551   68.64424   24.27281   23.23719   38.6236   -72.70236
 11889     9.12804   68.40803   28.51371   20.5427   29.85813   -71.32007
 11889.5     9.15852   70.00811   32.75461   17.84821   21.41478   -70.5307
 11890     9.15855   76.30598   36.99551   15.15372   15.67182   -70.52623
 11890.5     9.15857   80.35974   40.09295   12.45923   12.08574   -70.52176
 11891     9.1586   83.37053   41.21302   11.75548   10.37801   -70.94495
 11891.5     9.15863   86.70979   38.78012   11.87763   8.67027   -72.19696
 11892     9.15865   90.42766   35.77505   12.57486   8.48085   -73.44897
 11892.5     9.1643   91.992   32.35124   13.27209   11.08701   -74.70098
 11893     9.18033   90.82692   27.83584   13.96932   19.63283   -75.91572
 11893.5     9.19636   84.11941   25.82224   17.25429   30.97381   -76.41407
 11894     9.21239   77.4119   25.27686   21.89038   41.17012   -76.24755
 11894.5     9.35236   73.30011   25.22358   26.52648   40.80723   -75.67583
 11895     9.5955   70.97708   23.50275   28.8903   39.28528   -74.733
 11895.5     9.62203   70.09813   21.54324   29.18579   38.82335   -73.49337
 11896     9.62206   70.63784   21.04958   26.57766   38.44568   -69.89074
 11896.5     9.62209   71.74265   21.0074   20.94379   32.74601   -66.2881
 11897     9.60315   70.66692   21.85386   15.45428   23.10022   -61.87303
 11897.5     9.511   71.78081   26.91626   12.41939   17.09277   -56.51825
 11898     9.41886   76.98352   32.49966   9.3845   11.08531   -51.16347
 11898.5     9.23332   84.24378   38.08305   7.47995   6.85614   -45.8087
 11899     9.03982   104.44548   41.08933   7.04043   5.95951   -41.03768
 11899.5     9.29363   111.27811   41.30162   6.6009   5.06288   -38.20669
 11900     9.5707   112.14185   40.38787   6.16137   4.87332   -36.92144
 11900.5     9.6352   107.31512   41.5611   6.3216   5.16036   -36.76541
 11901     9.69969   93.95702   45.16575   6.75638   5.52674   -36.63978
 11901.5     9.60838   84.11341   49.28221   7.7523   5.89312   -36.63526
 11902     9.49861   81.61278   49.86148   9.85969   8.4791   -37.97397
 11902.5     9.44313   80.46244   45.95918   11.96708   13.8144   -40.47597
 11903     9.46845   77.36568   40.88212   14.07447   19.14971   -42.97797
 11903.5     9.49378   75.58613   35.80507   18.37065   29.70452   -45.47997
 11904     9.49613   73.2122   29.13624   23.00876   41.5971   -47.98196
 11904.5     9.49616   69.97383   24.50659   26.31319   45.94239   -50.48396
 11905     9.49618   66.66948   23.80419   27.56021   43.0165   -52.98596
 11905.5     9.49621   65.50433   25.00755   27.5279   34.7009   -55.25973
 11906     9.45141   67.63566   26.2109   27.32017   26.31659   -57.13685
 11906.5     9.39181   71.20966   24.70615   25.98041   20.09919   -59.01397
 11907     9.33222   75.62108   21.68741   24.43683   22.02638   -60.89108
 11907.5     9.30436   77.78765   19.12279   22.89325   25.96219   -61.86028
 11908     9.38881   76.7893   21.00432   21.79449   29.64906   -62.07219
 11908.5     9.47325   75.85981   24.45766   21.91034   27.5469   -62.20388
 11909     9.47476   75.4067   26.84182   22.0262   24.76924   -62.32475
 11909.5     9.44497   75.58926   27.24991   22.037   24.66164   -62.45801
 11910     9.41518   75.66184   26.98647   21.685   27.60992   -63.03456
 11910.5     9.40877   74.35267   27.81819   21.333   29.07227   -63.61112
 11911     9.49881   72.13427   29.89201   20.981   28.64684   -64.18768
 11911.5     9.54006   70.47807   29.28883   20.629   25.99698   -63.98781
 11912     9.45459   69.93848   26.33284   20.47277   23.34712   -63.73117
 11912.5     9.30713   69.95551   24.24883   20.31896   23.45722   -63.47453
 11913     9.1597   69.97254   26.02281   20.16515   23.1991   -63.21789
 11913.5     9.05412   69.54596   29.35205   20.54015   22.3135   -62.22407
 11914     8.94855   69.05036   31.38833   20.94901   21.71931   -60.84093
 11914.5     8.84297   70.75936   31.70749   21.35787   24.33506   -59.45779
 11915     8.73739   73.10073   28.98252   19.60367   26.95082   -58.07465
 11915.5     8.63283   73.58101   26.54251   17.06236   28.16656   -56.69151
 11916     8.59067   71.84429   24.818   14.52104   27.08301   -54.21473
 11916.5     8.54851   72.9052   24.35185   12.2553   21.13832   -50.33886
 11917     8.539   75.74133   25.52527   10.66275   15.44868   -46.46299
 11917.5     8.55926   77.92432   28.42908   9.07019   10.03426   -42.12816
 11918     8.57952   84.32489   35.13066   8.0502   6.6042   -37.02778
 11918.5     8.65321   86.52726   40.77106   7.2664   6.36873   -31.9274
 11919     8.80517   87.46488   44.18917   6.4826   6.33869   -26.82702
 11919.5     8.95713   88.01411   47.96672   6.05564   6.65612   -21.95689
 11920     9.28674   84.59034   53.5104   6.05648   6.97355   -18.47066
 11920.5     9.60547   80.17319   59.05408   6.05732   7.29098   -16.36247
