#--------------------------------------------------#
#-------------------ENVERUS, INC.------------------#
#------------------WWW.ENVERUS.COM-----------------#
#------------------COPYRIGHT 2020------------------#
#--------------------------------------------------#
#THIS FILE MAY BE USED ONLY IN ACCORDANCE WITH A CURRENT SUBSCRIPTION AGREEMENT BETWEEN
#THE USER AND ENVERUS, INC. NO PART OF THIS FILE MAY BE REPRODUCED, USED, COPIED,
#MODIFIED, PROPAGATED, OR DISTRIBUTED EXCEPT IN ACCORDANCE WITH THE SUBSCRIPTION
#AGREEMENT. UNAUTHORIZED USE OR DISTRIBUTION OF ALL OR ANY PART OF THIS FILE MAY VIOLATE
#COPYRIGHT, TRADEMARK, AND/OR OTHER LAWS AND IS SUBJECT TO CIVIL AS WELL AS CRIMINAL
#SANCTIONS.
#--------------------------------------------------#
#THIS FILE IS PROVIDED "AS-IS" AND ALL WARRANTIES ARE EXPRESSLY DISCLAIMED, WHETHER
#EXPRESS, ORAL, IMPLIED, STATUTORY OR OTHERWISE, INCLUDING ANY IMPLIED WARRANTY OF FITNESS
#FOR A PARTICULAR PURPOSE, MERCHANTABILITY, TITLE OR NON-INFRINGEMENT, AND ANY WARRANTIES
#ARISING BY VIRTUE OF CUSTOM OF TRADE OR COURSE OF DEALING.  FURTHER, ENVERUS, INC.
#AND ITS LICENSORS DO NOT REPRESENT OR WARRANT THAT THIS FILE WILL MEET USER'S
#REQUIREMENTS OR ARE SUITABLE FOR USER'S NEEDS OR THAT THE DATA OR RESULTS PROVIDED IN
#CONJUNCTION THEREWITH ARE CORRECT, ACCURATE, TIMELY OR RELIABLE. THESE DISCLAIMERS SHALL
#APPLY REGARDLESS OF ANY FAILURE OF ESSENTIAL PURPOSE OF ANY LIMITED REMEDY.  SOME
#JURISDICTIONS DO NOT ALLOW THE EXCLUSION OF CERTAIN WARRANTIES SO SOME OF THE ABOVE
#EXCLUSIONS MAY NOT APPLY. IN NO EVENT SHALL ENVERUS, INC. OR ANY OF ITS AFFILIATES
#BE LIABLE UNDER ANY LEGAL THEORY, WHETHER IN TORT (INCLUDING WITHOUT LIMITATION
#NEGLIGENCE), CONTRACT, STRICT LIABILITY, STATUTORY OR OTHERWISE, FOR ANY SPECIAL,
#INCIDENTAL, CONSEQUENTIAL, EXEMPLARY, PUNITIVE OR INDIRECT DAMAGE OF ANY KIND, INCLUDING
#WITHOUT LIMITATION LOSS OF REVENUE, PROFITS, GOODWILL, USE, AND/OR DATA OR THE COST OF
#PROCUREMENT OF SUBSTITUTE GOODS OR SERVICES, EVEN IF APPRISED OF THE POSSIBILITY OF SUCH
#DAMAGES IN ADVANCE.
#--------------------------------------------------#

~VERSION INFORMATION
VERS. 2.0 : CWLS LOG ASCII STANDARD - VERSION 2.0
WRAP.  NO : ONE LINE PER DEPTH STEP
~WELL INFORMATION
#MNEMONIC     .UNIT              VALUE :DESCRIPTION
STRT       .FT                101 :START DEPTH
STOP       .FT                5444 :STOP DEPTH
STEP       .FT                   0.500 :STEP
NULL       .                  -999.99 :NULL
UWI        .                42389004350000 :UNIQUE WELL ID
API        .                42389004350000 :API NUMBER
COMP       .         :COMPANY
WELL       .        :WELL
DATE       .                 :LOG DATE
FLD       .                 :FIELD NAME
LOC       .                  UNK :LOCATION
CNTY       .                 UNK :COUNTY
STAT       .                 UNK :STATE
CTRY       .                 UNK :COUNTY
SRVC       .                 UNK :SERVICE COMPANY
~CURVE INFORMATION
#MNEMONIC     .UNIT      API CODE :CURVE DESCRIPTION
DEPTH       .FT                      :MEASURED DEPTH
DT.MSEC/FT        UNKNOWN   :DT
GR.API        UNKNOWN   :GR
~A    DEPTH    DT    GR
# ...
 795.5     -999.99   23.90443
 796     -999.99   23.97234
 796.5     -999.99   24.04025
 797     -999.99   24.80954
 797.5     -999.99   26.70686
 798     -999.99   28.60418
 798.5     -999.99   30.5015
 799     -999.99   32.39882
 799.5     -999.99   34.29614
 800     -999.99   35.34228
 800.5     -999.99   34.45741
 801     -999.99   33.57254
 801.5     -999.99   31.01893
 802     -999.99   27.49769
 802.5     -999.99   23.97645
 803     -999.99   20.45521
 803.5     -999.99   16.93397
 804     -999.99   13.41273
 804.5     -999.99   9.89149
 805     -999.99   9.51213
 805.5     -999.99   9.62268
 806     -999.99   9.73324
 806.5     -999.99   9.84379
 807     -999.99   9.95435
 807.5     -999.99   9.96383
 808     -999.99   9.07867
 808.5     -999.99   8.19351
 809     -999.99   7.30834
 809.5     -999.99   7.05792
 810     -999.99   7.93267
 810.5     -999.99   8.80742
 811     -999.99   9.68216
 811.5     -999.99   9.81457
 812     -999.99   9.6956
 812.5     -999.99   9.57663
 813     -999.99   9.45767
 813.5     -999.99   9.3387
 814     -999.99   9.66678
 814.5     -999.99   10.47274
 815     -999.99   11.2787
 815.5     -999.99   12.08466
 816     -999.99   12.89062
 816.5     -999.99   13.69659
 817     -999.99   13.48966
 817.5     -999.99   13.02257
 818     -999.99   12.55548
 818.5     -999.99   12.20019
 819     -999.99   13.03423
 819.5     -999.99   13.86827
 820     -999.99   14.70231
 820.5     -999.99   15.53635
 821     -999.99   16.37039
 821.5     -999.99   16.87104
 822     -999.99   16.87207
 822.5     -999.99   16.87309
 823     -999.99   16.53844
 823.5     -999.99   15.19216
 824     -999.99   13.84589
 824.5     -999.99   12.49961
 825     -999.99   11.15334
 825.5     -999.99   9.80706
 826     -999.99   10.03874
 826.5     -999.99   10.52996
 827     -999.99   11.02119
 827.5     -999.99   11.51242
 828     -999.99   12.00365
 828.5     -999.99   12.49488
 829     -999.99   12.85284
 829.5     -999.99   11.94775
 830     -999.99   11.04267
 830.5     -999.99   10.13758
 831     -999.99   9.23249
 831.5     -999.99   8.32741
 832     -999.99   7.42232
 832.5     -999.99   6.51723
 833     -999.99   5.71928
 833.5     -999.99   6.14455
 834     -999.99   6.56982
 834.5     -999.99   6.99509
 835     -999.99   7.42036
 835.5     -999.99   7.84563
 836     -999.99   7.66987
 836.5     -999.99   7.40499
 837     -999.99   7.14011
 837.5     -999.99   6.87523
 838     -999.99   6.73729
 838.5     -999.99   7.52275
 839     -999.99   8.3082
 839.5     -999.99   9.09366
 840     -999.99   9.11927
 840.5     -999.99   8.37912
 841     -999.99   7.63896
 841.5     -999.99   7.30733
 842     -999.99   7.91649
 842.5     -999.99   7.99798
 843     -999.99   7.89895
 843.5     -999.99   7.79991
 844     -999.99   7.70088
 844.5     -999.99   7.61661
 845     -999.99   8.90016
 845.5     -999.99   10.18371
 846     -999.99   11.46726
 846.5     -999.99   10.99904
 847     -999.99   10.40543
 847.5     -999.99   9.81183
 848     -999.99   9.21822
 848.5     -999.99   8.62461
 849     -999.99   8.031
 849.5     -999.99   7.49156
 850     -999.99   8.72261
 850.5     -999.99   9.95366
 851     -999.99   10.59591
 851.5     -999.99   10.55405
 852     -999.99   10.51219
 852.5     -999.99   10.47034
 853     -999.99   10.0155
 853.5     -999.99   9.44633
 854     -999.99   8.87717
 854.5     -999.99   8.308
 855     -999.99   7.73883
 855.5     -999.99   7.16967
 856     -999.99   7.117
 856.5     -999.99   7.79439
 857     -999.99   8.47178
 857.5     -999.99   9.14917
 858     -999.99   9.82656
 858.5     -999.99   9.69602
 859     -999.99   9.29009
 859.5     -999.99   8.88416
 860     -999.99   8.47823
 860.5     -999.99   8.0723
 861     -999.99   7.66637
 861.5     -999.99   8.01107
 862     -999.99   8.41589
 862.5     -999.99   8.82071
 863     -999.99   9.22552
 863.5     -999.99   9.46024
 864     -999.99   9.13745
 864.5     -999.99   8.81466
 865     -999.99   8.49187
 865.5     -999.99   8.16908
 866     -999.99   7.84629
 866.5     -999.99   7.5235
 867     -999.99   7.9752
 867.5     -999.99   8.51836
 868     -999.99   9.06151
 868.5     -999.99   9.60466
 869     -999.99   10.14781
 869.5     -999.99   10.69096
 870     -999.99   11.23412
 870.5     -999.99   11.026
 871     -999.99   10.34406
 871.5     -999.99   9.66213
 872     -999.99   8.98019
 872.5     -999.99   8.29826
 873     -999.99   8.04098
 873.5     -999.99   8.79471
 874     -999.99   9.54845
 874.5     -999.99   10.30219
 875     -999.99   11.05592
 875.5     -999.99   11.80966
 876     -999.99   12.5634
 876.5     -999.99   13.31713
 877     -999.99   14.07087
 877.5     -999.99   16.46631
 878     -999.99   20.59891
 878.5     -999.99   24.73151
 879     -999.99   28.86412
 879.5     -999.99   32.99672
 880     -999.99   36.64202
 880.5     -999.99   35.75523
 881     -999.99   34.86843
 881.5     -999.99   33.98164
 882     -999.99   33.09485
 882.5     -999.99   33.05292
 883     -999.99   33.18576
 883.5     -999.99   33.31859
 884     -999.99   33.45143
 884.5     -999.99   33.58426
 885     -999.99   33.7171
 885.5     -999.99   33.84993
 886     -999.99   33.98277
 886.5     -999.99   34.59944
 887     -999.99   35.82802
 887.5     -999.99   37.05661
 888     -999.99   38.28519
 888.5     -999.99   39.51378
 889     -999.99   40.74236
 889.5     -999.99   40.06413
 890     -999.99   38.85317
 890.5     -999.99   37.64222
 891     -999.99   36.43126
 891.5     -999.99   35.22031
 892     -999.99   34.00935
 892.5     -999.99   32.7984
 893     -999.99   31.58744
 893.5     -999.99   30.37649
 894     -999.99   30.48196
 894.5     -999.99   31.26132
 895     -999.99   32.04067
 895.5     -999.99   32.82003
 896     -999.99   33.59939
 896.5     -999.99   32.43227
 897     -999.99   31.25519
 897.5     -999.99   32.23018
 898     -999.99   33.58416
 898.5     -999.99   34.21501
 899     -999.99   33.00889
 899.5     -999.99   31.80277
 900     -999.99   30.59665
 900.5     -999.99   29.39053
 901     -999.99   28.1844
 901.5     -999.99   28.24928
 902     -999.99   28.42618
 902.5     -999.99   28.60307
 903     -999.99   28.77997
 903.5     -999.99   28.95687
 904     -999.99   29.13376
 904.5     -999.99   27.88007
 905     -999.99   25.7981
 905.5     -999.99   23.71613
 906     -999.99   21.63415
 906.5     -999.99   19.55218
 907     -999.99   17.47021
 907.5     -999.99   17.60234
 908     -999.99   18.95637
 908.5     -999.99   20.35757
 909     -999.99   22.32519
 909.5     -999.99   24.29281
 910     -999.99   26.21012
 910.5     -999.99   26.21114
 911     -999.99   26.21216
 911.5     -999.99   26.21318
 912     -999.99   26.68768
 912.5     -999.99   28.04987
 913     -999.99   29.41207
 913.5     -999.99   30.77426
 914     -999.99   30.55614
 914.5     -999.99   29.81495
 915     -999.99   29.07377
 915.5     -999.99   28.33258
 916     -999.99   27.5914
 916.5     -999.99   26.85021
 917     -999.99   27.39538
 917.5     -999.99   30.14639
 918     -999.99   31.4115
 918.5     -999.99   30.01782
 919     -999.99   28.98639
 919.5     -999.99   29.3401
 920     -999.99   29.69381
 920.5     -999.99   30.04752
 921     -999.99   30.40123
 921.5     -999.99   30.75494
 922     -999.99   31.10865
 922.5     -999.99   32.03215
 923     -999.99   32.99274
 923.5     -999.99   33.95334
 924     -999.99   33.92804
 924.5     -999.99   31.78989
 925     -999.99   29.65173
 925.5     -999.99   27.51357
 926     -999.99   25.37542
 926.5     -999.99   23.23726
 927     -999.99   21.0991
 927.5     -999.99   18.96095
 928     -999.99   16.82279
 928.5     -999.99   13.87663
 929     -999.99   10.40745
 929.5     -999.99   8.39592
 930     -999.99   8.79031
 930.5     -999.99   9.18469
 931     -999.99   9.57907
 931.5     -999.99   9.97345
 932     -999.99   10.63272
 932.5     -999.99   12.69245
 933     -999.99   14.75218
 933.5     -999.99   16.81191
 934     -999.99   18.55869
 934.5     -999.99   17.2721
 935     -999.99   15.98551
 935.5     -999.99   14.69892
