#--------------------------------------------------#
#-------------------ENVERUS, INC.------------------#
#------------------WWW.ENVERUS.COM-----------------#
#------------------COPYRIGHT 2020------------------#
#--------------------------------------------------#
#THIS FILE MAY BE USED ONLY IN ACCORDANCE WITH A CURRENT SUBSCRIPTION AGREEMENT BETWEEN
#THE USER AND ENVERUS, INC. NO PART OF THIS FILE MAY BE REPRODUCED, USED, COPIED,
#MODIFIED, PROPAGATED, OR DISTRIBUTED EXCEPT IN ACCORDANCE WITH THE SUBSCRIPTION
#AGREEMENT. UNAUTHORIZED USE OR DISTRIBUTION OF ALL OR ANY PART OF THIS FILE MAY VIOLATE
#COPYRIGHT, TRADEMARK, AND/OR OTHER LAWS AND IS SUBJECT TO CIVIL AS WELL AS CRIMINAL
#SANCTIONS.
#--------------------------------------------------#
#THIS FILE IS PROVIDED "AS-IS" AND ALL WARRANTIES ARE EXPRESSLY DISCLAIMED, WHETHER
#EXPRESS, ORAL, IMPLIED, STATUTORY OR OTHERWISE, INCLUDING ANY IMPLIED WARRANTY OF FITNESS
#FOR A PARTICULAR PURPOSE, MERCHANTABILITY, TITLE OR NON-INFRINGEMENT, AND ANY WARRANTIES
#ARISING BY VIRTUE OF CUSTOM OF TRADE OR COURSE OF DEALING.  FURTHER, ENVERUS, INC.
#AND ITS LICENSORS DO NOT REPRESENT OR WARRANT THAT THIS FILE WILL MEET USER'S
#REQUIREMENTS OR ARE SUITABLE FOR USER'S NEEDS OR THAT THE DATA OR RESULTS PROVIDED IN
#CONJUNCTION THEREWITH ARE CORRECT, ACCURATE, TIMELY OR RELIABLE. THESE DISCLAIMERS SHALL
#APPLY REGARDLESS OF ANY FAILURE OF ESSENTIAL PURPOSE OF ANY LIMITED REMEDY.  SOME
#JURISDICTIONS DO NOT ALLOW THE EXCLUSION OF CERTAIN WARRANTIES SO SOME OF THE ABOVE
#EXCLUSIONS MAY NOT APPLY. IN NO EVENT SHALL ENVERUS, INC. OR ANY OF ITS AFFILIATES
#BE LIABLE UNDER ANY LEGAL THEORY, WHETHER IN TORT (INCLUDING WITHOUT LIMITATION
#NEGLIGENCE), CONTRACT, STRICT LIABILITY, STATUTORY OR OTHERWISE, FOR ANY SPECIAL,
#INCIDENTAL, CONSEQUENTIAL, EXEMPLARY, PUNITIVE OR INDIRECT DAMAGE OF ANY KIND, INCLUDING
#WITHOUT LIMITATION LOSS OF REVENUE, PROFITS, GOODWILL, USE, AND/OR DATA OR THE COST OF
#PROCUREMENT OF SUBSTITUTE GOODS OR SERVICES, EVEN IF APPRISED OF THE POSSIBILITY OF SUCH
#DAMAGES IN ADVANCE.
#--------------------------------------------------#

~VERSION INFORMATION
VERS. 2.0 : CWLS LOG ASCII STANDARD - VERSION 2.0
WRAP.  NO : ONE LINE PER DEPTH STEP
~WELL INFORMATION
#MNEMONIC     .UNIT              VALUE :DESCRIPTION
STRT       .FT                75 :START DEPTH
STOP       .FT                5648 :STOP DEPTH
STEP       .FT                   0.500 :STEP
NULL       .                  -999.990 :NULL
UWI        .              42371363570000 :UNIQUE WELL ID
API        .              42371363570000 :API NUMBER
COMP       .         APACHE CORPORATION :COMPANY
WELL       .        SCHLOSSER, FRED ESTATE -B-  13 :WELL
DATE       .                16-MAY-1992 :LOG DATE
~CURVE INFORMATION
#MNEMONIC     .UNIT      API CODE :CURVE DESCRIPTION
DEPTH       .FT                      :MEASURED DEPTH
DT.US/FT        UNKNOWN   :DT
GR.API        UNKNOWN   :GR
~A    DEPTH    DT    GR
# ...
 2159     70.81   3.864
 2159.5     69.724   3.635
 2160     69.102   3.406
 2160.5     70.341   3.177
 2161     71.58   2.949
 2161.5     71.594   2.72
 2162     70.961   2.491
 2162.5     70.329   2.262
 2163     69.706   2.314
 2163.5     69.224   2.468
 2164     69.33   2.622
 2164.5     69.436   2.776
 2165     70.098   2.93
 2165.5     71.065   3.084
 2166     71.9   3.238
 2166.5     71.938   3.371
 2167     71.975   2.985
 2167.5     72.013   2.599
 2168     72.05   2.213
 2168.5     70.766   1.827
 2169     70.238   1.44
 2169.5     69.711   1.054
 2170     70.669   0.668
 2170.5     72.06   1.062
 2171     70.213   1.481
 2171.5     70.222   1.901
 2172     70.232   2.32
 2172.5     70.242   2.73
 2173     70.431   2.983
 2173.5     70.881   3.236
 2174     71.331   3.489
 2174.5     71.782   3.742
 2175     70.952   3.996
 2175.5     69.986   4.185
 2176     69.04   3.616
 2176.5     70.901   3.047
 2177     69.96   2.479
 2177.5     69.719   2.352
 2178     70.202   2.803
 2178.5     70.686   3.255
 2179     70.518   3.706
 2179.5     69.961   3.83
 2180     69.405   3.727
 2180.5     68.848   3.624
 2181     69.04   3.52
 2181.5     70.032   3.417
 2182     68.761   3.314
 2182.5     67.899   3.211
 2183     68.644   3.108
 2183.5     69.105   3.01
 2184     69.118   3.103
 2184.5     69.13   3.196
 2185     69.234   3.288
 2185.5     69.694   3.381
 2186     63.076   3.474
 2186.5     58.041   3.627
 2187     52.598   3.953
 2187.5     52.004   4.279
 2188     52.179   4.358
 2188.5     52.354   3.769
 2189     52.051   3.18
 2189.5     51.672   2.591
 2190     52.166   2.273
 2190.5     53.168   3.065
 2191     53.428   3.857
 2191.5     52.602   4.649
 2192     52.061   4.958
 2192.5     52.883   4.398
 2193     53.706   3.839
 2193.5     54.528   3.279
 2194     53.756   2.755
 2194.5     52.973   2.703
 2195     52.779   2.65
 2195.5     53.33   2.598
 2196     53.88   2.545
 2196.5     53.854   3.072
 2197     53.406   3.751
 2197.5     52.992   4.429
 2198     52.644   5.108
 2198.5     52.296   5.624
 2199     52.115   6.132
 2199.5     52.115   6.64
 2200     52.116   7.148
 2200.5     53.033   7.656
 2201     53.374   8.165
 2201.5     53.123   8.773
 2202     52.873   9.463
 2202.5     52.623   10.152
 2203     53.076   10.842
 2203.5     54.181   11.532
 2204     54.585   12.222
 2204.5     53.318   12.912
 2205     53.753   11.192
 2205.5     54.188   9.324
 2206     54.623   7.456
 2206.5     54.689   5.588
 2207     54.682   4.995
 2207.5     54.674   5.152
 2208     54.666   5.31
 2208.5     54.53   5.467
 2209     52.274   5.625
 2209.5     51.801   5.782
 2210     51.834   5.94
 2210.5     51.868   6.686
 2211     51.901   7.589
 2211.5     51.934   8.464
 2212     51.967   8.109
 2212.5     52.001   7.754
 2213     51.832   7.399
 2213.5     51.605   7.044
 2214     51.377   6.72
 2214.5     51.301   6.692
 2215     51.241   6.664
 2215.5     50.916   6.636
 2216     50.899   6.637
 2216.5     50.726   7.549
 2217     50.505   8.462
 2217.5     50.86   9.375
 2218     51.314   10.287
 2218.5     51.62   9.303
 2219     51.596   8.288
 2219.5     50.684   7.273
 2220     50.147   7.125
 2220.5     50.455   7.692
 2221     50.335   10.182
 2221.5     50.135   12.672
 2222     49.704   13.592
 2222.5     49.291   13.034
 2223     49.568   12.475
 2223.5     49.844   11.917
 2224     49.892   11.358
 2224.5     49.883   10.8
 2225     49.873   10.242
 2225.5     49.863   9.683
 2226     50.034   9.125
 2226.5     50.21   8.387
 2227     50.386   7.583
 2227.5     50.375   7.132
 2228     50.154   8.667
 2228.5     49.933   10.202
 2229     49.712   16.347
 2229.5     50.688   21.806
 2230     52.253   24.473
 2230.5     52.924   27.141
 2231     53.596   28.873
 2231.5     53.862   26.604
 2232     52.488   24.279
 2232.5     50.928   20.202
 2233     50.043   16.125
 2233.5     49.868   12.278
 2234     49.814   9.344
 2234.5     49.759   8.827
 2235     50.322   8.572
 2235.5     54.037   8.737
 2236     54.916   9.035
 2236.5     53.021   9.333
 2237     51.238   9.279
 2237.5     51.722   6.842
 2238     51.995   4.406
 2238.5     52.017   3.005
 2239     52.038   2.496
 2239.5     52.06   2.468
 2240     52.081   2.749
 2240.5     52.096   3.889
 2241     51.954   5.425
 2241.5     51.811   6.401
 2242     51.669   6.332
 2242.5     51.473   6.262
 2243     51.232   6.341
 2243.5     50.991   7.336
 2244     50.975   8.331
 2244.5     51.371   9.326
 2245     51.767   10.322
 2245.5     52.162   9.065
 2246     51.46   7.506
 2246.5     50.809   6.092
 2247     50.849   5.021
 2247.5     51.137   4.536
 2248     51.887   5.074
 2248.5     53.538   5.613
 2249     52.799   6.151
 2249.5     51.413   5.761
 2250     51.908   5.038
 2250.5     51.819   4.316
 2251     51.226   3.593
 2251.5     50.634   3.702
 2252     50.041   4.233
 2252.5     52.484   4.765
 2253     55.725   5.297
 2253.5     60.343   5.828
 2254     65.854   5.058
 2254.5     67.796   4.246
 2255     67.902   3.434
 2255.5     68.273   3.731
 2256     70.264   4.401
 2256.5     72.255   5.072
 2257     72.272   5.742
 2257.5     70.955   5.522
 2258     70.779   4.918
 2258.5     70.604   4.314
 2259     70.429   3.821
 2259.5     69.875   3.636
 2260     68.945   3.451
 2260.5     68.37   3.266
 2261     68.757   3.081
 2261.5     68.489   2.896
 2262     68.009   2.711
 2262.5     68.614   2.526
 2263     69.22   2.943
 2263.5     69.825   3.827
 2264     70.733   4.71
 2264.5     71.622   5.234
 2265     70.673   5.138
 2265.5     69.724   5.041
 2266     69.571   4.944
 2266.5     69.666   4.159
 2267     69.76   3.552
 2267.5     69.386   3.685
 2268     68.958   3.817
 2268.5     68.53   3.95
 2269     68.286   3.984
 2269.5     68.325   3.534
 2270     68.363   3.085
 2270.5     68.402   2.635
 2271     68.44   2.882
 2271.5     68.479   3.71
 2272     67.437   3.265
 2272.5     67.578   2.819
 2273     68.023   2.373
 2273.5     68.871   2.52
 2274     68.923   3.052
 2274.5     65.923   3.583
 2275     63.166   4.115
 2275.5     60.566   4.647
 2276     65.81   5.073
 2276.5     66.388   5.489
 2277     66.966   5.53
 2277.5     67.432   5.285
 2278     67.442   5.039
 2278.5     67.452   4.794
 2279     67.461   4.548
 2279.5     67.578   4.517
 2280     69.459   5.27
 2280.5     71.085   6.023
 2281     71.327   6.777
 2281.5     71.569   7.53
 2282     71.811   8.064
 2282.5     71.243   8.114
 2283     70.711   8.163
 2283.5     70.889   8.213
 2284     71.066   8.235
 2284.5     71.244   7.512
 2285     71.421   6.79
 2285.5     70.613   6.067
 2286     69.721   5.345
 2286.5     68.83   4.846
 2287     68.601   4.356
 2287.5     68.617   3.866
 2288     68.375   3.377
 2288.5     66.992   2.887
 2289     68.014   2.892
 2289.5     69.287   3.672
 2290     70.288   4.451
 2290.5     70.82   5.231
 2291     71.352   5.003
 2291.5     71.572   4.47
 2292     70.427   3.936
 2292.5     69.283   3.403
 2293     69.301   3.225
 2293.5     69.993   4.026
 2294     70.473   4.827
 2294.5     70.646   5.401
 2295     70.592   5.285
 2295.5     69.508   4.747
 2296     68.88   4.209
 2296.5     68.533   3.672
 2297     68.703   3.371
 2297.5     68.872   3.497
 2298     69.145   3.623
 2298.5     70.144   4.295
 2299     69.741   5.111
 2299.5     69.098   5.927
 2300     68.455   5.937
 2300.5     67.955   5.4
 2301     67.458   4.862
 2301.5     67.334   4.324
 2302     67.697   4.558
 2302.5     68.979   5.067
 2303     71.093   5.576
 2303.5     70.634   6.084
 2304     70.016   6.364
 2304.5     69.797   5.982
 2305     70.201   5.599
 2305.5     69.985   5.216
 2306     69.106   4.834
 2306.5     68.226   4.525
 2307     67.452   4.768
 2307.5     66.936   5.011
 2308     61.748   5.255
 2308.5     60.709   5.498
 2309     59.67   5.741
 2309.5     62.152   5.327
 2310     65.343   4.726
 2310.5     67.626   4.125
 2311     67.609   3.523
 2311.5     67.851   2.976
 2312     68.093   3.258
 2312.5     68.335   3.539
 2313     68.151   3.821
