~VERSION INFORMATION
 VERS.                2.0:   CWLS LOG ASCII STANDARD - VERSION 2.0
 WRAP.                 NO:   ONE LINE PER DEPTH STEP
~WELL INFORMATION
#MNEM.UNIT      DATA TYPE    INFORMATION
#----------   ------------   ------------------------------
 STRT.FT           0.0000:   START DEPTH
 STOP.FT        7147.0000:   STOP DEPTH
 STEP.FT           0.5000:   STEP LENGTH
 NULL.          -999.2500:   NULL VALUE
 COMP. MOBIL PRODUCING TEXAS & NEW MEEXICO INC:   COMPANY
 WELL. SCHLOSER FRED ESTATE B #2:   WELL
 FLD .      ROJO CABALLOS:   FIELD
 LOC .                   :   LOCATION
 CNTY.              PECOS:   COUNTY
 STAT.              TEXAS:   STATE
 CTRY. UNITED STATES OF AMERICA:   COUNTRY
 SRVC.       Schlumberger:   SERVICE COMPANY
 DATE.        10-Jun-1980:   LOGDATE
 API .     42371330900000:   API NUMBER
~CURVE INFORMATION
#MNEM.UNIT       API CODE    CURVE DESCRIPTION
#----------   ------------   ------------------------------
 DEPT.F                  :   
 GRD .GAPI   45 310 01 00:   GAMMA RAY FROM DENSITY LOG
 GRR .GAPI   11 310 01 00:   GAMMA RAY FROM RESISTIVITY LOG
 GRS .GAPI   60 310 01 00:   GAMMA RAY FROM SONIC LOG
 DT  .US/F   60 500 00 00:   DELTA-T (INTERVAL TRANSIT TIME)
 CALD.IN     45 280 60 00:   CALIPER FROM DENSITY LOG
 CORR.G/C3   45 356 01 00:   DENSITY CORRECTION
 RHOB.G/C3   45 350 01 00:   BULK DENSITY
 NPHI_LS.DEC 42 890 01 00:   NEUTRON POROSITY LIMESTONE
 DPHI_LS.DEC 45 890 10 00:   DENSITY POROSITY LIMESTONE
 LLD .OHMM   11 220 10 00:   LATEROLOG DEEP RESISTIVITY
 LLS .OHMM   11 220 09 00:   LATEROLOG SHALLOW RESISTIVITY
~PARAMETER INFORMATION
#MNEM.UNIT          VALUE    DESCRIPTION
#----------   ------------   ------------------------------
 PD  .                 GL:   PERMANENT DATUM
 EPD .FT             2752:   ELEVATION PERMANENT DATUM
 LMF .                 KB:   LOG MEASURED FROM
 DAPD.FT               13:   FEET ABOVE PERMANENT DATUM
 DMF .                 KB:   DRILLING MEASURED FROM
 EKB .FT             2765:   KELLY BUSHING
 EDF .FT             2764:   DRILLING FLOOR
 EGL .FT             2752:   GROUND LEVEL
 DATE.           06/10/80:   RUN DATE
 RUN .                  1:   RUN NUMBER
 DD  .FT             7150:   DEPTH DRILLER
 DL  .FT             7150:   DEPTH LOGGER
 BLI .FT             7147:   BOTTOM LOG INTERVAL
 TLI .FT             5000:   TOP LOG INTERVAL
 CS  .IN            8.625:   CASING SIZE
 CBD .FT             1919:   CASING BOTTOM DRILLER
 CBL .FT             1904:   CASING BOTTOM LOGGER
 BS  .IN            7.875:   BIT SIZE
 BSD .FT             7150:   BIT SIZE AT DEPTH
 DFT .              BRINE:   DRILLING FLUID TYPE
 DFD .                 10:   DRILLING FLUID DENSITY
 DFV .                 35:   DRILLING FLUID VISCOSITY
 DFPH.                9.5:   DRILLING FLUID PH
 DFL .                 20:   DRILLING FLUID LOSS
 MSS .               CIRC:   MUD SAMPLE SOURCE
 RMS .OHMM           .055:   RESISTIVITY MUD SAMPLE
 MST .DEGF             73:   MUD SAMPLE TEMPERATURE
 RMF .OHMM           .055:   RESISTIVITY MUD FILTRATE SAMPLE
 MFST.DEGF             73:   MUD FILTRATE SAMPLE TEMPERATURE
 MFSS.                  M:   MUD FILTRATE SAMPLE SOURCE
 RMB .OHMM            .03:   RESISTIVITY MUD AT BHT
 BHT .DEGF            107:   BOTTOM HOLE TEMPERATURE
 TCS .HRS            1615:   TIME CIRCULATED STOPPED
 TLAB.HRS            0300:   TIME LOGGER AT BOTTOM
 MRT .DEGF            107:   MAXIMUM RECORDED TEMPERATURE
 LUN .               8024:   LOGGING UNIT NUMBER
 LUL .               MONA:   LOGGING UNIT LOCATION
 ENGI.           MC BRIDE:   RECORDING ENGINEER
 CLNT.            :   CLIENT CODE
 ORIG.      1" 2.5" PRINT:   ORIGIN OF DATA
 UWI .     42371330900000:   UNIQUE WELL ID
 
~OTHER INFORMATION
~A    DEPT     GRD        GRR         GRS        DT       CALD       CORR       RHOB      NPHI_LS    DPHI_LS      LLD        LLS   
# ...
 5673.0000    53.7445    58.8743    57.2395    72.6950    10.9700     0.0235     2.4632     0.2043     0.1548     3.9933     3.3485
 5673.5000    55.9848    57.4111    60.0764    72.9642    10.9711     0.0298     2.4741     0.2096     0.1476     4.1930     3.4809
 5674.0000    57.6458    55.9479    63.3180    72.8202    10.9722     0.0220     2.4883     0.2146     0.1434     4.3948     3.6186
 5674.5000    58.3698    57.1955    65.7012    72.7017    10.9733     0.0141     2.4822     0.2193     0.1404     4.6383     3.7681
 5675.0000    58.5657    60.3147    66.6694    72.5833    10.9744     0.0123     2.4775     0.2190     0.1436     4.7968     3.9029
 5675.5000    58.8944    63.2951    66.5113    72.4712    10.9755     0.0265     2.4853     0.2140     0.1459     4.9207     4.0018
 5676.0000    59.7544    61.7304    63.6563    72.3517    10.9766     0.0324     2.4964     0.2086     0.1386     5.0478     4.1202
 5676.5000    60.4712    59.5690    59.8695    72.1835    10.9777     0.0278     2.5158     0.2001     0.1257     5.1781     4.2573
 5677.0000    61.1727    58.2298    58.2682    72.0698    10.9788     0.0186     2.5158     0.1998     0.1230     5.3119     4.4027
 5677.5000    61.0121    57.7038    58.7162    72.0171    10.9799     0.0122     2.4985     0.1994     0.1313     5.4490     4.5591
 5678.0000    60.6644    57.8765    60.3781    72.0755    10.9809     0.0139     2.4946     0.1982     0.1361     5.5175     4.6159
 5678.5000    61.5873    58.5594    62.3633    72.2170    10.9820     0.0155     2.4905     0.2020     0.1381     5.5259     4.6371
 5679.0000    64.3210    59.4153    63.8521    72.4090    10.9851     0.0130     2.4859     0.2133     0.1381     5.4886     4.5963
 5679.5000    66.7155    60.3825    64.6642    72.6178    10.9899     0.0057     2.4812     0.2182     0.1402     5.3471     4.5332
 5680.0000    65.6059    60.6083    64.6463    72.2357    10.9946     0.0037     2.4774     0.2113     0.1465     5.0704     4.3675
 5680.5000    62.0253    57.8029    62.8235    71.8456    10.9994     0.0039     2.4814     0.1958     0.1490     4.9726     4.3517
 5681.0000    58.4448    54.9974    59.5725    71.4712    11.0042     0.0093     2.4853     0.1856     0.1448     5.0549     4.3979
 5681.5000    55.9791    52.8329    56.8627    71.3793    11.0089     0.0146     2.4892     0.1808     0.1386     5.4891     4.4969
 5682.0000    55.3926    50.9620    55.3383    71.6176    11.0137     0.0167     2.4907     0.1776     0.1355     5.6053     4.8180
 5682.5000    56.7886    52.4944    55.8093    72.5255    11.0185     0.0149     2.4842     0.1815     0.1418     5.3481     4.7660
 5683.0000    59.0809    54.5837    57.5989    73.0251    11.0233     0.0131     2.4786     0.1986     0.1465     4.9972     4.4190
 5683.5000    61.6117    56.8482    60.0716    72.9453    11.0280     0.0146     2.4821     0.2172     0.1463     4.6738     4.1170
 5684.0000    63.7855    58.7210    61.9312    72.8217    11.0328     0.0173     2.4855     0.2274     0.1405     4.7141     4.0817
 5684.5000    63.4349    59.3590    61.9614    72.9096    11.0376     0.0189     2.4890     0.2238     0.1383     5.0582     4.6884
 5685.0000    63.4275    59.5656    61.4118    73.4058    11.0424     0.0180     2.4818     0.2165     0.1413     5.4021     4.9013
 5685.5000    63.4200    59.6812    59.0833    74.0252    11.0471     0.0133     2.4717     0.2091     0.1487     5.5715     4.8736
 5686.0000    63.4126    58.5543    57.0450    74.5035    11.0546     0.0086     2.4605     0.2037     0.1576     5.3029     4.5826
 5686.5000    63.4052    56.1099    55.8504    74.7965    11.0641     0.0053     2.4447     0.2012     0.1648     4.7948     4.2952
 5687.0000    63.0960    53.6657    55.6995    74.9963    11.0735     0.0118     2.4453     0.2087     0.1663     4.1812     4.0259
 5687.5000    61.8536    53.1379    54.7800    75.0469    11.0830     0.0183     2.4517     0.2198     0.1622     4.0154     3.8544
 5688.0000    60.6114    54.5321    52.4040    74.7729    11.0924     0.0217     2.4588     0.2186     0.1519     3.9503     3.7577
 5688.5000    59.3692    56.1182    51.6845    74.1520    11.1018     0.0221     2.4637     0.2077     0.1503     3.9990     3.7582
 5689.0000    58.1270    57.3431    53.1462    73.8055    11.1113     0.0099     2.4688     0.1938     0.1517     4.0483     3.7587
 5689.5000    57.3981    58.3747    54.1931    73.2930    11.1207     0.0094     2.4778     0.1796     0.1532     4.2237     3.9878
 5690.0000    57.1679    56.3838    53.9691    72.5333    11.1331     0.0102     2.4909     0.1765     0.1481     4.4074     4.2143
 5690.5000    57.5575    52.9556    53.6185    71.8414    11.1458     0.0142     2.5040     0.1744     0.1398     4.5992     4.4086
 5691.0000    58.4830    49.5749    53.5845    71.6483    11.1538     0.0189     2.5167     0.1690     0.1300     4.7993     4.6118
 5691.5000    60.7889    49.5749    54.5678    71.7774    11.1404     0.0236     2.5189     0.1609     0.1218     5.0081     4.7847
 5692.0000    62.8164    49.8711    57.2702    72.5038    11.1497     0.0282     2.5130     0.1615     0.1225     5.1481     4.7860
 5692.5000    64.6759    50.5715    61.7966    74.0867    11.1640     0.0197     2.5009     0.1656     0.1310     5.1275     4.7873
 5693.0000    66.2092    51.2716    65.5559    74.3743    11.1782     0.0099     2.4889     0.1761     0.1400     4.7201     4.6121
 5693.5000    69.0404    53.0929    69.5414    73.8874    11.1924     0.0163     2.4882     0.1868     0.1385     4.1982     4.3244
 5694.0000    69.9064    60.5551    74.2457    73.4834    11.2067     0.0293     2.5102     0.1943     0.1226     5.1791     4.3762
 5694.5000    69.6876    68.0139    79.2630    73.5170    11.2209     0.0352     2.5432     0.1960     0.1058     6.9579     6.0000
 5695.0000    66.2394    73.1987    76.0211    74.6418    11.2351     0.0342     2.5432     0.1917     0.1158     7.6974     7.0889
 5695.5000    62.6380    74.6827    69.5566    75.9680    11.2694     0.0242     2.5015     0.1862     0.1397     7.6437     6.4259
 5696.0000    56.8097    70.1972    62.1503    76.8516    11.3128     0.0142     2.4720     0.1839     0.1603     4.9802     5.0000
 5696.5000    54.3107    64.7061    58.1873    77.0574    11.3561     0.0140     2.4287     0.1914     0.1759     3.6775     3.3356
 5697.0000    53.2591    59.2411    57.3339    77.0370    11.3831     0.0144     2.4280     0.1996     0.1757     3.4395     2.9317
 5697.5000    54.4688    54.9494    57.0018    76.9345    11.4042     0.0174     2.4326     0.2076     0.1719     3.2921     2.8088
 5698.0000    55.0801    52.3253    55.8081    76.8370    11.4250     0.0207     2.4376     0.2148     0.1680     3.2596     2.8097
 5698.5000    53.2857    51.3438    53.7902    76.6922    11.4415     0.0213     2.4413     0.2212     0.1711     3.2368     2.8106
 5699.0000    51.4527    50.1396    53.1465    76.1090    11.4443     0.0184     2.4329     0.2303     0.1799     3.2335     2.8115
 5699.5000    49.9873    49.5295    54.0956    75.2560    11.4470     0.0080     2.4057     0.2318     0.1878     3.2345     2.8246
 5700.0000    52.0607    49.7466    55.5750    74.2157    11.4441     0.0048     2.4086     0.2289     0.1853     3.2985     2.8433
 5700.5000    52.6605    49.3275    56.4587    73.2531    11.4405     0.0070     2.4320     0.2253     0.1769     3.3847     2.8814
 5701.0000    51.2417    48.2220    54.9335    73.5181    11.4369     0.0123     2.4461     0.2244     0.1694     3.5055     2.8960
 5701.5000    48.4864    48.4253    50.6774    74.9278    11.4625     0.0145     2.4311     0.2274     0.1715     3.6549     2.8978
 5702.0000    48.7516    50.2706    50.0699    76.3433    11.4750     0.0131     2.4128     0.2359     0.1810     3.4170     2.7123
 5702.5000    50.9762    52.2459    51.0037    76.6390    11.4818     0.0102     2.4040     0.2389     0.1906     3.0510     2.4118
 5703.0000    50.4714    51.3189    52.2731    76.1365    11.4987     0.0073     2.4154     0.2285     0.1874     2.8915     2.2603
