#--------------------------------------------------#
#-------------------ENVERUS, INC.------------------#
#------------------WWW.ENVERUS.COM-----------------#
#------------------COPYRIGHT 2020------------------#
#--------------------------------------------------#
#THIS FILE MAY BE USED ONLY IN ACCORDANCE WITH A CURRENT SUBSCRIPTION AGREEMENT BETWEEN
#THE USER AND ENVERUS, INC. NO PART OF THIS FILE MAY BE REPRODUCED, USED, COPIED,
#MODIFIED, PROPAGATED, OR DISTRIBUTED EXCEPT IN ACCORDANCE WITH THE SUBSCRIPTION
#AGREEMENT. UNAUTHORIZED USE OR DISTRIBUTION OF ALL OR ANY PART OF THIS FILE MAY VIOLATE
#COPYRIGHT, TRADEMARK, AND/OR OTHER LAWS AND IS SUBJECT TO CIVIL AS WELL AS CRIMINAL
#SANCTIONS.
#--------------------------------------------------#
#THIS FILE IS PROVIDED "AS-IS" AND ALL WARRANTIES ARE EXPRESSLY DISCLAIMED, WHETHER
#EXPRESS, ORAL, IMPLIED, STATUTORY OR OTHERWISE, INCLUDING ANY IMPLIED WARRANTY OF FITNESS
#FOR A PARTICULAR PURPOSE, MERCHANTABILITY, TITLE OR NON-INFRINGEMENT, AND ANY WARRANTIES
#ARISING BY VIRTUE OF CUSTOM OF TRADE OR COURSE OF DEALING.  FURTHER, ENVERUS, INC.
#AND ITS LICENSORS DO NOT REPRESENT OR WARRANT THAT THIS FILE WILL MEET USER'S
#REQUIREMENTS OR ARE SUITABLE FOR USER'S NEEDS OR THAT THE DATA OR RESULTS PROVIDED IN
#CONJUNCTION THEREWITH ARE CORRECT, ACCURATE, TIMELY OR RELIABLE. THESE DISCLAIMERS SHALL
#APPLY REGARDLESS OF ANY FAILURE OF ESSENTIAL PURPOSE OF ANY LIMITED REMEDY.  SOME
#JURISDICTIONS DO NOT ALLOW THE EXCLUSION OF CERTAIN WARRANTIES SO SOME OF THE ABOVE
#EXCLUSIONS MAY NOT APPLY. IN NO EVENT SHALL ENVERUS, INC. OR ANY OF ITS AFFILIATES
#BE LIABLE UNDER ANY LEGAL THEORY, WHETHER IN TORT (INCLUDING WITHOUT LIMITATION
#NEGLIGENCE), CONTRACT, STRICT LIABILITY, STATUTORY OR OTHERWISE, FOR ANY SPECIAL,
#INCIDENTAL, CONSEQUENTIAL, EXEMPLARY, PUNITIVE OR INDIRECT DAMAGE OF ANY KIND, INCLUDING
#WITHOUT LIMITATION LOSS OF REVENUE, PROFITS, GOODWILL, USE, AND/OR DATA OR THE COST OF
#PROCUREMENT OF SUBSTITUTE GOODS OR SERVICES, EVEN IF APPRISED OF THE POSSIBILITY OF SUCH
#DAMAGES IN ADVANCE.
#--------------------------------------------------#

~VERSION INFORMATION
VERS. 2.0 : CWLS LOG ASCII STANDARD - VERSION 2.0
WRAP. NO : ONE LINE PER DEPTH STEP
~WELL INFORMATION
#MNEMONIC     .UNIT              VALUE :DESCRIPTION
STRT       .FT                101.00000 :START DEPTH
STOP       .FT                5802.00000 :STOP DEPTH
STEP       .FT                0.50000 :STEP
NULL       .                -999.25000 :NULL VALUE
UWI       .                42389010150000 :UNIQUE WELL ID
API       .                42389010150000 :API NUMBER
COMP       .                 :COMPANY
WELL       .                 :WELL
FLD       .                 :FIELD
LOC       .                 :LOCATION
CNTY       .                 :COUNTY
STAT       .                 :STATE
CTRY       .                 :COUNTRY
SRVC       .                 :SERVICE COMPANY
DATE       .                 :DATE
~CURVE INFORMATION
#MNEMONIC     .UNIT      API CODE :CURVE DESCRIPTION
DEPTH       .FT                      :MEASURED DEPTH
DT       .US/FT        UNKNOWN   :DT
GR       .GAPI        UNKNOWN   :GR
~A    DEPTH    DT    GR
# ...
1212.00000    -999.25000    20.44365
1212.50000    -999.25000    21.16767
1213.00000    -999.25000    21.36600
1213.50000    -999.25000    19.87875
1214.00000    -999.25000    18.39149
1214.50000    -999.25000    17.07419
1215.00000    -999.25000    17.89722
1215.50000    -999.25000    18.72025
1216.00000    -999.25000    19.54329
1216.50000    -999.25000    18.82245
1217.00000    -999.25000    17.84051
1217.50000    -999.25000    16.85858
1218.00000    -999.25000    16.40511
1218.50000    -999.25000    17.29001
1219.00000    -999.25000    18.17491
1219.50000    -999.25000    19.05981
1220.00000    -999.25000    19.94471
1220.50000    -999.25000    20.82961
1221.00000    -999.25000    21.11098
1221.50000    -999.25000    21.18189
1222.00000    -999.25000    21.25280
1222.50000    -999.25000    21.32372
1223.00000    -999.25000    21.39463
1223.50000    -999.25000    21.46555
1224.00000    -999.25000    21.53646
1224.50000    -999.25000    21.60737
1225.00000    -999.25000    21.67829
1225.50000    -999.25000    21.74920
1226.00000    -999.25000    22.19631
1226.50000    -999.25000    22.82887
1227.00000    -999.25000    23.46143
1227.50000    -999.25000    24.09399
1228.00000    -999.25000    24.72655
1228.50000    -999.25000    25.35911
1229.00000    -999.25000    26.16837
1229.50000    -999.25000    27.47479
1230.00000    -999.25000    28.25019
1230.50000    -999.25000    28.62847
1231.00000    -999.25000    30.08955
1231.50000    -999.25000    35.17271
1232.00000    -999.25000    34.73172
1232.50000    -999.25000    33.90041
1233.00000    -999.25000    32.15548
1233.50000    -999.25000    30.41055
1234.00000    -999.25000    28.66562
1234.50000    -999.25000    27.01327
1235.00000    -999.25000    25.43577
1235.50000    -999.25000    23.85827
1236.00000    -999.25000    23.45283
1236.50000    -999.25000    24.11818
1237.00000    -999.25000    24.78353
1237.50000    -999.25000    25.44887
1238.00000    -999.25000    25.59346
1238.50000    -999.25000    25.49885
1239.00000    -999.25000    25.40423
1239.50000    -999.25000    25.30962
1240.00000    -999.25000    25.46519
1240.50000    -999.25000    25.73815
1241.00000    -999.25000    25.42319
1241.50000    -999.25000    25.02099
1242.00000    -999.25000    24.61880
1242.50000    -999.25000    24.93148
1243.00000    -999.25000    25.50188
1243.50000    -999.25000    26.07227
1244.00000    -999.25000    26.64266
1244.50000    -999.25000    27.21305
1245.00000    -999.25000    28.23695
1245.50000    -999.25000    29.96105
1246.00000    -999.25000    31.68514
1246.50000    -999.25000    32.85470
1247.00000    -999.25000    32.87780
1247.50000    -999.25000    32.90089
1248.00000    -999.25000    32.92398
1248.50000    -999.25000    32.94707
1249.00000    -999.25000    33.14060
1249.50000    -999.25000    33.55948
1250.00000    -999.25000    33.97836
1250.50000    -999.25000    33.83951
1251.00000    -999.25000    30.23455
1251.50000    -999.25000    26.62959
1252.00000    -999.25000    23.02463
1252.50000    -999.25000    20.04530
1253.00000    -999.25000    17.37351
1253.50000    -999.25000    14.70172
1254.00000    -999.25000    13.47716
1254.50000    -999.25000    12.65363
1255.00000    -999.25000    11.83010
1255.50000    -999.25000    11.00656
1256.00000    -999.25000    10.69385
1256.50000    -999.25000    11.64440
1257.00000    -999.25000    12.59495
1257.50000    -999.25000    14.11251
1258.00000    -999.25000    21.42768
1258.50000    -999.25000    28.74284
1259.00000    -999.25000    36.05801
1259.50000    -999.25000    37.96673
1260.00000    -999.25000    38.84628
1260.50000    -999.25000    39.72583
1261.00000    -999.25000    40.53404
1261.50000    -999.25000    39.92097
1262.00000    -999.25000    39.30790
1262.50000    -999.25000    33.45732
1263.00000    -999.25000    29.65626
1263.50000    -999.25000    28.86647
1264.00000    -999.25000    28.07668
1264.50000    -999.25000    27.28690
1265.00000    -999.25000    26.49711
1265.50000    -999.25000    23.69905
1266.00000    -999.25000    20.66041
1266.50000    -999.25000    20.05030
1267.00000    -999.25000    20.60885
1267.50000    -999.25000    21.16741
1268.00000    -999.25000    21.72597
1268.50000    -999.25000    22.28452
1269.00000    -999.25000    19.88482
1269.50000    -999.25000    17.23733
1270.00000    -999.25000    14.58983
1270.50000    -999.25000    11.94233
1271.00000    -999.25000    12.59572
1271.50000    -999.25000    15.38999
1272.00000    -999.25000    18.18426
1272.50000    -999.25000    20.97853
1273.00000    -999.25000    23.77280
1273.50000    -999.25000    24.51888
1274.00000    -999.25000    24.88188
1274.50000    -999.25000    25.24488
1275.00000    -999.25000    25.60788
1275.50000    -999.25000    25.97088
1276.00000    -999.25000    26.46632
1276.50000    -999.25000    27.78445
1277.00000    -999.25000    29.10258
1277.50000    -999.25000    30.42071
1278.00000    -999.25000    30.44705
1278.50000    -999.25000    29.96702
1279.00000    -999.25000    29.48700
1279.50000    -999.25000    24.38908
1280.00000    -999.25000    18.59659
1280.50000    -999.25000    11.71704
1281.00000    -999.25000    8.75733
1281.50000    -999.25000    8.50267
1282.00000    -999.25000    8.24801
1282.50000    -999.25000    8.26548
1283.00000    -999.25000    9.57028
1283.50000    -999.25000    10.87509
1284.00000    -999.25000    11.92702
1284.50000    -999.25000    12.44110
1285.00000    -999.25000    12.95518
1285.50000    -999.25000    13.46927
1286.00000    -999.25000    13.98335
1286.50000    -999.25000    14.49743
1287.00000    -999.25000    15.52863
1287.50000    -999.25000    16.57983
1288.00000    -999.25000    17.37080
1288.50000    -999.25000    14.72486
1289.00000    -999.25000    12.07891
1289.50000    -999.25000    9.43297
1290.00000    -999.25000    7.11999
1290.50000    -999.25000    7.24370
1291.00000    -999.25000    7.36742
1291.50000    -999.25000    7.49113
1292.00000    -999.25000    7.61484
1292.50000    -999.25000    7.59822
1293.00000    -999.25000    7.17211
1293.50000    -999.25000    6.74600
1294.00000    -999.25000    7.03422
1294.50000    -999.25000    7.56326
1295.00000    -999.25000    8.09229
1295.50000    -999.25000    9.31908
1296.00000    -999.25000    10.75030
1296.50000    -999.25000    12.18152
1297.00000    -999.25000    13.61274
1297.50000    -999.25000    12.50861
1298.00000    -999.25000    10.77861
1298.50000    -999.25000    9.04861
1299.00000    -999.25000    7.31861
1299.50000    -999.25000    7.04814
1300.00000    -999.25000    8.96320
1300.50000    -999.25000    10.87826
1301.00000    -999.25000    12.79331
1301.50000    -999.25000    14.70837
1302.00000    -999.25000    17.55692
1302.50000    -999.25000    20.81572
1303.00000    -999.25000    21.74047
1303.50000    -999.25000    21.17028
1304.00000    -999.25000    19.04421
1304.50000    -999.25000    16.91814
1305.00000    -999.25000    14.79206
1305.50000    -999.25000    15.11208
1306.00000    -999.25000    15.63541
1306.50000    -999.25000    16.15875
1307.00000    -999.25000    16.45425
1307.50000    -999.25000    16.33038
1308.00000    -999.25000    16.20650
1308.50000    -999.25000    16.08263
1309.00000    -999.25000    15.95875
1309.50000    -999.25000    13.94677
1310.00000    -999.25000    11.23316
1310.50000    -999.25000    8.51955
1311.00000    -999.25000    6.75358
1311.50000    -999.25000    5.97797
1312.00000    -999.25000    5.20235
1312.50000    -999.25000    4.42674
1313.00000    -999.25000    4.58658
1313.50000    -999.25000    4.77409
1314.00000    -999.25000    8.07878
1314.50000    -999.25000    11.93243
1315.00000    -999.25000    15.78608
1315.50000    -999.25000    19.63973
1316.00000    -999.25000    19.61326
1316.50000    -999.25000    18.68539
1317.00000    -999.25000    17.75752
1317.50000    -999.25000    16.82964
1318.00000    -999.25000    15.72516
1318.50000    -999.25000    14.19566
1319.00000    -999.25000    12.66615
1319.50000    -999.25000    11.13664
1320.00000    -999.25000    9.60713
1320.50000    -999.25000    8.07762
