#--------------------------------------------------#
#-------------------ENVERUS, INC.------------------#
#------------------WWW.ENVERUS.COM-----------------#
#------------------COPYRIGHT 2020------------------#
#--------------------------------------------------#
#THIS FILE MAY BE USED ONLY IN ACCORDANCE WITH A CURRENT SUBSCRIPTION AGREEMENT BETWEEN
#THE USER AND ENVERUS, INC. NO PART OF THIS FILE MAY BE REPRODUCED, USED, COPIED,
#MODIFIED, PROPAGATED, OR DISTRIBUTED EXCEPT IN ACCORDANCE WITH THE SUBSCRIPTION
#AGREEMENT. UNAUTHORIZED USE OR DISTRIBUTION OF ALL OR ANY PART OF THIS FILE MAY VIOLATE
#COPYRIGHT, TRADEMARK, AND/OR OTHER LAWS AND IS SUBJECT TO CIVIL AS WELL AS CRIMINAL
#SANCTIONS.
#--------------------------------------------------#
#THIS FILE IS PROVIDED "AS-IS" AND ALL WARRANTIES ARE EXPRESSLY DISCLAIMED, WHETHER
#EXPRESS, ORAL, IMPLIED, STATUTORY OR OTHERWISE, INCLUDING ANY IMPLIED WARRANTY OF FITNESS
#FOR A PARTICULAR PURPOSE, MERCHANTABILITY, TITLE OR NON-INFRINGEMENT, AND ANY WARRANTIES
#ARISING BY VIRTUE OF CUSTOM OF TRADE OR COURSE OF DEALING.  FURTHER, ENVERUS, INC.
#AND ITS LICENSORS DO NOT REPRESENT OR WARRANT THAT THIS FILE WILL MEET USER'S
#REQUIREMENTS OR ARE SUITABLE FOR USER'S NEEDS OR THAT THE DATA OR RESULTS PROVIDED IN
#CONJUNCTION THEREWITH ARE CORRECT, ACCURATE, TIMELY OR RELIABLE. THESE DISCLAIMERS SHALL
#APPLY REGARDLESS OF ANY FAILURE OF ESSENTIAL PURPOSE OF ANY LIMITED REMEDY.  SOME
#JURISDICTIONS DO NOT ALLOW THE EXCLUSION OF CERTAIN WARRANTIES SO SOME OF THE ABOVE
#EXCLUSIONS MAY NOT APPLY. IN NO EVENT SHALL ENVERUS, INC. OR ANY OF ITS AFFILIATES
#BE LIABLE UNDER ANY LEGAL THEORY, WHETHER IN TORT (INCLUDING WITHOUT LIMITATION
#NEGLIGENCE), CONTRACT, STRICT LIABILITY, STATUTORY OR OTHERWISE, FOR ANY SPECIAL,
#INCIDENTAL, CONSEQUENTIAL, EXEMPLARY, PUNITIVE OR INDIRECT DAMAGE OF ANY KIND, INCLUDING
#WITHOUT LIMITATION LOSS OF REVENUE, PROFITS, GOODWILL, USE, AND/OR DATA OR THE COST OF
#PROCUREMENT OF SUBSTITUTE GOODS OR SERVICES, EVEN IF APPRISED OF THE POSSIBILITY OF SUCH
#DAMAGES IN ADVANCE.
#--------------------------------------------------#

~VERSION INFORMATION
VERS. 2.0 : CWLS LOG ASCII STANDARD - VERSION 2.0
WRAP.  NO : ONE LINE PER DEPTH STEP
~WELL INFORMATION
#MNEMONIC     .UNIT              VALUE :DESCRIPTION
STRT       .FT                102 :START DEPTH
STOP       .FT                5463 :STOP DEPTH
STEP       .FT                   0.500 :STEP
NULL       .                  -999.990 :NULL
UWI        .              42371363560000 :UNIQUE WELL ID
API        .              42371363560000 :API NUMBER
COMP       .         APACHE CORPORATION :COMPANY
WELL       .        SCHLOSSER, FRED ESTATE -B-  11 :WELL
DATE       .                22-JUN-1992 :LOG DATE
~CURVE INFORMATION
#MNEMONIC     .UNIT      API CODE :CURVE DESCRIPTION
DEPTH       .FT                      :MEASURED DEPTH
DT.US/FT        UNKNOWN   :DT
GR.API        UNKNOWN   :GR
~A    DEPTH    DT    GR
# ...
 389     -999.990   41.875
 389.5     -999.990   41.152
 390     -999.990   41.214
 390.5     -999.990   44.961
 391     -999.990   48.708
 391.5     -999.990   51.896
 392     -999.990   55.166
 392.5     -999.990   55.098
 393     -999.990   57.709
 393.5     -999.990   59.587
 394     -999.990   58.796
 394.5     -999.990   58.006
 395     -999.990   57.215
 395.5     -999.990   58.744
 396     -999.990   60.639
 396.5     -999.990   62.534
 397     -999.990   62.694
 397.5     -999.990   61.639
 398     -999.990   60.423
 398.5     -999.990   59.207
 399     -999.990   57.247
 399.5     -999.990   55.367
 400     -999.990   55.597
 400.5     -999.990   55.827
 401     -999.990   58.525
 401.5     -999.990   62.049
 402     -999.990   64.565
 402.5     -999.990   63.399
 403     -999.990   62.232
 403.5     -999.990   61.066
 404     -999.990   59.899
 404.5     -999.990   58.732
 405     -999.990   61.671
 405.5     -999.990   65.384
 406     -999.990   66.771
 406.5     -999.990   68.159
 407     -999.990   66.86
 407.5     -999.990   63.599
 408     -999.990   61.571
 408.5     -999.990   59.543
 409     -999.990   57.666
 409.5     -999.990   56.492
 410     -999.990   55.318
 410.5     -999.990   57.767
 411     -999.990   60.724
 411.5     -999.990   63.972
 412     -999.990   67.307
 412.5     -999.990   67.04
 413     -999.990   63.366
 413.5     -999.990   61.3
 414     -999.990   57.268
 414.5     -999.990   53.522
 415     -999.990   52.343
 415.5     -999.990   51.163
 416     -999.990   51.082
 416.5     -999.990   53.04
 417     -999.990   54.997
 417.5     -999.990   57.14
 418     -999.990   59.321
 418.5     -999.990   59.129
 419     -999.990   57.59
 419.5     -999.990   58.854
 420     -999.990   60.119
 420.5     -999.990   61.383
 421     -999.990   62.383
 421.5     -999.990   64.965
 422     -999.990   67.984
 422.5     -999.990   70.196
 423     -999.990   70.626
 423.5     -999.990   71.056
 424     -999.990   62.485
 424.5     -999.990   58.35
 425     -999.990   57.559
 425.5     -999.990   56.767
 426     -999.990   59.008
 426.5     -999.990   63.088
 427     -999.990   66.169
 427.5     -999.990   66.935
 428     -999.990   66.738
 428.5     -999.990   62.704
 429     -999.990   58.939
 429.5     -999.990   57.219
 430     -999.990   55.5
 430.5     -999.990   56.682
 431     -999.990   59.746
 431.5     -999.990   62.639
 432     -999.990   65.36
 432.5     -999.990   65.854
 433     -999.990   64.883
 433.5     -999.990   63.911
 434     -999.990   63.116
 434.5     -999.990   66.094
 435     -999.990   66.152
 435.5     -999.990   65.389
 436     -999.990   64.625
 436.5     -999.990   63.862
 437     -999.990   63.099
 437.5     -999.990   65.133
 438     -999.990   67.279
 438.5     -999.990   69.884
 439     -999.990   72.005
 439.5     -999.990   71.437
 440     -999.990   70.868
 440.5     -999.990   70.299
 441     -999.990   69.73
 441.5     -999.990   62.175
 442     -999.990   62.849
 442.5     -999.990   63.523
 443     -999.990   64.197
 443.5     -999.990   64.87
 444     -999.990   65.544
 444.5     -999.990   65.113
 445     -999.990   64.567
 445.5     -999.990   64.021
 446     -999.990   63.238
 446.5     -999.990   60.915
 447     -999.990   59.701
 447.5     -999.990   59.777
 448     -999.990   59.853
 448.5     -999.990   61.563
 449     -999.990   63.701
 449.5     -999.990   62.857
 450     -999.990   62.014
 450.5     -999.990   61.171
 451     -999.990   60.328
 451.5     -999.990   59.485
 452     -999.990   58.641
 452.5     -999.990   60.407
 453     -999.990   62.96
 453.5     -999.990   65.404
 454     -999.990   64.304
 454.5     -999.990   63.203
 455     -999.990   62.102
 455.5     -999.990   57.299
 456     -999.990   58.358
 456.5     -999.990   59.417
 457     -999.990   60.035
 457.5     -999.990   57.308
 458     -999.990   54.581
 458.5     -999.990   52.293
 459     -999.990   51.866
 459.5     -999.990   51.44
 460     -999.990   51.014
 460.5     -999.990   50.736
 461     -999.990   50.546
 461.5     -999.990   52.513
 462     -999.990   59.083
 462.5     -999.990   63.96
 463     -999.990   62.304
 463.5     -999.990   60.648
 464     -999.990   58.142
 464.5     -999.990   54.575
 465     -999.990   54.945
 465.5     -999.990   55.315
 466     -999.990   54.682
 466.5     -999.990   53.967
 467     -999.990   48.315
 467.5     -999.990   48.274
 468     -999.990   48.322
 468.5     -999.990   51.613
 469     -999.990   55.274
 469.5     -999.990   59.091
 470     -999.990   63.175
 470.5     -999.990   70.644
 471     -999.990   71.88
 471.5     -999.990   73.116
 472     -999.990   63.422
 472.5     -999.990   61.97
 473     -999.990   61.371
 473.5     -999.990   60.773
 474     -999.990   60.175
 474.5     -999.990   55.607
 475     -999.990   52.749
 475.5     -999.990   52.168
 476     -999.990   51.587
 476.5     -999.990   51.401
 477     -999.990   54.278
 477.5     -999.990   55.737
 478     -999.990   55.332
 478.5     -999.990   54.927
 479     -999.990   54.522
 479.5     -999.990   54.117
 480     -999.990   55.017
 480.5     -999.990   56.755
 481     -999.990   59.895
 481.5     -999.990   61.785
 482     -999.990   60.548
 482.5     -999.990   59.119
 483     -999.990   57.345
 483.5     -999.990   56.332
 484     -999.990   56.164
 484.5     -999.990   55.995
 485     -999.990   55.827
 485.5     -999.990   55.659
 486     -999.990   55.49
 486.5     -999.990   55.945
 487     -999.990   56.81
 487.5     -999.990   57.675
 488     -999.990   56.609
 488.5     -999.990   55.266
 489     -999.990   53.922
 489.5     -999.990   52.578
 490     -999.990   51.512
 490.5     -999.990   53.328
 491     -999.990   52.512
 491.5     -999.990   51.695
 492     -999.990   56.8
 492.5     -999.990   57.702
 493     -999.990   58.603
 493.5     -999.990   57.639
 494     -999.990   56.069
 494.5     -999.990   54.499
 495     -999.990   52.929
 495.5     -999.990   53.741
 496     -999.990   58.694
 496.5     -999.990   62.12
 497     -999.990   65.545
 497.5     -999.990   64.183
 498     -999.990   62.766
 498.5     -999.990   60.952
 499     -999.990   58.698
 499.5     -999.990   56.445
 500     -999.990   54.795
 500.5     -999.990   57.354
 501     -999.990   56.933
 501.5     -999.990   54.94
 502     -999.990   47.02
 502.5     -999.990   46.615
 503     -999.990   46.21
 503.5     -999.990   45.805
 504     -999.990   45.4
 504.5     -999.990   49.265
 505     -999.990   52.653
 505.5     -999.990   53.869
 506     -999.990   52.693
 506.5     -999.990   50.911
 507     -999.990   49.141
 507.5     -999.990   47.523
 508     -999.990   48.442
 508.5     -999.990   51.001
 509     -999.990   53.559
 509.5     -999.990   56.117
 510     -999.990   58.096
 510.5     -999.990   59.222
 511     -999.990   59.234
 511.5     -999.990   56.724
 512     -999.990   56.412
 512.5     -999.990   57.383
 513     -999.990   57.524
 513.5     -999.990   57.212
 514     -999.990   59.115
 514.5     -999.990   58.598
 515     -999.990   56.787
 515.5     -999.990   54.556
 516     -999.990   53.035
 516.5     -999.990   51.62
 517     -999.990   50.205
 517.5     -999.990   52.76
 518     -999.990   58.905
 518.5     -999.990   61.933
 519     -999.990   64.962
 519.5     -999.990   64.552
 520     -999.990   60.993
 520.5     -999.990   57.427
 521     -999.990   53.139
 521.5     -999.990   48.851
 522     -999.990   46.689
 522.5     -999.990   47.582
 523     -999.990   51.35
 523.5     -999.990   55.118
 524     -999.990   58.962
 524.5     -999.990   62.985
 525     -999.990   62.904
 525.5     -999.990   61.037
 526     -999.990   58.58
 526.5     -999.990   56.897
 527     -999.990   50.975
 527.5     -999.990   52.722
 528     -999.990   54.468
 528.5     -999.990   56.215
 529     -999.990   59.148
 529.5     -999.990   63.612
 530     -999.990   62.316
 530.5     -999.990   60.821
 531     -999.990   59.326
 531.5     -999.990   57.831
 532     -999.990   57.641
