~Version Information Block
 VERS.                2.00:     CWLS LOG ASCII STANDARD - VERSION 2.000000
 WRAP.                  NO:     One Line Per Depth Step
#
~Well Information Block
#MNEM.UNIT                     Data                         Information
#----------   ------------------------------------------   ----------------
 STRT.FT                                     5200.0000:     START DEPTH
 STOP.FT                                    11550.0000:     STOP DEPTH
 STEP.FT                                        0.5000:     STEP
 NULL.                                       -999.2500:     NULL VALUE
 COMP.               AMERICAN QUASAR PETROLEUM COMPANY:     COMPANY
 WELL.                               MCCARTER # 1 - 31:     WELL
 FLD .                                         WILDCAT:     FIELD
 LOC .                                                :     LOCATION
 CNTY.                                          REEVES:     COUNTY
 STAT.                                           TEXAS:     STATE
 CTRY.                                             USA:     COUNTRY
 SRVC.                                                :     SERVICE COMPANY
 DATE.                                      08/07/2015:     DATE
 API .                                  42389311800000:     API NUMBER
 UWI .                                  42389311800000:     UWI NUMBER
 TVD .                                              NO:     TVD flag
 WSTA.                                             LOC:     Well status
#
~Curve Information Block
#MNEM.UNIT       API CODE      Curve Description
#----------    -------------   -------------------
 DEPT.FT                   :   Depth in Feet
 GR  .GAPI                 :   Gamma Ray
 LLD .OHMM                 :   Latero-Log Deep (Resistivity)
 CALI.IN                   :   Caliper
 DT  .US/F                 :   Delta-T
#
~Parameter Information Block
#MNEM.UNIT            Value               Description
#----------    --------------------    -------------------
 RUN .                         ONE:    Run Number
 PDAT.                          GL:    Permanent Datum
 EPD .FT                          :    Elevation Of Perm. Datum
 LMF .               KELLY BUSHING:    Log Measured From
 EKB .FT                          :    Elevation Of Kelly Bushing
 DF .FT                           :    Elevation Of Derrick Floor
 GL .FT                           :    Elevation Of Ground Level
 TD  .FT                          :    Total Depth
 CSGD.FT                          :    Casing Bottom (Driller) 1
 CSGL.FT                          :    Casing Bottom (Logger) 1
 MUD .                            :    Drilling Fluid Type
 MUDV .CP                         :    Drilling Fluid Viscosity
 MUDD .LB/USG                     :    Drilling Fluid Density
 FL .ML/30MIN                     :    Drilling Fluid Loss
 PH.                              :    Drilling Fluid Ph
 MUDS .                           :    Mud Sample Source
 RM .OHMM                         :    Resistivity Of Mud Sample
 RMT .DEGF                        :    Mud Sample Temperature
 RMF .OHMM                        :    Mud Filtrate Resistivity
 RMFT.DEGF                        :    Mud Filtrate Sample Temperature
 RMC .OHMM                        :    Mud Cake Resistivity
 RMCT.DEGF                        :    Mud Cake Sample Temperature
 RMB .OHMM                        :    Mud Resistivity At Bht
 TMAX .DEGF                       :    Bottom Hole Temperature    
#
~Other Information Block
<DescLogPlotStart>   NEURALOG PLOT DEFINITION
PLOTDEFVERSION: 3
LASFILE: E:\Nair Innovations\Texas - NII\Shivam\42389311800000\42389311800000_G
DEPTHSCALE: 239.999996
RESOLUTION: 200
DEPTHLABELFREQ: 100.000000
HEAVYGRIDFREQ: 100.000000
MEDIUMGRIDFREQ: 50.000000
LIGHTGRIDFREQ: 10.000000
#
#   TRACK 1
#
STARTTRACK: 
 LEFTX: 0.500000 inch
 RIGHTX: 3.000000 inch
 SCALETYPE: Linear
 NUMCHARTDIVISIONS: 10
CURVE: GR    0.000000   125.000000 (0,0,255)      Solid             2     Y    
BACKUP: 125.000000 250.000000 (0,0,255)      Solid             2    
CURVE: CALI  6.000000   16.000000  (0,0,255)      Solid             2     N    
ENDTRACK: 
#
#   TRACK 2
#
STARTTRACK: 
 LEFTX: 3.500000 inch
 RIGHTX: 8.500000 inch
 SCALETYPE: Log
 NUMCYCLES: 4
 STARTCYCLE: 2
CURVE: LLD   0.200000   2000.000000 (0,131,131)    Solid             2     Y   
BACKUP: 2000.000000 20000000.000000 (0,131,131)    Solid             2    
ENDTRACK: 
#
#   TRACK 3
#
STARTTRACK: 
 LEFTX: 3.500000 inch
 RIGHTX: 8.500000 inch
 SCALETYPE: Linear
 NUMCHARTDIVISIONS: 10
CURVE: DT    100.000000 40.000000  (0,131,131)    Solid             2     Y    
BACKUP: 160.000000 100.000000 (0,131,131)    Solid             2    
BACKUP: 40.000000  -20.000000 (0,131,131)    Solid             2    
ENDTRACK: 
<DescLogPlotEnd>
<DepthTrack type='Reference' track='1' Label='0' color='0' hor='0' />
<Reference font='144,0,-900,0,500,0,16777216,Arial' />
~A DEPTH     GR               LLD              CALI             DT              
    5200.000 25.27390438      14479.36228182   12.98207171      50.03138005     
    5200.500 26.02689243      13202.89818547   12.98213787      49.94566576     
    5201.000 27.95343625      12724.39698531   12.98235771      49.87034965     
    5201.500 28.45810375      12523.21766911   12.98253343      50.03996004     
    5202.000 29.07358395      9043.58483474    12.98275344      50.32047952     
    5202.500 29.69535221      6137.67578384    12.98297329      50.52047952     
    5203.000 30.51386719      5055.30630095    12.98319314      50.52568556     
    5203.500 32.65028356      4737.51407461    12.98341299      50.54139563     
    5204.000 34.78897645      2165.34419671    12.98363283      53.38161556     
    5204.500 36.97976222      1538.08679335    12.98385268      59.30123296     
    5205.000 39.23000214      947.13982313     12.98407253      65.19380619     
    5205.500 44.62691138      580.06262746     12.98429238      69.53681319     
    5206.000 51.70738872      355.25129823     12.98451223      72.63736264     
    5206.500 58.94145953      217.56872262     12.98473208      71.18714286     
    5207.000 67.42535510      146.41281608     12.98495192      69.59714286     
    5207.500 67.04702032      121.73031144     12.98517177      68.00714286     
    5208.000 67.11436206      116.18348820     12.98539162      66.28371628     
    5208.500 68.02623460      110.91073945     12.98561147      65.80277223     
    5209.000 71.00886114      107.68683360     12.98583132      65.26473526     
    5209.500 75.74934483      118.18791791     12.98605116      66.04395604     
    5210.000 80.79480085      119.28369892     12.98627101      66.75624376     
    5210.500 86.54392974      102.57098596     12.98649086      67.53124376     
    5211.000 87.22419067      88.78193063      12.98671071      67.84215784     
    5211.500 83.29489742      83.82599035      12.98693056      67.66233766     
    5212.000 79.87840190      68.36748987      12.98715041      66.94935065     
    5212.500 76.03951018      55.81295686      12.98737025      66.22377622     
    5213.000 72.16741812      46.40099084      12.98759010      65.20479520     
    5213.500 68.18102243      42.09763849      12.98780995      64.24575425     
    5214.000 67.27322446      36.94562874      12.98802980      64.33470960     
    5214.500 67.00354234      34.55224869      12.98824965      64.64589054     
    5215.000 66.68834456      33.13104028      12.98846950      64.83702880     
    5215.500 66.64031586      32.25070774      12.98868934      64.66533467     
    5216.000 68.74000927      31.58865711      12.98890919      64.38526474     
    5216.500 71.66589641      33.86062785      12.98912904      64.66533467     
    5217.000 74.90618868      35.66583865      12.98934889      65.20479520     
    5217.500 76.59169555      36.26995608      12.98956874      66.10389610     
    5218.000 79.24351723      36.26995608      12.98978859      66.34431024     
    5218.500 74.05845473      35.00503418      12.99000843      66.58976478     
    5219.000 70.49060123      32.69156557      12.99022828      66.52347652     
    5219.500 70.57864786      33.66294762      12.99044813      66.20734266     
    5220.000 70.94655616      36.78803007      12.99066798      65.65734266     
    5220.500 73.09570276      43.29330861      12.99088783      65.10734266     
    5221.000 74.75495282      49.63860578      12.99110768      64.78521479     
    5221.500 74.78246347      69.36581940      12.99132752      64.24575425     
    5222.000 75.07314151      94.89711947      12.99154737      64.54815893     
    5222.500 75.25655247      129.82566000     12.99176722      65.12179855     
    5223.000 74.59201961      164.62188774     12.99198707      66.42614239     
    5223.500 98.40923164      174.14449698     12.99220692      67.30269730     
    5224.000 99.53928657      181.46192208     12.99242676      67.81098901     
    5224.500 93.84837898      190.06657429     12.99264661      68.32167832     
    5225.000 84.49498763      200.00000000     12.99286646      67.48251748     
    5225.500 75.09975341      215.56343023     12.99308631      65.32467532     
    5226.000 65.75852388      245.02271532     12.99330616      62.78561439     
    5226.500 59.90322789      252.34803980     12.99352601      59.09090909     
    5227.000 61.26494218      261.37404595     12.99374585      59.45054945     
    5227.500 63.89263592      247.29444701     12.99396570      58.43156843     
    5228.000 69.51088746      231.67848634     12.99418555      64.09590410     
    5228.500 70.91961757      132.51237827     12.99440540      66.14149600     
    5229.000 71.10388204      62.85221346      12.99462525      66.42899600     
    5229.500 63.64783578      41.77909570      12.99484510      66.71956016     
    5230.000 65.37505915      38.57560885      12.99506494      67.00538715     
    5230.500 67.93074592      37.64320229      12.99528479      67.27780801     
    5231.000 85.49365557      36.94562874      12.99550464      67.58171530     
    5231.500 105.69587707     43.92921499      12.99572449      69.97264154     
    5232.000 116.90316732     47.40012584      12.99594434      72.22455062     
    5232.500 114.53809820     41.52706760      12.99616419      73.17682318     
    5233.000 98.18705174      36.61704572      12.99638403      71.97802198     
    5233.500 68.40499285      29.06395048      12.99660388      69.76023976     
    5234.000 64.40437008      30.15690092      12.99682373      66.41892021     
    5234.500 64.37055655      26.06513963      12.99704358      66.51022456     
    5235.000 66.11992912      24.61559605      12.99726343      66.60152891     
    5235.500 66.35145989      23.72347433      12.99748328      66.69283325     
    5236.000 61.73614162      23.07566599      12.99770312      66.78413760     
    5236.500 56.80456482      22.29689684      12.99792297      65.32055445     
    5237.000 52.87905779      21.63207261      12.99814282      64.06593407     
    5237.500 50.09244067      22.75842588      12.99836267      62.44755245     
    5238.000 46.44467257      23.07566599      12.99858252      61.94885115     
    5238.500 47.57954720      22.09660109      12.99880236      61.48851149     
    5239.000 49.94397717      21.42148800      12.99902221      62.38761239     
    5239.500 55.66499893      20.46680424      12.99924206      63.28671329     
    5240.000 60.56212426      20.27878915      12.99946191      64.21301775     
    5240.500 65.47254999      20.27878915      12.99968176      65.15746841     
    5241.000 70.08023885      20.46680424      12.99990161      66.00047224     
    5241.500 74.65906005      22.23935462      13.00012145      66.44695603     
    5242.000 78.51073815      21.83263468      13.00034130      66.71426137     
    5242.500 82.69864776      23.00125001      13.00056115      67.32577601     
    5243.000 84.87938235      23.07566599      13.00078100      68.27835475     
    5243.500 83.27298082      20.86461949      13.00100085      68.62124977     
    5244.000 68.56368773      18.40013064      13.00122070      68.13928789     
    5244.500 61.97339328      16.06153699      13.00144054      66.45800466     
    5245.000 58.42515569      14.04504409      13.00166039      65.50449550     
    5245.500 55.86448835      11.42973932      13.00188024      65.20479520     
    5246.000 57.15632151      10.12795890      13.00210009      66.11481851     
    5246.500 59.83368131      9.02440907       13.00231994      67.24815185     
    5247.000 60.97439540      8.33200332       13.00253979      68.38161838     
    5247.500 56.37407806      8.05824406       13.00275963      69.34065934     
    5248.000 47.55977559      8.13295618       13.00297948      69.30229770     
    5248.500 38.85726541      7.68865804       13.00319933      68.90229770     
    5249.000 38.75817690      7.48473258       13.00341918      68.50149850     
