#--------------------------------------------------#
#-------------------ENVERUS, INC.------------------#
#------------------WWW.ENVERUS.COM-----------------#
#------------------COPYRIGHT 2020------------------#
#--------------------------------------------------#
#THIS FILE MAY BE USED ONLY IN ACCORDANCE WITH A CURRENT SUBSCRIPTION AGREEMENT BETWEEN
#THE USER AND ENVERUS, INC. NO PART OF THIS FILE MAY BE REPRODUCED, USED, COPIED,
#MODIFIED, PROPAGATED, OR DISTRIBUTED EXCEPT IN ACCORDANCE WITH THE SUBSCRIPTION
#AGREEMENT. UNAUTHORIZED USE OR DISTRIBUTION OF ALL OR ANY PART OF THIS FILE MAY VIOLATE
#COPYRIGHT, TRADEMARK, AND/OR OTHER LAWS AND IS SUBJECT TO CIVIL AS WELL AS CRIMINAL
#SANCTIONS.
#--------------------------------------------------#
#THIS FILE IS PROVIDED "AS-IS" AND ALL WARRANTIES ARE EXPRESSLY DISCLAIMED, WHETHER
#EXPRESS, ORAL, IMPLIED, STATUTORY OR OTHERWISE, INCLUDING ANY IMPLIED WARRANTY OF FITNESS
#FOR A PARTICULAR PURPOSE, MERCHANTABILITY, TITLE OR NON-INFRINGEMENT, AND ANY WARRANTIES
#ARISING BY VIRTUE OF CUSTOM OF TRADE OR COURSE OF DEALING.  FURTHER, ENVERUS, INC.
#AND ITS LICENSORS DO NOT REPRESENT OR WARRANT THAT THIS FILE WILL MEET USER'S
#REQUIREMENTS OR ARE SUITABLE FOR USER'S NEEDS OR THAT THE DATA OR RESULTS PROVIDED IN
#CONJUNCTION THEREWITH ARE CORRECT, ACCURATE, TIMELY OR RELIABLE. THESE DISCLAIMERS SHALL
#APPLY REGARDLESS OF ANY FAILURE OF ESSENTIAL PURPOSE OF ANY LIMITED REMEDY.  SOME
#JURISDICTIONS DO NOT ALLOW THE EXCLUSION OF CERTAIN WARRANTIES SO SOME OF THE ABOVE
#EXCLUSIONS MAY NOT APPLY. IN NO EVENT SHALL ENVERUS, INC. OR ANY OF ITS AFFILIATES
#BE LIABLE UNDER ANY LEGAL THEORY, WHETHER IN TORT (INCLUDING WITHOUT LIMITATION
#NEGLIGENCE), CONTRACT, STRICT LIABILITY, STATUTORY OR OTHERWISE, FOR ANY SPECIAL,
#INCIDENTAL, CONSEQUENTIAL, EXEMPLARY, PUNITIVE OR INDIRECT DAMAGE OF ANY KIND, INCLUDING
#WITHOUT LIMITATION LOSS OF REVENUE, PROFITS, GOODWILL, USE, AND/OR DATA OR THE COST OF
#PROCUREMENT OF SUBSTITUTE GOODS OR SERVICES, EVEN IF APPRISED OF THE POSSIBILITY OF SUCH
#DAMAGES IN ADVANCE.
#--------------------------------------------------#

~VERSION INFORMATION
VERS. 2.0 : CWLS LOG ASCII STANDARD - VERSION 2.0
WRAP. NO : ONE LINE PER DEPTH STEP
~WELL INFORMATION
#MNEMONIC     .UNIT              VALUE :DESCRIPTION
STRT       .FT                38.00000 :START DEPTH
STOP       .FT                20083.00000 :STOP DEPTH
STEP       .FT                0.50000 :STEP
NULL       .                -999.25000 :NULL VALUE
UWI       .                42389302750000 :UNIQUE WELL ID
API       .                42389302750000 :API NUMBER
COMP       .                 :COMPANY
WELL       .                 :WELL
FLD       .                 :FIELD
LOC       .                 :LOCATION
CNTY       .                 :COUNTY
STAT       .                 :STATE
CTRY       .                 :COUNTRY
SRVC       .                 :SERVICE COMPANY
DATE       .                 :DATE
~CURVE INFORMATION
#MNEMONIC     .UNIT      API CODE :CURVE DESCRIPTION
DEPTH       .FT                      :MEASURED DEPTH
CAL       .IN        UNKNOWN   :CAL
DT       .US/FT        UNKNOWN   :DT
GR       .GAPI        UNKNOWN   :GR
~A    DEPTH    CAL    DT    GR
# ...
15963.50000    -999.25000    107.54278    65.16872
15964.00000    -999.25000    104.57216    65.95909
15964.50000    -999.25000    101.60154    66.74945
15965.00000    -999.25000    98.29252    67.53982
15965.50000    -999.25000    94.30693    67.95507
15966.00000    -999.25000    90.32134    66.76560
15966.50000    -999.25000    86.33575    65.57613
15967.00000    -999.25000    88.30140    64.38666
15967.50000    -999.25000    90.34614    63.19720
15968.00000    -999.25000    89.55723    62.00773
15968.50000    -999.25000    87.34444    60.81826
15969.00000    -999.25000    85.13166    60.19574
15969.50000    -999.25000    82.91887    61.17515
15970.00000    -999.25000    103.77127    62.15457
15970.50000    -999.25000    101.78592    63.13399
15971.00000    -999.25000    99.80056    64.11340
15971.50000    -999.25000    96.93181    65.09282
15972.00000    -999.25000    93.87566    66.07223
15972.50000    -999.25000    90.81951    67.05165
15973.00000    -999.25000    87.76336    68.03106
15973.50000    -999.25000    84.70722    67.68272
15974.00000    -999.25000    81.65107    66.04095
15974.50000    -999.25000    78.59492    64.39918
15975.00000    -999.25000    75.53877    62.75741
15975.50000    -999.25000    92.79237    61.87970
15976.00000    -999.25000    95.19773    62.59864
15976.50000    -999.25000    97.60310    63.31759
15977.00000    -999.25000    100.26117    64.03653
15977.50000    -999.25000    103.76290    64.75547
15978.00000    -999.25000    107.26464    65.47441
15978.50000    -999.25000    110.76637    66.19336
15979.00000    -999.25000    114.26810    66.91230
15979.50000    -999.25000    117.76983    67.14637
15980.00000    -999.25000    97.79238    65.61170
15980.50000    -999.25000    103.49582    64.07704
15981.00000    -999.25000    109.19927    62.54237
15981.50000    -999.25000    114.90272    61.00771
15982.00000    -999.25000    120.60616    59.47304
15982.50000    -999.25000    113.40585    57.93838
15983.00000    -999.25000    106.05971    59.78042
15983.50000    -999.25000    100.91420    61.79870
15984.00000    -999.25000    105.41825    63.81697
15984.50000    -999.25000    109.92230    65.83524
15985.00000    -999.25000    113.85293    67.85352
15985.50000    -999.25000    108.56082    69.87179
15986.00000    -999.25000    103.26871    71.89006
15986.50000    -999.25000    79.73319    71.35676
15987.00000    -999.25000    78.59195    69.39498
15987.50000    -999.25000    77.45072    67.43320
15988.00000    -999.25000    76.30948    65.47143
15988.50000    -999.25000    75.16824    63.50965
15989.00000    -999.25000    74.02700    61.54787
15989.50000    -999.25000    72.88577    61.34427
15990.00000    -999.25000    71.74453    64.53965
15990.50000    -999.25000    76.66227    67.73504
15991.00000    -999.25000    93.82741    70.93042
15991.50000    -999.25000    95.88811    74.12581
15992.00000    -999.25000    97.94880    77.32119
15992.50000    -999.25000    99.84857    80.51657
15993.00000    -999.25000    100.67485    82.60881
15993.50000    -999.25000    101.50114    84.41044
15994.00000    -999.25000    102.10015    86.21208
15994.50000    -999.25000    101.00391    88.01371
15995.00000    -999.25000    99.90766    89.81534
15995.50000    -999.25000    87.96305    91.61698
15996.00000    -999.25000    88.94485    92.40491
15996.50000    -999.25000    89.92664    86.27127
15997.00000    -999.25000    90.90844    80.13764
15997.50000    -999.25000    91.89024    74.73853
15998.00000    -999.25000    92.87204    73.13736
15998.50000    -999.25000    93.85384    71.53619
15999.00000    -999.25000    94.83564    71.26030
15999.50000    -999.25000    95.81744    73.19453
16000.00000    -999.25000    59.71121    75.12877
16000.50000    -999.25000    62.39156    63.83393
16001.00000    -999.25000    65.07191    57.47751
16001.50000    -999.25000    67.75225    52.99448
16002.00000    -999.25000    66.08839    48.51144
16002.50000    -999.25000    63.77987    44.02840
16003.00000    -999.25000    61.47134    39.54536
16003.50000    -999.25000    59.16281    35.06233
16004.00000    -999.25000    56.85428    30.57929
16004.50000    -999.25000    54.54576    26.09625
16005.00000    -999.25000    52.23723    27.85091
16005.50000    -999.25000    49.92870    30.44989
16006.00000    -999.25000    51.48314    33.04888
16006.50000    -999.25000    53.48882    34.17602
16007.00000    -999.25000    55.49449    34.23813
16007.50000    -999.25000    57.50017    34.30025
16008.00000    -999.25000    58.94353    34.36237
16008.50000    -999.25000    59.10819    34.42449
16009.00000    -999.25000    59.27285    34.61016
16009.50000    -999.25000    59.43751    35.62903
16010.00000    -999.25000    59.60217    36.64791
16010.50000    -999.25000    59.76683    37.66678
16011.00000    -999.25000    59.93149    38.50440
16011.50000    -999.25000    60.09615    37.50991
16012.00000    -999.25000    60.01344    36.51542
16012.50000    -999.25000    59.85136    35.52094
16013.00000    -999.25000    59.68928    34.52645
16013.50000    -999.25000    59.52720    33.53197
16014.00000    -999.25000    59.36512    32.53748
16014.50000    -999.25000    59.20305    31.85941
16015.00000    -999.25000    59.04097    32.62085
16015.50000    -999.25000    59.23665    33.38229
16016.00000    -999.25000    59.88320    34.14373
16016.50000    -999.25000    60.52975    34.90518
16017.00000    -999.25000    61.17630    35.66662
16017.50000    -999.25000    61.82285    36.42806
16018.00000    -999.25000    61.45324    37.18950
16018.50000    -999.25000    61.06978    37.95095
16019.00000    -999.25000    60.68632    38.71239
16019.50000    -999.25000    60.30286    39.47383
16020.00000    -999.25000    59.91940    39.17811
16020.50000    -999.25000    59.53593    37.12008
16021.00000    -999.25000    59.15247    35.06205
16021.50000    -999.25000    58.76901    33.00402
16022.00000    -999.25000    58.38555    33.39032
16022.50000    -999.25000    58.00209    34.14035
16023.00000    -999.25000    57.77177    34.89038
16023.50000    -999.25000    58.03536    35.64041
16024.00000    -999.25000    58.29895    36.39044
16024.50000    -999.25000    58.56254    37.14047
16025.00000    -999.25000    58.82613    37.89050
16025.50000    -999.25000    58.72258    38.64053
16026.00000    -999.25000    58.59969    39.39057
16026.50000    -999.25000    58.47679    40.14059
16027.00000    -999.25000    58.35390    40.89062
16027.50000    -999.25000    58.35751    41.64066
16028.00000    -999.25000    58.58705    42.39069
16028.50000    -999.25000    58.81659    43.14072
16029.00000    -999.25000    59.04613    43.89075
16029.50000    -999.25000    59.27567    47.43908
16030.00000    -999.25000    59.50521    56.59066
16030.50000    -999.25000    59.73475    65.74224
16031.00000    -999.25000    77.54308    74.89382
16031.50000    -999.25000    86.37860    83.40331
16032.00000    -999.25000    88.92560    81.53579
16032.50000    -999.25000    91.47259    79.66827
16033.00000    -999.25000    94.01959    77.80075
16033.50000    -999.25000    96.56659    75.93323
16034.00000    -999.25000    97.76934    74.06571
16034.50000    -999.25000    98.70703    72.19819
16035.00000    -999.25000    100.32577    70.33067
16035.50000    -999.25000    93.12020    68.46315
16036.00000    -999.25000    96.16966    66.59563
16036.50000    -999.25000    99.21912    64.72811
16037.00000    -999.25000    99.90563    63.78010
16037.50000    -999.25000    97.72741    63.50551
16038.00000    -999.25000    95.54920    63.23092
16038.50000    -999.25000    93.37098    62.95632
16039.00000    -999.25000    94.21258    62.68173
16039.50000    -999.25000    95.13676    62.40714
16040.00000    -999.25000    96.06095    62.13255
16040.50000    -999.25000    95.87682    61.81445
16041.00000    -999.25000    94.18548    60.59359
16041.50000    -999.25000    92.49413    59.37273
16042.00000    -999.25000    107.12359    58.15187
16042.50000    -999.25000    105.60458    56.93101
16043.00000    -999.25000    108.25895    55.71015
