~Version Information Block
 VERS.                2.00:     CWLS LOG ASCII STANDARD - VERSION 2.000000
 WRAP.                  NO:     One Line Per Depth Step
#
~Well Information Block
#MNEM.UNIT                     Data                         Information
#----------   ------------------------------------------   ----------------
# Enverus has updated the API/UWI.  The previous names are renamed to  PREV_API / PREV_UWI
API.                             42-371-39483-90-00 : API (14 Digits with Dashes)
UWI.                                 42371394839000 : UNIQUE WELL ID

 STRT.FT                                    10010.0000:     START DEPTH
 STOP.FT                                    11812.0000:     STOP DEPTH
 STEP.FT                                        0.5000:     STEP
 NULL.                                       -999.2500:     NULL VALUE
 COMP.                           PATRIOT RESOURCES INC:     COMPANY
 WELL.                        ROOSTERFISH UNIT 22NE 1H:     WELL
 FLD .                             WOLFBONE TREND AREA:     FIELD
 LOC .                                                :     LOCATION
 SEC .                                              22:     SECTION
 CNTY.                                          PEACOS:     COUNTY
 STAT.                                           TEXAS:     STATE
 CTRY.                                           U.S.A:     COUNTRY
 SRVC.                                    SCHLUMBERGER:     SERVICE COMPANY
 DATE.                                      03/18/2017:     DATE
PREV_APII .                                  42371394830000:     API NUMBER
 PREV_UWI .                                  42371394830000:     UWI NUMBER
 TVD .                                              NO:     TVD flag
 WSTA.                                             LOC:     Well status
#
~Curve Information Block
#MNEM.UNIT       API CODE      Curve Description
#----------    -------------   -------------------
 DEPT.FT                   :   Depth in Feet
 ECGR.GAPI     35 310 01 01:   Environmentally Corrected Gamma Ray
 CALI.IN       70 280 01 01:   Caliper
 TENS.LBS                  :   Tension
 SPHI_476.V/V  61 890 01 01:   Sonic Porosity 47.6 Matrix
 DT  .US/F     60 520 08 01:   Delta-T
 DTSM.US/F                 :   Delta-T Shear Measurement
 STIT.FT/H                 :   STIT
#
~Parameter Information Block
#MNEM.UNIT            Value               Description
#----------    --------------------    -------------------
 RUN .                         ONE:    Run Number
 PDAT.                          GL:    Permanent Datum
 EPD .FT                        25:    Elevation Of Perm. Datum
 LMF .               KELLY BUSHING:    Log Measured From
 EKB .FT                          :    Elevation Of Kelly Bushing
 DF .FT                           :    Elevation Of Derrick Floor
 GL .FT                         25:    Elevation Of Ground Level
 TD  .FT                     18979:    Total Depth
 CSGD.FT                      5100:    Casing Bottom (Driller) 1
 CSGL.FT                     18979:    Casing Bottom (Logger) 1
 MUD .                   OIL BASED:    Drilling Fluid Type
 MUDV .CP                      102:    Drilling Fluid Viscosity
 MUDD .LB/USG                 13.0:    Drilling Fluid Density
 FL .ML/30MIN                     :    Drilling Fluid Loss
 PH.                           8.8:    Drilling Fluid Ph
 MUDS .                           :    Mud Sample Source
 RM .OHMM                         :    Resistivity Of Mud Sample
 RMT .DEGF                        :    Mud Sample Temperature
 RMF .OHMM                        :    Mud Filtrate Resistivity
 RMFT.DEGF                        :    Mud Filtrate Sample Temperature
 RMC .OHMM                        :    Mud Cake Resistivity
 RMCT.DEGF                        :    Mud Cake Sample Temperature
 RMB .OHMM                        :    Mud Resistivity At Bht
 TMAX .DEGF                    152:    Bottom Hole Temperature
#
~Other Information Block
<DescLogPlotStart>   NEURALOG PLOT DEFINITION
PLOTDEFVERSION: 3
LASFILE: D:\nds\projects\poojawells\December data\PoojaWells Digitizing_Cassidy
DEPTHSCALE: 240.000000
RESOLUTION: 144
DEPTHLABELFREQ: 100.000000
HEAVYGRIDFREQ: 100.000000
MEDIUMGRIDFREQ: 50.000000
LIGHTGRIDFREQ: 10.000000
#
#   TRACK 1
#
STARTTRACK: 
 LEFTX: 0.500000 inch
 RIGHTX: 3.000000 inch
 SCALETYPE: Linear
 NUMCHARTDIVISIONS: 10
CURVE: ECGR  0.000000   150.000000 (0,0,255)      Solid             2     Y    
BACKUP: 150.000000 300.000000 (0,0,255)      Solid             2    
CURVE: CALI  6.000000   16.000000  (0,131,131)    Dot               2     Y    
BACKUP: -4.000000  6.000000   (0,131,131)    Dot               2    
CURVE: TENS  10000.000000 0.000000   (255,0,255)    Short_Dash        2     N  
ENDTRACK: 
#
#   TRACK 2
#
STARTTRACK: 
 LEFTX: 3.500000 inch
 RIGHTX: 8.500000 inch
 SCALETYPE: Linear
 NUMCHARTDIVISIONS: 10
CURVE: SPHI_476 0.300000   -0.100000  (255,0,0)      Solid             2     N 
CURVE: DT    140.000000 40.000000  (255,131,0)    Dot               2     N    
CURVE: DTSM  240.000000 40.000000  (255,255,0)    Short_Dash        2     N    
ENDTRACK: 
#
#   TRACK 3
#
STARTTRACK: 
 LEFTX: 8.500000 inch
 RIGHTX: 9.256944 inch
 SCALETYPE: Linear
 NUMCHARTDIVISIONS: 10
CURVE: STIT  0.000000   50.000000  (0,0,255)      Solid             2     N    
ENDTRACK: 
<DescLogPlotEnd>
~A DEPTH     ECGR             CALI             TENS             SPHI_476             DT               DTSM             STIT            
# ...
   10376.000 95.82314455      8.24368624       4253.83710440    0.21160631       77.21448468      125.03249768     0.22935780      
   10376.500 100.87811389     8.25358719       4257.99088844    0.21494893       77.71587744      124.69823584     0.22935780      
   10377.000 97.30340734      8.26161690       4253.09739615    0.21829155       78.21727019      124.59331476     0.22935780      
   10377.500 94.88313734      8.26131182       4240.61617506    0.22163417       78.71866295      124.69359331     0.22935780      
   10378.000 95.75541092      8.26123247       4228.01171641    0.22395543       79.06685237      124.79387187     0.22935780      
   10378.500 97.01931142      8.26121988       4215.28722575    0.22206128       78.77089136      125.28899721     0.22935780      
   10379.000 99.05822984      8.26122928       4203.99546286    0.21829155       78.17740723      125.91573816     0.22935780      
   10379.500 99.80977395      8.26124285       4215.84636348    0.21600743       77.96167510      125.68245125     0.22935780      
   10380.000 98.85022446      8.26124237       4227.18808194    0.21699164       78.04867438      124.54038997     0.22935780      
   10380.500 99.91784543      8.26121153       4238.36126629    0.21899721       78.32535482      126.44011142     0.22935780      
   10381.000 92.60872205      8.25966591       4249.53445065    0.22194986       78.64528946      128.07799443     0.22935780      
   10381.500 90.88912731      8.25576522       4259.77653631    0.22596100       79.34540390      129.07807506     0.22935780      
   10382.000 96.52356115      8.25198534       4246.15921788    0.22936729       79.77218464      129.88684611     0.22935780      
   10382.500 105.28029146     8.24823429       4231.88653921    0.23223239       80.16613609      130.63214908     0.22935780      
   10383.000 114.17251169     8.24450336       4231.77974401    0.23440111       80.56008754      131.39071419     0.22935780      
   10383.500 123.11159456     8.24078561       4231.85417001    0.23621170       80.87743733      132.14221256     0.22935780      
   10384.000 130.90388108     8.23707188       4238.93685224    0.23621170       80.74164345      132.70891365     0.22935780      
   10384.500 136.93878717     8.23345272       4250.21400638    0.23209842       80.25449481      132.72144847     0.22935780      
   10385.000 128.94345305     8.23674157       4259.70940463    0.22641597       79.43403393      132.01949861     0.22935780      
   10385.500 117.29847409     8.24031398       4245.43743027    0.22073352       78.61357306      131.31754875     0.22935780      
   10386.000 109.93967564     8.24389990       4231.98291502    0.21563603       77.88765088      130.39461467     0.22935780      
   10386.500 106.89443237     8.24749935       4248.36243518    0.21334819       77.55311681      129.21362890     0.22935780      
   10387.000 103.80938206     8.25110653       4267.19419827    0.21169916       77.39871166      128.05897519     0.22935780      
   10387.500 96.65250161      8.25470466       4287.51709936    0.21169916       77.38817862      127.04286609     0.22935780      
   10388.000 102.70482686     8.25825159       4268.54426192    0.21052925       77.07495978      126.81795499     0.22935780      
   10388.500 112.66110554     8.26138839       4246.23816999    0.20852368       76.83414631      126.61564488     0.22935780      
   10389.000 122.54486510     8.26129422       4236.84254182    0.20653916       76.67827298      126.40668524     0.22935780      
   10389.500 125.33116499     8.26129987       4251.52937054    0.20446143       76.42757660      126.17527319     0.22935780      
   10390.000 114.98902707     8.26148936       4259.78091327    0.20296797       76.17688022      125.94386115     0.22935780      
   10390.500 106.03650929     8.26554383       4259.77653631    0.20259656       76.07938719      125.71244911     0.22935780      
   10391.000 96.82276862      8.26927826       4256.22143220    0.20396926       76.40750451      126.08436132     0.22935780      
   10391.500 94.12612328      8.27300211       4237.93803961    0.20987465       77.05636572      126.65738162     0.22935780      
   10392.000 96.49282254      8.27673293       4219.65464703    0.21452013       77.70522694      127.23040191     0.22935780      
   10392.500 104.10413247     8.28048356       4203.91061453    0.21871360       78.35408815      127.80342220     0.22935780      
   10393.000 115.20981066     8.28426763       4241.41593690    0.22290707       79.00294937      128.37644250     0.22935780      
   10393.500 126.00740323     8.28816964       4276.20173242    0.22658774       79.50932076      128.94946279     0.22935780      
   10394.000 131.86159177     8.28697189       4273.11970827    0.22939276       79.85643883      129.52248309     0.22935780      
   10394.500 123.88714048     8.28340597       4251.12347844    0.23179944       80.20355689      130.11142061     0.22935780      
   10395.000 112.27936903     8.27980006       4232.08750778    0.23454039       80.59888579      130.46594074     0.22935780      
   10395.500 103.89966078     8.27618022       4248.20430966    0.23337047       80.45961003      130.83059002     0.22935780      
   10396.000 100.62564540     8.27256324       4259.77653631    0.23082372       80.08356546      131.22562674     0.22935780      
   10396.500 97.59422687      8.26895083       4259.77653631    0.22767211       79.62395543      131.50417827     0.22935780      
   10397.000 96.60284239      8.26534444       4259.77653631    0.22562674       79.35004643      130.28203343     0.22935780      
   10397.500 94.98544067      8.26132241       4245.81005587    0.22562674       79.20612813      128.99721448     0.22935780      
   10398.000 95.90198915      8.25151781       4225.69832402    0.22660565       79.46568752      129.32103064     0.22935780      
   10398.500 97.85909851      8.24040988       4203.91061453    0.22768802       79.69359331      129.69707521     0.22935780      
   10399.000 99.80441533      8.23464900       4234.63687151    0.22969359       79.90250696      129.93143347     0.22935780      
   10399.500 101.76128070     8.24030229       4268.15642458    0.23064067       79.90250696      130.08609366     0.22935780      
   10400.000 103.91583733     8.24570247       4283.05400372    0.22844708       79.75328293      130.24201144     0.22935780      
   10400.500 106.81486570     8.25102870       4271.88081937    0.22619081       79.39514524      130.39145524     0.22935780      
   10401.000 115.62880058     8.25631334       4259.77653631    0.22437326       79.08774373      130.26031960     0.22935780      
   10401.500 113.88243998     8.26110350       4259.77653631    0.22284123       78.83704735      130.14201931     0.22935780      
   10402.000 110.65324620     8.26119897       4259.77653631    0.21958217       78.53263032      129.73094912     0.22935780      
   10402.500 107.35835819     8.26121135       4259.77653631    0.21657382       78.06705133      129.27128126     0.22935780      
   10403.000 108.26650184     8.26122395       4259.77653631    0.21325905       77.60147234      128.79805500     0.22935780      
   10403.500 106.28202500     8.26123221       4259.78803745    0.20891365       77.13589335      128.32384877     0.22935780      
   10404.000 103.31381357     8.26123596       4259.69802339    0.20562674       76.47632312      127.63015873     0.22935780      
   10404.500 99.79065623      8.26123596       4259.84100515    0.19944290       75.63068923      126.72378164     0.22935780      
   10405.000 96.21497048      8.26123596       4264.98157712    0.19832869       75.65957235      126.96506565     0.22935780      
   10405.500 93.70110188      8.26123596       4277.53890554    0.20278552       76.13385407      126.65306428     0.22935780      
   10406.000 94.15453075      8.26123596       4287.16635630    0.20256267       75.94806570      126.41524790     0.22935780      
