#--------------------------------------------------#
#-------------------ENVERUS, INC.------------------#
#------------------WWW.ENVERUS.COM-----------------#
#------------------COPYRIGHT 2020------------------#
#--------------------------------------------------#
#THIS FILE MAY BE USED ONLY IN ACCORDANCE WITH A CURRENT SUBSCRIPTION AGREEMENT BETWEEN
#THE USER AND ENVERUS, INC. NO PART OF THIS FILE MAY BE REPRODUCED, USED, COPIED,
#MODIFIED, PROPAGATED, OR DISTRIBUTED EXCEPT IN ACCORDANCE WITH THE SUBSCRIPTION
#AGREEMENT. UNAUTHORIZED USE OR DISTRIBUTION OF ALL OR ANY PART OF THIS FILE MAY VIOLATE
#COPYRIGHT, TRADEMARK, AND/OR OTHER LAWS AND IS SUBJECT TO CIVIL AS WELL AS CRIMINAL
#SANCTIONS.
#--------------------------------------------------#
#THIS FILE IS PROVIDED "AS-IS" AND ALL WARRANTIES ARE EXPRESSLY DISCLAIMED, WHETHER
#EXPRESS, ORAL, IMPLIED, STATUTORY OR OTHERWISE, INCLUDING ANY IMPLIED WARRANTY OF FITNESS
#FOR A PARTICULAR PURPOSE, MERCHANTABILITY, TITLE OR NON-INFRINGEMENT, AND ANY WARRANTIES
#ARISING BY VIRTUE OF CUSTOM OF TRADE OR COURSE OF DEALING.  FURTHER, ENVERUS, INC.
#AND ITS LICENSORS DO NOT REPRESENT OR WARRANT THAT THIS FILE WILL MEET USER'S
#REQUIREMENTS OR ARE SUITABLE FOR USER'S NEEDS OR THAT THE DATA OR RESULTS PROVIDED IN
#CONJUNCTION THEREWITH ARE CORRECT, ACCURATE, TIMELY OR RELIABLE. THESE DISCLAIMERS SHALL
#APPLY REGARDLESS OF ANY FAILURE OF ESSENTIAL PURPOSE OF ANY LIMITED REMEDY.  SOME
#JURISDICTIONS DO NOT ALLOW THE EXCLUSION OF CERTAIN WARRANTIES SO SOME OF THE ABOVE
#EXCLUSIONS MAY NOT APPLY. IN NO EVENT SHALL ENVERUS, INC. OR ANY OF ITS AFFILIATES
#BE LIABLE UNDER ANY LEGAL THEORY, WHETHER IN TORT (INCLUDING WITHOUT LIMITATION
#NEGLIGENCE), CONTRACT, STRICT LIABILITY, STATUTORY OR OTHERWISE, FOR ANY SPECIAL,
#INCIDENTAL, CONSEQUENTIAL, EXEMPLARY, PUNITIVE OR INDIRECT DAMAGE OF ANY KIND, INCLUDING
#WITHOUT LIMITATION LOSS OF REVENUE, PROFITS, GOODWILL, USE, AND/OR DATA OR THE COST OF
#PROCUREMENT OF SUBSTITUTE GOODS OR SERVICES, EVEN IF APPRISED OF THE POSSIBILITY OF SUCH
#DAMAGES IN ADVANCE.
#--------------------------------------------------#

# EXPORTED FROM DI TRANSFORM
# DI TRANSFORM - A PRODUCT OF DRILLINGINFO, INC. - WWW.DRILLINGINFO.COM
#
~VERSION INFORMATION
 VERS.        2.0 : LAS ASCII STANDARD - VERSION 2.0
 WRAP.         NO : ONE LINE PER DEPTH STEP

~WELL INFORMATION
#MNEM.UNIT       DATA TYPE       INFORMATION
#---------       ---------       -----------
 STRT.FT           100 : START DEPTH
 STOP.FT         18040 : STOP DEPTH
 STEP.FT           0.5 : STEP LENGTH
 NULL.         -999.25 : NULL VALUE
 UWI.   42371302980000 : UNIQUE WELL ID
 API.   42371302980000 : WELL IDENTIFIER
 COMP.                 : COMPANY
 WELL.          DRD_55 : WELL NAME
 FLD.                  : FIELD NAME
 LOC.                  : WELL LOCATION
 CNTY.                 : COUNTY
 STAT.                 : STATE OR PROVINCE
 CTRY.                 : COUNTRY
 SRVC.                 : SERVICE COMPANY
 DATE.                 : DATE

~CURVE INFORMATION
#MNEM.UNIT       API CODE       CURVE DESCRIPTION
#---------       --------       -----------------
 DEPT.FT        : <MEASURED DEPTH>
 CAL.IN         : CALIPER
 DT.US/FT       : SONIC
 GR.GAPI        : GAMMA RAY

~PARAMETER INFORMATION
#MNEM.UNIT       VALUE       DESCRIPTION
#---------       -----       -----------

~A       DEPT         CAL          DT          GR
# ...
        11620        11.4     77.5118     52.8389
      11620.5     13.5018     81.7436     50.6321
        11621     13.5357     98.0647     44.7842
      11621.5     13.4887     96.2866      37.421
        11622     13.4406     88.3949     29.0326
      11622.5     11.5431     77.0415     22.4626
        11623     10.9646     53.7914     17.5152
      11623.5     10.8428     51.8732     15.7895
        11624     10.7032     53.9367     16.6643
      11624.5     10.2919     55.4071      19.227
        11625     10.2573     54.0903     22.6528
      11625.5     10.2492     60.4042     26.6515
        11626     10.5731     70.8476     31.9835
      11626.5     10.7332     74.7305     35.7123
        11627     11.0065     79.0411     40.1832
      11627.5     11.1423     81.4169      41.726
        11628     11.0991      81.778     42.7809
      11628.5     10.8169     71.9556     43.8529
        11629     10.9289     74.3993      46.664
      11629.5     11.0129     79.5569      47.893
        11630     11.0388     81.7887     48.1781
      11630.5      11.029     82.6086      48.429
        11631     10.9891       84.89     47.0106
      11631.5     10.9353      83.008     45.2784
        11632     10.9353     79.8095     43.7218
      11632.5     10.9353     76.2643     42.6925
        11633     10.9353     77.6147     42.5473
      11633.5     10.9189     78.3355     43.1717
        11634     10.8577     79.3083     43.6533
      11634.5     10.8577     80.1837      42.624
        11635     10.8292     75.1643     40.6176
      11635.5     10.6711     71.0541     36.4339
        11636     10.7721      70.201     35.7674
      11636.5     10.8146      73.535     37.3359
        11637     10.8393     82.2276     41.5285
      11637.5     10.8639     84.0456     44.1017
        11638     10.8836     85.4323     46.3623
      11638.5     10.8836     84.2771     47.3915
        11639     10.8681     75.9052     48.1781
      11639.5     10.8577     77.4197     47.7733
        11640     10.8577     77.6587     48.1781
      11640.5     10.9095     78.1863     47.1852
        11641     10.9492     80.9226     45.0798
      11641.5     10.9692     84.5897     44.2554
        11642     11.0091     81.9561     45.6598
      11642.5     11.0388     79.9349     47.0013
        11643     11.0639     75.1245      48.153
      11643.5     11.0771     76.7662     51.0121
        11644     11.1164     83.8761     47.7642
      11644.5     11.1164     83.4046     45.9871
        11645     11.1093     80.8659     43.0308
      11645.5     11.0928     79.0579     41.7004
        11646     11.0363     74.8133     43.0701
      11646.5     11.0129     73.1398     45.5744
        11647     11.0045     77.0436     50.3567
      11647.5     10.9951     80.2976       53.46
        11648     10.9857     82.0537     54.3971
      11648.5     10.9763     83.4076     55.0215
        11649     10.9669     84.6815     53.5978
      11649.5     10.9612     86.7849     49.0227
        11650     10.9749     79.8709     43.4737
      11650.5     11.0407     74.7988     40.6444
        11651     11.0856     69.6559     40.6566
      11651.5     11.1463     72.4552     42.2958
        11652     11.2031     74.0241     44.4126
      11652.5     11.2306     74.7524     45.4419
        11653     11.2458     75.8395     46.4712
      11653.5     11.2458     76.9262     46.9636
        11654     11.2458     78.5104     48.3221
      11654.5     11.2458     78.1753     48.2026
        11655     11.2458      77.339     48.0285
      11655.5     11.2394     77.6358     48.0285
        11656     11.1921     76.5901     45.8297
      11656.5     11.1219     78.9924     45.6538
        11657     11.0905      85.437     47.3129
      11657.5     11.1336     91.5479     48.8312
        11658     11.1994     93.8893     49.3655
      11658.5     11.2845     93.4396     49.6439
        11659     11.3827       91.66     49.8941
      11659.5     11.4635     81.3524     50.1169
        11660     11.3327     76.2642     44.5245
      11660.5     10.9913     69.8134     38.3749
        11661     11.0109     78.0646     39.1142
      11661.5     11.0356     80.7195     41.9052
        11662     11.0603     77.7411     43.6509
      11662.5     11.1164     78.1583     45.6174
        11663     11.1164     78.3928     48.7183
      11663.5     11.3492     80.4426     50.2945
        11664     11.3492     82.1646     50.9702
      11664.5      11.333     82.7879      52.084
        11665     11.2975     82.2793     52.5133
      11665.5     11.2975     80.6816     54.1225
        11666     11.4527     80.0141     55.4185
      11666.5     11.4307     80.8642     56.5339
        11667     11.3171     83.0033     57.4899
      11667.5     11.3007     89.3135     57.4899
        11668     11.3247     92.3892     59.0879
      11668.5     11.3416     92.9366     57.3359
        11669     11.2868     87.4291      52.953
      11669.5     11.1589     66.7617     51.5467
        11670     11.1423     64.4039     49.3704
      11670.5     11.1423      66.684     51.4402
        11671     11.1423     72.4265     56.8501
      11671.5      11.216      82.507     59.3306
        11672     11.2553     88.1686     59.7606
      11672.5     11.2254      82.319       58.34
        11673     11.1955     80.6496      55.717
      11673.5     11.1656     85.0468     51.9803
        11674     11.1423     86.0073     46.0805
      11674.5     11.0879     76.2873     43.4183
        11675     11.0129     74.4282     40.4534
      11675.5     10.9563     71.4813     37.9809
        11676     10.9164     70.5912     36.9516
      11676.5     10.8765     71.4423     36.4372
        11677     10.8529      74.516      37.539
      11677.5     10.8928     75.4372     40.2534
        11678     10.9586     78.0469     42.6306
      11678.5     10.9498     78.1748     43.9033
        11679     10.7822     73.8323     44.9326
      11679.5     10.7542     69.1304     43.7039
        11680     10.7542     68.2548     40.4308
      11680.5     10.6595     69.4064     38.6982
        11681      10.581     73.4618     39.0209
      11681.5     10.6946     77.2614     41.5151
        11682      10.838     77.8469     42.6062
      11682.5     10.8836     78.1551     43.6354
        11683     10.9095     75.6357     43.7247
      11683.5       10.66     75.1468     43.3198
        11684     10.7336     75.6856     43.1553
      11684.5     10.7665     76.6993     42.5309
        11685     10.7994     76.6678     41.9065
      11685.5     10.8165     76.0424     42.1187
        11686     10.8296     75.3242     43.3811
      11686.5     10.9628     74.9483     45.4873
        11687     11.4952     78.3019     49.0409
      11687.5     11.6911     83.1361     53.7718
        11688     12.1056     91.3375      58.851
      11688.5     12.3841     90.0919     60.9612
        11689     12.2938     82.6353     60.2644
      11689.5     11.9221     77.9705     56.6855
        11690      11.636     77.5862      53.881
      11690.5      11.184      77.278     52.8517
        11691     10.6768     76.5461     47.3721
      11691.5      10.599     78.4003     48.5729
        11692     10.6389     84.4949     54.3015
      11692.5     10.6718     83.6738     53.2131
        11693     10.7651     80.6557     49.4579
      11693.5     10.9111     78.3338      46.506
        11694     11.0519     79.5628     44.1296
      11694.5     11.0905     77.2266     44.8562
        11695     11.1513     73.4934     46.8316
      11695.5     11.4144     77.2539     52.4675
        11696     11.4895     82.9156     58.6507
      11696.5     11.5553     85.2224     58.6432
        11697     11.6147     88.0098     58.7288
      11697.5     11.6868     91.5739     58.8145
        11698      11.732     83.5896     58.9002
      11698.5      11.596      82.267     58.1632
        11699     10.8396     75.0363     50.3179
      11699.5     10.7058     71.6759     46.1359
