#--------------------------------------------------#
#-------------------ENVERUS, INC.------------------#
#------------------WWW.ENVERUS.COM-----------------#
#------------------COPYRIGHT 2020------------------#
#--------------------------------------------------#
#THIS FILE MAY BE USED ONLY IN ACCORDANCE WITH A CURRENT SUBSCRIPTION AGREEMENT BETWEEN
#THE USER AND ENVERUS, INC. NO PART OF THIS FILE MAY BE REPRODUCED, USED, COPIED,
#MODIFIED, PROPAGATED, OR DISTRIBUTED EXCEPT IN ACCORDANCE WITH THE SUBSCRIPTION
#AGREEMENT. UNAUTHORIZED USE OR DISTRIBUTION OF ALL OR ANY PART OF THIS FILE MAY VIOLATE
#COPYRIGHT, TRADEMARK, AND/OR OTHER LAWS AND IS SUBJECT TO CIVIL AS WELL AS CRIMINAL
#SANCTIONS.
#--------------------------------------------------#
#THIS FILE IS PROVIDED "AS-IS" AND ALL WARRANTIES ARE EXPRESSLY DISCLAIMED, WHETHER
#EXPRESS, ORAL, IMPLIED, STATUTORY OR OTHERWISE, INCLUDING ANY IMPLIED WARRANTY OF FITNESS
#FOR A PARTICULAR PURPOSE, MERCHANTABILITY, TITLE OR NON-INFRINGEMENT, AND ANY WARRANTIES
#ARISING BY VIRTUE OF CUSTOM OF TRADE OR COURSE OF DEALING.  FURTHER, ENVERUS, INC.
#AND ITS LICENSORS DO NOT REPRESENT OR WARRANT THAT THIS FILE WILL MEET USER'S
#REQUIREMENTS OR ARE SUITABLE FOR USER'S NEEDS OR THAT THE DATA OR RESULTS PROVIDED IN
#CONJUNCTION THEREWITH ARE CORRECT, ACCURATE, TIMELY OR RELIABLE. THESE DISCLAIMERS SHALL
#APPLY REGARDLESS OF ANY FAILURE OF ESSENTIAL PURPOSE OF ANY LIMITED REMEDY.  SOME
#JURISDICTIONS DO NOT ALLOW THE EXCLUSION OF CERTAIN WARRANTIES SO SOME OF THE ABOVE
#EXCLUSIONS MAY NOT APPLY. IN NO EVENT SHALL ENVERUS, INC. OR ANY OF ITS AFFILIATES
#BE LIABLE UNDER ANY LEGAL THEORY, WHETHER IN TORT (INCLUDING WITHOUT LIMITATION
#NEGLIGENCE), CONTRACT, STRICT LIABILITY, STATUTORY OR OTHERWISE, FOR ANY SPECIAL,
#INCIDENTAL, CONSEQUENTIAL, EXEMPLARY, PUNITIVE OR INDIRECT DAMAGE OF ANY KIND, INCLUDING
#WITHOUT LIMITATION LOSS OF REVENUE, PROFITS, GOODWILL, USE, AND/OR DATA OR THE COST OF
#PROCUREMENT OF SUBSTITUTE GOODS OR SERVICES, EVEN IF APPRISED OF THE POSSIBILITY OF SUCH
#DAMAGES IN ADVANCE.
#--------------------------------------------------#

~VERSION INFORMATION
VERS. 2.0 : CWLS LOG ASCII STANDARD - VERSION 2.0
WRAP.  NO : ONE LINE PER DEPTH STEP
~WELL INFORMATION
#MNEMONIC     .UNIT              VALUE :DESCRIPTION
STRT       .FT                10841 :START DEPTH
STOP       .FT                18209 :STOP DEPTH
STEP       .FT                   0.500 :STEP
NULL       .                  -999.99 :NULL
UWI        .                42371326180000 :UNIQUE WELL ID
API        .                42371326180000 :API NUMBER
COMP       .         :COMPANY
WELL       .        :WELL
DATE       .                 :LOG DATE
FLD       .                 :FIELD NAME
LOC       .                  UNK :LOCATION
CNTY       .                 UNK :COUNTY
STAT       .                 UNK :STATE
CTRY       .                 UNK :COUNTY
SRVC       .                 UNK :SERVICE COMPANY
~CURVE INFORMATION
#MNEMONIC     .UNIT      API CODE :CURVE DESCRIPTION
DEPTH       .FT                      :MEASURED DEPTH
CAL.IN        UNKNOWN   :CAL
DT.MSEC/FT        UNKNOWN   :DT
GR.API        UNKNOWN   :GR
ILD.OHM        UNKNOWN   :ILD
ILS.OHM        UNKNOWN   :ILS
SP.MV        UNKNOWN   :SP
~A    DEPTH    CAL    DT    GR    ILD    ILS    SP
# ...
 12351.5     9.33368   85.72631   57.3596   5.22963   5.8771   -16.89798
 12352     9.33371   86.91765   54.66855   5.22348   5.74166   -16.75535
 12352.5     9.33374   86.8707   57.83579   5.21732   5.71749   -16.61272
 12353     9.33165   85.80738   61.21411   5.21117   5.74699   -16.4701
 12353.5     9.32155   84.89025   63.89335   5.20502   5.77648   -16.32747
 12354     9.31146   84.45273   66.0051   5.2317   5.80597   -16.18484
 12354.5     9.30136   84.798   68.11685   5.29975   5.83547   -16.57419
 12355     9.29064   84.01958   67.90136   5.36781   6.00311   -17.04558
 12355.5     9.26956   83.24116   64.82487   5.43586   6.17438   -17.51697
 12356     9.24848   82.96491   61.57414   5.50392   6.34565   -17.98836
 12356.5     9.2274   83.02587   61.34702   5.57197   6.40338   -18.21058
 12357     9.20631   83.2542   62.9671   5.64002   6.39256   -17.95322
 12357.5     9.18828   83.57927   64.04458   5.70808   6.38175   -17.69586
 12358     9.20858   83.64684   62.82874   5.77613   6.37094   -17.4385
 12358.5     9.22888   83.29034   61.00541   5.84419   6.42762   -17.18115
 12359     9.24917   83.21396   60.59843   5.91224   6.57613   -16.92379
 12359.5     9.26947   83.13758   59.82197   5.98029   6.72464   -16.66643
 12360     9.28977   82.93482   58.39258   6.04835   6.87315   -16.53303
 12360.5     9.29963   82.85703   56.7291   6.1164   6.92268   -16.85122
 12361     9.3081   83.24127   56.96804   6.09956   6.89705   -17.16942
 12361.5     9.31657   83.33354   59.05978   6.02044   6.87142   -17.48761
 12362     9.32505   83.10453   63.76446   5.9427   6.84578   -17.36673
 12362.5     9.33352   82.9598   68.74395   5.87035   6.71066   -17.1869
 12363     9.28376   82.81507   70.48356   5.798   6.48088   -17.00708
 12363.5     9.22748   83.02534   65.34549   5.72565   6.2511   -16.82725
 12364     9.1712   83.84377   60.84688   5.6533   6.02132   -16.64743
 12364.5     9.11827   83.91558   59.89873   5.58094   5.95839   -16.46761
 12365     9.08256   83.16537   62.16104   5.50859   5.97909   -16.58774
 12365.5     9.04684   82.82467   64.79118   5.43624   5.95891   -16.83394
 12366     9.01112   82.83761   65.37472   5.36389   5.85015   -17.08014
 12366.5     9.12631   83.08618   62.55122   5.4334   5.74138   -17.11304
 12367     9.32896   83.59122   61.63479   5.55289   5.63261   -17.10779
 12367.5     9.43482   84.32304   62.17517   5.67238   5.72823   -17.10253
 12368     9.51083   85.33027   62.02225   5.79187   5.95063   -17.09728
 12368.5     9.49711   86.18113   60.41131   5.74599   6.17303   -17.09202
 12369     9.25262   86.48875   56.72009   5.62353   6.39544   -17.08677
 12369.5     9.32632   85.77128   55.46446   5.50106   6.26484   -17.08151
 12370     9.40003   85.41871   57.34997   5.45667   5.89485   -17.07625
 12370.5     9.40017   85.60143   62.2496   5.50273   5.52486   -17.25746
 12371     9.37487   86.55433   67.32965   5.5488   5.31427   -17.89837
 12371.5     9.34957   87.39508   69.04684   5.59487   5.43454   -18.53928
 12372     9.32427   87.36124   67.58156   5.64094   5.85876   -19.18019
 12372.5     9.33528   85.31401   65.29886   5.68701   6.28297   -19.02646
 12373     9.3715   84.9426   63.01616   5.73308   6.70718   -18.82085
 12373.5     9.40773   84.86629   60.73345   5.77915   7.13139   -18.41231
 12374     9.49838   84.9015   58.99226   5.73013   7.36072   -18.00376
 12374.5     9.58759   85.4396   59.42388   5.63695   6.81705   -17.59521
 12375     9.58762   87.44924   62.52704   5.70535   6.27337   -17.384
 12375.5     9.58765   89.48171   66.53373   6.13102   5.7297   -17.37876
 12376     9.58769   91.15679   69.14652   6.55669   5.32161   -17.46282
 12376.5     9.60564   92.31311   68.47872   6.98236   5.68615   -18.26125
 12377     9.83814   92.29054   60.31987   7.80618   8.6621   -19.05967
 12377.5     10.07065   89.06832   49.45685   9.14571   16.02762   -19.8581
 12378     10.30316   81.95578   38.3793   10.48524   25.53621   -20.16017
 12378.5     10.35286   72.57219   31.14788   11.82477   35.0448   -20.02904
 12379     10.29458   64.19135   28.3967   13.16429   41.13248   -19.8979
 12379.5     10.27772   63.23146   30.90455   14.02452   36.8028   -19.76677
 12380     10.26085   68.95815   35.36768   14.32782   23.72816   -19.63563
 12380.5     10.24399   75.12148   40.88161   13.94562   12.96079   -19.5045
 12381     10.04452   81.14311   46.39555   13.56341   10.51222   -19.84629
 12381.5     9.9353   83.1195   50.91131   13.1812   10.06123   -20.28484
 12382     9.95564   83.41002   50.14289   13.34968   11.49246   -20.72338
 12382.5     10.00675   80.43076   45.72865   14.7053   15.26716   -21.16193
 12383     10.09541   77.35762   40.96167   16.06092   19.18843   -21.14095
 12383.5     10.22312   74.28449   36.19469   17.41654   31.02065   -20.99182
 12384     10.3613   70.75946   31.79094   18.08462   43.19765   -20.8427
 12384.5     10.42969   66.9036   27.87007   16.95224   55.40205   -20.69358
 12385     10.42972   64.03012   26.71363   15.81986   52.62208   -20.54446
 12385.5     10.42975   65.43882   32.18771   14.68748   33.09482   -21.10535
 12386     10.34998   73.97445   41.03252   14.16641   15.02833   -21.85329
 12386.5     10.21668   79.59657   50.72653   13.73048   8.78757   -23.19156
 12387     10.08339   84.32834   57.56186   13.29456   8.15196   -24.60692
 12387.5     9.95009   84.69667   58.37863   13.24208   10.57193   -26.02229
 12388     9.90404   82.67002   55.08055   13.3897   15.81979   -27.43765
 12388.5     9.90407   77.29463   45.47347   13.53733   19.63524   -28.27698
 12389     9.85807   76.5372   36.2475   13.22541   20.4379   -28.70242
 12389.5     9.77846   76.50752   30.93121   12.78484   18.74683   -28.87252
 12390     9.69884   77.32171   30.6262   12.99671   15.92021   -29.01869
 12390.5     9.67038   80.11975   34.69157   13.2678   12.58065   -29.1733
 12391     9.66693   82.52083   39.05401   13.53889   9.95021   -29.33525
 12391.5     9.66348   85.75127   42.85365   13.80998   8.96116   -30.06857
 12392     9.66002   88.14575   43.13592   14.08107   9.45409   -31.68257
 12392.5     9.65657   88.29959   36.99484   14.35216   13.68866   -33.29658
 12393     9.65312   86.12478   30.18568   15.58532   18.13297   -34.48858
 12393.5     9.79458   82.77943   26.57053   16.8186   22.57728   -34.62011
 12394     10.00137   79.16695   25.27403   18.05189   26.2873   -34.75164
 12394.5     10.18958   75.81809   26.47666   19.28518   27.30498   -34.666
 12395     10.19897   74.53841   29.13322   19.82646   25.42764   -34.47186
 12395.5     10.199   74.65014   31.19154   19.0541   22.56389   -34.27772
 12396     10.23103   75.76169   32.12379   17.66976   19.10403   -34.08358
 12396.5     10.27905   78.14532   33.47779   16.28541   15.64418   -34.7987
 12397     10.32707   82.4798   39.14766   14.90106   12.56668   -35.65431
 12397.5     10.37508   84.8522   44.81753   14.34066   10.79971   -36.50993
 12398     10.38846   85.03474   47.43727   13.9097   11.59851   -37.36554
 12398.5     10.37711   81.76282   45.95993   13.47873   13.49841   -38.22116
 12399     10.18897   78.34701   40.82246   13.80514   14.90948   -38.50247
 12399.5     10.11514   75.94252   35.17676   14.30617   15.23677   -38.68657
 12400     10.11518   75.32278   32.69498   14.8072   15.12215   -38.62173
 12400.5     10.11521   75.43449   35.44339   15.30823   15.23768   -38.54439
 12401     10.09552   75.15529   37.8272   15.80002   15.7827   -38.46705
 12401.5     10.07382   75.28778   36.91315   16.26432   16.04025   -38.38972
 12402     10.05194   76.37601   32.37327   16.72862   15.73755   -38.31238
 12402.5     9.89992   77.42526   28.67018   17.19292   15.43485   -38.88374
 12403     9.81501   77.66876   28.29806   17.65722   15.30654   -39.48189
 12403.5     9.7517   76.12166   28.24562   18.12152   16.20725   -40.08004
 12404     9.68839   74.31471   27.64965   18.52689   17.10796   -40.1531
 12404.5     9.67712   72.66409   27.40142   18.64179   17.64358   -39.38955
 12405     9.73342   72.23437   28.42353   18.7567   17.32523   -38.62601
