~Version Information Block
 VERS.                2.00:     CWLS LOG ASCII STANDARD - VERSION 2.000000
 WRAP.                  NO:     One Line Per Depth Step
#
~Well Information Block
#MNEM.UNIT                     Data                         Information
#----------   ------------------------------------------   ----------------
 STRT.FT                                       50.0000:     START DEPTH
 STOP.FT                                    15192.0000:     STOP DEPTH
 STEP.FT                                        0.5000:     STEP
 NULL.                                       -999.0000:     NULL VALUE
 COMP.                                 MOBIL PRODUCING:     COMPANY
 WELL.                                     ST MCINTYRE:     WELL
 FLD .                                   ROJO CABALLOS:     FIELD
 LOC .                                         UNKNOWN:     LOCATION
 LONG.                                 -103.1618580000:     LONGITUDE
 LATI.                                   31.1192890000:     LATITUDE
 CNTY.                                           PECOS:     COUNTY
 STAT.                                           TEXAS:     STATE
 CTRY.                                           U.S.A:     COUNTRY
 SRVC.                                         UNKNOWN:     SERVICE COMPANY
 DATE.                                         UNKNOWN:     DATE
 API .                                  42371053110000:     API NUMBER
 UWI .                                  42371053110000:     UWI NUMBER
 SLAT.                                       31.119289:     Surface latitude
 SLON.                                     -103.161858:     surface longitude
 TVD .                                              NO:     TVD flag
 WSTA.                                             LOC:     Well status
#
~Curve Information Block
#MNEM.UNIT       API CODE      Curve Description
#----------    -------------   -------------------
 DEPT.FT                   :   Depth in Feet
 DT  .UNKNOWN          UNKNOWN:   DT-Load
 DTedit.ft/s          UNKNOWN:   DT-Load
 GR  .UNKNOWN          UNKNOWN:   GR-Load
#
~Parameter Information Block
#MNEM.UNIT            Value               Description
#----------    --------------------    -------------------
 RUN .                         ONE:    Run Number
 PDAT.                          GL:    Permanent Datum
 EPD .FT                          :    Elevation Of Perm. Datum
 LMF .               KELLY BUSHING:    Log Measured From
 EKB .FT                          :    Elevation Of Kelly Bushing
 DF .FT                           :    Elevation Of Derrick Floor
 GL .FT                           :    Elevation Of Ground Level
 TD  .FT                          :    Total Depth
 CSGD.FT                          :    Casing Bottom (Driller) 1
 CSGL.FT                          :    Casing Bottom (Logger) 1
 MUD .                            :    Drilling Fluid Type
 MUDV .CP                         :    Drilling Fluid Viscosity
 MUDD .LB/USG                     :    Drilling Fluid Density
 FL .ML/30MIN                     :    Drilling Fluid Loss
 PH.                              :    Drilling Fluid Ph
 MUDS .                           :    Mud Sample Source
 RM .OHMM                         :    Resistivity Of Mud Sample
 RMT .DEGF                        :    Mud Sample Temperature
 RMF .OHMM                        :    Mud Filtrate Resistivity
 RMFT.DEGF                        :    Mud Filtrate Sample Temperature
 RMC .OHMM                        :    Mud Cake Resistivity
 RMCT.DEGF                        :    Mud Cake Sample Temperature
 RMB .OHMM                        :    Mud Resistivity At Bht
 TMAX .DEGF                       :    Bottom Hole Temperature
#
~Other Information Block
<DescLogPlotStart>   NEURALOG PLOT DEFINITION
PLOTDEFVERSION: 3
LASFILE: E:\Nair Innovations\42_TEXAS\371_Pecos\Mobil_St McIntyre 1 Pecos_1.las
DEPTHSCALE: 239.999996
RESOLUTION: 200
DEPTHLABELFREQ: 100.000000
HEAVYGRIDFREQ: 50.000000
MEDIUMGRIDFREQ: 50.000000
LIGHTGRIDFREQ: 10.000000
#
#   TRACK 1
#
STARTTRACK: 
 LEFTX: 0.500000 inch
 RIGHTX: 3.000000 inch
 SCALETYPE: Linear
 NUMCHARTDIVISIONS: 10
CURVE: GR    0.000000   150.000000 (255,0,0)      Short_Dash        4     N    
CURVE: DTedit 5571.227500 23879.853500 (0,131,131)    Solid             2     N
ENDTRACK: 
#
#   TRACK 2
#
STARTTRACK: 
 LEFTX: 3.750000 inch
 RIGHTX: 6.250000 inch
 SCALETYPE: Linear
 NUMCHARTDIVISIONS: 10
ENDTRACK: 
#
#   TRACK 3
#
STARTTRACK: 
 LEFTX: 6.250000 inch
 RIGHTX: 8.750000 inch
 SCALETYPE: Linear
 NUMCHARTDIVISIONS: 10
CURVE: DT    190.000000 50.000000  (255,0,131)    Solid             2     N    
ENDTRACK: 
<DescLogPlotEnd>
<DepthTrack type='Reference' track='1' Label='0' color='0' hor='0' />
<Reference font='144,0,-900,0,500,0,16777216,Arial' />
~A DEPTH     DT               DTedit             GR              
# ...
    9237.500 71.50400000      13985.23240000   69.89100000     
    9238.000 71.65700000      13955.37110000   67.20920000     
    9238.500 70.91940000      14100.51370000   70.59380000     
    9239.000 70.87720000      14108.91020000   81.32400000     
    9239.500 72.60080000      13773.95310000   94.26310000     
    9240.000 73.88290000      13534.93260000   97.85710000     
    9240.500 74.18140000      13480.46880000   96.94870000     
    9241.000 75.60390000      13226.83110000   95.80200000     
    9241.500 76.58280000      13057.76170000   93.33440000     
    9242.000 76.24380000      13115.82130000   90.15920000     
    9242.500 75.65010000      13218.75290000   90.08700000     
    9243.000 74.60010000      13404.80860000   91.75310000     
    9243.500 73.95610000      13521.53520000   95.29850000     
    9244.000 73.70060000      13568.41020000   98.60530000     
    9244.500 73.81070000      13548.17090000   106.82570000    
    9245.000 75.15750000      13305.39160000   109.84860000    
    9245.500 76.56320000      13061.10450000   107.49080000    
    9246.000 77.59560000      12887.32910000   99.26110000     
    9246.500 77.84720000      12845.67770000   96.71660000     
    9247.000 77.70970000      12868.40620000   93.86150000     
    9247.500 77.22610000      12948.99020000   89.34970000     
    9248.000 76.18960000      13125.15140000   85.30240000     
    9248.500 74.90750000      13349.79790000   83.14770000     
    9249.000 74.35230000      13449.48240000   83.04330000     
    9249.500 73.80160000      13549.84180000   87.52370000     
    9250.000 72.94740000      13708.50680000   93.51640000     
    9250.500 73.24040000      13653.66600000   96.41700000     
    9251.000 73.58580000      13589.57810000   96.31510000     
    9251.500 73.66860000      13574.30370000   92.40560000     
    9252.000 73.83090000      13544.46390000   87.46410000     
    9252.500 74.38610000      13443.37210000   86.08360000     
    9253.000 75.00680000      13332.12500000   85.91540000     
    9253.500 75.40090000      13262.44040000   86.21940000     
    9254.000 76.20620000      13122.29200000   87.47350000     
    9254.500 76.96920000      12992.21000000   92.43080000     
    9255.000 77.51990000      12899.91410000   97.08060000     
    9255.500 78.38620000      12757.34770000   99.48710000     
    9256.000 78.88150000      12677.24410000   98.89400000     
    9256.500 79.19370000      12627.26660000   94.86550000     
    9257.000 79.39900000      12594.61720000   91.26990000     
    9257.500 78.80050000      12690.27540000   88.05080000     
    9258.000 77.15080000      12961.62790000   84.52430000     
    9258.500 75.74580000      13202.05270000   81.05420000     
    9259.000 75.29050000      13281.88870000   78.13000000     
    9259.500 74.92100000      13347.39260000   75.46950000     
    9260.000 74.51790000      13419.59470000   72.76970000     
    9260.500 74.39470000      13441.81840000   72.43200000     
    9261.000 74.90590000      13350.08300000   73.19320000     
    9261.500 75.68790000      13212.15230000   75.23100000     
    9262.000 76.81630000      13018.07030000   78.16770000     
    9262.500 77.40920000      12918.36040000   81.29260000     
    9263.000 77.04980000      12978.61910000   84.44580000     
    9263.500 76.10520000      13139.70610000   78.29940000     
    9264.000 74.79590000      13369.71680000   74.12660000     
    9264.500 73.55900000      13594.53030000   72.10130000     
    9265.000 72.08250000      13872.99320000   71.88240000     
    9265.500 71.52750000      13980.63770000   74.75400000     
    9266.000 71.86180000      13915.59860000   76.86880000     
    9266.500 73.07690000      13684.21580000   80.19450000     
    9267.000 74.67990000      13390.48340000   87.46090000     
    9267.500 74.24150000      13469.55570000   93.55090000     
    9268.000 72.97450000      13703.41600000   93.91960000     
    9268.500 72.62260000      13769.81840000   87.51120000     
    9269.000 72.64110000      13766.31150000   83.30690000     
    9269.500 72.41210000      13809.84670000   80.62900000     
    9270.000 72.05240000      13878.78810000   83.93440000     
    9270.500 73.54700000      13596.74800000   90.72400000     
    9271.000 74.97520000      13337.74410000   97.14950000     
    9271.500 75.96660000      13163.67970000   100.93030000    
    9272.000 76.45390000      13079.77730000   103.11710000    
    9272.500 76.50660000      13070.76760000   105.09060000    
    9273.000 76.56240000      13061.24120000   105.47470000    
    9273.500 76.68330000      13040.64940000   104.98780000    
    9274.000 76.79960000      13020.90140000   103.64730000    
    9274.500 76.69730000      13038.26760000   101.03380000    
    9275.000 74.09840000      13495.56840000   92.46840000     
    9275.500 70.55480000      14173.37990000   67.97080000     
    9276.000 65.36010000      15299.85450000   54.64270000     
    9276.500 62.19320000      16078.92870000   49.72940000     
    9277.000 58.42370000      17116.34180000   45.83580000     
    9277.500 57.41580000      17416.80860000   49.19600000     
    9278.000 58.98410000      16953.72070000   55.38320000     
    9278.500 63.04600000      15861.43460000   69.05000000     
    9279.000 65.66140000      15229.64750000   82.50370000     
    9279.500 67.60190000      14792.48440000   89.45020000     
    9280.000 69.77140000      14332.52050000   92.64720000     
    9280.500 71.59140000      13968.15820000   93.51480000     
    9281.000 72.80800000      13734.75490000   92.38370000     
    9281.500 72.19400000      13851.56640000   91.02990000     
    9282.000 71.55220000      13975.81050000   90.03370000     
    9282.500 70.99100000      14086.29300000   89.04220000     
    9283.000 70.62340000      14159.61330000   86.73000000     
    9283.500 70.82300000      14119.70700000   85.25840000     
    9284.000 71.87010000      13913.99120000   84.45080000     
    9284.500 72.90660000      13716.17870000   85.80750000     
    9285.000 73.03850000      13691.41020000   86.20290000     
    9285.500 72.63700000      13767.08790000   84.97530000     
    9286.000 72.38680000      13814.67290000   83.48890000     
    9286.500 72.40870000      13810.49510000   81.11380000     
    9287.000 72.16470000      13857.18950000   83.19710000     
    9287.500 71.65990000      13954.80660000   85.48740000     
    9288.000 71.82950000      13921.85740000   87.25070000     
    9288.500 72.50440000      13792.26560000   88.30810000     
    9289.000 72.93150000      13711.49610000   88.62770000     
    9289.500 73.21960000      13657.54590000   87.68050000     
    9290.000 73.14670000      13671.15720000   86.67660000     
    9290.500 73.11170000      13677.70120000   86.39580000     
    9291.000 73.23820000      13654.07710000   87.88770000     
    9291.500 73.79630000      13550.81450000   85.57210000     
    9292.000 74.40140000      13440.60740000   84.45450000     
    9292.500 74.26420000      13465.43850000   86.29380000     
    9293.000 74.56850000      13410.48930000   89.80790000     
    9293.500 75.41820000      13259.39940000   94.13760000     
    9294.000 75.47120000      13250.08790000   98.83750000     
    9294.500 75.68630000      13212.43070000   102.80970000    
    9295.000 76.14360000      13133.08010000   103.79710000    
    9295.500 76.98130000      12990.16800000   99.45870000     
    9296.000 77.11010000      12968.46970000   92.84500000     
    9296.500 76.27320000      13110.76460000   89.68240000     
    9297.000 75.72780000      13205.19040000   87.14100000     
    9297.500 75.31350000      13277.83200000   84.89140000     
    9298.000 74.74020000      13379.68160000   82.83950000     
    9298.500 74.05920000      13502.71190000   80.79060000     
    9299.000 74.43590000      13434.37790000   78.61790000     
    9299.500 74.76570000      13375.11720000   80.38590000     
