~Version Information Block
 VERS.                2.00:     CWLS LOG ASCII STANDARD - VERSION 2.000000
 WRAP.                  NO:     One Line Per Depth Step
#
~Well Information Block
#MNEM.UNIT                     Data                         Information
#----------   ------------------------------------------   ----------------
 STRT.FT                                     1000.0000:     START DEPTH
 STOP.FT                                    15733.0000:     STOP DEPTH
 STEP.FT                                        0.5000:     STEP
 NULL.                                       -999.0000:     NULL VALUE
 COMP.                                 MOBIL PRODUCING:     COMPANY
 WELL.                                    IB-WEATHERBY:     WELL
 FLD .                                   ROJO CABALLOS:     FIELD
 LOC .                                         UNKNOWN:     LOCATION
 LONG.                                 -103.1458890000:     LONGITUDE
 LATI.                                   31.1330510000:     LATITUDE
 CNTY.                                           PECOS:     COUNTY
 STAT.                                           TEXAS:     STATE
 CTRY.                                           U.S.A:     COUNTRY
 SRVC.                                         UNKNOWN:     SERVICE COMPANY
 DATE.                                         UNKNOWN:     DATE
 API .                                  42371057360000:     API NUMBER
 UWI .                                  42371057360000:     UWI NUMBER
 SLAT.                                       31.133051:     Surface latitude
 SLON.                                     -103.145889:     surface longitude
 TVD .                                              NO:     TVD flag
 WSTA.                                             LOC:     Well status
#
~Curve Information Block
#MNEM.UNIT       API CODE      Curve Description
#----------    -------------   -------------------
 DEPT.FT                   :   Depth in Feet
 DT  .UNKNOWN          UNKNOWN:   DT-Load
 DTedit.ft/s          UNKNOWN:   DT-Load
 GR  .UNKNOWN          UNKNOWN:   GR-Load
 GR_org.UNKNOWN          UNKNOWN:   GR_org-Load
#
~Parameter Information Block
#MNEM.UNIT            Value               Description
#----------    --------------------    -------------------
 RUN .                         ONE:    Run Number
 PDAT.                          GL:    Permanent Datum
 EPD .FT                          :    Elevation Of Perm. Datum
 LMF .               KELLY BUSHING:    Log Measured From
 EKB .FT                          :    Elevation Of Kelly Bushing
 DF .FT                           :    Elevation Of Derrick Floor
 GL .FT                           :    Elevation Of Ground Level
 TD  .FT                          :    Total Depth
 CSGD.FT                          :    Casing Bottom (Driller) 1
 CSGL.FT                          :    Casing Bottom (Logger) 1
 MUD .                            :    Drilling Fluid Type
 MUDV .CP                         :    Drilling Fluid Viscosity
 MUDD .LB/USG                     :    Drilling Fluid Density
 FL .ML/30MIN                     :    Drilling Fluid Loss
 PH.                              :    Drilling Fluid Ph
 MUDS .                           :    Mud Sample Source
 RM .OHMM                         :    Resistivity Of Mud Sample
 RMT .DEGF                        :    Mud Sample Temperature
 RMF .OHMM                        :    Mud Filtrate Resistivity
 RMFT.DEGF                        :    Mud Filtrate Sample Temperature
 RMC .OHMM                        :    Mud Cake Resistivity
 RMCT.DEGF                        :    Mud Cake Sample Temperature
 RMB .OHMM                        :    Mud Resistivity At Bht
 TMAX .DEGF                       :    Bottom Hole Temperature
#
~Other Information Block
<DescLogPlotStart>   NEURALOG PLOT DEFINITION
PLOTDEFVERSION: 3
LASFILE: E:\Nair Innovations\42_TEXAS\371_Pecos\Mobil_IB-Weatherby 1 Pecos_1.la
DEPTHSCALE: 239.999996
RESOLUTION: 200
DEPTHLABELFREQ: 100.000000
HEAVYGRIDFREQ: 50.000000
MEDIUMGRIDFREQ: 50.000000
LIGHTGRIDFREQ: 10.000000
#
#   TRACK 1
#
STARTTRACK: 
 LEFTX: 0.500000 inch
 RIGHTX: 3.000000 inch
 SCALETYPE: Linear
 NUMCHARTDIVISIONS: 10
CURVE: GR    0.000000   150.000000 (255,0,0)      Short_Dash        4     N    
CURVE: DTedit 6637.927700 24453.046900 (0,131,131)    Solid             2     N
CURVE: GR_org -999.990000 109.000000 (255,0,255)    Solid             2     N  
ENDTRACK: 
#
#   TRACK 2
#
STARTTRACK: 
 LEFTX: 3.750000 inch
 RIGHTX: 6.250000 inch
 SCALETYPE: Linear
 NUMCHARTDIVISIONS: 10
ENDTRACK: 
#
#   TRACK 3
#
STARTTRACK: 
 LEFTX: 6.250000 inch
 RIGHTX: 8.750000 inch
 SCALETYPE: Linear
 NUMCHARTDIVISIONS: 10
CURVE: DT    190.000000 50.000000  (255,0,131)    Solid             2     N    
ENDTRACK: 
<DescLogPlotEnd>
<DepthTrack type='Reference' track='1' Label='0' color='0' hor='0' />
<Reference font='144,0,-900,0,500,0,16777216,Arial' />
~A DEPTH     DT               DTedit             GR               GR_org            
# ...
    6940.000 62.23740000      16067.50880000   20.63730000      20.63730000     
    6940.500 62.23740000      16067.50880000   21.39560000      21.39560000     
    6941.000 69.55240000      14377.64940000   22.30690000      22.30690000     
    6941.500 69.55240000      14377.64940000   23.36520000      23.36520000     
    6942.000 71.36580000      14012.31450000   24.39610000      24.39610000     
    6942.500 71.36580000      14012.31450000   24.95790000      24.95790000     
    6943.000 62.03450000      16120.06250000   24.80310000      24.80310000     
    6943.500 62.03450000      16120.06250000   25.00300000      25.00300000     
    6944.000 60.50820000      16526.68550000   25.60060000      25.60060000     
    6944.500 60.50820000      16526.68550000   26.33700000      26.33700000     
    6945.000 67.71580000      14767.60250000   25.78550000      25.78550000     
    6945.500 67.71580000      14767.60250000   25.41290000      25.41290000     
    6946.000 69.20400000      14450.03120000   25.75370000      25.75370000     
    6946.500 69.20400000      14450.03120000   26.34510000      26.34510000     
    6947.000 69.97160000      14291.51170000   26.86740000      26.86740000     
    6947.500 69.97160000      14291.51170000   27.18800000      27.18800000     
    6948.000 70.11630000      14262.01860000   27.25740000      27.25740000     
    6948.500 70.11630000      14262.01860000   27.16920000      27.16920000     
    6949.000 66.42370000      15054.86820000   27.07920000      27.07920000     
    6949.500 66.42370000      15054.86820000   27.23340000      27.23340000     
    6950.000 69.83580000      14319.30370000   25.68090000      25.68090000     
    6950.500 69.83580000      14319.30370000   24.63130000      24.63130000     
    6951.000 69.49650000      14389.21390000   24.00760000      24.00760000     
    6951.500 69.49650000      14389.21390000   23.68480000      23.68480000     
    6952.000 68.22300000      14657.81350000   23.65920000      23.65920000     
    6952.500 68.22300000      14657.81350000   24.15760000      24.15760000     
    6953.000 66.08800000      15131.34080000   24.94760000      24.94760000     
    6953.500 66.08800000      15131.34080000   25.38710000      25.38710000     
    6954.000 68.03210000      14698.94430000   24.16950000      24.16950000     
    6954.500 68.03210000      14698.94430000   22.87840000      22.87840000     
    6955.000 66.20000000      15105.74120000   22.03050000      22.03050000     
    6955.500 66.20000000      15105.74120000   22.09590000      22.09590000     
    6956.000 64.21860000      15571.81350000   23.54570000      23.54570000     
    6956.500 64.21860000      15571.81350000   26.24490000      26.24490000     
    6957.000 64.35440000      15538.95310000   28.61040000      28.61040000     
    6957.500 64.35440000      15538.95310000   31.04570000      31.04570000     
    6958.000 67.38010000      14841.17770000   34.75080000      34.75080000     
    6958.500 67.38010000      10530.97270000   40.64720000      40.64720000     
    6959.000 72.02600000      10533.05760000   44.62630000      44.62630000     
    6959.500 72.02600000      10535.13960000   48.82450000      48.82450000     
    6960.000 65.47630000      10537.22460000   47.99770000      47.99770000     
    6960.500 65.47630000      10539.30960000   43.49080000      43.49080000     
    6961.000 65.58080000      10541.39160000   35.91120000      35.91120000     
    6961.500 65.58080000      10543.47660000   32.50230000      32.50230000     
    6962.000 69.94700000      10545.55860000   31.11230000      31.11230000     
    6962.500 69.94700000      10547.64360000   30.11190000      30.11190000     
    6963.000 68.83920000      10549.72850000   27.74390000      27.74390000     
    6963.500 68.83920000      10551.81150000   25.14430000      25.14430000     
    6964.000 62.31050000      10553.89550000   23.14730000      23.14730000     
    6964.500 62.31050000      10555.98050000   21.27230000      21.27230000     
    6965.000 58.87300000      10558.06350000   19.66130000      19.66130000     
    6965.500 58.87300000      10560.14840000   18.80530000      18.80530000     
    6966.000 67.41440000      10562.23050000   18.59880000      18.59880000     
    6966.500 67.41440000      10564.31540000   18.55760000      18.55760000     
    6967.000 61.17660000      10566.40040000   18.61310000      18.61310000     
    6967.500 61.17660000      10568.48240000   18.72700000      18.72700000     
    6968.000 59.24300000      10570.56740000   18.77920000      18.77920000     
    6968.500 59.24300000      10572.65230000   18.68980000      18.68980000     
    6969.000 68.18270000      10574.73440000   18.47040000      18.47040000     
    6969.500 68.18270000      10576.81930000   18.22760000      18.22760000     
    6970.000 66.20890000      10578.90140000   17.59330000      17.59330000     
    6970.500 66.20890000      10580.98630000   16.94530000      16.94530000     
    6971.000 67.34130000      10583.07130000   16.84940000      16.84940000     
    6971.500 67.34130000      10585.15330000   17.19020000      17.19020000     
    6972.000 62.81550000      10587.23830000   17.67790000      17.67790000     
    6972.500 62.81550000      10589.32320000   18.24320000      18.24320000     
    6973.000 66.89370000      10591.40530000   18.83080000      18.83080000     
    6973.500 66.89370000      10593.49020000   19.19500000      19.19500000     
    6974.000 66.34470000      10595.57230000   19.25840000      19.25840000     
    6974.500 66.34470000      10597.65720000   19.71660000      19.71660000     
    6975.000 66.91460000      10599.74220000   20.47180000      20.47180000     
    6975.500 66.91460000      10601.82520000   21.19260000      21.19260000     
    6976.000 71.79920000      10603.91020000   21.79150000      21.79150000     
    6976.500 71.79920000      10605.99410000   20.86150000      20.86150000     
    6977.000 69.61500000      10608.07710000   19.27030000      19.27030000     
    6977.500 69.61500000      10610.16210000   19.33130000      19.33130000     
    6978.000 58.15390000      10612.24410000   20.25890000      20.25890000     
    6978.500 58.15390000      10614.32910000   21.77280000      21.77280000     
    6979.000 58.84020000      10616.41410000   24.53170000      24.53170000     
    6979.500 58.84020000      10618.49610000   26.78770000      26.78770000     
    6980.000 64.90870000      10620.58110000   28.39750000      28.39750000     
    6980.500 64.90870000      10622.66600000   29.78320000      29.78320000     
    6981.000 66.07090000      10624.74800000   29.88280000      29.88280000     
    6981.500 66.07090000      10626.83300000   29.60830000      29.60830000     
    6982.000 62.19710000      10628.91800000   29.07350000      29.07350000     
    6982.500 62.19710000      10631.00000000   27.93310000      27.93310000     
    6983.000 60.39180000      10633.08500000   26.67690000      26.67690000     
    6983.500 60.39180000      10635.16700000   27.74390000      27.74390000     
    6984.000 68.71390000      10637.25200000   29.44710000      29.44710000     
    6984.500 68.71390000      10639.33690000   31.44410000      31.44410000     
    6985.000 69.61650000      10641.41890000   33.79710000      33.79710000     
    6985.500 69.61650000      10643.50390000   36.39170000      36.39170000     
    6986.000 67.50240000      10645.58890000   39.02120000      39.02120000     
    6986.500 67.50240000      10647.67090000   42.24580000      42.24580000     
    6987.000 75.33810000      10649.75590000   43.96020000      43.96020000     
    6987.500 75.33810000      10651.83890000   42.59940000      42.59940000     
    6988.000 81.89670000      10653.92380000   37.75880000      37.75880000     
    6988.500 81.89670000      10656.00880000   33.25180000      33.25180000     
    6989.000 -999.99000000    10658.09080000   27.02680000      27.02680000     
