#--------------------------------------------------#
#-------------------ENVERUS, INC.------------------#
#------------------WWW.ENVERUS.COM-----------------#
#------------------COPYRIGHT 2020------------------#
#--------------------------------------------------#
#THIS FILE MAY BE USED ONLY IN ACCORDANCE WITH A CURRENT SUBSCRIPTION AGREEMENT BETWEEN
#THE USER AND ENVERUS, INC. NO PART OF THIS FILE MAY BE REPRODUCED, USED, COPIED,
#MODIFIED, PROPAGATED, OR DISTRIBUTED EXCEPT IN ACCORDANCE WITH THE SUBSCRIPTION
#AGREEMENT. UNAUTHORIZED USE OR DISTRIBUTION OF ALL OR ANY PART OF THIS FILE MAY VIOLATE
#COPYRIGHT, TRADEMARK, AND/OR OTHER LAWS AND IS SUBJECT TO CIVIL AS WELL AS CRIMINAL
#SANCTIONS.
#--------------------------------------------------#
#THIS FILE IS PROVIDED "AS-IS" AND ALL WARRANTIES ARE EXPRESSLY DISCLAIMED, WHETHER
#EXPRESS, ORAL, IMPLIED, STATUTORY OR OTHERWISE, INCLUDING ANY IMPLIED WARRANTY OF FITNESS
#FOR A PARTICULAR PURPOSE, MERCHANTABILITY, TITLE OR NON-INFRINGEMENT, AND ANY WARRANTIES
#ARISING BY VIRTUE OF CUSTOM OF TRADE OR COURSE OF DEALING.  FURTHER, ENVERUS, INC.
#AND ITS LICENSORS DO NOT REPRESENT OR WARRANT THAT THIS FILE WILL MEET USER'S
#REQUIREMENTS OR ARE SUITABLE FOR USER'S NEEDS OR THAT THE DATA OR RESULTS PROVIDED IN
#CONJUNCTION THEREWITH ARE CORRECT, ACCURATE, TIMELY OR RELIABLE. THESE DISCLAIMERS SHALL
#APPLY REGARDLESS OF ANY FAILURE OF ESSENTIAL PURPOSE OF ANY LIMITED REMEDY.  SOME
#JURISDICTIONS DO NOT ALLOW THE EXCLUSION OF CERTAIN WARRANTIES SO SOME OF THE ABOVE
#EXCLUSIONS MAY NOT APPLY. IN NO EVENT SHALL ENVERUS, INC. OR ANY OF ITS AFFILIATES
#BE LIABLE UNDER ANY LEGAL THEORY, WHETHER IN TORT (INCLUDING WITHOUT LIMITATION
#NEGLIGENCE), CONTRACT, STRICT LIABILITY, STATUTORY OR OTHERWISE, FOR ANY SPECIAL,
#INCIDENTAL, CONSEQUENTIAL, EXEMPLARY, PUNITIVE OR INDIRECT DAMAGE OF ANY KIND, INCLUDING
#WITHOUT LIMITATION LOSS OF REVENUE, PROFITS, GOODWILL, USE, AND/OR DATA OR THE COST OF
#PROCUREMENT OF SUBSTITUTE GOODS OR SERVICES, EVEN IF APPRISED OF THE POSSIBILITY OF SUCH
#DAMAGES IN ADVANCE.
#--------------------------------------------------#

~VERSION INFORMATION
VERS. 2.0 : CWLS LOG ASCII STANDARD - VERSION 2.0
WRAP.  NO : ONE LINE PER DEPTH STEP
~WELL INFORMATION
#MNEMONIC     .UNIT              VALUE :DESCRIPTION
STRT       .FT                102 :START DEPTH
STOP       .FT                5463 :STOP DEPTH
STEP       .FT                   0.500 :STEP
NULL       .                  -999.990 :NULL
UWI        .              42371363560000 :UNIQUE WELL ID
API        .              42371363560000 :API NUMBER
COMP       .         APACHE CORPORATION :COMPANY
WELL       .        SCHLOSSER, FRED ESTATE -B-  11 :WELL
DATE       .                22-JUN-1992 :LOG DATE
~CURVE INFORMATION
#MNEMONIC     .UNIT      API CODE :CURVE DESCRIPTION
DEPTH       .FT                      :MEASURED DEPTH
DT.US/FT        UNKNOWN   :DT
GR.API        UNKNOWN   :GR
~A    DEPTH    DT    GR
# ...
 2908.5     69.401   4.12
 2909     69.305   4.28
 2909.5     69.209   4.322
 2910     69.113   4.091
 2910.5     69.017   3.252
 2911     69.1   2.413
 2911.5     69.227   1.574
 2912     69.355   0.735
 2912.5     69.482   1.156
 2913     69.424   1.983
 2913.5     69.364   2.811
 2914     69.303   3.322
 2914.5     69.242   3.045
 2915     69.212   2.768
 2915.5     69.349   2.491
 2916     69.487   2.213
 2916.5     69.624   1.936
 2917     69.63   2.306
 2917.5     69.552   3.075
 2918     69.474   2.971
 2918.5     69.396   2.867
 2919     69.661   2.763
 2919.5     69.656   2.658
 2920     69.54   2.587
 2920.5     69.424   3.015
 2921     69.309   3.444
 2921.5     69.193   3.872
 2922     69.131   3.955
 2922.5     69.146   3.354
 2923     69.16   2.753
 2923.5     69.175   2.153
 2924     69.19   1.552
 2924.5     69.205   1.325
 2925     69.22   1.685
 2925.5     69.235   2.044
 2926     69.25   2.403
 2926.5     69.265   2.762
 2927     69.28   3.121
 2927.5     69.294   3.358
 2928     69.309   2.973
 2928.5     69.324   2.589
 2929     69.339   2.204
 2929.5     69.354   1.819
 2930     69.369   1.574
 2930.5     69.383   1.484
 2931     69.394   1.456
 2931.5     69.404   1.773
 2932     69.415   2.091
 2932.5     69.425   2.408
 2933     69.436   2.725
 2933.5     69.446   2.372
 2934     69.456   1.843
 2934.5     69.467   1.313
 2935     69.477   1.47
 2935.5     69.488   1.812
 2936     69.498   2.154
 2936.5     69.509   2.496
 2937     69.519   2.574
 2937.5     69.53   2.302
 2938     69.54   2.03
 2938.5     69.551   1.757
 2939     69.561   1.485
 2939.5     69.572   1.923
 2940     69.571   2.59
 2940.5     69.566   3.258
 2941     69.562   2.848
 2941.5     69.558   2.298
 2942     69.553   1.749
 2942.5     69.549   1.229
 2943     69.545   2.01
 2943.5     69.541   2.791
 2944     69.536   3.573
 2944.5     69.532   3.466
 2945     69.528   3.073
 2945.5     69.523   2.679
 2946     69.519   2.285
 2946.5     69.515   1.892
 2947     69.511   1.733
 2947.5     69.506   1.71
 2948     69.502   1.687
 2948.5     69.498   1.664
 2949     69.493   1.704
 2949.5     69.489   1.975
 2950     69.485   2.247
 2950.5     69.48   2.518
 2951     69.476   2.515
 2951.5     69.469   2.384
 2952     69.454   2.252
 2952.5     69.44   2.12
 2953     69.426   2.61
 2953.5     69.411   3.409
 2954     69.529   4.208
 2954.5     69.692   4.237
 2955     69.758   3.763
 2955.5     69.748   3.289
 2956     69.737   2.816
 2956.5     69.726   2.342
 2957     69.716   2.204
 2957.5     69.705   2.105
 2958     69.646   2.005
 2958.5     69.502   1.905
 2959     69.358   2.243
 2959.5     69.316   2.788
 2960     69.406   3.334
 2960.5     69.497   3.879
 2961     69.588   3.389
 2961.5     69.679   2.867
 2962     69.77   2.346
 2962.5     69.77   1.824
 2963     69.736   1.782
 2963.5     69.702   1.793
 2964     69.668   1.805
 2964.5     69.634   1.816
 2965     69.6   1.828
 2965.5     69.566   1.84
 2966     69.584   1.851
 2966.5     69.601   1.863
 2967     69.619   1.874
 2967.5     69.636   1.884
 2968     69.653   1.829
 2968.5     69.671   1.773
 2969     69.688   1.718
 2969.5     69.706   1.752
 2970     69.723   2.079
 2970.5     69.741   2.406
 2971     69.758   2.732
 2971.5     69.738   3.059
 2972     69.716   2.484
 2972.5     69.694   1.463
 2973     69.672   1.199
 2973.5     69.65   1.742
 2974     69.628   2.284
 2974.5     69.606   2.827
 2975     69.584   3.027
 2975.5     69.564   2.629
 2976     69.575   2.231
 2976.5     69.587   1.833
 2977     69.599   1.532
 2977.5     69.611   2.124
 2978     69.623   2.716
 2978.5     69.635   3.09
 2979     69.647   2.697
 2979.5     69.659   2.304
 2980     69.67   1.911
 2980.5     69.682   1.673
 2981     69.694   2.189
 2981.5     69.706   2.705
 2982     69.718   2.988
 2982.5     69.682   2.681
 2983     69.608   2.374
 2983.5     69.534   2.067
 2984     69.461   1.76
 2984.5     69.387   1.454
 2985     69.313   1.462
 2985.5     69.24   1.572
 2986     69.172   1.681
 2986.5     69.21   1.791
 2987     69.247   1.9
 2987.5     69.284   2.01
 2988     69.322   2.485
 2988.5     69.264   3.002
 2989     69.171   3.518
 2989.5     69.078   3.269
 2990     68.985   2.838
 2990.5     68.993   2.408
 2991     69.456   2.288
 2991.5     69.577   2.371
 2992     69.356   2.454
 2992.5     69.136   2.537
 2993     69.227   2.62
 2993.5     69.372   2.703
 2994     69.337   2.786
 2994.5     69.028   2.869
 2995     69.058   3.267
 2995.5     69.162   3.718
 2996     69.051   4.169
 2996.5     68.821   4.245
 2997     68.591   4.016
 2997.5     68.36   3.788
 2998     68.378   3.559
 2998.5     68.747   3.331
 2999     68.621   3.102
 2999.5     68.626   2.873
 3000     69.032   2.702
 3000.5     69.322   2.884
 3001     69.126   3.067
 3001.5     68.93   3.172
 3002     68.821   2.994
 3002.5     68.784   2.816
 3003     68.748   2.639
 3003.5     68.607   2.461
 3004     68.448   2.283
 3004.5     68.289   2.106
 3005     68.126   2.139
 3005.5     67.963   2.281
 3006     68.18   2.424
 3006.5     68.505   2.566
 3007     68.905   3.244
 3007.5     69.305   3.981
 3008     69.407   4.206
 3008.5     69.331   3.802
 3009     69.092   3.397
 3009.5     68.678   3.03
 3010     68.265   3.599
 3010.5     67.852   4.169
 3011     67.438   4.028
 3011.5     67.499   3.874
 3012     67.969   3.72
 3012.5     68.439   3.566
 3013     68.909   3.412
 3013.5     68.511   3.666
 3014     67.541   4.345
 3014.5     68.155   5.025
 3015     69.021   4.519
 3015.5     69.451   3.77
 3016     68.505   3.02
 3016.5     67.559   2.271
 3017     67.642   2.563
 3017.5     67.229   3.257
 3018     65.806   3.95
 3018.5     64.382   4.644
 3019     56.329   5.35
 3019.5     54.387   6.056
 3020     53.536   6.464
 3020.5     53.347   5.49
 3021     52.627   4.517
 3021.5     52.257   3.659
 3022     52.208   3.623
 3022.5     52.16   3.588
 3023     52.31   3.553
 3023.5     52.499   3.517
 3024     52.667   3.482
 3024.5     52.631   3.447
 3025     52.594   3.411
 3025.5     52.558   3.376
 3026     52.522   3.368
 3026.5     52.485   3.428
 3027     52.449   3.487
 3027.5     52.412   3.546
 3028     52.376   3.605
 3028.5     52.34   3.665
 3029     52.303   3.724
 3029.5     52.314   3.783
 3030     52.415   3.842
 3030.5     52.516   3.902
 3031     52.617   3.961
 3031.5     52.719   3.91
 3032     52.82   3.696
 3032.5     52.732   3.481
 3033     52.624   3.267
 3033.5     52.516   3.052
 3034     52.407   2.838
 3034.5     52.312   3.003
 3035     52.342   3.589
 3035.5     52.372   4.175
 3036     52.402   4.76
 3036.5     52.432   5.346
 3037     52.462   5.801
 3037.5     52.436   6.213
 3038     52.386   6.625
 3038.5     52.336   6.588
 3039     52.286   6.31
 3039.5     52.236   5.57
 3040     52.186   4.668
 3040.5     52.136   3.766
 3041     52.086   4.839
 3041.5     52.036   6.093
 3042     52.052   6.655
 3042.5     52.12   6.938
 3043     52.187   7.22
 3043.5     52.254   7.502
 3044     52.322   8.008
 3044.5     52.389   8.691
 3045     52.328   9.373
 3045.5     51.998   9.822
 3046     51.667   9.683
 3046.5     51.668   9.544
 3047     51.681   9.404
 3047.5     52.19   9.404
 3048     51.946   9.55
 3048.5     51.637   9.696
 3049     51.328   10.095
 3049.5     51.296   10.691
 3050     51.336   11.286
 3050.5     51.376   11.881
 3051     51.223   12.477
 3051.5     51.091   13.069
 3052     51.137   13.546
 3052.5     51.182   14.023
 3053     51.228   14.185
 3053.5     51.273   13.748
 3054     51.319   13.312
 3054.5     51.25   12.876
 3055     51.155   12.439
 3055.5     51.061   12.003
 3056     50.966   11.567
 3056.5     50.872   11.13
 3057     49.347   10.694
 3057.5     52.529   10.095
 3058     56.833   9.384
 3058.5     56.358   10.404
 3059     53.642   12.359
 3059.5     51.037   14.314
 3060     48.934   16.834
 3060.5     49.591   20.494
 3061     50.883   23.688
 3061.5     51.008   23.587
 3062     51.132   23.487
 3062.5     51.257   23.387
