###############################################
##         ENVERUS                           ##
##         ESS - Open Hole                   ##
##         PERMIAN / DELAWARE                ##
##         Nov 04 2023  V4.0                 ##
##         42-389-30075-00-00                ##
###############################################
## Copyright 2017-2023  ENVERUS.  All Rights Reserved. 
## Confidential - Property of ENVERUS, use governed by terms and 
## conditions found within the existing Information Services Subscription Agreement 
## (as may be amended, the “ISSA”) between Customer and ENVERUS. 
## 
~VERSION INFORMATION
# MNEM.UNIT                               DATA : DESCRIPTION OF MNEMONIC
#-----.-----     ----------------------------- : -----------------------------
VERS.                                     2.00 : CWLS LOG ASCII STANDARD - VERSION 2.00
WRAP.                                       NO : MULTIPLE LINES PER DEPTH STEP
VEND.                                  ENVERUS : VENDOR
TYPE.                          ESS - OPEN HOLE : ENVERUS ESSENTIAL CURVES – ACCESSIBLE THROUGH ENVERUS PRISM(TM)
DOC.                                  32306518 : ENVERUS HEADER RAW DOCUMENT ID
#___________________________________________________________________________________________________ 
~WELL INFORMATION 
# kPY+8M9YT4rQMtoZY4hkcKqQFbcx8dAfbukAxGfLCr0mY2TilAra5+x7Ygngqds2nYZXTdz9AGmqNniTAH+qTQ== 
# MNEM.UNIT                                              DATA : DESCRIPTION OF MNEMONIC 
#-----.-----                    ----------------------------- : ----------------------------- 
CNTY.                                                  REEVES : COUNTY 
STATE.                                                  TEXAS : STATE 
CNTRY.                                                    USA : COUNTRY 
API.                                             42-389-30075 : API (10 Digit) 
API_14.                                    42-389-30075-00-00 : API (14 Digits) 
API_14_std.                                 42-389-30075-0000 : API (14 Digits Standard) 
UWI.                                           42389300750000 : UNIQUE WELL ID 
WELL.                                        CAMPBELL STATE 1 : WELL NAME
STRT.FT                                                   5.0 : START DEPTH
STOP.FT                                               20980.0 : STOP DEPTH
STEP.FT                                                   0.5 : STEP BETWEEN DEPTHS
NULL.                                                 -999.25 : NULL VALUE
#___________________________________________________________________________________________________ 
~CURVE INFORMATION 
# MNEM.UNIT           : CURVE DESCRIPTION 
#-----.-----          : ----------------------------- 
 DEPT.FT               : MEASURED DEPTH 
 CALI.IN               : CALIPER (CAL - CAL) 
 GR.API                : GAMMA RAY (GR) 
 DT.US/FT              : SONIC DELTA TRANSIT TIME (DT) 
 NPHI.V/V              : NEUTRON POROSITY (NPHI) 
 #___________________________________________________________________________________________________ 
~A         DEPT           CALI             GR             DT           NPHI
# ...
        18661.0          6.743          9.022       -999.250        0.01931
        18661.5          6.713          8.937       -999.250        0.01896
        18662.0          6.683          8.768       -999.250        0.01861
        18662.5          6.654          8.599       -999.250        0.01825
        18663.0          6.624          8.430       -999.250        0.01790
        18663.5          6.618          8.261       -999.250        0.01755
        18664.0          6.635          8.213       -999.250        0.01719
        18664.5          6.652          8.275       -999.250        0.01684
        18665.0          6.669          8.337       -999.250        0.01648
        18665.5          6.686          8.400       -999.250        0.01633
        18666.0          6.703          8.462       -999.250        0.01627
        18666.5          6.721          8.525       -999.250        0.01620
        18667.0          6.729          8.587       -999.250        0.01614
        18667.5          6.715          8.458       -999.250        0.01607
        18668.0          6.701          8.317       -999.250        0.01601
        18668.5          6.686          8.175       -999.250        0.01594
        18669.0          6.672          8.034       -999.250        0.01588
        18669.5          6.658          7.892       -999.250        0.01581
        18670.0          6.644          7.751       -999.250        0.01575
        18670.5          6.630          7.609       -999.250        0.01568
        18671.0          6.643          7.468       -999.250        0.01562
        18671.5          6.657          7.631       -999.250        0.01555
        18672.0          6.671          7.796       -999.250        0.01549
        18672.5          6.685          7.962       -999.250        0.01542
        18673.0          6.698          8.127       -999.250        0.01536
        18673.5          6.712          8.293       -999.250        0.01529
        18674.0          6.726          8.459       -999.250        0.01523
        18674.5          6.739          8.624       -999.250        0.01516
        18675.0          6.753          8.790       -999.250        0.01510
        18675.5          6.767          8.955       -999.250        0.01503
        18676.0          6.781          9.121       -999.250        0.01497
        18676.5          6.789          9.286       -999.250        0.01471
        18677.0          6.787          9.452       -999.250        0.01445
        18677.5          6.785          9.618       -999.250        0.01419
        18678.0          6.782          9.783       -999.250        0.01393
        18678.5          6.780          9.949       -999.250        0.01367
        18679.0          6.778         10.114       -999.250        0.01341
        18679.5          6.776         10.280       -999.250        0.01315
        18680.0          6.774         10.445       -999.250        0.01289
        18680.5          6.771         10.611       -999.250        0.01264
        18681.0          6.769         10.776       -999.250        0.01238
        18681.5          6.767         10.942       -999.250        0.01212
        18682.0          6.765         11.108       -999.250        0.01189
        18682.5          6.763         11.273       -999.250        0.01190
        18683.0          6.760         11.439       -999.250        0.01191
        18683.5          6.749         11.617       -999.250        0.01191
        18684.0          6.738         11.808       -999.250        0.01192
        18684.5          6.727         12.000       -999.250        0.01212
        18685.0          6.715         12.192       -999.250        0.01250
        18685.5          6.704         12.383       -999.250        0.01288
        18686.0          6.693         12.575       -999.250        0.01326
        18686.5          6.683         12.767       -999.250        0.01364
        18687.0          6.686         12.959       -999.250        0.01401
        18687.5          6.688         13.150       -999.250        0.01439
        18688.0          6.691         13.342       -999.250        0.01477
        18688.5          6.693         13.371       -999.250        0.01515
        18689.0          6.696         13.162       -999.250        0.01553
        18689.5          6.698         12.952       -999.250        0.01591
        18690.0          6.701         12.742       -999.250        0.01613
        18690.5          6.703         12.532       -999.250        0.01574
        18691.0          6.706         12.323       -999.250        0.01534
        18691.5          6.709         12.113       -999.250        0.01495
        18692.0          6.711         11.903       -999.250        0.01455
        18692.5          6.714         11.694       -999.250        0.01416
        18693.0          6.716         11.484       -999.250        0.01376
        18693.5          6.762         11.274       -999.250        0.01337
        18694.0          6.819         11.064       -999.250        0.01297
        18694.5          6.876         10.855       -999.250        0.01258
        18695.0          6.933         10.645       -999.250        0.01219
        18695.5          6.989         10.435       -999.250        0.01227
        18696.0          7.046         10.226       -999.250        0.01253
        18696.5          7.103         10.016       -999.250        0.01279
        18697.0          7.016          9.806       -999.250        0.01305
        18697.5          6.926          9.597       -999.250        0.01331
        18698.0          6.836          9.387       -999.250        0.01358
        18698.5          6.745          9.177       -999.250        0.01384
        18699.0          6.665          9.043       -999.250        0.01410
        18699.5          6.695          9.261       -999.250        0.01436
        18700.0          6.725          9.480       -999.250        0.01462
        18700.5          6.755          9.699       -999.250        0.01489
        18701.0          6.785          9.917       -999.250        0.01515
        18701.5          6.815         10.136       -999.250        0.01541
        18702.0          6.844         10.354       -999.250        0.01567
        18702.5          6.856         10.573       -999.250        0.01593
        18703.0          6.863         10.767       -999.250        0.01619
        18703.5          6.870         10.903       -999.250        0.01646
        18704.0          6.877         11.040       -999.250        0.01672
        18704.5          6.884         11.177       -999.250        0.01694
        18705.0          6.891         11.313       -999.250        0.01695
        18705.5          6.898         11.450       -999.250        0.01696
        18706.0          6.905         11.587       -999.250        0.01696
        18706.5          6.912         11.724       -999.250        0.01697
        18707.0          6.919         11.860       -999.250        0.01698
        18707.5          6.926         11.997       -999.250        0.01698
        18708.0          6.934         12.134       -999.250        0.01699
        18708.5          6.941         12.270       -999.250        0.01689
        18709.0          6.948         12.407       -999.250        0.01644
        18709.5          6.955         12.544       -999.250        0.01599
        18710.0          6.962         12.729       -999.250        0.01553
        18710.5          6.969         13.041       -999.250        0.01508
        18711.0          6.985         13.353       -999.250        0.01463
        18711.5          7.002         13.666       -999.250        0.01418
        18712.0          7.020         13.978       -999.250        0.01372
        18712.5          7.038         14.290       -999.250        0.01327
        18713.0          7.055         14.602       -999.250        0.01282
        18713.5          7.073         14.914       -999.250        0.01236
