#--------------------------------------------------#
#-------------------ENVERUS, INC.------------------#
#------------------WWW.ENVERUS.COM-----------------#
#------------------COPYRIGHT 2020------------------#
#--------------------------------------------------#
#THIS FILE MAY BE USED ONLY IN ACCORDANCE WITH A CURRENT SUBSCRIPTION AGREEMENT BETWEEN
#THE USER AND ENVERUS, INC. NO PART OF THIS FILE MAY BE REPRODUCED, USED, COPIED,
#MODIFIED, PROPAGATED, OR DISTRIBUTED EXCEPT IN ACCORDANCE WITH THE SUBSCRIPTION
#AGREEMENT. UNAUTHORIZED USE OR DISTRIBUTION OF ALL OR ANY PART OF THIS FILE MAY VIOLATE
#COPYRIGHT, TRADEMARK, AND/OR OTHER LAWS AND IS SUBJECT TO CIVIL AS WELL AS CRIMINAL
#SANCTIONS.
#--------------------------------------------------#
#THIS FILE IS PROVIDED "AS-IS" AND ALL WARRANTIES ARE EXPRESSLY DISCLAIMED, WHETHER
#EXPRESS, ORAL, IMPLIED, STATUTORY OR OTHERWISE, INCLUDING ANY IMPLIED WARRANTY OF FITNESS
#FOR A PARTICULAR PURPOSE, MERCHANTABILITY, TITLE OR NON-INFRINGEMENT, AND ANY WARRANTIES
#ARISING BY VIRTUE OF CUSTOM OF TRADE OR COURSE OF DEALING.  FURTHER, ENVERUS, INC.
#AND ITS LICENSORS DO NOT REPRESENT OR WARRANT THAT THIS FILE WILL MEET USER'S
#REQUIREMENTS OR ARE SUITABLE FOR USER'S NEEDS OR THAT THE DATA OR RESULTS PROVIDED IN
#CONJUNCTION THEREWITH ARE CORRECT, ACCURATE, TIMELY OR RELIABLE. THESE DISCLAIMERS SHALL
#APPLY REGARDLESS OF ANY FAILURE OF ESSENTIAL PURPOSE OF ANY LIMITED REMEDY.  SOME
#JURISDICTIONS DO NOT ALLOW THE EXCLUSION OF CERTAIN WARRANTIES SO SOME OF THE ABOVE
#EXCLUSIONS MAY NOT APPLY. IN NO EVENT SHALL ENVERUS, INC. OR ANY OF ITS AFFILIATES
#BE LIABLE UNDER ANY LEGAL THEORY, WHETHER IN TORT (INCLUDING WITHOUT LIMITATION
#NEGLIGENCE), CONTRACT, STRICT LIABILITY, STATUTORY OR OTHERWISE, FOR ANY SPECIAL,
#INCIDENTAL, CONSEQUENTIAL, EXEMPLARY, PUNITIVE OR INDIRECT DAMAGE OF ANY KIND, INCLUDING
#WITHOUT LIMITATION LOSS OF REVENUE, PROFITS, GOODWILL, USE, AND/OR DATA OR THE COST OF
#PROCUREMENT OF SUBSTITUTE GOODS OR SERVICES, EVEN IF APPRISED OF THE POSSIBILITY OF SUCH
#DAMAGES IN ADVANCE.
#--------------------------------------------------#

~VERSION INFORMATION
VERS. 2.0 : CWLS LOG ASCII STANDARD - VERSION 2.0
WRAP. NO : ONE LINE PER DEPTH STEP
~WELL INFORMATION
#MNEMONIC     .UNIT              VALUE :DESCRIPTION
STRT       .FT                38.00000 :START DEPTH
STOP       .FT                20083.00000 :STOP DEPTH
STEP       .FT                0.50000 :STEP
NULL       .                -999.25000 :NULL VALUE
UWI       .                42389302750000 :UNIQUE WELL ID
API       .                42389302750000 :API NUMBER
COMP       .                 :COMPANY
WELL       .                 :WELL
FLD       .                 :FIELD
LOC       .                 :LOCATION
CNTY       .                 :COUNTY
STAT       .                 :STATE
CTRY       .                 :COUNTRY
SRVC       .                 :SERVICE COMPANY
DATE       .                 :DATE
~CURVE INFORMATION
#MNEMONIC     .UNIT      API CODE :CURVE DESCRIPTION
DEPTH       .FT                      :MEASURED DEPTH
CAL       .IN        UNKNOWN   :CAL
DT       .US/FT        UNKNOWN   :DT
GR       .GAPI        UNKNOWN   :GR
~A    DEPTH    CAL    DT    GR
# ...
8153.00000    12.38331    74.85151    118.50773
8153.50000    12.38325    74.85170    119.62803
8154.00000    12.38319    74.85188    119.35792
8154.50000    12.38313    74.85206    116.73196
8155.00000    12.38308    74.52200    114.10601
8155.50000    12.38303    73.59384    111.48005
8156.00000    12.38298    72.66568    108.85410
8156.50000    12.38293    71.73752    106.02768
8157.00000    12.38288    70.80935    103.09512
8157.50000    12.38284    69.88119    100.16256
8158.00000    12.38279    77.05457    47.38715
8158.50000    12.38274    76.46843    52.25967
8159.00000    12.38269    75.88228    57.13219
8159.50000    12.38264    75.29614    62.00471
8160.00000    12.38259    74.70999    66.87723
8160.50000    12.38254    74.12385    71.74975
8161.00000    12.38099    74.05082    77.61378
8161.50000    12.37614    72.65189    87.27075
8162.00000    12.37129    71.25296    96.92772
8162.50000    12.36644    69.85402    106.58468
8163.00000    12.36159    68.45509    116.24165
8163.50000    12.35674    67.05616    119.25444
8164.00000    12.35189    65.65722    114.77344
8164.50000    12.34704    64.25829    110.29245
8165.00000    12.34219    62.85936    105.81145
8165.50000    12.33734    61.46043    101.33046
8166.00000    12.33416    60.06149    96.84946
8166.50000    12.33412    71.75754    96.54747
8167.00000    12.33409    71.93017    102.39288
8167.50000    12.33405    72.65639    108.23828
8168.00000    12.33401    74.87867    112.37121
8168.50000    12.33398    75.58564    115.76245
8169.00000    12.33394    73.50149    119.83156
8169.50000    12.33390    71.41734    124.23627
8170.00000    12.33387    69.33319    128.64099
8170.50000    12.33383    67.24904    133.04571
8171.00000    12.33380    65.16489    130.11811
8171.50000    12.33376    70.40402    123.32544
8172.00000    12.33372    75.78965    119.03759
8172.50000    12.33434    76.03801    114.74974
8173.00000    12.33577    76.28636    110.46189
8173.50000    12.33720    76.53472    114.09180
8174.00000    12.33863    77.66795    118.66769
8174.50000    12.34006    78.25969    123.24359
8175.00000    12.34149    77.53417    127.81950
8175.50000    12.34292    76.80864    130.28727
8176.00000    12.34435    76.08312    121.33122
8176.50000    12.34578    75.35759    122.66238
8177.00000    12.34722    74.63207    126.39060
8177.50000    12.34865    73.90654    121.00020
8178.00000    12.35008    73.18102    111.49633
8178.50000    12.35151    74.88793    101.99246
8179.00000    12.35294    75.57849    92.48860
8179.50000    12.35437    76.26905    94.97085
8180.00000    12.35580    76.63446    101.58191
8180.50000    12.35719    76.76947    108.19297
8181.00000    12.35639    76.90448    114.80402
8181.50000    12.35559    77.03950    109.18212
8182.00000    12.35479    77.17451    102.72597
8182.50000    12.35399    76.69638    105.60943
8183.00000    12.35319    75.23720    106.67271
8183.50000    12.35239    73.77803    103.69903
8184.00000    12.35159    72.31886    100.72534
8184.50000    12.35079    70.85969    97.75166
8185.00000    12.35000    69.40051    96.06911
8185.50000    12.34920    67.94134    98.02047
8186.00000    12.34840    69.65211    99.97184
8186.50000    12.34760    71.46249    101.92321
8187.00000    12.34680    73.38812    101.56635
8187.50000    12.34600    75.65146    92.38842
8188.00000    12.34520    77.07448    83.21049
8188.50000    12.34440    76.85668    74.03256
8189.00000    12.34360    76.62922    74.71290
8189.50000    12.34280    76.40175    77.34352
8190.00000    12.34200    76.21178    79.97414
8190.50000    12.34120    76.04185    82.60476
8191.00000    12.34040    75.87192    66.48089
8191.50000    12.33960    75.70199    67.93585
8192.00000    12.33880    75.53205    69.39081
8192.50000    12.33800    75.36212    70.84577
8193.00000    12.33720    74.31440    72.30074
8193.50000    12.33640    72.22775    73.75570
8194.00000    12.33560    70.14109    75.21066
8194.50000    12.33480    68.05444    76.66562
8195.00000    12.33400    67.46294    78.12058
8195.50000    12.33320    68.71080    79.57554
8196.00000    12.33344    69.51329    83.47349
8196.50000    12.33468    67.80322    88.68842
8197.00000    12.33592    66.56037    93.90336
8197.50000    12.33716    67.66608    99.11829
8198.00000    12.33839    68.77178    104.33322
8198.50000    12.33963    69.87749    138.69515
8199.00000    12.34087    69.33295    136.14391
8199.50000    12.34210    68.67846    133.59266
8200.00000    12.34334    68.21450    131.04142
8200.50000    12.34458    67.92365    129.07625
8201.00000    12.34581    67.63280    129.83950
8201.50000    12.34705    67.34195    125.13145
8202.00000    12.34829    67.82349    111.01871
8202.50000    12.34952    68.63291    91.42040
8203.00000    12.35076    69.44233    93.76050
8203.50000    12.35200    73.40134    96.10060
8204.00000    12.35323    76.27921    98.44069
8204.50000    12.35447    76.56892    93.62155
8205.00000    12.35571    76.85863    86.50112
8205.50000    12.35677    77.14835    79.38069
8206.00000    12.35678    76.96557    72.26026
8206.50000    12.35679    76.12027    65.13983
8207.00000    12.35680    75.27498    58.01940
8207.50000    12.35682    74.42969    50.89898
8208.00000    12.35683    73.58440    47.76796
8208.50000    12.35684    74.05060    53.11978
8209.00000    12.35685    75.49692    58.47159
8209.50000    12.35687    76.94324    64.73681
8210.00000    12.35688    78.38956    71.55755
8210.50000    12.35689    78.45050    78.37829
8211.00000    12.35690    76.80145    85.19902
8211.50000    12.35691    75.15240    92.01976
8212.00000    12.35693    73.50335    98.84050
8212.50000    12.35694    71.85430    105.66124
8213.00000    12.35695    70.20525    107.57655
8213.50000    12.35696    68.55620    108.72195
8214.00000    12.35697    67.10672    109.11553
8214.50000    12.35699    71.32934    105.54771
8215.00000    12.35700    78.79203    101.97988
8215.50000    12.35701    78.27796    98.41206
8216.00000    12.35702    77.76389    70.83836
8216.50000    12.35703    77.24982    36.70060
8217.00000    12.35705    76.96767    32.56863
8217.50000    12.35706    77.27667    38.94384
8218.00000    12.35707    76.85635    45.31905
8218.50000    12.35741    76.43602    51.69426
8219.00000    12.35846    76.01569    58.06947
8219.50000    12.35950    75.24637    64.44468
8220.00000    12.36055    73.79384    70.81989
8220.50000    12.36159    72.34131    77.19510
8221.00000    12.36264    71.05027    84.74786
8221.50000    12.36369    69.78091    86.75585
8222.00000    12.36473    68.51156    88.28320
8222.50000    12.36578    67.24220    89.14496
8223.00000    12.36682    65.97284    88.20028
8223.50000    12.36787    64.70348    87.25560
8224.00000    12.36891    63.43412    86.31093
8224.50000    12.36996    62.16476    85.36625
8225.00000    12.37101    60.89540    86.54719
8225.50000    12.37205    76.82857    89.53571
8226.00000    12.37310    76.17273    92.52422
8226.50000    12.37414    75.51689    95.51274
8227.00000    12.37519    74.86105    98.50125
8227.50000    12.37624    74.20521    100.91211
8228.00000    12.37728    73.79552    99.43180
8228.50000    12.37833    74.29449    97.95149
8229.00000    12.37937    74.79347    96.47118
8229.50000    12.38042    73.85069    94.99087
8230.00000    12.38147    72.69084    93.51056
8230.50000    12.38655    71.53099    92.03025
8231.00000    12.39242    72.44371    90.54994
8231.50000    12.39829    73.47899    97.18276
8232.00000    12.40416    74.51426    107.33751
8232.50000    12.41003    75.54953    107.35536
8233.00000    12.41590    76.30331    102.25621
8233.50000    12.42177    76.43718    97.15706
8234.00000    12.42764    76.57104    95.94149
8234.50000    12.43351    76.70490    94.86117
8235.00000    12.43938    76.83876    93.78085
8235.50000    12.44524    76.97263    92.70054
8236.00000    12.45111    78.42076    91.62022
8236.50000    12.45698    78.41792    85.95993
8237.00000    12.46285    77.61097    76.67195
