#--------------------------------------------------#
#-------------------ENVERUS, INC.------------------#
#------------------WWW.ENVERUS.COM-----------------#
#------------------COPYRIGHT 2020------------------#
#--------------------------------------------------#
#THIS FILE MAY BE USED ONLY IN ACCORDANCE WITH A CURRENT SUBSCRIPTION AGREEMENT BETWEEN
#THE USER AND ENVERUS, INC. NO PART OF THIS FILE MAY BE REPRODUCED, USED, COPIED,
#MODIFIED, PROPAGATED, OR DISTRIBUTED EXCEPT IN ACCORDANCE WITH THE SUBSCRIPTION
#AGREEMENT. UNAUTHORIZED USE OR DISTRIBUTION OF ALL OR ANY PART OF THIS FILE MAY VIOLATE
#COPYRIGHT, TRADEMARK, AND/OR OTHER LAWS AND IS SUBJECT TO CIVIL AS WELL AS CRIMINAL
#SANCTIONS.
#--------------------------------------------------#
#THIS FILE IS PROVIDED "AS-IS" AND ALL WARRANTIES ARE EXPRESSLY DISCLAIMED, WHETHER
#EXPRESS, ORAL, IMPLIED, STATUTORY OR OTHERWISE, INCLUDING ANY IMPLIED WARRANTY OF FITNESS
#FOR A PARTICULAR PURPOSE, MERCHANTABILITY, TITLE OR NON-INFRINGEMENT, AND ANY WARRANTIES
#ARISING BY VIRTUE OF CUSTOM OF TRADE OR COURSE OF DEALING.  FURTHER, ENVERUS, INC.
#AND ITS LICENSORS DO NOT REPRESENT OR WARRANT THAT THIS FILE WILL MEET USER'S
#REQUIREMENTS OR ARE SUITABLE FOR USER'S NEEDS OR THAT THE DATA OR RESULTS PROVIDED IN
#CONJUNCTION THEREWITH ARE CORRECT, ACCURATE, TIMELY OR RELIABLE. THESE DISCLAIMERS SHALL
#APPLY REGARDLESS OF ANY FAILURE OF ESSENTIAL PURPOSE OF ANY LIMITED REMEDY.  SOME
#JURISDICTIONS DO NOT ALLOW THE EXCLUSION OF CERTAIN WARRANTIES SO SOME OF THE ABOVE
#EXCLUSIONS MAY NOT APPLY. IN NO EVENT SHALL ENVERUS, INC. OR ANY OF ITS AFFILIATES
#BE LIABLE UNDER ANY LEGAL THEORY, WHETHER IN TORT (INCLUDING WITHOUT LIMITATION
#NEGLIGENCE), CONTRACT, STRICT LIABILITY, STATUTORY OR OTHERWISE, FOR ANY SPECIAL,
#INCIDENTAL, CONSEQUENTIAL, EXEMPLARY, PUNITIVE OR INDIRECT DAMAGE OF ANY KIND, INCLUDING
#WITHOUT LIMITATION LOSS OF REVENUE, PROFITS, GOODWILL, USE, AND/OR DATA OR THE COST OF
#PROCUREMENT OF SUBSTITUTE GOODS OR SERVICES, EVEN IF APPRISED OF THE POSSIBILITY OF SUCH
#DAMAGES IN ADVANCE.
#--------------------------------------------------#

~VERSION INFORMATION
VERS. 2.0 : CWLS LOG ASCII STANDARD - VERSION 2.0
WRAP. NO : ONE LINE PER DEPTH STEP
~WELL INFORMATION
#MNEMONIC     .UNIT              VALUE :DESCRIPTION
STRT       .FT                38.00000 :START DEPTH
STOP       .FT                20083.00000 :STOP DEPTH
STEP       .FT                0.50000 :STEP
NULL       .                -999.25000 :NULL VALUE
UWI       .                42389302750000 :UNIQUE WELL ID
API       .                42389302750000 :API NUMBER
COMP       .                 :COMPANY
WELL       .                 :WELL
FLD       .                 :FIELD
LOC       .                 :LOCATION
CNTY       .                 :COUNTY
STAT       .                 :STATE
CTRY       .                 :COUNTRY
SRVC       .                 :SERVICE COMPANY
DATE       .                 :DATE
~CURVE INFORMATION
#MNEMONIC     .UNIT      API CODE :CURVE DESCRIPTION
DEPTH       .FT                      :MEASURED DEPTH
CAL       .IN        UNKNOWN   :CAL
DT       .US/FT        UNKNOWN   :DT
GR       .GAPI        UNKNOWN   :GR
~A    DEPTH    CAL    DT    GR
# ...
17969.00000    6.91938    49.30337    34.79294
17969.50000    6.92003    49.77355    34.26974
17970.00000    6.92067    50.24374    33.63504
17970.50000    6.92131    50.42616    33.00034
17971.00000    6.92196    50.06856    32.36564
17971.50000    6.92407    49.72757    31.73094
17972.00000    6.92918    49.67450    31.09624
17972.50000    6.93428    49.62142    31.62471
17973.00000    6.93939    49.56835    32.75625
17973.50000    6.94449    49.51527    33.88780
17974.00000    6.94960    49.46220    34.57354
17974.50000    6.95470    49.40912    34.20959
17975.00000    6.95981    49.39719    33.84565
17975.50000    6.96492    49.43812    33.48170
17976.00000    6.97002    49.47905    33.11775
17976.50000    6.97513    49.51998    32.75380
17977.00000    6.98023    49.56092    32.38985
17977.50000    6.96029    49.60185    32.02590
17978.00000    6.91979    49.64278    31.66195
17978.50000    6.87929    49.68371    31.29801
17979.00000    6.83879    49.72465    31.42571
17979.50000    6.79829    49.76558    31.69540
17980.00000    6.77231    49.79618    31.96509
17980.50000    6.77308    49.81228    32.23478
17981.00000    6.77386    49.82838    32.50447
17981.50000    6.77463    49.84449    32.77415
17982.00000    6.77541    49.86059    33.04384
17982.50000    6.77618    49.87669    33.31353
17983.00000    6.77696    49.89279    33.58322
17983.50000    6.77774    49.90890    33.85291
17984.00000    6.77851    49.92500    34.12260
17984.50000    6.77929    49.94110    34.39811
17985.00000    6.78006    49.95720    34.68950
17985.50000    6.78084    49.91410    34.98091
17986.00000    6.78162    49.80339    35.27231
17986.50000    6.78239    49.69268    35.56371
17987.00000    6.78317    49.58196    35.42893
17987.50000    6.78394    49.47125    34.92025
17988.00000    6.78472    49.36054    34.41158
17988.50000    6.78550    49.24983    33.90290
17989.00000    6.78627    49.13912    33.39423
17989.50000    6.78705    49.02929    32.88555
17990.00000    6.78782    49.14399    32.37688
17990.50000    6.78860    49.25870    31.86820
17991.00000    6.78937    49.37340    31.35953
17991.50000    6.79015    49.48810    31.74220
17992.00000    6.79093    49.60280    32.54743
17992.50000    6.79170    49.71750    33.35266
17993.00000    6.79248    49.83220    34.15788
17993.50000    6.79325    49.94690    34.96311
17994.00000    6.79403    49.96676    34.99483
17994.50000    6.79481    49.96684    34.99393
17995.00000    6.79558    49.96691    34.89849
17995.50000    6.79636    49.96698    34.51631
17996.00000    6.79713    49.96705    34.13412
17996.50000    6.79791    49.96712    33.75194
17997.00000    6.79868    49.96719    33.36976
17997.50000    6.79946    49.96727    32.98757
17998.00000    6.80024    49.96734    32.60539
17998.50000    6.80101    49.96741    32.22321
17999.00000    6.80179    49.96748    31.92511
17999.50000    6.80257    49.96755    32.55056
18000.00000    6.80334    49.96763    33.17601
18000.50000    6.80412    49.96770    33.80147
18001.00000    6.80489    49.96777    34.42692
18001.50000    6.80567    49.96784    35.05237
18002.00000    6.80644    49.96791    35.66945
18002.50000    6.80722    49.96799    35.32935
18003.00000    6.80800    49.96806    34.98926
18003.50000    6.80877    49.96813    34.64916
18004.00000    6.80955    49.96820    34.30907
18004.50000    6.81032    49.92909    34.43210
18005.00000    6.81110    49.88589    35.02887
18005.50000    6.81188    49.84270    35.62564
18006.00000    6.81265    49.79950    36.22241
18006.50000    6.81343    49.75631    36.58948
18007.00000    6.81420    49.71311    36.02438
18007.50000    6.81498    49.66992    35.45929
18008.00000    6.81576    49.62672    34.89419
18008.50000    6.81653    49.58353    34.32909
18009.00000    6.81731    49.54033    33.76399
18009.50000    6.81808    49.49714    33.25937
18010.00000    6.81886    49.45394    33.62363
18010.50000    6.81963    49.41075    33.98788
18011.00000    6.82041    49.36755    34.35214
18011.50000    6.82119    49.32436    34.71640
18012.00000    6.82196    49.28116    35.08066
18012.50000    6.82274    49.23797    35.44492
18013.00000    6.82351    49.19477    35.80918
18013.50000    6.82429    49.15157    36.17343
18014.00000    6.82507    49.25777    36.53769
18014.50000    6.82584    49.37023    36.53224
18015.00000    6.82662    49.48269    36.27660
18015.50000    6.82739    49.59516    36.02097
18016.00000    6.82817    49.70762    35.76534
18016.50000    6.82895    49.82008    35.50971
18017.00000    6.82972    49.93255    35.25407
18017.50000    6.83050    50.04501    34.99844
18018.00000    6.83127    50.15748    35.16841
18018.50000    6.83205    50.26994    35.44602
18019.00000    6.83282    50.38240    35.72364
18019.50000    6.83360    50.49487    36.00126
18020.00000    6.83438    50.48324    36.27887
18020.50000    6.83515    50.31873    36.55649
18021.00000    6.83593    50.15422    36.83410
18021.50000    6.83670    49.98972    39.32917
18022.00000    6.83748    49.82521    45.88224
18022.50000    6.83826    49.66071    52.43531
18023.00000    6.83903    49.49620    58.98838
18023.50000    6.83981    49.33170    65.54146
18024.00000    6.84058    49.16719    72.09453
18024.50000    6.84136    49.04793    69.39116
18025.00000    6.84213    48.96529    59.08686
18025.50000    6.84291    48.88264    48.78256
18026.00000    6.84369    49.85444    38.47827
18026.50000    6.84446    51.16189    36.23034
18027.00000    6.84524    51.43296    35.32929
18027.50000    6.84602    51.70403    34.42824
18028.00000    6.84679    51.97510    33.52720
18028.50000    6.84757    52.24616    32.62615
18029.00000    6.84834    52.51723    31.72510
18029.50000    6.84912    52.78830    31.50247
18030.00000    6.84989    53.05937    31.56116
18030.50000    6.85067    53.33044    31.61985
18031.00000    6.85145    53.60151    31.67853
18031.50000    6.85222    51.10939    31.73722
18032.00000    6.85300    47.77910    31.79591
18032.50000    6.85377    47.58382    31.85459
18033.00000    6.85455    49.29937    31.91328
18033.50000    6.85533    50.40917    31.97197
18034.00000    6.85610    50.30695    32.03066
18034.50000    6.85688    50.20473    32.08934
18035.00000    6.85765    50.10251    32.23668
18035.50000    6.85843    50.00029    32.79417
18036.00000    6.85921    49.89807    33.35166
18036.50000    6.85998    49.79585    33.90915
18037.00000    6.86076    49.69363    34.46664
18037.50000    6.86153    49.63677    35.02412
18038.00000    6.86231    49.67590    35.58161
18038.50000    6.86308    49.71503    36.13910
18039.00000    6.86386    49.75415    35.82173
18039.50000    6.86464    49.79328    35.21156
18040.00000    6.86541    49.83241    34.60138
18040.50000    6.86619    49.87154    33.99121
18041.00000    6.86696    49.91066    33.38104
18041.50000    6.86774    49.94979    32.77087
18042.00000    6.86852    49.98892    32.16069
18042.50000    6.86929    50.02805    32.73758
18043.00000    6.87007    49.95571    33.40285
18043.50000    6.87084    49.85645    34.06812
18044.00000    6.87162    49.75719    34.73340
18044.50000    6.87240    49.65793    35.39867
18045.00000    6.87317    49.59239    36.06394
18045.50000    6.87395    49.86633    36.45484
18046.00000    6.87472    50.14026    35.63049
18046.50000    6.87550    50.41420    34.80614
18047.00000    6.87627    50.45495    33.98179
18047.50000    6.87705    50.37883    33.15744
18048.00000    6.87783    50.30271    32.33309
18048.50000    6.87860    50.22659    32.43730
18049.00000    6.87938    50.15048    32.90499
18049.50000    6.88015    50.07436    33.37267
18050.00000    6.88093    50.10983    33.84035
18050.50000    6.88171    50.24788    34.30804
18051.00000    6.88248    50.38592    34.77572
18051.50000    6.88326    50.52396    35.24340
18052.00000    6.88403    50.66201    35.71109
18052.50000    6.88481    50.80005    35.67097
18053.00000    6.88559    50.93809    35.30337
18053.50000    6.88636    51.07614    34.93576
18054.00000    6.88714    51.21418    34.56816
