~VERSION INFORMATION
VERS.           1.2   :CWLS Log ASCII Standard - VERSION 1.2
WRAP.           NO    :One Line per depth step
PROD.  Schlumberger   :LAS Producer
PROG.  DLIS to ASCII 17C0-152                          :LAS Program name and version
CREA.        2014/05/28 16:07                          :LAS Creation date {YYYY/MM/DD hh:mm}
DLIS_CREA.  2014-May-27 22:17                          :DLIS Creation date and time {YYYY-MMM-DD hh:mm}
SOURCE.     db5fefe1-f67d-4e3f-8816-ab53d5f8be46       :DLIS File Name
#--------------------------------------------------
~WELL INFORMATION
#MNEM.UNIT      DATA             DESCRIPTION
#---- ------ --------------   -----------------------------
# Enverus has updated the API/UWI.  The previous names are renamed to  PREV_API / PREV_UWI
API.  API (14 Digits with Dashes) : 42-389-34023-90-00
UWI.              UNIQUE WELL ID : 42389340239000

STRT .F      9586.5000       :START DEPTH     
STOP .F      10811.5000      :STOP DEPTH     
STEP .F       0.5000         :STEP       
NULL .          -999.25      :NULL VALUE
COMP .                 COMPANY:  J. Cleo Thompson                   
WELL .                    WELL:  Okapi State Unit B35 #2H           
FLD  .                   FIELD:  Wolfbone (Trend Area)              
LOC  .                LOCATION:  260' FNL & 500' FEL                
CNTY .                  COUNTY:  Reeves                             
STAT .                   STATE:  Texas                              
CTRY .                 COUNTRY:                                     
SRVC .         SERVICE COMPANY:  Schlumberger                       
LATI .DEG             LATITUDE:  31.112200 degrees                  
LONG .DEG            LONGITUDE:  -103.28900 degrees                 
PREV_API  .              API NUMBER:  42-389-34023                       
DATE .                LOG DATE:  27-May-2014
PREV_UWI  .          UNIQUE WELL ID:                                     
#-----------------------------------------------------------------------------
~PARAMETER INFORMATION
#MNEM.UNIT    VALUE                      DESCRIPTION
#---- -----   --------------------       ------------------------
CN   .        J. Cleo Thompson           :Company Name
WN   .        Okapi State Unit B35 #2H   :Well Name
FN   .        Wolfbone (Trend Area)      :Field Name
FL   .        260' FNL & 500' FEL        :Field Location
FL1  .        Section  35  Block  50 T8S  Abstract 4369 :Field Location, Line 1
COUN .        Reeves                     :County or Parish
STAT .        Texas                      :State or Province
NATI .                                   :Nation
DATE .        27-May-2014                :Tools Above Rotary Table Date
APIN .        42-389-34023               :API Well Number
SECT .        35                         :Section
TOWN .        50 T8S                     :Township
RANG .        4369                       :Range
DMF  .        KB                         :Drilling Measured From (Name of Drilling Elevation Reference)
LMF  .        KB                         :Logging Measured From (Name of Logging Elevation Reference)
PDAT .        GL                         :Permanent Datum
ENGI .        AJ Massis                  :Engineer s Name
WITN .        Bennie McNett              :Witness s Name
LATI .        31.112200 degrees          :Latitude
LONG .        -103.28900 degrees         :Longitude
LUL  .        Midland                    :Logging Unit Location
LUN  .        9105                       :Logging Unit Number
RUN  .        1B                         :Run Number
SON  .                                   :Service Order Number
BHT  .DEGF     162.00000                 :Bottom Hole Temperature
BS   .IN         8.50000                 :Bit Size
MDEN .G/C3       2.71000                 :Matrix Density for Density Porosity
DFD  .LB/G      10.70000                 :Drilling Fluid Density
DFV  .S         46.00000                 :Drilling Fluid Viscosity
DFL  .C3        10.00000                 :Drilling Fluid Loss
RMFS .OHMM       0.30000                 :Resistivity of Mud Filtrate Sample
EKB  .F       2829.00000                 :Elevation of Kelly Bushing
EGL  .F       2807.00000                 :Elevation of Ground Level
BLI  .F       11012.00000                :Bottom Log Interval
BSAL .PPM     132000.00000               :Borehole Salinity
FLEV .F          8.00000                 :Depth of Drilling Fluid Level to LMF (Log Measured From)
MCST .DEGF      68.00000                 :Mudcake Sample Temperature
MFST .DEGF      80.20000                 :Mud Filtrate Sample Temperature
MRT  .DEGF     162.00000                 :Maximum Recorded Temperature
MST  .DEGF      80.20000                 :Mud Sample Temperature
RMCS .OHMM    -999.25000                 :Resistivity of Mud Cake Sample
RMS  .OHMM       0.30000                 :Resistivity of Mud Sample
RW   .OHMM       1.00000                 :Connate Water Resistivity
TDD  .F       11012.00000                :Driller Total Depth
TDL  .F       11012.00000                :Logger Total Depth
TLI  .F       9676.00000                 :Top Log Interval
HIDE .        Wolfbone (Trend Area)      :Header Identifier
MATR .        LIME                       :Rock Matrix for Neutron Porosity Corrections
FNUM .           1.00000                 :F-Numerator for Formation Factor Formula
FEXP .           2.00000                 :Exponent "m" for Formation Factor Formula
DFT  .        Salt Brine                 :Drilling Fluid Type
DFPH .           9.00000                 :Drilling Fluid pH
MCSS .                                   :Mudcake Sample Source
MFSS .                                   :Mud Filtrate Sample Source
FD   .G/C3       1.10000                 :Fluid Density
MSS  .        Active Tank                :Mud Sample Source
OS1  .                                   :Other Services Line 1
OS2  .                                   :Other Services Line 2
OS3  .                                   :Other Services Line 3
OS4  .                                   :Other Services Line 4
OS5  .                                   :Other Services Line 5
R1   .        Tools run as per toolsketch :Remarks Line 1
R2   .        Logs performed on a Limestone matrix (2.71

g/cc  47.6 us/ft ). Mud Properties  MW =

10.7 g/cc  FD = 1.1 g/cc. :Remarks Line 2
R3   .        Max recorded temperature from downhole

thermometer = 162 degF. :Remarks Line 3
R4   .        Logs run from TD to casing. GR & Neutron

logged from casing to 200ft as per client

request. :Remarks Line 4
R5   .        Tools got stuck near TD and calipers had to be closed in order to get free. :Remarks Line 5
R6   .        Well was washed out for many intervals. :Remarks Line 6
R7   .        Repeat done at casing due to getting stuck at TD :Remarks Line 7
R8   .                                   :Remarks Line 8
TCS  .        18 00 00                   :Time Circulation Stopped
TLAB .        16 19 01                   :Time Logger At Bottom
EPD  .C3         2807.000000             :Elevation of Permanent Datum above Mean Sea Level
APD  .F          22.000000               :Elevation of Depth Reference (LMF) above Permanent Datum
#-----------------------------------------------------------------------------
~CURVE INFORMATION
#MNEM.UNIT   API CODE                                  DESCRIPTION
#---- -----  --------                                  -----------------------
DEPT .F                                                :DEPTH (BOREHOLE) {F12.4}
CDF  .LBF                                              :Calibrated Downhole Force {F11.4}
CTEM .DEGF                                             :Cartridge Temperature {F11.4}
DCAL .IN                                               :Differential Caliper {F11.4}
DTCO .US/F                                             :Delta-T Compressional {F11.4}
DTSM .US/F                                             :Delta-T Shear {F11.4}
ED   .F                                                :East Departure {F11.4}
GR_EDTC.GAPI                                           :Gamma Ray {F11.4}
GTEM .DEGF                                             :Generalized Borehole Temperature {F11.4}
HAZI .DEG                                              :Hole Azimuth Relative to True North {F11.4}
HAZIM.DEG                                              :Memorized Hole Azimuth {F11.4}
ITT  .S                                                :Integrated Transit Time {F11.4}
ND   .F                                                :North Departure {F11.4}
P1AZ .DEG                                              :Pad 1 Azimuth in Horizontal Plane (0 = True North) {F11.4}
PR   .                                                 :Poisson s Ratio {F11.4}
RB   .DEG                                              :Relative Bearing {F11.4}
SDEV .DEG                                              :Sonde Deviation {F11.4}
SDEVM.DEG                                              :Memorized Sonde Deviation {F11.4}
SPHI .CFCF                                             :Sonic Porosity {F11.4}
STIT .F                                                :Stuck Tool Indicator, Total {F11.4}
TENS .LBF                                              :Cable Tension {F11.4}
#-----------------------------------------------------------------------------
# 
#      DEPT        CDF        CTEM       DCAL       DTCO       DTSM        ED      GR_EDTC      GTEM       HAZI      HAZIM       ITT         ND        P1AZ        PR         RB        SDEV      SDEVM       SPHI       STIT       TENS
#
~A  
# ...
  10794.0000  1849.6038   155.6706     0.0000    80.3894   150.4656     0.0000    90.5250   160.1391   278.6290   280.0053     0.0000     0.0000   333.2443     0.3003    54.6100     1.1845     1.2338     0.2319     5.1526  4896.3335
  10794.5000  1800.3282   155.6706     0.0000    80.3894   150.4656     0.0000    90.5250   160.1434   279.3182   279.8132     0.0000     0.0000   333.2542     0.3003    53.9299     1.1916     1.2481     0.2319     5.0125  4864.5000
  10795.0000  1751.0676   155.6706     0.0000    80.3894   150.4656     0.0000    90.5250   160.1477   279.6073   279.5549     0.0000     0.0000   333.2707     0.3003    53.6572     1.2059     1.2450     0.2319     4.4740  4795.0000
  10795.5000  1701.6741   155.6706     0.0000    80.3894   150.4656     0.0000    90.5250   160.1519   279.6568   279.2224     0.0000     0.0000   333.2706     0.3003    53.6074     1.2293     1.2132     0.2319     3.7210  4706.6670
  10796.0000  1652.7153   155.6706     0.0000    80.3894   150.4656     0.0000    90.5250   160.1562   279.4186   277.1971     0.0000     0.0000   333.2763     0.3003    53.8509     1.2447     1.4458     0.2319     3.8298  4701.6665
  10796.5000  1603.9949   155.6706     0.0000    80.3894   150.4656     0.0000    90.5250   160.1605   279.0610   278.0404     0.0000     0.0000   333.2601     0.3003    54.1924     1.2504     1.2634     0.2319     3.5218  4656.3335
  10797.0000  1557.0044   155.6706     0.0000    80.3894   150.4656     0.0000    90.5250   160.1647   278.6371   282.2827     0.0000     0.0000   333.2232     0.3003    54.5803     1.2411     0.9478     0.2319     2.8563  4578.0000
  10797.5000  1505.0613   155.6706     0.0000    80.3894   150.4656     0.0000    90.5250   160.1690   278.4154   282.1981     0.0000     0.0000   333.1501     0.3003    54.7284     1.2224     0.6991     0.2319     2.2851  4525.6665
  10798.0000  1458.8865   155.6706     0.0000    80.3894   150.4656     0.0000    90.5250   160.1733   278.4113   279.1159     0.0000     0.0000   333.0565     0.3003    54.6394     1.1994     0.6554     0.2319     1.7138  4470.3335
  10798.5000  1407.7714   155.6706     0.0000    80.3894   150.4656     0.0000    90.5250   160.1775   278.7098   276.1138     0.0000     0.0000   332.9436     0.3003    54.2283     1.1756     0.7096     0.2319     1.1425  4388.3335
  10799.0000  1375.7373   155.6706     0.0000    80.3894   150.4656     0.0000    90.5250   160.1818   279.1246   275.0258     0.0000     0.0000   332.8587     0.3003    53.7287     1.1653     0.7721     0.2319     0.5713  4346.6670
  10799.5000  1306.4407   155.6706     0.0000    80.3894   150.4656     0.0000    90.5250   160.1861   279.5451   274.9675     0.0000     0.0000   332.7935     0.3003    53.2424     1.1673     0.7632     0.2319     0.0000  4295.3335
  10800.0000  1271.2942   155.6706     0.0000    80.3894   150.4656     0.0000    90.5250   160.1903   279.8772   275.2962     0.0000     0.0000   332.7621     0.3003    52.8791     1.1820     0.7411     0.2319     0.0000  4276.5000
  10800.5000  1259.7692   155.6706     0.0000    80.3894   150.4656     0.0000    90.5250   160.1946   280.0471   275.5613     0.0000     0.0000   332.1245     0.3003    52.0714     1.2044     0.7468     0.2319     0.0000  4284.6665
  10801.0000  1262.3279   155.6706     0.0000    80.3894   150.4656     0.0000    90.5250   160.1989   280.0053   275.9997     0.0000     0.0000   331.6592     0.3003    51.6471     1.2338     0.7959     0.2319     0.0000  4279.7500
  10801.5000  1266.1067   155.6706     0.0000    80.3894   150.4656     0.0000    90.5250   160.2031   279.8132   276.0632     0.0000     0.0000   330.9581     0.3003    51.1380     1.2481     0.9051     0.2319     0.0000  4303.0000
  10802.0000  1273.5311   155.6706     0.0000    80.3894   150.4656     0.0000    90.5250   160.2074   279.5549   274.1631     0.0000     0.0000   329.5480     0.3003    49.9867     1.2450     0.9408     0.2319     0.0000  4340.0000
  10802.5000  1291.7949   155.6706     0.0000    80.3894   150.4656     0.0000    90.5250   160.2117   279.2679   275.2860     0.0000     0.0000   327.3740     0.3003    48.0995     1.2209     0.9747     0.2319     0.0000  4338.0005
  10803.0000  1291.6833   155.6706     0.0000    80.3894   150.4656     0.0000    90.5250   160.2159   277.1425   278.0042     0.0000     0.0000   326.1509     0.3003    48.9990     1.4681     1.0035     0.2319     0.0000  4345.0000
  10803.5000  1287.1139   155.6706     0.0000    80.3894   150.4656     0.0000    90.5250   160.2202   278.0404   279.7922     0.0000     0.0000   324.5062     0.3003    46.4590     1.2634     1.0236     0.2319     0.0000  4374.0000
  10804.0000  1309.6620   155.6706     0.0000    80.3894   150.4656     0.0000    90.5250   160.2245   282.2827   279.9065     0.0000     0.0000   323.3363     0.3003    41.0498     0.9478     1.0570     0.2319     0.0000  4394.0000
  10804.5000  1305.4989   155.6706     0.0000    80.3894   150.4656     0.0000    90.5250   160.2288   282.6868   279.2252     0.0000     0.0000   322.9525     0.3003    40.2630     0.6877     1.1125     0.2319     0.0000  4305.6670
  10805.0000  1270.0109   155.6706     0.0000    80.3894   150.4656     0.0000    90.5250   160.2330   279.1159   279.2252     0.0000     0.0000   319.8970     0.3003    40.7801     0.6554     1.1125     0.2319     0.0000  4247.0000
  10805.5000  1224.9403   155.6706     0.0000    80.3894   150.4656     0.0000    90.5250   160.2373   276.1138   279.2252     0.0000     0.0000   319.6063     0.3003    43.4905     0.7096     1.1125     0.2319     0.0000  4191.0005
  10806.0000  1178.1747   155.6706     0.0000    80.3894   150.4656     0.0000    90.5250   160.2415   275.0733   279.2252     0.0000     0.0000   319.5518     0.3003    44.4751     0.7680     1.1125     0.2319     0.0000  4131.3335
  10806.5000  1129.6825   155.6706     0.0000    80.3894   150.4656     0.0000    90.5250   160.2458   274.9934   279.2252     0.0000     0.0000   319.5239     0.3003    44.5281     0.7706     1.1125     0.2319     0.0000  4061.0000
  10807.0000  1085.6093   155.6706     0.0000    80.3894   150.4656     0.0000    90.5250   160.2501   275.2962   279.2252     0.0000     0.0000   319.4932     0.3003    44.1939     0.7411     1.1125     0.2319     0.0000  4024.3335
  10807.5000  1068.4969   155.6706     0.0000    80.3894   150.4656     0.0000    90.5250   160.2544   275.5613   279.2252     0.0000     0.0000   319.4791     0.3003    43.9155     0.7468     1.1125     0.2319     0.0000  3951.3333
  10808.0000  1059.8510   155.6706     0.0000    80.3894   150.4656     0.0000    90.5250   160.2586   275.9997   279.2252     0.0000     0.0000   319.5095     0.3003    43.5069     0.7959     1.1125     0.2319     0.0000  3881.0002
  10808.5000  1043.6941   155.6706     0.0000    80.3894   150.4656     0.0000    90.5250   160.2629   276.0632   279.2252     0.0000     0.0000   319.6540     0.3003    43.5871     0.9051     1.1125     0.2319     0.0000  3845.0000
  10809.0000  1028.3771   155.6706     0.0000    80.3894   150.4656     0.0000    90.5250   160.2672   274.2828   279.2252     0.0000     0.0000   319.7172     0.3003    45.4307     0.9353     1.1125     0.2319     0.0000  3875.0002
  10809.5000  1024.7090   155.6706     0.0000    80.3894   150.4656     0.0000    90.5250   160.2714   274.8147   279.2252     0.0000     0.0000   319.7818     0.3003    44.9633     0.9677     1.1125     0.2319     0.0000  3829.6670
  10810.0000  1025.2621   155.6706     0.0000    80.3894   150.4656     0.0000    90.5250   160.2757   277.5966   279.2252     0.0000     0.0000   319.8389     0.3003    42.2386     0.9999     1.1125     0.2319     0.0000  3767.9998
  10810.5000  1025.2621   155.6706     0.0000    80.3894   150.4656     0.0000    90.5250   160.2800   279.7922   279.2252     0.0000     0.0000   319.8636     0.3003    40.0670     1.0236     1.1125     0.2319     0.0000  3726.6667
  10811.0000  1025.2621   155.6706     0.0000    80.3894   150.4656     0.0000    90.5250   160.2842   279.9285   279.2252     0.0000     0.0000   319.9049     0.3003    39.9720     1.0489     1.1125     0.2319     0.0000  3609.5000
