###############################################
##         ENVERUS                           ##
##         EPlus - Open Hole                 ##
##         PERMIAN / DELAWARE                ##
##         Copyright ©                       ##
##         Enverus Version - V4.0            ##
##         Nov 20 2023                       ##
##         42-389-10253-00-00                ##
###############################################
## Copyright 2017-2023  ENVERUS.  All Rights Reserved. 
## Confidential - Property of ENVERUS, use governed by terms and 
## conditions found within the existing Information Services Subscription Agreement 
## (as may be amended, the “ISSA”) between Customer and ENVERUS. 
## 
#___________________________________________________________________________________________________
~VERSION INFORMATION
# MNEM.UNIT                               DATA : DESCRIPTION OF MNEMONIC
#-----.-----     ----------------------------- : -----------------------------
VERS.                                     2.00 : CWLS LOG ASCII STANDARD - VERSION 2.00
WRAP.                                       NO : MULTIPLE LINES PER DEPTH STEP
VEND.                                  ENVERUS : VENDOR
ENV_TYPE.                    EPLUS - OPEN HOLE : Enverus Essential Plus Curves – Accessible through Enverus Core(TM)
ENV_VERS.                                 V4.0 : EPlus - Open Hole Version number 
ENV_DOC.                              44178784 : ENVERUS Header Document id
ENV_REF.                               PERMIAN : ENVERUS BASIN OR PLAY APPLIED REFERENCE LIMITS 
#___________________________________________________________________________________________________ 
~WELL INFORMATION 
# uyaQ8P8kQDJ9DXFS5hR1PxmExEOYaAUkY5f3/tnOS+scoPAUWgXA1zCIHGRbWCuSuUcwDzaESCjqjWQ81XhadA== 
# MNEM.UNIT                                              DATA : DESCRIPTION OF MNEMONIC 
#-----.-----                    ----------------------------- : ----------------------------- 
CNTY.                                                  REEVES : COUNTY 
STATE.                                                  TEXAS : STATE 
CNTRY.                                                    USA : COUNTRY 
API.                                             42-389-10253 : API (10 Digit) 
API_14.                                    42-389-10253-00-00 : API (14 Digits) 
API_14_std.                                 42-389-10253-0000 : API (14 Digits Standard) 
UWI.                                           42389102530000 : UNIQUE WELL ID
STRT.FT                                                   108 : START DEPTH
STOP.FT                                                  5248 : STOP DEPTH
STEP.FT                                                   0.5 : STEP DEPTH
NULL.                                               -999.2500 : NULL VALUE
WELL.                                       A O  REEVES FEE 1 : WELL NAME 
GR_ELEV.                                                 2779 : GROUND ELEVATION 
SLAT.                                                 31.1575 : SURFACE LATITUDE 
SLONG.                                              -103.3573 : SURFACE LONGITUDE
#___________________________________________________________________________________________________ 
~CURVE INFORMATION 
# MNEM.UNIT           : CURVE DESCRIPTION 
#-----.-----          : ----------------------------- 
DEPT.FT               : MEASURED DEPTH 
GR_E.API              : ENVERUS GAMMA RAY - CLEANED BLENDED AND LUMPED 
GR_F.                 : ENVERUS GAMMA RAY - OUTLIER INDICATOR - 0=(IN BOUNDS) 1=(OUT OF BOUNDS) 2=(REPEATING) 
GR_S.                 : ENVERUS GAMMA RAY - SOURCE INDICATOR 
GR_U.                 : ENVERUS GAMMA RAY - OPTION INDICATOR - 0=(NO OPTION) 1=(OTHER OPTIONS) 
DT_E.US/FT            : ENVERUS SONIC TRAVEL TIME - CLEANED BLENDED AND LUMPED 
DT_F.                 : ENVERUS SONIC TRAVEL TIME - OUTLIER INDICATOR - 0=(IN BOUNDS) 1=(OUT OF BOUNDS) 2=(REPEATING) 
DT_S.                 : ENVERUS SONIC TRAVEL TIME - SOURCE INDICATOR 
DT_U.                 : ENVERUS SONIC TRAVEL TIME - OPTION INDICATOR - 0=(NO OPTION) 1=(OTHER OPTIONS)
#___________________________________________________________________________________________________ 
~A         DEPT           GR_E           GR_F           GR_S           GR_U           DT_E           DT_F           DT_S           DT_U
# ...
         462.00         41.756           0.00           0.00           0.00     -999.25000        -999.25        -999.25        -999.25
         462.50         41.018           0.00           0.00           0.00     -999.25000        -999.25        -999.25        -999.25
         463.00         40.280           0.00           0.00           0.00     -999.25000        -999.25        -999.25        -999.25
         463.50         39.541           0.00           0.00           0.00     -999.25000        -999.25        -999.25        -999.25
         464.00         40.388           0.00           0.00           0.00     -999.25000        -999.25        -999.25        -999.25
         464.50         42.263           0.00           0.00           0.00     -999.25000        -999.25        -999.25        -999.25
         465.00         44.137           0.00           0.00           0.00     -999.25000        -999.25        -999.25        -999.25
         465.50         46.012           0.00           0.00           0.00     -999.25000        -999.25        -999.25        -999.25
         466.00         47.825           0.00           0.00           0.00     -999.25000        -999.25        -999.25        -999.25
         466.50         46.655           0.00           0.00           0.00     -999.25000        -999.25        -999.25        -999.25
         467.00         45.485           0.00           0.00           0.00     -999.25000        -999.25        -999.25        -999.25
         467.50         44.315           0.00           0.00           0.00     -999.25000        -999.25        -999.25        -999.25
         468.00         43.145           0.00           0.00           0.00     -999.25000        -999.25        -999.25        -999.25
         468.50         43.218           0.00           0.00           0.00     -999.25000        -999.25        -999.25        -999.25
         469.00         44.138           0.00           0.00           0.00     -999.25000        -999.25        -999.25        -999.25
         469.50         45.058           0.00           0.00           0.00     -999.25000        -999.25        -999.25        -999.25
         470.00         45.978           0.00           0.00           0.00     -999.25000        -999.25        -999.25        -999.25
         470.50         46.898           0.00           0.00           0.00     -999.25000        -999.25        -999.25        -999.25
         471.00         47.818           0.00           0.00           0.00     -999.25000        -999.25        -999.25        -999.25
         471.50         48.739           0.00           0.00           0.00     -999.25000        -999.25        -999.25        -999.25
         472.00         49.659           0.00           0.00           0.00     -999.25000        -999.25        -999.25        -999.25
         472.50         48.792           0.00           0.00           0.00     -999.25000        -999.25        -999.25        -999.25
         473.00         46.585           0.00           0.00           0.00     -999.25000        -999.25        -999.25        -999.25
         473.50         44.377           0.00           0.00           0.00     -999.25000        -999.25        -999.25        -999.25
         474.00         42.169           0.00           0.00           0.00     -999.25000        -999.25        -999.25        -999.25
         474.50         40.653           0.00           0.00           0.00     -999.25000        -999.25        -999.25        -999.25
         475.00         41.935           0.00           0.00           0.00     -999.25000        -999.25        -999.25        -999.25
         475.50         43.218           0.00           0.00           0.00     -999.25000        -999.25        -999.25        -999.25
         476.00         44.501           0.00           0.00           0.00     -999.25000        -999.25        -999.25        -999.25
         476.50         45.783           0.00           0.00           0.00     -999.25000        -999.25        -999.25        -999.25
         477.00         45.989           0.00           0.00           0.00     -999.25000        -999.25        -999.25        -999.25
         477.50         45.596           0.00           0.00           0.00     -999.25000        -999.25        -999.25        -999.25
         478.00         45.203           0.00           0.00           0.00     -999.25000        -999.25        -999.25        -999.25
         478.50         42.816           0.00           0.00           0.00     -999.25000        -999.25        -999.25        -999.25
         479.00         38.807           0.00           0.00           0.00     -999.25000        -999.25        -999.25        -999.25
         479.50         37.795           0.00           0.00           0.00     -999.25000        -999.25        -999.25        -999.25
         480.00         39.003           0.00           0.00           0.00     -999.25000        -999.25        -999.25        -999.25
         480.50         40.211           0.00           0.00           0.00     -999.25000        -999.25        -999.25        -999.25
         481.00         41.419           0.00           0.00           0.00     -999.25000        -999.25        -999.25        -999.25
         481.50         42.626           0.00           0.00           0.00     -999.25000        -999.25        -999.25        -999.25
         482.00         43.834           0.00           0.00           0.00     -999.25000        -999.25        -999.25        -999.25
         482.50         45.042           0.00           0.00           0.00     -999.25000        -999.25        -999.25        -999.25
         483.00         46.250           0.00           0.00           0.00     -999.25000        -999.25        -999.25        -999.25
         483.50         47.458           0.00           0.00           0.00     -999.25000        -999.25        -999.25        -999.25
         484.00         48.666           0.00           0.00           0.00     -999.25000        -999.25        -999.25        -999.25
         484.50         49.874           0.00           0.00           0.00     -999.25000        -999.25        -999.25        -999.25
         485.00         51.082           0.00           0.00           0.00     -999.25000        -999.25        -999.25        -999.25
         485.50         52.290           0.00           0.00           0.00     -999.25000        -999.25        -999.25        -999.25
         486.00         53.498           0.00           0.00           0.00     -999.25000        -999.25        -999.25        -999.25
         486.50         52.350           0.00           0.00           0.00     -999.25000        -999.25        -999.25        -999.25
         487.00         50.995           0.00           0.00           0.00     -999.25000        -999.25        -999.25        -999.25
         487.50         49.640           0.00           0.00           0.00     -999.25000        -999.25        -999.25        -999.25
         488.00         48.285           0.00           0.00           0.00     -999.25000        -999.25        -999.25        -999.25
         488.50         46.930           0.00           0.00           0.00     -999.25000        -999.25        -999.25        -999.25
         489.00         45.575           0.00           0.00           0.00     -999.25000        -999.25        -999.25        -999.25
         489.50         44.221           0.00           0.00           0.00     -999.25000        -999.25        -999.25        -999.25
         490.00         42.866           0.00           0.00           0.00     -999.25000        -999.25        -999.25        -999.25
         490.50         43.897           0.00           0.00           0.00     -999.25000        -999.25        -999.25        -999.25
         491.00         45.645           0.00           0.00           0.00     -999.25000        -999.25        -999.25        -999.25
