###############################################
##         ENVERUS                           ##
##         ESS - Open Hole                   ##
##         PERMIAN / DELAWARE                ##
##         Nov 04 2023  V4.0                 ##
##         42-389-30075-00-00                ##
###############################################
## Copyright 2017-2023  ENVERUS.  All Rights Reserved. 
## Confidential - Property of ENVERUS, use governed by terms and 
## conditions found within the existing Information Services Subscription Agreement 
## (as may be amended, the “ISSA”) between Customer and ENVERUS. 
## 
~VERSION INFORMATION
# MNEM.UNIT                               DATA : DESCRIPTION OF MNEMONIC
#-----.-----     ----------------------------- : -----------------------------
VERS.                                     2.00 : CWLS LOG ASCII STANDARD - VERSION 2.00
WRAP.                                       NO : MULTIPLE LINES PER DEPTH STEP
VEND.                                  ENVERUS : VENDOR
TYPE.                          ESS - OPEN HOLE : ENVERUS ESSENTIAL CURVES – ACCESSIBLE THROUGH ENVERUS PRISM(TM)
DOC.                                  32306518 : ENVERUS HEADER RAW DOCUMENT ID
#___________________________________________________________________________________________________ 
~WELL INFORMATION 
# kPY+8M9YT4rQMtoZY4hkcKqQFbcx8dAfbukAxGfLCr0mY2TilAra5+x7Ygngqds2nYZXTdz9AGmqNniTAH+qTQ== 
# MNEM.UNIT                                              DATA : DESCRIPTION OF MNEMONIC 
#-----.-----                    ----------------------------- : ----------------------------- 
CNTY.                                                  REEVES : COUNTY 
STATE.                                                  TEXAS : STATE 
CNTRY.                                                    USA : COUNTRY 
API.                                             42-389-30075 : API (10 Digit) 
API_14.                                    42-389-30075-00-00 : API (14 Digits) 
API_14_std.                                 42-389-30075-0000 : API (14 Digits Standard) 
UWI.                                           42389300750000 : UNIQUE WELL ID 
WELL.                                        CAMPBELL STATE 1 : WELL NAME
STRT.FT                                                   5.0 : START DEPTH
STOP.FT                                               20980.0 : STOP DEPTH
STEP.FT                                                   0.5 : STEP BETWEEN DEPTHS
NULL.                                                 -999.25 : NULL VALUE
#___________________________________________________________________________________________________ 
~CURVE INFORMATION 
# MNEM.UNIT           : CURVE DESCRIPTION 
#-----.-----          : ----------------------------- 
 DEPT.FT               : MEASURED DEPTH 
 CALI.IN               : CALIPER (CAL - CAL) 
 GR.API                : GAMMA RAY (GR) 
 DT.US/FT              : SONIC DELTA TRANSIT TIME (DT) 
 NPHI.V/V              : NEUTRON POROSITY (NPHI) 
 #___________________________________________________________________________________________________ 
~A         DEPT           CALI             GR             DT           NPHI
# ...
         4669.0       -999.250          4.256         50.557     -999.25000
         4669.5       -999.250          4.294         50.538     -999.25000
         4670.0       -999.250          4.333         50.518     -999.25000
         4670.5       -999.250          4.372         50.499     -999.25000
         4671.0       -999.250          4.410         50.480     -999.25000
         4671.5       -999.250          4.449         50.460     -999.25000
         4672.0       -999.250          4.488         50.441     -999.25000
         4672.5       -999.250          4.526         50.422     -999.25000
         4673.0       -999.250          4.565         50.402     -999.25000
         4673.5       -999.250          4.604         50.383     -999.25000
         4674.0       -999.250          4.642         50.364     -999.25000
         4674.5       -999.250          4.681         50.345     -999.25000
         4675.0       -999.250          4.720         50.325     -999.25000
         4675.5       -999.250          4.758         50.310     -999.25000
         4676.0       -999.250          4.797         50.307     -999.25000
         4676.5       -999.250          4.836         50.305     -999.25000
         4677.0       -999.250          4.874         50.303     -999.25000
         4677.5       -999.250          4.913         50.301     -999.25000
         4678.0       -999.250          4.937         50.299     -999.25000
         4678.5       -999.250          4.925         50.296     -999.25000
         4679.0       -999.250          4.912         50.294     -999.25000
         4679.5       -999.250          4.900         50.292     -999.25000
         4680.0       -999.250          4.888         50.290     -999.25000
         4680.5       -999.250          4.876         50.288     -999.25000
         4681.0       -999.250          4.863         50.285     -999.25000
         4681.5       -999.250          4.851         50.283     -999.25000
         4682.0       -999.250          4.839         50.281     -999.25000
         4682.5       -999.250          4.827         50.279     -999.25000
         4683.0       -999.250          4.814         50.277     -999.25000
         4683.5       -999.250          4.802         50.274     -999.25000
         4684.0       -999.250          4.790         50.272     -999.25000
         4684.5       -999.250          4.777         50.270     -999.25000
         4685.0       -999.250          4.765         50.268     -999.25000
         4685.5       -999.250          4.753         50.266     -999.25000
         4686.0       -999.250          4.741         50.263     -999.25000
         4686.5       -999.250          4.728         50.261     -999.25000
         4687.0       -999.250          4.716         50.259     -999.25000
         4687.5       -999.250          4.704         50.257     -999.25000
         4688.0       -999.250          4.692         50.255     -999.25000
         4688.5       -999.250          4.679         50.252     -999.25000
         4689.0       -999.250          4.667         50.250     -999.25000
         4689.5       -999.250          4.655         50.248     -999.25000
         4690.0       -999.250          4.642         50.246     -999.25000
         4690.5       -999.250          4.630         50.244     -999.25000
         4691.0       -999.250          4.618         50.241     -999.25000
         4691.5       -999.250          4.606         50.239     -999.25000
         4692.0       -999.250          4.593         50.237     -999.25000
         4692.5       -999.250          4.581         50.235     -999.25000
         4693.0       -999.250          4.569         50.233     -999.25000
         4693.5       -999.250          4.557         50.230     -999.25000
         4694.0       -999.250          4.544         50.228     -999.25000
         4694.5       -999.250          4.532         50.226     -999.25000
         4695.0       -999.250          4.520         50.224     -999.25000
         4695.5       -999.250          4.508         50.222     -999.25000
         4696.0       -999.250          4.495         50.219     -999.25000
         4696.5       -999.250          4.483         50.217     -999.25000
         4697.0       -999.250          4.471         50.215     -999.25000
         4697.5       -999.250          4.458         50.213     -999.25000
         4698.0       -999.250          4.446         50.211     -999.25000
         4698.5       -999.250          4.434         50.208     -999.25000
         4699.0       -999.250          4.422         50.206     -999.25000
         4699.5       -999.250          4.409         50.204     -999.25000
         4700.0       -999.250          4.397         50.202     -999.25000
         4700.5       -999.250          4.385         50.200     -999.25000
         4701.0       -999.250          4.373         50.197     -999.25000
         4701.5       -999.250          4.360         50.195     -999.25000
         4702.0       -999.250          4.348         50.193     -999.25000
         4702.5       -999.250          4.336         50.191     -999.25000
         4703.0       -999.250          4.323         50.189     -999.25000
         4703.5       -999.250          4.311         50.186     -999.25000
         4704.0       -999.250          4.299         50.184     -999.25000
         4704.5       -999.250          4.287         50.182     -999.25000
         4705.0       -999.250          4.274         50.180     -999.25000
         4705.5       -999.250          4.262         50.178     -999.25000
         4706.0       -999.250          4.250         50.175     -999.25000
         4706.5       -999.250          4.238         50.173     -999.25000
         4707.0       -999.250          4.225         50.171     -999.25000
         4707.5       -999.250          4.219         50.169     -999.25000
         4708.0       -999.250          4.219         50.167     -999.25000
         4708.5       -999.250          4.219         50.164     -999.25000
         4709.0       -999.250          4.219         50.162     -999.25000
         4709.5       -999.250          4.219         50.160     -999.25000
         4710.0       -999.250          4.219         50.158     -999.25000
         4710.5       -999.250          4.219         50.156     -999.25000
         4711.0       -999.250          4.219         50.153     -999.25000
         4711.5       -999.250          4.219         50.151     -999.25000
         4712.0       -999.250          4.219         50.149     -999.25000
         4712.5       -999.250          4.218         50.147     -999.25000
         4713.0       -999.250          4.218         50.145     -999.25000
         4713.5       -999.250          4.218         50.144     -999.25000
         4714.0       -999.250          4.218         50.174     -999.25000
         4714.5       -999.250          4.218         50.205     -999.25000
         4715.0       -999.250          4.218         50.236     -999.25000
         4715.5       -999.250          4.218         50.266     -999.25000
         4716.0       -999.250          4.218         50.297     -999.25000
         4716.5       -999.250          4.218         50.328     -999.25000
         4717.0       -999.250          4.218         50.358     -999.25000
         4717.5       -999.250          4.218         50.389     -999.25000
         4718.0       -999.250          4.218         50.419     -999.25000
         4718.5       -999.250          4.218         50.450     -999.25000
         4719.0       -999.250          4.218         50.481     -999.25000
         4719.5       -999.250          4.217         50.511     -999.25000
         4720.0       -999.250          4.217         50.542     -999.25000
         4720.5       -999.250          4.217         50.573     -999.25000
         4721.0       -999.250          4.217         50.603     -999.25000
         4721.5       -999.250          4.217         50.634     -999.25000
