###############################################
##         ENVERUS                           ##
##         ESS - Open Hole                   ##
##         PERMIAN / DELAWARE                ##
##         Nov 04 2023  V4.0                 ##
##         42-371-32680-00-00                ##
###############################################
## Copyright 2017-2023  ENVERUS.  All Rights Reserved. 
## Confidential - Property of ENVERUS, use governed by terms and 
## conditions found within the existing Information Services Subscription Agreement 
## (as may be amended, the “ISSA”) between Customer and ENVERUS. 
## 
~VERSION INFORMATION
# MNEM.UNIT                               DATA : DESCRIPTION OF MNEMONIC
#-----.-----     ----------------------------- : -----------------------------
VERS.                                     2.00 : CWLS LOG ASCII STANDARD - VERSION 2.00
WRAP.                                       NO : MULTIPLE LINES PER DEPTH STEP
VEND.                                  ENVERUS : VENDOR
TYPE.                          ESS - OPEN HOLE : ENVERUS ESSENTIAL CURVES – ACCESSIBLE THROUGH ENVERUS PRISM(TM)
DOC.                                  31991434 : ENVERUS HEADER RAW DOCUMENT ID
#___________________________________________________________________________________________________ 
~WELL INFORMATION 
# uAv5E/S3ZwrMaovXfwZJbnQ+z8RwnTA5GIEFL0LfM7mdkMX/8iXP+LiYgCnT3sJm4ejuYgXNUZeSPI/Yhcow4w== 
# MNEM.UNIT                                              DATA : DESCRIPTION OF MNEMONIC 
#-----.-----                    ----------------------------- : ----------------------------- 
CNTY.                                                   PECOS : COUNTY 
STATE.                                                  TEXAS : STATE 
CNTRY.                                                    USA : COUNTRY 
API.                                             42-371-32680 : API (10 Digit) 
API_14.                                    42-371-32680-00-00 : API (14 Digits) 
API_14_std.                                 42-371-32680-0000 : API (14 Digits Standard) 
UWI.                                           42371326800000 : UNIQUE WELL ID 
WELL.                                     MARALO - STEWART  1 : WELL NAME
STRT.FT                                                  21.0 : START DEPTH
STOP.FT                                               21630.0 : STOP DEPTH
STEP.FT                                                   0.5 : STEP BETWEEN DEPTHS
NULL.                                                 -999.25 : NULL VALUE
COMP.                                            MARALO, INC. : COMPANY 
DATE.                                             11-DEC-1978 : LOG DATE
#___________________________________________________________________________________________________ 
~CURVE INFORMATION 
# MNEM.UNIT           : CURVE DESCRIPTION 
#-----.-----          : ----------------------------- 
 DEPT.FT               : MEASURED DEPTH 
 GR__D.API             : GAMMA RAY (GR) 
 DT__D.US/FT           : SONIC DELTA TRANSIT TIME (DT) 
 RESD__D.OHMM          : DEEP INDUCTION RESISTIVITY (ILD - ILD) 
 #___________________________________________________________________________________________________ 
~A         DEPT          GR__D          DT__D        RESD__D
# ...
        19359.0         67.732         57.949         41.655
        19359.5         64.456         57.926         43.208
        19360.0         61.179         57.624         44.760
        19360.5         57.903         57.321         46.227
        19361.0         54.626         57.940         45.533
        19361.5         51.349         58.717         44.839
        19362.0         48.073         59.495         44.145
        19362.5         49.796         59.535         43.451
        19363.0         52.160         59.049         39.572
        19363.5         54.525         58.563         34.025
        19364.0         56.890         58.077         28.477
        19364.5         56.283         57.591         28.315
        19365.0         55.172         57.515         34.169
        19365.5         54.061         57.752         40.023
        19366.0         52.950         57.989         45.878
        19366.5         51.839         58.225         46.989
        19367.0         53.965         58.516         39.716
        19367.5         58.198         61.523         32.442
        19368.0         62.431         64.530         29.647
        19368.5         66.663         67.538         29.100
        19369.0         68.992         70.545         26.983
        19369.5         67.920         73.552         19.624
        19370.0         66.849         76.559         12.266
        19370.5         85.832         72.993          9.367
        19371.0         90.158         67.962          7.887
        19371.5         84.841         62.932          6.407
        19372.0         79.525         57.902          6.091
        19372.5         74.208         56.295          8.200
        19373.0         68.892         56.340         17.981
        19373.5         63.575         56.291         28.782
        19374.0         61.862         56.242         39.583
        19374.5         60.872         56.193         49.385
        19375.0         59.882         58.089         43.723
        19375.5         58.892         61.475         33.405
        19376.0         62.551         64.862         19.898
        19376.5         71.487         68.249          6.887
        19377.0         80.423         71.178          6.600
        19377.5         89.360         74.008          6.313
        19378.0         91.566         76.837          6.709
        19378.5         89.583         80.309          8.101
        19379.0         87.599         87.749          9.493
        19379.5         85.616         95.190         10.096
        19380.0         85.138         98.153          8.508
        19380.5         93.421         94.268          6.919
        19381.0        101.704         90.383          5.331
        19381.5        109.987         86.498          3.743
        19382.0        118.269         82.620          6.020
        19382.5        113.154         82.657         10.948
        19383.0        106.324         82.695         15.877
        19383.5         99.494         81.330         20.805
        19384.0         92.663         78.506         25.734
        19384.5         85.833         75.682         24.072
        19385.0         79.003         73.014         17.528
        19385.5         82.040         73.858         10.985
        19386.0         87.978         74.702          6.639
        19386.5         93.916         73.476          6.334
        19387.0         95.779         71.636          6.030
        19387.5         91.986         69.795          5.725
        19388.0         88.193         71.657          5.857
        19388.5         84.400         78.246          6.521
        19389.0         80.607         84.835         11.079
        19389.5         76.814         83.482         15.648
        19390.0         73.021         79.216         20.216
        19390.5         69.227         76.103         20.232
        19391.0         65.434         76.241         13.431
        19391.5         67.728         76.378          6.631
        19392.0         75.570         76.516          5.830
        19392.5         83.412         76.568          8.204
        19393.0         91.254         69.821         19.143
        19393.5         81.341         63.075         54.982
        19394.0         70.195         56.329         90.820
        19394.5         59.050         57.370        126.659
        19395.0         47.904         59.946        101.999
        19395.5         59.132         62.522         53.503
        19396.0         73.460         65.098         24.978
        19396.5         87.789         67.674         13.092
        19397.0        102.118         70.250         11.656
        19397.5        116.446         69.459         13.846
        19398.0        112.193         66.706         19.650
        19398.5        103.395         63.953         25.453
        19399.0         94.598         61.200         31.257
        19399.5         85.800         59.270         37.060
        19400.0         77.002         63.950         42.864
        19400.5         68.204         68.630         48.667
        19401.0         64.362         73.310         39.392
        19401.5         70.286         77.990         25.173
        19402.0         76.209         82.670         13.958
        19402.5         82.133         87.350         11.002
        19403.0         88.057         92.030          8.047
        19403.5         92.249         96.251          5.091
        19404.0         82.661         94.435          6.519
        19404.5         73.073         87.787         62.928
        19405.0         63.485         81.139        426.773
        19405.5         53.897         74.491        790.619
        19406.0         44.309         67.844       1154.464
        19406.5         34.721         61.196       1229.514
        19407.0         33.006         64.608        965.601
        19407.5         39.114         68.115        701.689
        19408.0         45.221         71.621        437.777
        19408.5         51.329         73.448        173.864
        19409.0         57.825         71.057         14.762
        19409.5         74.437         68.666         11.210
        19410.0         91.048         66.275          7.659
        19410.5        107.660         63.884          8.169
        19411.0        110.802         61.493         13.920
        19411.5         91.686         59.102         19.671
        19412.0         72.569         58.485         25.422
        19412.5         59.611         57.899         27.018
        19413.0         64.741         58.747         21.580
        19413.5         69.872         60.410         16.141
        19414.0         75.002         62.073         10.702
        19414.5         70.710         63.736         29.214
        19415.0         64.589         63.429         49.821
        19415.5         58.467         61.053         70.427
        19416.0         52.346         58.676         91.034
        19416.5         46.224         57.873        111.640
        19417.0         40.102         60.047         95.511
        19417.5         39.473         62.220         76.070
        19418.0         48.071         64.394         36.281
        19418.5         56.669         66.567         11.883
        19419.0         65.267         68.740         11.110
        19419.5         73.864         64.590         10.337
        19420.0         81.368         54.705         17.004
        19420.5         72.720         55.073         31.691
        19421.0         64.073         55.673         46.378
        19421.5         60.719         58.312         49.350
        19422.0         65.724         60.951         34.527
        19422.5         70.729         63.590         20.861
        19423.0         75.734         66.229         13.087
        19423.5         80.739         68.868          9.062
        19424.0         85.744         69.302         10.229
        19424.5         83.451         67.242         11.396
