###############################################
##         ENVERUS                           ##
##         EPlus - Open Hole                 ##
##         PERMIAN / DELAWARE                ##
##         Copyright ©                       ##
##         Enverus Version - V4.0            ##
##         Nov 20 2023                       ##
##         42-389-10253-00-00                ##
###############################################
## Copyright 2017-2023  ENVERUS.  All Rights Reserved. 
## Confidential - Property of ENVERUS, use governed by terms and 
## conditions found within the existing Information Services Subscription Agreement 
## (as may be amended, the “ISSA”) between Customer and ENVERUS. 
## 
#___________________________________________________________________________________________________
~VERSION INFORMATION
# MNEM.UNIT                               DATA : DESCRIPTION OF MNEMONIC
#-----.-----     ----------------------------- : -----------------------------
VERS.                                     2.00 : CWLS LOG ASCII STANDARD - VERSION 2.00
WRAP.                                       NO : MULTIPLE LINES PER DEPTH STEP
VEND.                                  ENVERUS : VENDOR
ENV_TYPE.                    EPLUS - OPEN HOLE : Enverus Essential Plus Curves – Accessible through Enverus Core(TM)
ENV_VERS.                                 V4.0 : EPlus - Open Hole Version number 
ENV_DOC.                              44178784 : ENVERUS Header Document id
ENV_REF.                               PERMIAN : ENVERUS BASIN OR PLAY APPLIED REFERENCE LIMITS 
#___________________________________________________________________________________________________ 
~WELL INFORMATION 
# uyaQ8P8kQDJ9DXFS5hR1PxmExEOYaAUkY5f3/tnOS+scoPAUWgXA1zCIHGRbWCuSuUcwDzaESCjqjWQ81XhadA== 
# MNEM.UNIT                                              DATA : DESCRIPTION OF MNEMONIC 
#-----.-----                    ----------------------------- : ----------------------------- 
CNTY.                                                  REEVES : COUNTY 
STATE.                                                  TEXAS : STATE 
CNTRY.                                                    USA : COUNTRY 
API.                                             42-389-10253 : API (10 Digit) 
API_14.                                    42-389-10253-00-00 : API (14 Digits) 
API_14_std.                                 42-389-10253-0000 : API (14 Digits Standard) 
UWI.                                           42389102530000 : UNIQUE WELL ID
STRT.FT                                                   108 : START DEPTH
STOP.FT                                                  5248 : STOP DEPTH
STEP.FT                                                   0.5 : STEP DEPTH
NULL.                                               -999.2500 : NULL VALUE
WELL.                                       A O  REEVES FEE 1 : WELL NAME 
GR_ELEV.                                                 2779 : GROUND ELEVATION 
SLAT.                                                 31.1575 : SURFACE LATITUDE 
SLONG.                                              -103.3573 : SURFACE LONGITUDE
#___________________________________________________________________________________________________ 
~CURVE INFORMATION 
# MNEM.UNIT           : CURVE DESCRIPTION 
#-----.-----          : ----------------------------- 
DEPT.FT               : MEASURED DEPTH 
GR_E.API              : ENVERUS GAMMA RAY - CLEANED BLENDED AND LUMPED 
GR_F.                 : ENVERUS GAMMA RAY - OUTLIER INDICATOR - 0=(IN BOUNDS) 1=(OUT OF BOUNDS) 2=(REPEATING) 
GR_S.                 : ENVERUS GAMMA RAY - SOURCE INDICATOR 
GR_U.                 : ENVERUS GAMMA RAY - OPTION INDICATOR - 0=(NO OPTION) 1=(OTHER OPTIONS) 
DT_E.US/FT            : ENVERUS SONIC TRAVEL TIME - CLEANED BLENDED AND LUMPED 
DT_F.                 : ENVERUS SONIC TRAVEL TIME - OUTLIER INDICATOR - 0=(IN BOUNDS) 1=(OUT OF BOUNDS) 2=(REPEATING) 
DT_S.                 : ENVERUS SONIC TRAVEL TIME - SOURCE INDICATOR 
DT_U.                 : ENVERUS SONIC TRAVEL TIME - OPTION INDICATOR - 0=(NO OPTION) 1=(OTHER OPTIONS)
#___________________________________________________________________________________________________ 
~A         DEPT           GR_E           GR_F           GR_S           GR_U           DT_E           DT_F           DT_S           DT_U
         108.00         67.903           0.00           0.00           0.00     -999.25000        -999.25        -999.25        -999.25
         108.50         65.539           0.00           0.00           0.00     -999.25000        -999.25        -999.25        -999.25
         109.00         63.175           0.00           0.00           0.00     -999.25000        -999.25        -999.25        -999.25
         109.50         60.811           0.00           0.00           0.00     -999.25000        -999.25        -999.25        -999.25
         110.00         58.447           0.00           0.00           0.00     -999.25000        -999.25        -999.25        -999.25
         110.50         56.719           0.00           0.00           0.00     -999.25000        -999.25        -999.25        -999.25
         111.00         55.037           0.00           0.00           0.00     -999.25000        -999.25        -999.25        -999.25
         111.50         52.193           0.00           0.00           0.00     -999.25000        -999.25        -999.25        -999.25
         112.00         49.195           0.00           0.00           0.00     -999.25000        -999.25        -999.25        -999.25
         112.50         46.198           0.00           0.00           0.00     -999.25000        -999.25        -999.25        -999.25
         113.00         43.200           0.00           0.00           0.00     -999.25000        -999.25        -999.25        -999.25
         113.50         40.203           0.00           0.00           0.00     -999.25000        -999.25        -999.25        -999.25
         114.00         37.205           0.00           0.00           0.00     -999.25000        -999.25        -999.25        -999.25
         114.50         35.298           0.00           0.00           0.00     -999.25000        -999.25        -999.25        -999.25
         115.00         34.728           0.00           0.00           0.00     -999.25000        -999.25        -999.25        -999.25
         115.50         34.159           0.00           0.00           0.00     -999.25000        -999.25        -999.25        -999.25
         116.00         33.589           0.00           0.00           0.00     -999.25000        -999.25        -999.25        -999.25
         116.50         33.019           0.00           0.00           0.00     -999.25000        -999.25        -999.25        -999.25
         117.00         32.911           0.00           0.00           0.00     -999.25000        -999.25        -999.25        -999.25
         117.50         33.927           0.00           0.00           0.00     -999.25000        -999.25        -999.25        -999.25
         118.00         34.943           0.00           0.00           0.00     -999.25000        -999.25        -999.25        -999.25
         118.50         35.958           0.00           0.00           0.00     -999.25000        -999.25        -999.25        -999.25
         119.00         36.974           0.00           0.00           0.00     -999.25000        -999.25        -999.25        -999.25
         119.50         37.990           0.00           0.00           0.00     -999.25000        -999.25        -999.25        -999.25
         120.00         38.950           0.00           0.00           0.00     -999.25000        -999.25        -999.25        -999.25
         120.50         38.519           0.00           0.00           0.00     -999.25000        -999.25        -999.25        -999.25
         121.00         38.088           0.00           0.00           0.00     -999.25000        -999.25        -999.25        -999.25
         121.50         36.842           0.00           0.00           0.00     -999.25000        -999.25        -999.25        -999.25
         122.00         35.117           0.00           0.00           0.00     -999.25000        -999.25        -999.25        -999.25
         122.50         33.391           0.00           0.00           0.00     -999.25000        -999.25        -999.25        -999.25
         123.00         31.666           0.00           0.00           0.00     -999.25000        -999.25        -999.25        -999.25
         123.50         29.940           0.00           0.00           0.00     -999.25000        -999.25        -999.25        -999.25
         124.00         28.215           0.00           0.00           0.00     -999.25000        -999.25        -999.25        -999.25
         124.50         26.489           0.00           0.00           0.00     -999.25000        -999.25        -999.25        -999.25
         125.00         24.764           0.00           0.00           0.00     -999.25000        -999.25        -999.25        -999.25
         125.50         23.496           0.00           0.00           0.00     -999.25000        -999.25        -999.25        -999.25
         126.00         22.812           0.00           0.00           0.00     -999.25000        -999.25        -999.25        -999.25
         126.50         22.128           0.00           0.00           0.00     -999.25000        -999.25        -999.25        -999.25
         127.00         21.445           0.00           0.00           0.00     -999.25000        -999.25        -999.25        -999.25
         127.50         20.761           0.00           0.00           0.00     -999.25000        -999.25        -999.25        -999.25
         128.00         20.077           0.00           0.00           0.00     -999.25000        -999.25        -999.25        -999.25
         128.50         19.393           0.00           0.00           0.00     -999.25000        -999.25        -999.25        -999.25
         129.00         18.709           0.00           0.00           0.00     -999.25000        -999.25        -999.25        -999.25
         129.50         18.025           0.00           0.00           0.00     -999.25000        -999.25        -999.25        -999.25
         130.00         18.145           0.00           0.00           0.00     -999.25000        -999.25        -999.25        -999.25
         130.50         18.405           0.00           0.00           0.00     -999.25000        -999.25        -999.25        -999.25
         131.00         18.664           0.00           0.00           0.00     -999.25000        -999.25        -999.25        -999.25
         131.50         18.924           0.00           0.00           0.00     -999.25000        -999.25        -999.25        -999.25
         132.00         19.183           0.00           0.00           0.00     -999.25000        -999.25        -999.25        -999.25
         132.50         19.442           0.00           0.00           0.00     -999.25000        -999.25        -999.25        -999.25
         133.00         19.371           0.00           0.00           0.00     -999.25000        -999.25        -999.25        -999.25
         133.50         18.465           0.00           0.00           0.00     -999.25000        -999.25        -999.25        -999.25
         134.00         18.357           0.00           0.00           0.00     -999.25000        -999.25        -999.25        -999.25
         134.50         18.851           0.00           0.00           0.00     -999.25000        -999.25        -999.25        -999.25
         135.00         19.346           0.00           0.00           0.00     -999.25000        -999.25        -999.25        -999.25
         135.50         19.840           0.00           0.00           0.00     -999.25000        -999.25        -999.25        -999.25
         136.00         19.724           0.00           0.00           0.00     -999.25000        -999.25        -999.25        -999.25
         136.50         19.416           0.00           0.00           0.00     -999.25000        -999.25        -999.25        -999.25
         137.00         19.108           0.00           0.00           0.00     -999.25000        -999.25        -999.25        -999.25
