###############################################
##         ENVERUS                           ##
##         ESS - Open Hole                   ##
##         PERMIAN / DELAWARE                ##
##         Nov 04 2023  V4.0                 ##
##         42-389-00802-00-00                ##
###############################################
## Copyright 2017-2023  ENVERUS.  All Rights Reserved. 
## Confidential - Property of ENVERUS, use governed by terms and 
## conditions found within the existing Information Services Subscription Agreement 
## (as may be amended, the “ISSA”) between Customer and ENVERUS. 
## 
~VERSION INFORMATION
# MNEM.UNIT                               DATA : DESCRIPTION OF MNEMONIC
#-----.-----     ----------------------------- : -----------------------------
VERS.                                     2.00 : CWLS LOG ASCII STANDARD - VERSION 2.00
WRAP.                                       NO : MULTIPLE LINES PER DEPTH STEP
VEND.                                  ENVERUS : VENDOR
TYPE.                          ESS - OPEN HOLE : ENVERUS ESSENTIAL CURVES – ACCESSIBLE THROUGH ENVERUS PRISM(TM)
DOC.                                  31817456 : ENVERUS HEADER RAW DOCUMENT ID
#___________________________________________________________________________________________________ 
~WELL INFORMATION 
# RyAIq6UWQPnCIzV1aSVljU5sZzU8mzXCuHzh8Tf3VVfaeSb2oya67RMqigcBPLsftsjdPp3J13KbDcbgGgUr7w== 
# MNEM.UNIT                                              DATA : DESCRIPTION OF MNEMONIC 
#-----.-----                    ----------------------------- : ----------------------------- 
CNTY.                                                  REEVES : COUNTY 
STATE.                                                  TEXAS : STATE 
CNTRY.                                                    USA : COUNTRY 
API.                                             42-389-00802 : API (10 Digit) 
API_14.                                    42-389-00802-00-00 : API (14 Digits) 
API_14_std.                                 42-389-00802-0000 : API (14 Digits Standard) 
UWI.                                           42389008020000 : UNIQUE WELL ID 
WELL.                                                      1, : WELL NAME
STRT.FT                                                 103.0 : START DEPTH
STOP.FT                                                5419.0 : STOP DEPTH
STEP.FT                                                   0.5 : STEP BETWEEN DEPTHS
NULL.                                                 -999.25 : NULL VALUE
#___________________________________________________________________________________________________ 
~CURVE INFORMATION 
# MNEM.UNIT           : CURVE DESCRIPTION 
#-----.-----          : ----------------------------- 
 DEPT.FT               : MEASURED DEPTH 
 GR.API                : GAMMA RAY (GR) 
 DT.US/FT              : SONIC DELTA TRANSIT TIME (DT) 
 #___________________________________________________________________________________________________ 
~A         DEPT             GR             DT
# ...
         2887.0          6.704         52.359
         2887.5          5.945         52.573
         2888.0          5.471         52.788
         2888.5          5.237         52.817
         2889.0          5.004         52.615
         2889.5          4.770         52.413
         2890.0          4.536         52.273
         2890.5          4.303         52.625
         2891.0          5.285         52.977
         2891.5          6.393         53.328
         2892.0          7.500         53.155
         2892.5          7.509         52.738
         2893.0          6.728         52.321
         2893.5          5.946         51.904
         2894.0          5.165         51.487
         2894.5          4.384         51.265
         2895.0          4.184         51.834
         2895.5          4.626         52.403
         2896.0          5.067         52.972
         2896.5          5.509         53.540
         2897.0          5.950         54.109
         2897.5          6.391         54.678
         2898.0          6.833         54.357
         2898.5          7.274         53.855
         2899.0          7.603         53.354
         2899.5          6.841         52.853
         2900.0          6.079         52.352
         2900.5          5.317         51.851
         2901.0          4.556         51.350
         2901.5          3.794         50.993
         2902.0          3.565         51.271
         2902.5          4.067         51.549
         2903.0          4.568         51.827
         2903.5          5.070         52.105
         2904.0          5.571         52.383
         2904.5          6.073         52.661
         2905.0          6.574         52.571
         2905.5          6.763         52.450
         2906.0          6.833         52.328
         2906.5          6.902         52.207
         2907.0          6.972         52.086
         2907.5          7.041         51.965
         2908.0          7.111         52.071
         2908.5          7.180         52.236
         2909.0          7.249         52.401
         2909.5          7.319         52.310
         2910.0          7.388         52.209
         2910.5          7.179         52.108
         2911.0          6.798         52.007
         2911.5          6.417         51.906
         2912.0          6.036         51.805
         2912.5          5.654         51.766
         2913.0          5.273         51.896
         2913.5          4.892         52.026
         2914.0          4.511         52.156
         2914.5          4.130         52.286
         2915.0          3.749         52.417
         2915.5          3.368         52.419
         2916.0          3.323         52.343
         2916.5          3.961         52.267
         2917.0          4.599         52.191
         2917.5          5.236         52.116
         2918.0          5.874         52.040
         2918.5          6.512         51.964
         2919.0          7.149         51.888
         2919.5          7.787         51.812
         2920.0          8.425         51.834
         2920.5          9.062         51.900
         2921.0          8.650         51.966
         2921.5          8.064         52.033
         2922.0          8.124         52.099
         2922.5          8.625         52.165
         2923.0          9.127         52.232
         2923.5          9.506         52.298
         2924.0          9.510         52.364
         2924.5          9.513         52.331
         2925.0          9.516         52.250
         2925.5          9.520         52.169
         2926.0          9.355         52.088
         2926.5          8.477         52.007
         2927.0          7.599         51.927
         2927.5          6.721         51.846
         2928.0          5.843         51.959
         2928.5          5.895         52.078
         2929.0          6.458         52.196
         2929.5          7.020         52.314
         2930.0          7.582         52.432
         2930.5          8.144         52.551
         2931.0          8.706         52.418
         2931.5          9.268         52.210
         2932.0          9.831         52.001
         2932.5         10.265         51.793
         2933.0         10.377         52.008
         2933.5         10.489         52.277
         2934.0         10.600         52.546
         2934.5         10.712         52.815
         2935.0         10.823         51.818
         2935.5         10.889         51.947
         2936.0         10.597         52.076
         2936.5         10.304         52.205
         2937.0         10.012         52.334
         2937.5          9.719         52.463
         2938.0          9.426         52.482
         2938.5          9.720         52.032
         2939.0         10.659         51.582
         2939.5         11.598         51.131
         2940.0         12.537         53.734
         2940.5         13.476         56.662
         2941.0         13.047         58.956
         2941.5         11.145         59.292
         2942.0          9.243         59.627
         2942.5          7.342         59.962
         2943.0          6.448         59.846
         2943.5          6.777         58.367
         2944.0          7.106         56.889
         2944.5          7.435         55.410
         2945.0          7.764         53.931
         2945.5          8.093         54.978
         2946.0          8.177         57.930
         2946.5          7.694         60.882
         2947.0          7.211         60.644
         2947.5          6.728         60.088
         2948.0          6.245         64.790
         2948.5          5.762         65.763
         2949.0          5.279         65.898
         2949.5          4.796         66.033
         2950.0          4.313         66.168
         2950.5          3.830         61.817
         2951.0          4.071         57.061
         2951.5          4.631         52.305
         2952.0          5.190         51.984
         2952.5          5.750         48.895
         2953.0          6.309         49.900
         2953.5          6.868         50.904
         2954.0          7.428         51.909
         2954.5          7.987         52.913
         2955.0          7.789         53.266
         2955.5          7.496         52.968
         2956.0          7.204         52.670
         2956.5          6.911         52.372
         2957.0          6.618         52.074
         2957.5          6.326         53.473
         2958.0          6.053         56.358
         2958.5          5.919         57.906
         2959.0          5.786         59.084
         2959.5          5.652         60.013
         2960.0          5.519         59.770
         2960.5          5.385         59.526
         2961.0          5.252         59.283
         2961.5          5.119         60.519
         2962.0          5.369         62.008
         2962.5          5.709         62.357
         2963.0          6.048         61.133
         2963.5          6.388         59.908
         2964.0          6.727         61.083
         2964.5          7.066         62.909
         2965.0          7.406         64.736
         2965.5          7.745         66.562
         2966.0          8.085         68.388
         2966.5          8.075         68.237
         2967.0          8.012         67.667
         2967.5          7.950         67.097
         2968.0          7.887         66.527
         2968.5          7.824         65.957
         2969.0          7.762         65.387
         2969.5          7.699         64.817
         2970.0          7.637         65.396
         2970.5          7.574         66.362
         2971.0          7.512         67.328
         2971.5          6.505         67.948
         2972.0          5.194         67.229
         2972.5          4.847         66.510
         2973.0          5.584         65.792
         2973.5          6.321         65.073
