#--------------------------------------------------#
#-------------------ENVERUS, INC.------------------#
#------------------WWW.ENVERUS.COM-----------------#
#------------------COPYRIGHT 2020------------------#
#--------------------------------------------------#
#THIS FILE MAY BE USED ONLY IN ACCORDANCE WITH A CURRENT SUBSCRIPTION AGREEMENT BETWEEN
#THE USER AND ENVERUS, INC. NO PART OF THIS FILE MAY BE REPRODUCED, USED, COPIED,
#MODIFIED, PROPAGATED, OR DISTRIBUTED EXCEPT IN ACCORDANCE WITH THE SUBSCRIPTION
#AGREEMENT. UNAUTHORIZED USE OR DISTRIBUTION OF ALL OR ANY PART OF THIS FILE MAY VIOLATE
#COPYRIGHT, TRADEMARK, AND/OR OTHER LAWS AND IS SUBJECT TO CIVIL AS WELL AS CRIMINAL
#SANCTIONS.
#--------------------------------------------------#
#THIS FILE IS PROVIDED "AS-IS" AND ALL WARRANTIES ARE EXPRESSLY DISCLAIMED, WHETHER
#EXPRESS, ORAL, IMPLIED, STATUTORY OR OTHERWISE, INCLUDING ANY IMPLIED WARRANTY OF FITNESS
#FOR A PARTICULAR PURPOSE, MERCHANTABILITY, TITLE OR NON-INFRINGEMENT, AND ANY WARRANTIES
#ARISING BY VIRTUE OF CUSTOM OF TRADE OR COURSE OF DEALING.  FURTHER, ENVERUS, INC.
#AND ITS LICENSORS DO NOT REPRESENT OR WARRANT THAT THIS FILE WILL MEET USER'S
#REQUIREMENTS OR ARE SUITABLE FOR USER'S NEEDS OR THAT THE DATA OR RESULTS PROVIDED IN
#CONJUNCTION THEREWITH ARE CORRECT, ACCURATE, TIMELY OR RELIABLE. THESE DISCLAIMERS SHALL
#APPLY REGARDLESS OF ANY FAILURE OF ESSENTIAL PURPOSE OF ANY LIMITED REMEDY.  SOME
#JURISDICTIONS DO NOT ALLOW THE EXCLUSION OF CERTAIN WARRANTIES SO SOME OF THE ABOVE
#EXCLUSIONS MAY NOT APPLY. IN NO EVENT SHALL ENVERUS, INC. OR ANY OF ITS AFFILIATES
#BE LIABLE UNDER ANY LEGAL THEORY, WHETHER IN TORT (INCLUDING WITHOUT LIMITATION
#NEGLIGENCE), CONTRACT, STRICT LIABILITY, STATUTORY OR OTHERWISE, FOR ANY SPECIAL,
#INCIDENTAL, CONSEQUENTIAL, EXEMPLARY, PUNITIVE OR INDIRECT DAMAGE OF ANY KIND, INCLUDING
#WITHOUT LIMITATION LOSS OF REVENUE, PROFITS, GOODWILL, USE, AND/OR DATA OR THE COST OF
#PROCUREMENT OF SUBSTITUTE GOODS OR SERVICES, EVEN IF APPRISED OF THE POSSIBILITY OF SUCH
#DAMAGES IN ADVANCE.
#--------------------------------------------------#

~VERSION INFORMATION
VERS. 2.0 : CWLS LOG ASCII STANDARD - VERSION 2.0
WRAP.  NO : ONE LINE PER DEPTH STEP
~WELL INFORMATION
#MNEMONIC     .UNIT              VALUE :DESCRIPTION
STRT       .FT                2 :START DEPTH
STOP       .FT                6341 :STOP DEPTH
STEP       .FT                   0.500 :STEP
NULL       .                  -999.990 :NULL
UWI        .              42389104050000 :UNIQUE WELL ID
API        .              42389104050000 :API NUMBER
COMP       .         ENDEAVOR ENERGY RESOURCES L.P. :COMPANY
WELL       .        TXL REEVES STATE UNIT  2 :WELL
DATE       .                            :LOG DATE
~CURVE INFORMATION
#MNEMONIC     .UNIT      API CODE :CURVE DESCRIPTION
DEPTH       .FT                      :MEASURED DEPTH
GR.API        UNKNOWN   :GR
DT.US/FT        UNKNOWN   :DT
~A    DEPTH    GR    DT
# ...
 4146     10.521   48.771
 4146.5     9.767   48.775
 4147     9.013   48.779
 4147.5     8.259   48.783
 4148     7.506   48.787
 4148.5     6.752   48.791
 4149     6.295   48.933
 4149.5     6.713   49.096
 4150     7.132   49.259
 4150.5     7.55   49.422
 4151     7.969   49.585
 4151.5     8.387   49.748
 4152     8.805   49.837
 4152.5     9.224   49.805
 4153     9.642   49.774
 4153.5     10.061   49.743
 4154     10.078   49.712
 4154.5     9.92   49.68
 4155     9.762   49.649
 4155.5     9.603   49.618
 4156     9.445   49.586
 4156.5     9.287   49.555
 4157     9.147   49.524
 4157.5     9.84   49.492
 4158     10.533   49.461
 4158.5     11.226   49.43
 4159     11.919   49.398
 4159.5     10.803   49.367
 4160     8.58   49.316
 4160.5     7.739   49.229
 4161     7.411   49.142
 4161.5     7.084   49.055
 4162     6.756   48.968
 4162.5     6.749   48.881
 4163     7.351   48.794
 4163.5     7.954   48.707
 4164     8.556   48.62
 4164.5     9.158   48.533
 4165     9.1   48.447
 4165.5     8.828   48.411
 4166     8.555   48.501
 4166.5     8.283   48.591
 4167     8.1   48.682
 4167.5     8.324   48.772
 4168     8.547   48.863
 4168.5     8.771   48.904
 4169     8.66   48.724
 4169.5     7.957   48.543
 4170     7.253   48.363
 4170.5     6.55   48.183
 4171     5.846   48.179
 4171.5     6.063   48.29
 4172     6.887   48.402
 4172.5     7.711   48.514
 4173     8.534   48.626
 4173.5     9.358   48.713
 4174     9.556   48.73
 4174.5     9.377   48.747
 4175     9.198   48.763
 4175.5     9.018   48.78
 4176     8.839   48.796
 4176.5     8.66   48.813
 4177     8.481   48.829
 4177.5     8.302   48.846
 4178     8.147   48.771
 4178.5     8.495   48.681
 4179     8.844   48.591
 4179.5     9.193   48.501
 4180     9.541   48.411
 4180.5     9.89   48.321
 4181     10.239   48.563
 4181.5     10.587   48.914
 4182     10.624   49.264
 4182.5     10.193   49.615
 4183     9.762   49.674
 4183.5     9.331   49.503
 4184     9.438   49.333
 4184.5     10.351   49.163
 4185     11.098   48.993
 4185.5     10.388   48.999
 4186     9.679   49.009
 4186.5     8.969   49.02
 4187     9.539   49.03
 4187.5     10.306   49.04
 4188     10.534   49.05
 4188.5     9.875   49.06
 4189     9.217   49.071
 4189.5     12.477   49.081
 4190     12.315   49.091
 4190.5     12.153   49.101
 4191     11.991   49.112
 4191.5     11.828   49.122
 4192     11.666   49.101
 4192.5     11.02   48.981
 4193     10.245   48.861
 4193.5     9.47   48.741
 4194     8.695   48.738
 4194.5     8.354   48.896
 4195     9.515   49.055
 4195.5     10.676   49.214
 4196     11.837   49.373
 4196.5     11.759   49.532
 4197     11.318   49.691
 4197.5     10.876   49.85
 4198     10.435   49.99
 4198.5     9.993   49.43
 4199     9.552   48.87
 4199.5     9.11   48.755
 4200     8.669   48.803
 4200.5     8.836   48.851
 4201     9.025   48.9
 4201.5     9.214   48.948
 4202     9.404   48.996
 4202.5     8.524   49.045
 4203     7.593   49.093
 4203.5     6.662   49.141
 4204     6.015   49.189
 4204.5     6.939   49.238
 4205     7.864   49.249
 4205.5     8.173   49.164
 4206     7.788   49.079
 4206.5     7.404   48.995
 4207     7.311   48.91
 4207.5     8.182   48.826
 4208     9.054   48.741
 4208.5     9.926   48.746
 4209     10.392   48.774
 4209.5     10.255   48.803
 4210     10.117   48.831
 4210.5     9.979   48.86
 4211     9.841   48.888
 4211.5     9.703   48.917
 4212     9.565   48.945
 4212.5     9.427   48.974
 4213     9.313   49.002
 4213.5     11.44   49.031
 4214     11.944   49.059
 4214.5     11.626   49.088
 4215     11.307   49.119
 4215.5     10.988   49.15
 4216     10.67   49.182
 4216.5     10.351   49.214
 4217     10.032   49.245
 4217.5     9.714   49.277
 4218     9.395   49.308
 4218.5     9.076   49.34
 4219     8.758   49.367
 4219.5     9.612   49.267
 4220     12.148   49.167
 4220.5     11.951   49.068
 4221     11.753   48.968
 4221.5     11.556   48.868
 4222     11.304   48.768
 4222.5     10.298   48.668
 4223     9.292   48.568
 4223.5     8.594   48.468
 4224     9.02   48.415
 4224.5     9.445   48.37
 4225     9.87   48.326
 4225.5     10.296   48.281
 4226     10.721   48.236
 4226.5     11.147   48.191
 4227     11.572   48.312
 4227.5     11.685   48.488
 4228     11.287   48.664
 4228.5     10.888   48.84
 4229     10.489   49.015
 4229.5     10.091   49.191
 4230     9.692   49.367
 4230.5     9.293   49.542
 4231     8.894   49.718
 4231.5     8.496   49.575
 4232     8.097   49.214
 4232.5     7.823   48.854
 4233     7.863   48.494
 4233.5     7.904   48.139
 4234     8.21   48.292
 4234.5     8.519   48.446
 4235     8.827   48.6
 4235.5     9.135   48.754
 4236     8.895   48.908
 4236.5     8.643   49.062
 4237     8.391   49.175
 4237.5     8.139   49.033
 4238     7.907   48.891
 4238.5     8.432   48.75
 4239     8.956   48.608
 4239.5     9.481   48.664
 4240     9.334   48.734
 4240.5     8.147   48.804
 4241     6.96   48.874
 4241.5     7.564   48.944
 4242     8.56   49.014
 4242.5     9.291   49.083
 4243     9.189   49.064
 4243.5     9.088   49.003
 4244     8.986   48.942
 4244.5     8.885   48.88
 4245     8.784   48.819
 4245.5     8.682   48.758
 4246     8.581   48.697
 4246.5     8.479   48.636
 4247     8.378   48.575
 4247.5     8.985   48.514
 4248     9.886   48.453
 4248.5     10.786   48.392
 4249     11.687   48.331
 4249.5     12.588   48.269
 4250     10.12   48.208
 4250.5     9.638   48.147
 4251     11.325   48.086
 4251.5     13.011   48.025
 4252     14.697   47.964
 4252.5     16.384   48.151
 4253     16.964   48.347
 4253.5     13.642   48.543
 4254     10.775   48.738
 4254.5     10.501   48.934
 4255     10.228   49.13
 4255.5     9.954   49.068
 4256     9.68   48.966
 4256.5     9.407   48.863
 4257     9.133   48.76
 4257.5     9.102   48.657
 4258     9.335   48.65
 4258.5     9.567   48.734
 4259     9.388   48.817
 4259.5     8.95   48.901
 4260     8.512   48.984
 4260.5     8.073   48.923
 4261     7.635   48.743
 4261.5     7.196   48.563
 4262     7.723   48.383
 4262.5     8.646   48.203
 4263     9.569   48.081
 4263.5     10.492   48.192
 4264     11.415   48.303
 4264.5     11.532   48.415
 4265     10.959   48.526
 4265.5     10.387   48.705
 4266     9.814   49.067
 4266.5     9.241   49.027
 4267     8.686   48.987
 4267.5     9.08   48.947
 4268     9.474   48.907
 4268.5     9.867   48.868
 4269     10.011   48.828
 4269.5     9.759   48.788
 4270     9.507   48.748
 4270.5     9.255   48.708
 4271     9.003   48.668
 4271.5     8.804   48.629
 4272     9.626   48.589
 4272.5     10.447   48.57
 4273     11.268   48.575
 4273.5     11.402   48.579
 4274     11.361   48.584
 4274.5     11.32   48.588
 4275     11.279   48.592
 4275.5     11.238   48.597
 4276     11.197   48.601
 4276.5     11.156   48.606
 4277     11.115   48.61
 4277.5     11.074   48.614
 4278     11.033   48.674
 4278.5     10.992   48.812
 4279     10.951   48.951
 4279.5     12.059   49.089
 4280     13.387   49.228
 4280.5     12.632   49.367
 4281     11.877   49.505
 4281.5     11.122   49.644
 4282     10.367   49.547
 4282.5     9.755   49.383
 4283     10.386   49.219
 4283.5     11.016   49.055
 4284     11.646   48.891
 4284.5     11.681   48.727
 4285     11.048   48.563
 4285.5     10.414   48.498
 4286     9.78   48.527
 4286.5     9.147   48.556
 4287     8.838   48.585
 4287.5     9.187   48.614
 4288     9.536   48.643
 4288.5     9.885   48.672
 4289     10.726   48.701
 4289.5     12.038   48.73
 4290     12.185   48.759
 4290.5     10.587   48.788
 4291     8.989   48.817
 4291.5     7.391   48.846
 4292     8.683   48.875
 4292.5     10.011   48.904
 4293     11.339   48.933
 4293.5     11.837   48.962
 4294     11.615   48.991
 4294.5     11.393   49.02
 4295     11.171   49.049
 4295.5     10.949   49.078
 4296     11.484   49.107
 4296.5     12.245   49.137
 4297     13.005   49.166
 4297.5     13.575   49.195
 4298     12.898   49.224
 4298.5     12.221   49.253
