#--------------------------------------------------#
#-------------------ENVERUS, INC.------------------#
#------------------WWW.ENVERUS.COM-----------------#
#------------------COPYRIGHT 2020------------------#
#--------------------------------------------------#
#THIS FILE MAY BE USED ONLY IN ACCORDANCE WITH A CURRENT SUBSCRIPTION AGREEMENT BETWEEN
#THE USER AND ENVERUS, INC. NO PART OF THIS FILE MAY BE REPRODUCED, USED, COPIED,
#MODIFIED, PROPAGATED, OR DISTRIBUTED EXCEPT IN ACCORDANCE WITH THE SUBSCRIPTION
#AGREEMENT. UNAUTHORIZED USE OR DISTRIBUTION OF ALL OR ANY PART OF THIS FILE MAY VIOLATE
#COPYRIGHT, TRADEMARK, AND/OR OTHER LAWS AND IS SUBJECT TO CIVIL AS WELL AS CRIMINAL
#SANCTIONS.
#--------------------------------------------------#
#THIS FILE IS PROVIDED "AS-IS" AND ALL WARRANTIES ARE EXPRESSLY DISCLAIMED, WHETHER
#EXPRESS, ORAL, IMPLIED, STATUTORY OR OTHERWISE, INCLUDING ANY IMPLIED WARRANTY OF FITNESS
#FOR A PARTICULAR PURPOSE, MERCHANTABILITY, TITLE OR NON-INFRINGEMENT, AND ANY WARRANTIES
#ARISING BY VIRTUE OF CUSTOM OF TRADE OR COURSE OF DEALING.  FURTHER, ENVERUS, INC.
#AND ITS LICENSORS DO NOT REPRESENT OR WARRANT THAT THIS FILE WILL MEET USER'S
#REQUIREMENTS OR ARE SUITABLE FOR USER'S NEEDS OR THAT THE DATA OR RESULTS PROVIDED IN
#CONJUNCTION THEREWITH ARE CORRECT, ACCURATE, TIMELY OR RELIABLE. THESE DISCLAIMERS SHALL
#APPLY REGARDLESS OF ANY FAILURE OF ESSENTIAL PURPOSE OF ANY LIMITED REMEDY.  SOME
#JURISDICTIONS DO NOT ALLOW THE EXCLUSION OF CERTAIN WARRANTIES SO SOME OF THE ABOVE
#EXCLUSIONS MAY NOT APPLY. IN NO EVENT SHALL ENVERUS, INC. OR ANY OF ITS AFFILIATES
#BE LIABLE UNDER ANY LEGAL THEORY, WHETHER IN TORT (INCLUDING WITHOUT LIMITATION
#NEGLIGENCE), CONTRACT, STRICT LIABILITY, STATUTORY OR OTHERWISE, FOR ANY SPECIAL,
#INCIDENTAL, CONSEQUENTIAL, EXEMPLARY, PUNITIVE OR INDIRECT DAMAGE OF ANY KIND, INCLUDING
#WITHOUT LIMITATION LOSS OF REVENUE, PROFITS, GOODWILL, USE, AND/OR DATA OR THE COST OF
#PROCUREMENT OF SUBSTITUTE GOODS OR SERVICES, EVEN IF APPRISED OF THE POSSIBILITY OF SUCH
#DAMAGES IN ADVANCE.
#--------------------------------------------------#

# EXPORTED FROM DI TRANSFORM
# DI TRANSFORM - A PRODUCT OF DRILLINGINFO, INC. - WWW.DRILLINGINFO.COM
#
~VERSION INFORMATION
 VERS.        2.0 : LAS ASCII STANDARD - VERSION 2.0
 WRAP.         NO : ONE LINE PER DEPTH STEP

~WELL INFORMATION
#MNEM.UNIT       DATA TYPE       INFORMATION
#---------       ---------       -----------
 STRT.FT           100 : START DEPTH
 STOP.FT         18040 : STOP DEPTH
 STEP.FT           0.5 : STEP LENGTH
 NULL.         -999.25 : NULL VALUE
 UWI.   42371302980000 : UNIQUE WELL ID
 API.   42371302980000 : WELL IDENTIFIER
 COMP.                 : COMPANY
 WELL.          DRD_55 : WELL NAME
 FLD.                  : FIELD NAME
 LOC.                  : WELL LOCATION
 CNTY.                 : COUNTY
 STAT.                 : STATE OR PROVINCE
 CTRY.                 : COUNTRY
 SRVC.                 : SERVICE COMPANY
 DATE.                 : DATE

~CURVE INFORMATION
#MNEM.UNIT       API CODE       CURVE DESCRIPTION
#---------       --------       -----------------
 DEPT.FT        : <MEASURED DEPTH>
 CAL.IN         : CALIPER
 DT.US/FT       : SONIC
 GR.GAPI        : GAMMA RAY

~PARAMETER INFORMATION
#MNEM.UNIT       VALUE       DESCRIPTION
#---------       -----       -----------

~A       DEPT         CAL          DT          GR
# ...
         4260     15.6739     67.2757     15.0407
       4260.5     15.7066     46.2069     15.0407
         4261     15.7066     46.2325     14.9954
       4261.5     15.7066     46.2581     14.7139
         4262     15.7066     46.2913     15.3356
       4262.5     15.7066     47.2258     15.9573
         4263     15.7066     52.4473     16.4634
       4263.5     15.7066     57.6687     16.2083
         4264     15.7066     63.8235     15.0114
       4264.5     15.7066     73.2041     13.9752
         4265     15.7066     82.5848      13.048
       4265.5     15.7066     90.8464     12.6016
         4266     15.7066     96.2598     12.6016
       4266.5     15.7066     99.9381     12.6016
         4267     15.7066    106.8873     12.7424
       4267.5     15.7066    127.3417     13.1569
         4268     15.7066    147.7961      13.493
       4268.5     15.6995    160.1217      13.865
         4269     15.6815    160.1217     13.2779
       4269.5     15.6714    160.1217     11.7209
         4270     15.6632    160.1217     11.0049
       4270.5     15.6452    160.1217     10.1759
         4271     15.6361    160.1217      9.5515
       4271.5     15.6361    160.1217      9.1371
         4272      15.617    160.1217      8.7226
       4272.5     15.5811    160.1217      8.8793
         4273     15.5656    160.1217      9.8556
       4273.5     15.5444    160.1217     10.9768
         4274     15.5194    160.1217     11.3821
       4274.5     15.5014    160.1217      9.8202
         4275     15.4951    160.1217      8.9431
       4275.5     15.4592    160.1217     10.0481
         4276     15.4052    160.1217     11.9902
       4276.5     15.3767    160.1217      13.186
         4277     15.3587    160.1217     13.7148
       4277.5     15.3274    160.1217      13.513
         4278     15.2914    160.1217     13.0985
       4278.5     15.2836    160.1217     13.0081
         4279      15.226    160.1217     13.0081
       4279.5     15.2131    160.1217     12.6681
         4280     15.2131    160.1217     11.0358
       4280.5     15.1822    160.1217      9.1707
         4281     15.1147    160.1217     10.2167
       4281.5     15.1073    160.1217     12.0393
         4282     15.1073    160.1217     12.9548
       4282.5       15.04    160.1217     12.2325
         4283     15.0368     98.3008     12.1951
       4283.5     15.0368     93.1838     11.7914
         4284     15.0363     93.5769     11.7886
       4284.5     15.0004     90.7687     11.8018
         4285     14.9663     87.9605     12.1951
       4285.5     14.9663     85.1524     12.1951
         4286     14.9631     82.3442     12.1951
       4286.5      14.931      79.536     12.2402
         4287     14.9747     76.7279     12.6546
       4287.5     15.3162      74.378     13.0691
         4288     15.6009     77.2865     13.4146
       4288.5     15.6075     93.2323       13.53
         4289     15.6435    109.1782     14.1517
       4289.5     15.6794    121.4832      14.727
         4290     15.7154    119.3644     14.7382
       4290.5     15.7419    111.6091     13.6036
         4291     15.7419    103.8537     12.4828
       4291.5     15.7419     96.0983     10.7424
         4292     15.7649      88.343     10.4859
       4292.5     15.8124     83.1151     12.5545
         4293     15.8124     93.4634      14.138
       4293.5     15.8124    111.8778     14.7275
         4294     15.7981    112.2154     14.0631
       4294.5     15.7771    106.6332     13.6486
         4295     15.7771     92.6838     13.4146
       4295.5     15.7608     78.7344     13.4146
         4296     15.7419     59.5509     13.6111
       4296.5     15.7064     46.8572     14.0255
         4297     15.6345      46.806       14.44
       4297.5     15.6009     46.7548     14.6341
         4298     15.6009     47.1547     14.6341
       4298.5     15.6009     47.9226     14.6341
         4299     15.6009     48.6904     14.3899
       4299.5     15.6009     49.0612     14.2276
         4300     15.6009     49.1763     14.2276
       4300.5     15.6009     49.3164     14.2276
         4301     15.6009     49.4188     14.2276
       4301.5     15.6009     49.4956     14.2276
         4302     15.6009     48.8113     14.5197
       4302.5     15.6009      47.808     14.0341
         4303     15.6009     46.8046     13.2052
       4303.5     15.6009     46.3554       13.64
         4304     15.6009      46.241      14.145
       4304.5     15.6009     46.2272     14.7254
         4305     15.6009     49.3437     15.3472
       4305.5     15.6009      50.477     13.7081
         4306       15.57     50.6244     12.7031
       4306.5     15.5656     53.5093     13.3291
         4307     15.5656      56.787      14.158
       4307.5     15.5656     60.0646      14.987
         4308     15.5656     63.3423     14.2654
       4308.5     15.5656     66.6199     13.6342
         4309     15.5656     69.8976     13.0125
       4309.5     15.5654     73.1388     12.6016
         4310     15.5474     73.1462     12.5886
       4310.5     15.5304      65.273     12.1951
         4311     15.5253     65.4564     12.1951
       4311.5     15.4598     68.0825      12.232
         4312     15.4598     70.7086     12.6016
       4312.5     15.4598     73.3347     12.6016
         4313     15.4598     75.9607     12.5408
       4313.5     15.4658     76.6372     12.1951
         4314     15.4951     69.5561     12.1951
       4314.5     15.4988     71.4566     12.1951
         4315     15.5168      73.357     12.1024
       4315.5     15.5304     75.2575      11.688
         4316     15.5398     73.4362     11.1649
       4316.5     15.5757     66.4808     10.3359
         4317     15.6009     73.1842      9.6315
       4317.5     15.6009     79.8876      9.2171
         4318     15.6131     85.5779      9.0836
       4318.5     15.6361     89.2925      9.7207
         4319     15.6361     88.4623     10.7569
       4319.5     15.6504     80.1349     11.5465
         4320     15.6789     74.6382     11.7886
       4320.5     15.6968     73.1178     11.7886
         4321     15.7066     71.5975     11.9769
       4321.5     15.7237     70.0771     12.1951
         4322     15.7596     71.5261     12.5015
       4322.5     15.7771     76.0319     13.2293
         4323     15.7771     80.5377     13.9481
       4323.5     15.7771     85.0435     13.7714
         4324     15.7771     89.5493     13.0605
       4324.5     15.7771     84.8907     12.6828
         4325     15.7771     73.8335     12.6016
       4325.5     15.7771     72.4437     11.8216
         4326     15.7771     76.7975     10.5782
       4326.5     15.7532     81.1512     11.5423
         4327     15.7419      85.505     12.1951
       4327.5     15.7166     89.8587     12.6329
         4328     15.6806     86.2635     13.2546
       4328.5      15.618     79.6292     13.7224
         4329     15.6009     72.9949     14.1369
       4329.5     15.5728      65.272     14.5514
         4330     15.5656     57.2441      13.639
       4330.5     15.5656     49.2161      13.075
         4331     15.5656     48.3274     12.3128
       4331.5     15.5656     48.9495     10.9505
         4332     15.5656     49.5945      9.8634
       4332.5     15.5656     50.2395     10.4992
         4333     15.5656     50.7369     11.3281
       4333.5     15.5992      50.833     12.1571
         4334     15.6352     50.7373      12.986
       4334.5     15.6711     50.6336     12.9476
         4335     15.7066     50.4899     13.0338
       4335.5     15.7066     49.8851     13.1185
         4336     15.7066     49.8125     13.0712
       4336.5     15.7066     49.6839     12.0656
         4337     15.7098     49.6594     10.2005
       4337.5     15.7419     49.3606      8.5813
         4338     15.7465      47.814      8.9958
       4338.5     15.7824     40.2627      9.2889
         4339     15.8124     40.2627      8.8059
       4339.5     15.8123     42.1143      7.9769
