#--------------------------------------------------#
#-------------------ENVERUS, INC.------------------#
#------------------WWW.ENVERUS.COM-----------------#
#------------------COPYRIGHT 2020------------------#
#--------------------------------------------------#
#THIS FILE MAY BE USED ONLY IN ACCORDANCE WITH A CURRENT SUBSCRIPTION AGREEMENT BETWEEN
#THE USER AND ENVERUS, INC. NO PART OF THIS FILE MAY BE REPRODUCED, USED, COPIED,
#MODIFIED, PROPAGATED, OR DISTRIBUTED EXCEPT IN ACCORDANCE WITH THE SUBSCRIPTION
#AGREEMENT. UNAUTHORIZED USE OR DISTRIBUTION OF ALL OR ANY PART OF THIS FILE MAY VIOLATE
#COPYRIGHT, TRADEMARK, AND/OR OTHER LAWS AND IS SUBJECT TO CIVIL AS WELL AS CRIMINAL
#SANCTIONS.
#--------------------------------------------------#
#THIS FILE IS PROVIDED "AS-IS" AND ALL WARRANTIES ARE EXPRESSLY DISCLAIMED, WHETHER
#EXPRESS, ORAL, IMPLIED, STATUTORY OR OTHERWISE, INCLUDING ANY IMPLIED WARRANTY OF FITNESS
#FOR A PARTICULAR PURPOSE, MERCHANTABILITY, TITLE OR NON-INFRINGEMENT, AND ANY WARRANTIES
#ARISING BY VIRTUE OF CUSTOM OF TRADE OR COURSE OF DEALING.  FURTHER, ENVERUS, INC.
#AND ITS LICENSORS DO NOT REPRESENT OR WARRANT THAT THIS FILE WILL MEET USER'S
#REQUIREMENTS OR ARE SUITABLE FOR USER'S NEEDS OR THAT THE DATA OR RESULTS PROVIDED IN
#CONJUNCTION THEREWITH ARE CORRECT, ACCURATE, TIMELY OR RELIABLE. THESE DISCLAIMERS SHALL
#APPLY REGARDLESS OF ANY FAILURE OF ESSENTIAL PURPOSE OF ANY LIMITED REMEDY.  SOME
#JURISDICTIONS DO NOT ALLOW THE EXCLUSION OF CERTAIN WARRANTIES SO SOME OF THE ABOVE
#EXCLUSIONS MAY NOT APPLY. IN NO EVENT SHALL ENVERUS, INC. OR ANY OF ITS AFFILIATES
#BE LIABLE UNDER ANY LEGAL THEORY, WHETHER IN TORT (INCLUDING WITHOUT LIMITATION
#NEGLIGENCE), CONTRACT, STRICT LIABILITY, STATUTORY OR OTHERWISE, FOR ANY SPECIAL,
#INCIDENTAL, CONSEQUENTIAL, EXEMPLARY, PUNITIVE OR INDIRECT DAMAGE OF ANY KIND, INCLUDING
#WITHOUT LIMITATION LOSS OF REVENUE, PROFITS, GOODWILL, USE, AND/OR DATA OR THE COST OF
#PROCUREMENT OF SUBSTITUTE GOODS OR SERVICES, EVEN IF APPRISED OF THE POSSIBILITY OF SUCH
#DAMAGES IN ADVANCE.
#--------------------------------------------------#

~VERSION INFORMATION
VERS. 2.0 : CWLS LOG ASCII STANDARD - VERSION 2.0
WRAP.  NO : ONE LINE PER DEPTH STEP
~WELL INFORMATION
#MNEMONIC     .UNIT              VALUE :DESCRIPTION
STRT       .FT                86 :START DEPTH
STOP       .FT                5215 :STOP DEPTH
STEP       .FT                   0.500 :STEP
NULL       .                  -999.990 :NULL
UWI        .              42389101440000 :UNIQUE WELL ID
API        .              42389101440000 :API NUMBER
COMP       .         :COMPANY
WELL       .         1, :WELL
DATE       .                            :LOG DATE
~CURVE INFORMATION
#MNEMONIC     .UNIT      API CODE :CURVE DESCRIPTION
DEPTH       .FT                      :MEASURED DEPTH
DT.US/FT        UNKNOWN   :DT
GR.API        UNKNOWN   :GR
~A    DEPTH    DT    GR
# ...
 3045.5     69.466   8.604
 3046     69.339   9.661
 3046.5     68.976   9.729
 3047     68.612   9.395
 3047.5     69.038   9.061
 3048     68.623   8.726
 3048.5     68.208   8.392
 3049     67.792   8.076
 3049.5     68.064   8.752
 3050     68.391   9.428
 3050.5     68.718   9.961
 3051     69.045   9.894
 3051.5     69.24   9.828
 3052     68.891   9.761
 3052.5     68.543   9.695
 3053     68.194   9.629
 3053.5     69.634   9.136
 3054     69.141   8.236
 3054.5     68.354   7.337
 3055     67.566   6.438
 3055.5     66.962   6.621
 3056     67.369   7.27
 3056.5     67.777   7.919
 3057     68.184   8.568
 3057.5     68.591   9.217
 3058     68.999   9.865
 3058.5     68.351   10.514
 3059     67.648   10.285
 3059.5     67.9   9.558
 3060     68.565   8.83
 3060.5     67.907   8.102
 3061     67.249   7.375
 3061.5     66.591   7.175
 3062     69.34   7.761
 3062.5     72.665   8.346
 3063     73.21   8.932
 3063.5     70.911   8.971
 3064     68.611   6.923
 3064.5     66.311   7.794
 3065     62.355   8.664
 3065.5     57.708   9.534
 3066     54.242   9.108
 3066.5     53.523   8.547
 3067     53.614   7.986
 3067.5     54.156   7.425
 3068     55.078   10.326
 3068.5     55.562   10.615
 3069     56.046   10.904
 3069.5     56.031   10.431
 3070     54.548   9.791
 3070.5     53.065   9.15
 3071     55.419   8.509
 3071.5     58.217   7.943
 3072     61.273   8.484
 3072.5     64.569   9.024
 3073     66.88   9.565
 3073.5     68.601   10.105
 3074     70.031   10.645
 3074.5     70.637   11.186
 3075     71.242   11.726
 3075.5     70.762   11.787
 3076     70.156   11.845
 3076.5     69.55   11.904
 3077     69.067   13.161
 3077.5     69.551   14.973
 3078     70.036   16.784
 3078.5     70.52   19.01
 3079     71.005   21.811
 3079.5     70.828   23.995
 3080     69.586   20.851
 3080.5     69.449   17.707
 3081     70.348   15.093
 3081.5     69.823   14.692
 3082     69.298   14.291
 3082.5     68.995   13.89
 3083     69.419   13.49
 3083.5     69.843   13.089
 3084     70.267   13.975
 3084.5     70.351   15.777
 3085     70.02   14.186
 3085.5     69.689   13.04
 3086     69.359   13.852
 3086.5     69.028   14.664
 3087     68.88   15.476
 3087.5     69.284   16.288
 3088     69.688   16.97
 3088.5     69.751   17.646
 3089     69.326   17.893
 3089.5     68.902   15.244
 3090     68.96   12.595
 3090.5     69.375   9.946
 3091     69.79   9.704
 3091.5     70.048   10.278
 3092     69.866   10.853
 3092.5     69.684   11.427
 3093     69.502   12.001
 3093.5     69.32   12.489
 3094     69.138   12.145
 3094.5     69.301   11.802
 3095     69.705   11.458
 3095.5     70.109   11.114
 3096     70.094   10.771
 3096.5     69.94   10.427
 3097     69.786   10.62
 3097.5     69.633   11.466
 3098     69.479   12.312
 3098.5     69.325   13.158
 3099     69.172   14.004
 3099.5     69.294   14.85
 3100     69.561   14.232
 3100.5     69.827   13.272
 3101     70.093   12.952
 3101.5     70.36   13.486
 3102     70.027   14.019
 3102.5     69.648   14.552
 3103     69.269   15.085
 3103.5     69.005   15.619
 3104     69.408   16.152
 3104.5     69.812   16.685
 3105     69.999   17.218
 3105.5     69.702   16.789
 3106     69.404   15.296
 3106.5     69.107   13.804
 3107     68.809   12.311
 3107.5     68.597   12.79
 3108     69.099   14.355
 3108.5     69.601   15.92
 3109     70.102   15.218
 3109.5     69.904   14.087
 3110     69.527   12.957
 3110.5     69.149   13.59
 3111     68.772   14.266
 3111.5     68.742   14.58
 3112     69.007   12.891
 3112.5     69.271   11.749
 3113     69.535   12.386
 3113.5     69.799   13.023
 3114     69.909   13.66
 3114.5     69.721   14.297
 3115     69.532   14.934
 3115.5     69.343   15.572
 3116     69.195   14.86
 3116.5     69.483   13.871
 3117     69.77   14.683
 3117.5     70.058   15.495
 3118     70.069   16.307
 3118.5     69.438   17.119
 3119     68.807   15.203
 3119.5     69.451   13.22
 3120     70.131   11.549
 3120.5     69.866   12.935
 3121     69.602   14.321
 3121.5     69.337   13.704
 3122     69.072   12.429
 3122.5     68.808   11.869
 3123     68.981   12.567
 3123.5     69.233   13.266
 3124     69.485   13.964
 3124.5     69.738   14.663
 3125     69.99   15.362
 3125.5     70.077   16.06
 3126     69.369   16.759
 3126.5     68.661   17.457
 3127     68.363   16.07
 3127.5     68.867   14.43
 3128     69.372   12.79
 3128.5     69.771   11.362
 3129     70.065   13.41
 3129.5     70.359   17.383
 3130     68.914   19.395
 3130.5     69.196   18.33
 3131     69.479   17.266
 3131.5     69.761   19.898
 3132     70.044   27.827
 3132.5     69.926   34.701
 3133     69.34   35.509
 3133.5     68.753   31.393
 3134     68.8   27.278
 3134.5     69.223   23.163
 3135     69.647   19.048
 3135.5     70.071   17.835
 3136     69.814   17.068
 3136.5     69.43   16.301
 3137     69.051   15.535
 3137.5     69.43   14.768
 3138     69.808   14.567
 3138.5     70.186   17.453
 3139     70.427   16.828
 3139.5     70.184   15.139
 3140     69.941   16.474
 3140.5     69.699   18.344
 3141     69.456   20.214
 3141.5     69.213   20.365
 3142     69.295   19.301
 3142.5     69.641   18.236
 3143     69.987   17.171
 3143.5     70.221   16.106
 3144     70.099   15.042
 3144.5     69.978   13.977
 3145     69.856   13.935
 3145.5     69.735   15.26
 3146     69.614   16.584
 3146.5     69.492   17.908
 3147     69.371   17.973
 3147.5     69.249   17.452
 3148     69.128   16.931
 3148.5     69.11   16.41
 3149     69.318   15.889
 3149.5     69.525   15.98
 3150     69.733   16.115
 3150.5     69.94   16.251
 3151     70.148   16.386
 3151.5     70.355   16.521
 3152     70.326   16.657
 3152.5     70.192   16.792
 3153     70.057   16.927
 3153.5     69.923   16.455
 3154     69.789   15.159
 3154.5     69.655   13.864
 3155     69.521   12.568
 3155.5     69.386   12.257
 3156     69.252   12.6
 3156.5     69.324   12.943
 3157     69.477   13.285
 3157.5     69.63   13.628
 3158     69.783   13.971
 3158.5     69.937   13.521
 3159     70.09   12.166
 3159.5     70.243   10.9
 3160     70.083   10.699
 3160.5     69.733   10.499
 3161     69.382   10.473
 3161.5     69.031   11.023
 3162     69.021   11.573
 3162.5     69.585   12.124
 3163     69.349   12.674
 3163.5     69.071   13.224
 3164     68.794   13.774
 3164.5     68.921   13.484
 3165     69.271   12.717
 3165.5     69.62   11.95
 3166     69.97   11.183
 3166.5     70.049   10.417
 3167     69.7   9.65
 3167.5     69.351   10.387
 3168     69.002   11.244
 3168.5     69.454   12.102
 3169     69.381   12.959
 3169.5     68.774   13.028
 3170     68.997   12.753
 3170.5     69.464   12.479
 3171     69.931   12.205
 3171.5     70.047   11.931
 3172     69.752   11.656
 3172.5     69.457   11.382
 3173     69.276   11.108
 3173.5     69.711   10.834
 3174     70.147   11.694
 3174.5     69.792   13.07
 3175     69.225   14.445
 3175.5     68.659   15.821
 3176     69.444   15.845
 3176.5     70.22   15.788
 3177     69.916   15.731
 3177.5     69.613   16.741
 3178     69.309   18.374
 3178.5     69.194   20.008
 3179     69.558   21.691
 3179.5     69.921   23.463
 3180     69.883   21.436
 3180.5     69.345   19.398
 3181     68.807   21.03
 3181.5     68.393   22.209
 3182     68.726   21.125
 3182.5     69.058   20.042
 3183     69.391   18.958
 3183.5     69.547   20.367
 3184     69.382   22.296
 3184.5     69.217   24.225
 3185     69.052   23.869
 3185.5     68.888   22.137
 3186     68.723   23.135
 3186.5     68.558   24.132
 3187     68.741   25.13
 3187.5     69.043   26.127
 3188     69.346   27.125
 3188.5     69.648   23.334
 3189     69.951   19.349
 3189.5     70.218   18.576
 3190     69.988   17.802
 3190.5     69.757   17.029
 3191     69.526   16.255
 3191.5     69.296   15.482
 3192     69.223   14.708
 3192.5     69.453   13.935
 3193     69.683   14.975
 3193.5     69.913   16.3
 3194     70.143   15.202
 3194.5     70.141   14.084
 3195     69.994   14.011
 3195.5     69.846   14.62
