###############################################
##         ENVERUS                           ##
##         ESS - Open Hole                   ##
##         PERMIAN / DELAWARE                ##
##         Nov 04 2023  V4.0                 ##
##         42-389-00802-00-00                ##
###############################################
## Copyright 2017-2023  ENVERUS.  All Rights Reserved. 
## Confidential - Property of ENVERUS, use governed by terms and 
## conditions found within the existing Information Services Subscription Agreement 
## (as may be amended, the “ISSA”) between Customer and ENVERUS. 
## 
~VERSION INFORMATION
# MNEM.UNIT                               DATA : DESCRIPTION OF MNEMONIC
#-----.-----     ----------------------------- : -----------------------------
VERS.                                     2.00 : CWLS LOG ASCII STANDARD - VERSION 2.00
WRAP.                                       NO : MULTIPLE LINES PER DEPTH STEP
VEND.                                  ENVERUS : VENDOR
TYPE.                          ESS - OPEN HOLE : ENVERUS ESSENTIAL CURVES – ACCESSIBLE THROUGH ENVERUS PRISM(TM)
DOC.                                  31817456 : ENVERUS HEADER RAW DOCUMENT ID
#___________________________________________________________________________________________________ 
~WELL INFORMATION 
# RyAIq6UWQPnCIzV1aSVljU5sZzU8mzXCuHzh8Tf3VVfaeSb2oya67RMqigcBPLsftsjdPp3J13KbDcbgGgUr7w== 
# MNEM.UNIT                                              DATA : DESCRIPTION OF MNEMONIC 
#-----.-----                    ----------------------------- : ----------------------------- 
CNTY.                                                  REEVES : COUNTY 
STATE.                                                  TEXAS : STATE 
CNTRY.                                                    USA : COUNTRY 
API.                                             42-389-00802 : API (10 Digit) 
API_14.                                    42-389-00802-00-00 : API (14 Digits) 
API_14_std.                                 42-389-00802-0000 : API (14 Digits Standard) 
UWI.                                           42389008020000 : UNIQUE WELL ID 
WELL.                                                      1, : WELL NAME
STRT.FT                                                 103.0 : START DEPTH
STOP.FT                                                5419.0 : STOP DEPTH
STEP.FT                                                   0.5 : STEP BETWEEN DEPTHS
NULL.                                                 -999.25 : NULL VALUE
#___________________________________________________________________________________________________ 
~CURVE INFORMATION 
# MNEM.UNIT           : CURVE DESCRIPTION 
#-----.-----          : ----------------------------- 
 DEPT.FT               : MEASURED DEPTH 
 GR.API                : GAMMA RAY (GR) 
 DT.US/FT              : SONIC DELTA TRANSIT TIME (DT) 
 #___________________________________________________________________________________________________ 
~A         DEPT             GR             DT
# ...
         2191.0         15.612         60.338
         2191.5         15.939         63.662
         2192.0         16.265         66.986
         2192.5         16.591         70.310
         2193.0         14.855         73.633
         2193.5         11.850         70.603
         2194.0          8.845         68.275
         2194.5          5.840         67.096
         2195.0          4.719         67.634
         2195.5          4.775         68.173
         2196.0          4.831         68.711
         2196.5          4.886         65.383
         2197.0          4.942         61.726
         2197.5          4.998         61.311
         2198.0          6.199         63.093
         2198.5          8.955         64.876
         2199.0         11.712         66.659
         2199.5         14.469         68.441
         2200.0         15.028         70.224
         2200.5         13.719         68.347
         2201.0         12.411         66.327
         2201.5         11.102         65.330
         2202.0          9.793         65.623
         2202.5          9.025         65.915
         2203.0          8.953         66.208
         2203.5          8.880         66.500
         2204.0          8.808         66.793
         2204.5          8.735         67.157
         2205.0          5.553         67.548
         2205.5          6.023         67.940
         2206.0          6.492         68.331
         2206.5          6.962         68.722
         2207.0          7.431         69.113
         2207.5          7.901         69.061
         2208.0          8.370         68.341
         2208.5          8.840         67.622
         2209.0          8.693         68.107
         2209.5          7.906         69.108
         2210.0          7.120         70.109
         2210.5          6.333         71.110
         2211.0          5.546         72.111
         2211.5          4.547         73.112
         2212.0          3.233         74.113
         2212.5          1.918         72.853
         2213.0          1.174         69.705
         2213.5          9.718         67.216
         2214.0         18.263         68.128
         2214.5         26.807         69.040
         2215.0         35.352         69.953
         2215.5         52.438         70.865
         2216.0         96.036         71.777
         2216.5         98.201         72.690
         2217.0        100.365         73.265
         2217.5         87.086         68.319
         2218.0         59.983         68.827
         2218.5         32.879         69.336
         2219.0         19.504         69.438
         2219.5          8.948         68.718
         2220.0         10.698         67.998
         2220.5         12.449         67.278
         2221.0         14.199         66.559
         2221.5         15.950         65.839
         2222.0         17.700         66.655
         2222.5         19.451         67.583
         2223.0         21.932         68.511
         2223.5         25.491         69.439
         2224.0         29.049         70.367
         2224.5         32.608         71.295
         2225.0         36.166         72.223
         2225.5         29.995         72.327
         2226.0         23.689         69.408
         2226.5         17.382         69.079
         2227.0         14.476         69.528
         2227.5         15.133         69.978
         2228.0         15.791         70.427
         2228.5         16.448         70.713
         2229.0         17.105         70.096
         2229.5         17.763         69.480
         2230.0         10.532         68.863
         2230.5          9.615         68.483
         2231.0          8.698         68.132
         2231.5          7.781         67.780
         2232.0          8.460         67.429
         2232.5         12.615         67.077
         2233.0         16.770         68.108
         2233.5         20.991         69.235
         2234.0         29.704         70.362
         2234.5         32.820         71.488
         2235.0         27.630         72.615
         2235.5         22.440         72.603
         2236.0         17.251         71.573
         2236.5         14.963         70.543
         2237.0         12.910         69.964
         2237.5         10.858         70.257
         2238.0          8.805         70.549
         2238.5          8.144         70.842
         2239.0          9.869         69.384
         2239.5         11.595         69.377
         2240.0         13.321         69.584
         2240.5         15.046         69.792
         2241.0         16.772         70.000
         2241.5         18.498         70.208
         2242.0         20.224         70.416
         2242.5         21.949         70.624
         2243.0         20.582         70.601
         2243.5         15.400         70.335
         2244.0         13.416         70.069
         2244.5         12.760         69.802
         2245.0         12.104         69.536
         2245.5         11.449         69.269
         2246.0         10.793         69.003
         2246.5         12.111         68.736
         2247.0         14.631         68.762
         2247.5         17.152         70.118
         2248.0         19.672         71.474
         2248.5         22.193         72.829
         2249.0         24.713         73.097
         2249.5         14.665         72.381
         2250.0         12.259         71.665
         2250.5         12.677         70.950
         2251.0         13.095         70.234
         2251.5         13.514         69.518
         2252.0         13.932         68.803
         2252.5         14.225         68.817
         2253.0         14.152         69.553
         2253.5         14.080         70.288
         2254.0         14.007         71.023
         2254.5         13.935         71.758
         2255.0         13.863         72.487
         2255.5         13.790         73.191
         2256.0         13.718         73.896
         2256.5         13.645         74.601
         2257.0         15.016         67.672
         2257.5         20.851         59.933
         2258.0         27.182         58.234
         2258.5         40.504         58.823
         2259.0         53.825         67.160
         2259.5         67.147         74.788
         2260.0        112.053         75.336
         2260.5        131.849         75.884
         2261.0        133.349         76.431
         2261.5        134.849         76.979
         2262.0        136.349         73.763
         2262.5         33.549         71.562
         2263.0         23.141         72.122
         2263.5         16.015         72.682
         2264.0         16.215         73.242
         2264.5         16.415         70.245
         2265.0         16.614         64.940
         2265.5         16.814         60.506
         2266.0         18.665         57.482
         2266.5         25.524         64.383
         2267.0         32.382         62.597
         2267.5         39.241         60.811
         2268.0         46.099         61.086
         2268.5         52.958         63.366
         2269.0         67.680         65.647
         2269.5         83.942         67.928
         2270.0        100.205         70.208
         2270.5        103.789         72.489
         2271.0        103.199         68.302
         2271.5         23.166         61.987
         2272.0         16.608         63.326
         2272.5         10.050         64.665
         2273.0          7.924         66.003
         2273.5          7.866         64.772
         2274.0          7.808         61.133
         2274.5          7.751         65.999
         2275.0          7.693         68.866
         2275.5          7.673         70.040
         2276.0          8.370         71.213
         2276.5          9.068         72.387
         2277.0          9.766         73.561
         2277.5         12.907         74.219
