~VERSION INFORMATION
 VERS.                2.0:   CWLS LOG ASCII STANDARD - VERSION 2.0
 WRAP.                 NO:   ONE LINE PER DEPTH STEP
~WELL INFORMATION
#MNEM.UNIT      DATA TYPE    INFORMATION
#----------   ------------   ------------------------------
 STRT.FT           0.0000:   START DEPTH
 STOP.FT        7147.0000:   STOP DEPTH
 STEP.FT           0.5000:   STEP LENGTH
 NULL.          -999.2500:   NULL VALUE
 COMP. MOBIL PRODUCING TEXAS & NEW MEEXICO INC:   COMPANY
 WELL. SCHLOSER FRED ESTATE B #2:   WELL
 FLD .      ROJO CABALLOS:   FIELD
 LOC .                   :   LOCATION
 CNTY.              PECOS:   COUNTY
 STAT.              TEXAS:   STATE
 CTRY. UNITED STATES OF AMERICA:   COUNTRY
 SRVC.       Schlumberger:   SERVICE COMPANY
 DATE.        10-Jun-1980:   LOGDATE
 API .     42371330900000:   API NUMBER
~CURVE INFORMATION
#MNEM.UNIT       API CODE    CURVE DESCRIPTION
#----------   ------------   ------------------------------
 DEPT.F                  :   
 GRD .GAPI   45 310 01 00:   GAMMA RAY FROM DENSITY LOG
 GRR .GAPI   11 310 01 00:   GAMMA RAY FROM RESISTIVITY LOG
 GRS .GAPI   60 310 01 00:   GAMMA RAY FROM SONIC LOG
 DT  .US/F   60 500 00 00:   DELTA-T (INTERVAL TRANSIT TIME)
 CALD.IN     45 280 60 00:   CALIPER FROM DENSITY LOG
 CORR.G/C3   45 356 01 00:   DENSITY CORRECTION
 RHOB.G/C3   45 350 01 00:   BULK DENSITY
 NPHI_LS.DEC 42 890 01 00:   NEUTRON POROSITY LIMESTONE
 DPHI_LS.DEC 45 890 10 00:   DENSITY POROSITY LIMESTONE
 LLD .OHMM   11 220 10 00:   LATEROLOG DEEP RESISTIVITY
 LLS .OHMM   11 220 09 00:   LATEROLOG SHALLOW RESISTIVITY
~PARAMETER INFORMATION
#MNEM.UNIT          VALUE    DESCRIPTION
#----------   ------------   ------------------------------
 PD  .                 GL:   PERMANENT DATUM
 EPD .FT             2752:   ELEVATION PERMANENT DATUM
 LMF .                 KB:   LOG MEASURED FROM
 DAPD.FT               13:   FEET ABOVE PERMANENT DATUM
 DMF .                 KB:   DRILLING MEASURED FROM
 EKB .FT             2765:   KELLY BUSHING
 EDF .FT             2764:   DRILLING FLOOR
 EGL .FT             2752:   GROUND LEVEL
 DATE.           06/10/80:   RUN DATE
 RUN .                  1:   RUN NUMBER
 DD  .FT             7150:   DEPTH DRILLER
 DL  .FT             7150:   DEPTH LOGGER
 BLI .FT             7147:   BOTTOM LOG INTERVAL
 TLI .FT             5000:   TOP LOG INTERVAL
 CS  .IN            8.625:   CASING SIZE
 CBD .FT             1919:   CASING BOTTOM DRILLER
 CBL .FT             1904:   CASING BOTTOM LOGGER
 BS  .IN            7.875:   BIT SIZE
 BSD .FT             7150:   BIT SIZE AT DEPTH
 DFT .              BRINE:   DRILLING FLUID TYPE
 DFD .                 10:   DRILLING FLUID DENSITY
 DFV .                 35:   DRILLING FLUID VISCOSITY
 DFPH.                9.5:   DRILLING FLUID PH
 DFL .                 20:   DRILLING FLUID LOSS
 MSS .               CIRC:   MUD SAMPLE SOURCE
 RMS .OHMM           .055:   RESISTIVITY MUD SAMPLE
 MST .DEGF             73:   MUD SAMPLE TEMPERATURE
 RMF .OHMM           .055:   RESISTIVITY MUD FILTRATE SAMPLE
 MFST.DEGF             73:   MUD FILTRATE SAMPLE TEMPERATURE
 MFSS.                  M:   MUD FILTRATE SAMPLE SOURCE
 RMB .OHMM            .03:   RESISTIVITY MUD AT BHT
 BHT .DEGF            107:   BOTTOM HOLE TEMPERATURE
 TCS .HRS            1615:   TIME CIRCULATED STOPPED
 TLAB.HRS            0300:   TIME LOGGER AT BOTTOM
 MRT .DEGF            107:   MAXIMUM RECORDED TEMPERATURE
 LUN .               8024:   LOGGING UNIT NUMBER
 LUL .               MONA:   LOGGING UNIT LOCATION
 ENGI.           MC BRIDE:   RECORDING ENGINEER
 CLNT.            :   CLIENT CODE
 ORIG.      1" 2.5" PRINT:   ORIGIN OF DATA
 UWI .     42371330900000:   UNIQUE WELL ID
 
~OTHER INFORMATION
~A    DEPT     GRD        GRR         GRS        DT       CALD       CORR       RHOB      NPHI_LS    DPHI_LS      LLD        LLS   
# ...
 6832.0000    57.4882    49.8179    52.9225    58.9842     9.0932     0.0259     2.5974     0.1072     0.0679     9.6360     9.9061
 6832.5000    53.6368    45.8005    45.9457    56.6898     9.0905     0.0129     2.6043     0.0934     0.0666    12.4673    12.9000
 6833.0000    49.2559    42.9110    41.5790    56.8717     9.0925     0.0097     2.6100     0.0774     0.0668    17.1785    17.7751
 6833.5000    47.7307    41.9281    40.8790    57.8025     9.0946     0.0151     2.6156     0.0609     0.0643    22.1358    22.0931
 6834.0000    49.9897    45.0310    44.6681    60.4242     9.0957     0.0201     2.6168     0.0564     0.0649    20.1316    20.7582
 6834.5000    52.5889    48.5404    51.5277    63.8821     9.0994     0.0252     2.5896     0.0774     0.0815    15.1767    15.6494
 6835.0000    53.8224    52.1504    54.8890    65.3780     9.1067     0.0302     2.5628     0.0931     0.0889    11.5101    11.7979
 6835.5000    53.3643    54.3808    56.9148    65.5442     9.1112     0.0322     2.5654     0.1052     0.0906     9.6345     9.8092
 6836.0000    52.6628    54.5133    54.5648    64.8576     9.1042     0.0327     2.5774     0.1078     0.0867     8.9220     8.9663
 6836.5000    52.4428    52.9935    51.8969    63.4964     9.0782     0.0333     2.5882     0.1022     0.0750     8.9788     9.1193
 6837.0000    52.7684    50.8238    49.7378    62.5856     9.0895     0.0310     2.5957     0.0951     0.0733    10.2966    10.4565
 6837.5000    54.5030    49.3166    49.2327    61.9977     9.1058     0.0170     2.5917     0.0847     0.0738    11.7815    11.9601
 6838.0000    58.1989    50.4173    49.7137    62.4147     9.1095     0.0084     2.5905     0.0752     0.0750    13.4663    13.6704
 6838.5000    61.6834    53.9670    54.8884    63.4772     9.1015     0.0081     2.5893     0.0829     0.0762    13.5695    13.7057
 6839.0000    66.5363    57.5907    63.7899    64.3350     9.0918     0.0110     2.5883     0.0955     0.0768    12.5129    12.6381
 6839.5000    70.8380    61.1389    66.4690    64.6636     9.0961     0.0143     2.5871     0.1088     0.0756    11.5551    11.4928
 6840.0000    75.1557    64.1116    68.2928    64.8023     9.1003     0.0132     2.5816     0.1205     0.0786    10.6706    10.4371
 6840.5000    77.5316    64.1081    65.4010    64.9701     9.1027    -0.0006     2.5720     0.1257     0.0830    10.4603     9.9683
 6841.0000    79.7713    64.3834    66.1177    65.2551     9.0937    -0.0011     2.5731     0.1284     0.0851    10.6612    10.2055
 6841.5000    82.3308    69.4365    71.4720    65.6028     9.0848    -0.0005     2.5758     0.1343     0.0845    11.4494    11.6272
 6842.0000    85.5386    75.6399    79.0988    65.9491     9.0906     0.0010     2.5786     0.1425     0.0817    13.2160    13.2468
 6842.5000    88.7686    81.6930    93.4386    66.2005     9.0982     0.0044     2.5821     0.1472     0.0801    15.2553    15.0921
 6843.0000    91.4730    85.8241    99.7760    66.3352     9.1058     0.0096     2.5869     0.1504     0.0765    17.6092    16.0735
 6843.5000    93.0750    88.1645   100.0365    66.6095     9.1121     0.0149     2.5906     0.1521     0.0712    19.5537    17.0428
 6844.0000    94.8671    89.0507    96.7375    66.8583     9.1053     0.0176     2.5944     0.1508     0.0702    19.5708    16.9218
 6844.5000    95.7517    88.4484    94.5687    66.7101     9.0786     0.0180     2.5903     0.1509     0.0768    19.1069    16.4965
 6845.0000    94.6180    87.5102    96.6404    66.6092     9.1067     0.0181     2.5824     0.1554     0.0818    18.5565    16.2913
 6845.5000    92.2694    84.8212   100.0635    66.1064     9.1137     0.0181     2.5782     0.1613     0.0847    17.8894    16.0887
 6846.0000    85.0580    79.7245    98.0413    64.6603     9.1155     0.0154     2.5777     0.1607     0.0845    17.2464    15.8625
 6846.5000    77.8778    69.0826    88.8683    61.9335     9.1056     0.0088     2.5783     0.1517     0.0830    16.6264    15.6043
 6847.0000    66.8550    61.1191    77.1956    59.9563     9.0947     0.0001     2.5805     0.1289     0.0810    16.8405    16.3705
 6847.5000    59.4239    56.6701    63.6268    58.4463     9.0938    -0.0009     2.5849     0.1073     0.0784    18.7719    19.5501
 6848.0000    56.7068    53.6336    56.3225    58.3349     9.0930     0.0016     2.5904     0.0849     0.0740    20.9247    21.5755
 6848.5000    56.5136    54.3192    53.5620    59.8189     9.0922     0.0097     2.6005     0.0719     0.0597    21.4271    20.6116
 6849.0000    57.1218    55.8168    53.4880    61.1819     9.0924     0.0259     2.6186     0.0710     0.0591    19.4627    18.9406
 6849.5000    58.4377    57.2099    56.0766    61.9050     9.0919     0.0421     2.6108     0.0760     0.0646    17.6040    16.8450
 6850.0000    60.3673    59.9752    59.1166    62.6451     9.0914     0.0565     2.5999     0.0833     0.0798    15.2215    14.9812
 6850.5000    62.8841    61.8804    61.5462    63.2025     9.0908     0.0563     2.5890     0.1005     0.0805    12.7839    13.0515
 6851.0000    63.5710    62.5176    62.1819    63.4035     9.0902     0.0498     2.5780     0.1169     0.0803    11.7591    11.8893
 6851.5000    63.4656    62.0964    62.9990    63.8818     9.0896     0.0331     2.5671     0.1236     0.0860    10.8514    10.9440
 6852.0000    64.5756    63.8727    63.9006    64.4304     9.0890     0.0164     2.5654     0.1257     0.0935    10.4458    10.5077
 6852.5000    69.4778    68.1825    67.0741    65.0497     9.0884     0.0004     2.5680     0.1203     0.0898    10.9027    11.0157
 6853.0000    75.9310    74.9386    73.5783    65.3344     9.0879    -0.0024     2.5739     0.1239     0.0861    11.6723    11.8043
 6853.5000    84.9418    81.6201    82.6127    65.2557     9.0873    -0.0001     2.5811     0.1323     0.0827    13.0276    13.1637
 6854.0000    90.6526    87.3420    93.0372    64.7244     9.0867     0.0021     2.5882     0.1442     0.0760    15.5023    15.2330
 6854.5000    92.6228    90.0703    96.3321    64.2022     9.0861     0.0038     2.6048     0.1515     0.0649    21.2977    17.9342
 6855.0000    92.4737    92.0427    94.1248    64.1297     9.0855     0.0056     2.6166     0.1509     0.0543    23.8234    20.4956
 6855.5000    91.5397    93.9544    93.7080    64.6626     9.0850     0.0073     2.6275     0.1485     0.0491    24.3940    20.9708
 6856.0000    92.0569    95.9862    96.8064    65.1205     9.0844     0.0081     2.6332     0.1485     0.0467    23.5485    20.8863
 6856.5000    94.4109    96.6705   101.5813    65.1666     9.0838     0.0087     2.6328     0.1531     0.0485    21.9283    20.2758
 6857.0000    95.7830    97.9998   103.1043    64.9166     9.0830     0.0084     2.6223     0.1502     0.0560    20.1094    19.0058
 6857.5000    94.3860    95.9253   102.7366    64.6599     9.0821     0.0056     2.6071     0.1430     0.0652    18.1130    17.7836
 6858.0000    90.6347    90.4227    98.5648    64.0129     9.0812     0.0028     2.5965     0.1332     0.0729    16.3148    16.6399
 6858.5000    85.7896    82.7696    90.0608    63.3824     9.0803     0.0000     2.5930     0.1204     0.0750    15.3492    15.5698
 6859.0000    80.9445    77.6847    84.6566    63.4077     9.0794    -0.0028     2.5910     0.1140     0.0735    15.1908    15.2751
 6859.5000    81.7906    79.1462    82.9548    63.8741     9.0785    -0.0041     2.5912     0.1123     0.0722    16.0030    16.1427
 6860.0000    86.0149    81.5903    82.5781    64.3405     9.0776    -0.0051     2.5928     0.1150     0.0724    17.1597    17.3162
 6860.5000    90.2491    82.8869    83.2366    64.8069     9.0767    -0.0061     2.5948     0.1170     0.0731    17.9618    18.0809
 6861.0000    94.4774    87.0852    84.9478    65.0695     9.0758    -0.0060     2.5969     0.1177     0.0720    18.7044    18.8107
 6861.5000    98.7246    91.2836    88.2157    65.0177     9.0749    -0.0055     2.6006     0.1215     0.0669    19.6549    19.8138
 6862.0000   102.9384    95.4819    89.6159    64.6264     9.0740    -0.0026     2.6101     0.1349     0.0588    20.8886    21.0571
