#--------------------------------------------------#
#-------------------ENVERUS, INC.------------------#
#------------------WWW.ENVERUS.COM-----------------#
#------------------COPYRIGHT 2020------------------#
#--------------------------------------------------#
#THIS FILE MAY BE USED ONLY IN ACCORDANCE WITH A CURRENT SUBSCRIPTION AGREEMENT BETWEEN
#THE USER AND ENVERUS, INC. NO PART OF THIS FILE MAY BE REPRODUCED, USED, COPIED,
#MODIFIED, PROPAGATED, OR DISTRIBUTED EXCEPT IN ACCORDANCE WITH THE SUBSCRIPTION
#AGREEMENT. UNAUTHORIZED USE OR DISTRIBUTION OF ALL OR ANY PART OF THIS FILE MAY VIOLATE
#COPYRIGHT, TRADEMARK, AND/OR OTHER LAWS AND IS SUBJECT TO CIVIL AS WELL AS CRIMINAL
#SANCTIONS.
#--------------------------------------------------#
#THIS FILE IS PROVIDED "AS-IS" AND ALL WARRANTIES ARE EXPRESSLY DISCLAIMED, WHETHER
#EXPRESS, ORAL, IMPLIED, STATUTORY OR OTHERWISE, INCLUDING ANY IMPLIED WARRANTY OF FITNESS
#FOR A PARTICULAR PURPOSE, MERCHANTABILITY, TITLE OR NON-INFRINGEMENT, AND ANY WARRANTIES
#ARISING BY VIRTUE OF CUSTOM OF TRADE OR COURSE OF DEALING.  FURTHER, ENVERUS, INC.
#AND ITS LICENSORS DO NOT REPRESENT OR WARRANT THAT THIS FILE WILL MEET USER'S
#REQUIREMENTS OR ARE SUITABLE FOR USER'S NEEDS OR THAT THE DATA OR RESULTS PROVIDED IN
#CONJUNCTION THEREWITH ARE CORRECT, ACCURATE, TIMELY OR RELIABLE. THESE DISCLAIMERS SHALL
#APPLY REGARDLESS OF ANY FAILURE OF ESSENTIAL PURPOSE OF ANY LIMITED REMEDY.  SOME
#JURISDICTIONS DO NOT ALLOW THE EXCLUSION OF CERTAIN WARRANTIES SO SOME OF THE ABOVE
#EXCLUSIONS MAY NOT APPLY. IN NO EVENT SHALL ENVERUS, INC. OR ANY OF ITS AFFILIATES
#BE LIABLE UNDER ANY LEGAL THEORY, WHETHER IN TORT (INCLUDING WITHOUT LIMITATION
#NEGLIGENCE), CONTRACT, STRICT LIABILITY, STATUTORY OR OTHERWISE, FOR ANY SPECIAL,
#INCIDENTAL, CONSEQUENTIAL, EXEMPLARY, PUNITIVE OR INDIRECT DAMAGE OF ANY KIND, INCLUDING
#WITHOUT LIMITATION LOSS OF REVENUE, PROFITS, GOODWILL, USE, AND/OR DATA OR THE COST OF
#PROCUREMENT OF SUBSTITUTE GOODS OR SERVICES, EVEN IF APPRISED OF THE POSSIBILITY OF SUCH
#DAMAGES IN ADVANCE.
#--------------------------------------------------#

# EXPORTED FROM DI TRANSFORM
# DI TRANSFORM - A PRODUCT OF DRILLINGINFO, INC. - WWW.DRILLINGINFO.COM
#
~VERSION INFORMATION
 VERS.        2.0 : LAS ASCII STANDARD - VERSION 2.0
 WRAP.         NO : ONE LINE PER DEPTH STEP

~WELL INFORMATION
#MNEM.UNIT       DATA TYPE       INFORMATION
#---------       ---------       -----------
 STRT.FT           100 : START DEPTH
 STOP.FT         18040 : STOP DEPTH
 STEP.FT           0.5 : STEP LENGTH
 NULL.         -999.25 : NULL VALUE
 UWI.   42371302980000 : UNIQUE WELL ID
 API.   42371302980000 : WELL IDENTIFIER
 COMP.                 : COMPANY
 WELL.          DRD_55 : WELL NAME
 FLD.                  : FIELD NAME
 LOC.                  : WELL LOCATION
 CNTY.                 : COUNTY
 STAT.                 : STATE OR PROVINCE
 CTRY.                 : COUNTRY
 SRVC.                 : SERVICE COMPANY
 DATE.                 : DATE

~CURVE INFORMATION
#MNEM.UNIT       API CODE       CURVE DESCRIPTION
#---------       --------       -----------------
 DEPT.FT        : <MEASURED DEPTH>
 CAL.IN         : CALIPER
 DT.US/FT       : SONIC
 GR.GAPI        : GAMMA RAY

~PARAMETER INFORMATION
#MNEM.UNIT       VALUE       DESCRIPTION
#---------       -----       -----------

~A       DEPT         CAL          DT          GR
# ...
        10580     13.7733     96.8166     96.2429
      10580.5     13.7733     99.5901     109.975
        10581      13.781     99.4436    117.3222
      10581.5     13.8138     97.9012    117.6121
        10582     13.7733     96.5548    111.6631
      10582.5     13.7733     96.3489    107.4228
        10583     13.7733     96.1846    101.0479
      10583.5     13.7733      93.941     96.9871
        10584     13.7733     89.6445      95.766
      10584.5     13.7733      88.706     97.2486
        10585     13.7733      89.853     102.696
      10585.5     13.7733     91.0999    102.7459
        10586     13.7733     91.6969    102.5197
      10586.5     13.7733     91.7241    103.3764
        10587     13.7733      89.689    107.2012
      10587.5     13.7733     84.8528    107.0323
        10588     13.7733     82.5905    102.8232
      10588.5     13.7733     81.3971     99.1934
        10589     13.7733     81.1592     96.3258
      10589.5     13.7733     83.0249     92.5616
        10590     13.7733     84.6778     93.4686
      10590.5     13.8058     85.9812     95.9153
        10591     13.8543     89.3312     94.9776
      10591.5     13.8543     92.0091     98.5868
        10592     13.8543     91.9092    109.9408
      10592.5     13.8558     90.9432    120.5682
        10593     13.8947     87.2264    126.0281
      10593.5     13.9352      82.802     120.034
        10594     13.9352     82.9958    108.3602
      10594.5     13.9352     84.4104      98.105
        10595     13.9352     88.2707     94.5374
      10595.5     13.9915     91.6498    100.9926
        10596     14.0951     91.0801     106.851
      10596.5     14.1177     90.5071    106.5749
        10597     14.1377      90.515    103.7538
      10597.5     14.1377     91.4572    100.2806
        10598     14.0567     92.5707     96.3742
      10598.5     14.0867     93.5768     94.3393
        10599     14.0926     92.2604      93.401
      10599.5     14.0821     87.8103     90.5994
        10600     14.0821     86.0751     78.5594
      10600.5     14.0346     68.2148     74.0991
        10601     13.9224     65.3821     71.6584
      10601.5     13.9198     58.8902     59.8749
        10602     13.8138     56.7216     50.6644
      10602.5     13.7733     56.0649     42.0859
        10603     13.7733     56.3736     37.2792
      10603.5     13.7733     59.3973     34.7557
        10604     13.7733     62.6888     33.6032
      10604.5     13.7733     63.7049     34.5927
        10605     13.7733     62.5747     36.4408
      10605.5     13.7733     59.6802     41.5328
        10606     13.7733     56.3426     42.5586
      10606.5     13.7733     55.2521     37.5075
        10607     13.7733     55.7574     32.6604
      10607.5     13.7733     56.8048     31.1741
        10608     13.7733     59.9708     31.9838
      10608.5     13.7733      60.946     32.7581
        10609     13.7328     61.8997     34.0918
      10609.5     13.7328     61.7596     35.2347
        10610     13.7328     58.9714     36.5088
      10610.5     13.7328     56.6287     38.1162
        10611     13.7328      55.979     38.5808
      10611.5     13.8245     55.6998     37.5449
        10612     13.8543     56.0718     36.8421
      10612.5     13.8543     56.4764     37.8062
        10613     13.8543      56.845     39.2225
      10613.5     13.8341     57.0992     41.2955
        10614     13.8138     57.0316     41.2725
      10614.5     13.8138     56.7202     40.2366
        10615     13.8138     56.4088     39.2007
      10615.5     13.8434     56.1866     38.8664
        10616     13.8947     56.1866     38.2256
      10616.5     13.8947     56.4118     35.7794
        10617     13.8782     56.7231     32.5825
      10617.5     13.7746     57.0345     30.3844
        10618     13.8968     57.3171     30.5772
      10618.5     14.0196     58.3875     31.6131
        10619     14.1232      58.499     32.3887
      10619.5     14.1781      58.499     32.8751
        10620     14.1781     58.0828     33.9109
      10620.5     14.1781     57.2432     35.0113
        10621     14.1781     57.0385     36.3875
      10621.5     14.1781      56.959     36.2608
        10622     14.1781     56.6734     34.8213
      10622.5     14.1377     56.7744     35.0417
        10623     14.1377     58.1074     36.7977
      10623.5     14.1377     63.3777     41.7755
        10624     14.1284     71.7996      45.807
      10624.5     14.0248     74.3516     51.7099
        10625     13.9212     75.1747     61.8092
      10625.5     13.7222     75.4158     77.4604
        10626     13.6521     75.4158     82.4036
      10626.5     13.6346     76.5112     78.9386
        10627      13.603     76.0717     78.3725
      10627.5      13.466     74.6958     79.6951
        10628     13.4089     73.8577     78.2416
      10628.5     13.4089     77.5358     76.0098
        10629     13.4254      81.791     77.3051
      10629.5     13.4494     80.7155     85.6486
        10630     13.4494     72.5978     90.3475
      10630.5     13.4494     66.9823      92.911
        10631     13.4504     59.6788     82.9512
      10631.5     13.5304     55.6714     66.4012
        10632     13.4899     54.5823     46.5964
      10632.5     13.4899     57.1267     39.4943
        10633     13.4899     57.1947     38.0567
      10633.5     13.4899     58.5148     42.8393
        10634     13.4899     63.2587     47.7333
      10634.5     13.4899     68.7763     51.3671
        10635     13.4689     78.2351     55.3057
      10635.5     13.4494     83.5065     63.7938
        10636     13.4494     76.7977       75.81
      10636.5     13.4494     70.1693     79.6397
        10637     13.4494     66.2858     75.3479
      10637.5     13.4089     66.0762     65.2379
        10638     13.4089     72.0623     60.1047
      10638.5     13.4089       75.65       64.11
        10639     13.4089     76.5112     74.4211
      10639.5     13.4089     77.7332     82.5171
        10640     13.4089     80.5231     84.6221
      10640.5     13.4089     81.8232     87.4552
        10641     13.4089     86.2393     85.6068
      10641.5     13.4089     87.6407     82.4546
        10642     13.4089     83.6798     88.1329
      10642.5     13.4089     79.3861     88.1483
        10643     13.4089     74.3364     85.6269
      10643.5     13.4089     73.6017     77.2899
        10644     13.4089     77.2075     72.0648
      10644.5     13.4089     80.6733     72.7075
        10645     13.4229     87.7301     78.6245
      10645.5     13.4494     91.0531    100.7304
        10646     13.4494     91.6024    118.5707
      10646.5     13.4494      91.558    123.8511
        10647     13.4494      91.078    123.2628
      10647.5     13.4494     90.7505    121.6672
        10648      13.451     90.7456     118.607
      10648.5     13.4899     90.3248    117.5712
        10649     13.4899     88.7104     116.269
      10649.5     13.5304     86.2456    113.5597
        10650     13.5304     82.3971      105.42
      10650.5     13.5304     78.1743    100.0674
        10651     13.5304     72.1453     92.7601
      10651.5     13.5709     63.6597     80.7064
        10652     13.5304     58.3292     65.2362
      10652.5     13.5304     55.6667     55.5817
        10653     13.5304     55.9461     46.5295
      10653.5     13.5304     58.8617     42.1053
        10654     13.5304     63.3533     45.2301
      10654.5     13.5304     66.5312     49.5997
        10655     13.5304     74.8014     55.3863
      10655.5     13.5473     80.1703     61.4799
        10656     13.6104     84.0421     70.1494
      10656.5     13.6113     84.2319     74.9877
        10657     13.6518     81.5968     83.8537
      10657.5     13.6518     76.8156     84.8413
        10658     13.6518     72.0981     77.4374
      10658.5     13.6518     67.7825     70.7066
        10659     13.6518     60.9221     64.3151
      10659.5     13.6518     56.9854     56.5033
