#--------------------------------------------------#
#-------------------ENVERUS, INC.------------------#
#------------------WWW.ENVERUS.COM-----------------#
#------------------COPYRIGHT 2020------------------#
#--------------------------------------------------#
#THIS FILE MAY BE USED ONLY IN ACCORDANCE WITH A CURRENT SUBSCRIPTION AGREEMENT BETWEEN
#THE USER AND ENVERUS, INC. NO PART OF THIS FILE MAY BE REPRODUCED, USED, COPIED,
#MODIFIED, PROPAGATED, OR DISTRIBUTED EXCEPT IN ACCORDANCE WITH THE SUBSCRIPTION
#AGREEMENT. UNAUTHORIZED USE OR DISTRIBUTION OF ALL OR ANY PART OF THIS FILE MAY VIOLATE
#COPYRIGHT, TRADEMARK, AND/OR OTHER LAWS AND IS SUBJECT TO CIVIL AS WELL AS CRIMINAL
#SANCTIONS.
#--------------------------------------------------#
#THIS FILE IS PROVIDED "AS-IS" AND ALL WARRANTIES ARE EXPRESSLY DISCLAIMED, WHETHER
#EXPRESS, ORAL, IMPLIED, STATUTORY OR OTHERWISE, INCLUDING ANY IMPLIED WARRANTY OF FITNESS
#FOR A PARTICULAR PURPOSE, MERCHANTABILITY, TITLE OR NON-INFRINGEMENT, AND ANY WARRANTIES
#ARISING BY VIRTUE OF CUSTOM OF TRADE OR COURSE OF DEALING.  FURTHER, ENVERUS, INC.
#AND ITS LICENSORS DO NOT REPRESENT OR WARRANT THAT THIS FILE WILL MEET USER'S
#REQUIREMENTS OR ARE SUITABLE FOR USER'S NEEDS OR THAT THE DATA OR RESULTS PROVIDED IN
#CONJUNCTION THEREWITH ARE CORRECT, ACCURATE, TIMELY OR RELIABLE. THESE DISCLAIMERS SHALL
#APPLY REGARDLESS OF ANY FAILURE OF ESSENTIAL PURPOSE OF ANY LIMITED REMEDY.  SOME
#JURISDICTIONS DO NOT ALLOW THE EXCLUSION OF CERTAIN WARRANTIES SO SOME OF THE ABOVE
#EXCLUSIONS MAY NOT APPLY. IN NO EVENT SHALL ENVERUS, INC. OR ANY OF ITS AFFILIATES
#BE LIABLE UNDER ANY LEGAL THEORY, WHETHER IN TORT (INCLUDING WITHOUT LIMITATION
#NEGLIGENCE), CONTRACT, STRICT LIABILITY, STATUTORY OR OTHERWISE, FOR ANY SPECIAL,
#INCIDENTAL, CONSEQUENTIAL, EXEMPLARY, PUNITIVE OR INDIRECT DAMAGE OF ANY KIND, INCLUDING
#WITHOUT LIMITATION LOSS OF REVENUE, PROFITS, GOODWILL, USE, AND/OR DATA OR THE COST OF
#PROCUREMENT OF SUBSTITUTE GOODS OR SERVICES, EVEN IF APPRISED OF THE POSSIBILITY OF SUCH
#DAMAGES IN ADVANCE.
#--------------------------------------------------#

~VERSION INFORMATION
VERS. 2.0 : CWLS LOG ASCII STANDARD - VERSION 2.0
WRAP.  NO : ONE LINE PER DEPTH STEP
~WELL INFORMATION
#MNEMONIC     .UNIT              VALUE :DESCRIPTION
STRT       .FT                50 :START DEPTH
STOP       .FT                6118 :STOP DEPTH
STEP       .FT                   0.500 :STEP
NULL       .                  -999.990 :NULL
UWI        .              42389003090000 :UNIQUE WELL ID
API        .              42389003090000 :API NUMBER
COMP       .         :COMPANY
WELL       .         1, :WELL
DATE       .                            :LOG DATE
~CURVE INFORMATION
#MNEMONIC     .UNIT      API CODE :CURVE DESCRIPTION
DEPTH       .FT                      :MEASURED DEPTH
NEUT.API        UNKNOWN   :NEUT
GR.API        UNKNOWN   :GR
DT.US/FT        UNKNOWN   :DT
~A    DEPTH    NEUT    GR    DT
# ...
 2659.5     -999.990   9.945   67.643
 2660     -999.990   9.115   67.771
 2660.5     -999.990   8.284   70.121
 2661     -999.990   8.251   67.734
 2661.5     -999.990   8.788   67.082
 2662     -999.990   9.326   67.636
 2662.5     -999.990   9.864   68.191
 2663     -999.990   10.402   66.854
 2663.5     -999.990   10.94   65.376
 2664     -999.990   11.478   64.806
 2664.5     -999.990   12.016   66.253
 2665     -999.990   12.554   67.699
 2665.5     -999.990   13.092   69.146
 2666     -999.990   13.63   70.592
 2666.5     -999.990   14.168   70.996
 2667     -999.990   14.572   69.372
 2667.5     -999.990   13.674   67.974
 2668     -999.990   12.776   68.665
 2668.5     -999.990   11.877   69.356
 2669     -999.990   12.103   70.047
 2669.5     -999.990   12.893   69.532
 2670     -999.990   13.683   66.144
 2670.5     -999.990   14.117   63.091
 2671     -999.990   13.547   63.99
 2671.5     -999.990   12.978   64.889
 2672     -999.990   12.408   65.789
 2672.5     -999.990   11.839   66.688
 2673     -999.990   11.269   67.587
 2673.5     -999.990   11.21   65.77
 2674     -999.990   13.513   63.039
 2674.5     -999.990   13.804   60.36
 2675     -999.990   13.13   57.796
 2675.5     -999.990   12.456   57.287
 2676     -999.990   11.781   56.778
 2676.5     -999.990   11.423   59.432
 2677     -999.990   13.638   62.825
 2677.5     -999.990   15.854   65.491
 2678     -999.990   18.069   68.158
 2678.5     -999.990   20.284   70.866
 2679     -999.990   19.987   73.611
 2679.5     -999.990   18.009   70.632
 2680     -999.990   16.032   67.534
 2680.5     -999.990   14.054   64.436
 2681     -999.990   12.077   61.905
 2681.5     -999.990   10.099   59.683
 2682     -999.990   10.351   57.461
 2682.5     -999.990   10.96   56.956
 2683     -999.990   11.569   60.704
 2683.5     -999.990   12.177   64.451
 2684     -999.990   12.786   67.025
 2684.5     -999.990   13.395   69.555
 2685     -999.990   14.003   72.084
 2685.5     -999.990   14.107   70.48
 2686     -999.990   12.997   68.339
 2686.5     -999.990   11.886   66.197
 2687     -999.990   10.776   65.845
 2687.5     -999.990   9.665   67.094
 2688     -999.990   8.555   67.959
 2688.5     -999.990   8.605   67.608
 2689     -999.990   9.503   67.257
 2689.5     -999.990   10.402   70.823
 2690     -999.990   11.301   69.458
 2690.5     -999.990   12.2   68.094
 2691     -999.990   12.264   66.729
 2691.5     -999.990   11.906   66.42
 2692     -999.990   11.548   67.437
 2692.5     -999.990   11.19   67.674
 2693     -999.990   10.832   67.246
 2693.5     -999.990   10.474   66.819
 2694     -999.990   10.25   66.391
 2694.5     -999.990   10.545   66.429
 2695     -999.990   10.84   66.608
 2695.5     -999.990   11.135   66.787
 2696     -999.990   11.431   66.966
 2696.5     -999.990   11.18   67.145
 2697     -999.990   10.647   67.323
 2697.5     -999.990   10.114   67.38
 2698     -999.990   9.581   67.187
 2698.5     -999.990   9.048   66.994
 2699     -999.990   8.515   66.801
 2699.5     -999.990   7.982   66.608
 2700     -999.990   7.854   67.006
 2700.5     -999.990   8.255   67.558
 2701     -999.990   8.656   68.11
 2701.5     -999.990   9.057   68.661
 2702     -999.990   9.458   68.654
 2702.5     -999.990   9.859   68.301
 2703     -999.990   10.26   67.948
 2703.5     -999.990   10.661   67.741
 2704     -999.990   11.062   68.045
 2704.5     -999.990   10.974   68.349
 2705     -999.990   9.964   68.652
 2705.5     -999.990   9.087   68.712
 2706     -999.990   10.275   68.447
 2706.5     -999.990   11.462   68.183
 2707     -999.990   12.649   67.919
 2707.5     -999.990   13.836   67.654
 2708     -999.990   13.477   68.136
 2708.5     -999.990   11.751   68.703
 2709     -999.990   10.026   68.978
 2709.5     -999.990   10.16   69.075
 2710     -999.990   10.607   69.173
 2710.5     -999.990   11.054   69.27
 2711     -999.990   11.501   69.031
 2711.5     -999.990   11.948   68.726
 2712     -999.990   12.395   68.421
 2712.5     -999.990   12.139   68.116
 2713     -999.990   10.905   67.811
 2713.5     -999.990   9.672   67.825
 2714     -999.990   8.439   68.1
 2714.5     -999.990   8.899   68.376
 2715     -999.990   9.381   68.651
 2715.5     -999.990   9.864   68.927
 2716     -999.990   10.347   69.202
 2716.5     -999.990   10.829   68.711
 2717     -999.990   11.312   68.1
 2717.5     -999.990   11.795   67.489
 2718     -999.990   12.257   66.976
 2718.5     -999.990   12.191   67.389
 2719     -999.990   12.125   67.802
 2719.5     -999.990   12.059   68.215
 2720     -999.990   11.993   68.242
 2720.5     -999.990   11.915   67.386
 2721     -999.990   11.493   66.964
 2721.5     -999.990   11.071   67.141
 2722     -999.990   10.648   67.318
 2722.5     -999.990   10.226   67.495
 2723     -999.990   9.803   67.859
 2723.5     -999.990   9.381   68.768
 2724     -999.990   9.779   69.677
 2724.5     -999.990   10.349   68.772
 2725     -999.990   10.92   67.82
 2725.5     -999.990   11.49   66.869
 2726     -999.990   11.816   66.689
 2726.5     -999.990   12.04   67.054
 2727     -999.990   12.265   67.419
 2727.5     -999.990   12.489   67.783
 2728     -999.990   12.664   68.148
 2728.5     -999.990   12.158   68.512
 2729     -999.990   11.652   68.877
 2729.5     -999.990   11.145   68.449
 2730     -999.990   10.541   67.777
 2730.5     -999.990   9.933   67.105
 2731     -999.990   10   67.112
 2731.5     -999.990   11.187   67.348
 2732     -999.990   12.374   67.583
 2732.5     -999.990   12.041   67.819
 2733     -999.990   9.276   68.055
 2733.5     -999.990   10.293   68.29
 2734     -999.990   11.309   68.182
 2734.5     -999.990   12.326   67.918
 2735     -999.990   13.089   67.958
 2735.5     -999.990   12.205   68.417
 2736     -999.990   11.32   68.876
 2736.5     -999.990   10.436   69.324
 2737     -999.990   9.551   68.564
 2737.5     -999.990   10.402   67.803
 2738     -999.990   11.272   67.043
 2738.5     -999.990   12.143   66.93
 2739     -999.990   12.049   67.217
 2739.5     -999.990   10.438   67.505
 2740     -999.990   8.826   67.793
 2740.5     -999.990   9.277   68.081
 2741     -999.990   10.276   68.369
 2741.5     -999.990   11.274   68.657
 2742     -999.990   12.272   68.744
 2742.5     -999.990   13.139   68.553
 2743     -999.990   12.843   68.361
 2743.5     -999.990   12.546   68.17
 2744     -999.990   12.25   67.978
 2744.5     -999.990   11.954   67.83
 2745     -999.990   11.658   67.982
 2745.5     -999.990   11.361   68.134
 2746     -999.990   11.065   68.286
 2746.5     -999.990   10.769   68.438
 2747     -999.990   10.473   68.591
 2747.5     -999.990   11.136   68.743
 2748     -999.990   11.812   68.895
 2748.5     -999.990   12.489   68.88
 2749     -999.990   11.891   68.732
 2749.5     -999.990   10.379   68.583
 2750     -999.990   9.489   68.435
 2750.5     -999.990   10.109   68.287
 2751     -999.990   10.728   68.138
 2751.5     -999.990   11.348   67.99
 2752     -999.990   11.968   67.842
 2752.5     -999.990   12.588   67.693
 2753     -999.990   13.207   67.826
 2753.5     -999.990   13.106   68.004
 2754     -999.990   12.221   68.181
 2754.5     -999.990   11.336   68.359
 2755     -999.990   10.451   68.537
 2755.5     -999.990   9.567   68.462
 2756     -999.990   9.891   68.371
 2756.5     -999.990   10.334   68.279
 2757     -999.990   10.777   68.188
 2757.5     -999.990   11.22   68.097
 2758     -999.990   11.663   68.005
 2758.5     -999.990   12.106   67.914
 2759     -999.990   12.151   67.938
 2759.5     -999.990   12.127   68.153
 2760     -999.990   12.103   68.368
 2760.5     -999.990   12.079   68.583
 2761     -999.990   12.054   68.799
 2761.5     -999.990   12.03   68.764
 2762     -999.990   12.006   68.429
 2762.5     -999.990   11.982   68.094
 2763     -999.990   11.957   67.759
 2763.5     -999.990   11.933   67.423
 2764     -999.990   11.909   67.724
 2764.5     -999.990   11.885   68.079
 2765     -999.990   11.86   68.434
 2765.5     -999.990   11.836   68.789
