###############################################
##         ENVERUS                           ##
##         ESS - Open Hole                   ##
##         PERMIAN / DELAWARE                ##
##         Nov 04 2023  V4.0                 ##
##         42-389-00931-00-00                ##
###############################################
## Copyright 2017-2023  ENVERUS.  All Rights Reserved. 
## Confidential - Property of ENVERUS, use governed by terms and 
## conditions found within the existing Information Services Subscription Agreement 
## (as may be amended, the “ISSA”) between Customer and ENVERUS. 
## 
~VERSION INFORMATION
# MNEM.UNIT                               DATA : DESCRIPTION OF MNEMONIC
#-----.-----     ----------------------------- : -----------------------------
VERS.                                     2.00 : CWLS LOG ASCII STANDARD - VERSION 2.00
WRAP.                                       NO : MULTIPLE LINES PER DEPTH STEP
VEND.                                  ENVERUS : VENDOR
TYPE.                          ESS - OPEN HOLE : ENVERUS ESSENTIAL CURVES – ACCESSIBLE THROUGH ENVERUS PRISM(TM)
DOC.                                  31935239 : ENVERUS HEADER RAW DOCUMENT ID
#___________________________________________________________________________________________________ 
~WELL INFORMATION 
# S9zL0tdqvH3y2XIpNbXcuKF0SeIoK+7NE6VaQ02nn2+shQHF2oZWL/5TS96hefD+9qjP/MIJWV/WOidK809eGw== 
# MNEM.UNIT                                              DATA : DESCRIPTION OF MNEMONIC 
#-----.-----                    ----------------------------- : ----------------------------- 
CNTY.                                                  REEVES : COUNTY 
STATE.                                                  TEXAS : STATE 
CNTRY.                                                    USA : COUNTRY 
API.                                             42-389-00931 : API (10 Digit) 
API_14.                                    42-389-00931-00-00 : API (14 Digits) 
API_14_std.                                 42-389-00931-0000 : API (14 Digits Standard) 
UWI.                                           42389009310000 : UNIQUE WELL ID 
WELL.                                                      1, : WELL NAME
STRT.FT                                                 101.0 : START DEPTH
STOP.FT                                                5373.0 : STOP DEPTH
STEP.FT                                                   0.5 : STEP BETWEEN DEPTHS
NULL.                                                 -999.25 : NULL VALUE
#___________________________________________________________________________________________________ 
~CURVE INFORMATION 
# MNEM.UNIT           : CURVE DESCRIPTION 
#-----.-----          : ----------------------------- 
 DEPT.FT               : MEASURED DEPTH 
 GR.API                : GAMMA RAY (GR) 
 DT.US/FT              : SONIC DELTA TRANSIT TIME (DT) 
 #___________________________________________________________________________________________________ 
~A         DEPT             GR             DT
# ...
          449.0         65.122       -999.250
          449.5         63.411       -999.250
          450.0         61.701       -999.250
          450.5         62.564       -999.250
          451.0         63.549       -999.250
          451.5         64.535       -999.250
          452.0         65.072       -999.250
          452.5         64.162       -999.250
          453.0         63.252       -999.250
          453.5         62.342       -999.250
          454.0         61.432       -999.250
          454.5         60.522       -999.250
          455.0         59.612       -999.250
          455.5         61.500       -999.250
          456.0         63.403       -999.250
          456.5         65.306       -999.250
          457.0         67.209       -999.250
          457.5         69.112       -999.250
          458.0         71.015       -999.250
          458.5         72.917       -999.250
          459.0         73.809       -999.250
          459.5         72.978       -999.250
          460.0         72.147       -999.250
          460.5         71.403       -999.250
          461.0         71.320       -999.250
          461.5         71.238       -999.250
          462.0         71.155       -999.250
          462.5         69.717       -999.250
          463.0         68.311       -999.250
          463.5         66.906       -999.250
          464.0         65.501       -999.250
          464.5         64.096       -999.250
          465.0         64.151       -999.250
          465.5         66.130       -999.250
          466.0         68.108       -999.250
          466.5         70.087       -999.250
          467.0         72.066       -999.250
          467.5         74.044       -999.250
          468.0         75.466       -999.250
          468.5         73.040       -999.250
          469.0         70.614       -999.250
          469.5         68.187       -999.250
          470.0         65.761       -999.250
          470.5         63.334       -999.250
          471.0         64.592       -999.250
          471.5         66.349       -999.250
          472.0         68.106       -999.250
          472.5         69.863       -999.250
          473.0         71.620       -999.250
          473.5         73.377       -999.250
          474.0         75.134       -999.250
          474.5         76.891       -999.250
          475.0         78.648       -999.250
          475.5         76.792       -999.250
          476.0         74.647       -999.250
          476.5         72.501       -999.250
          477.0         70.356       -999.250
          477.5         68.211       -999.250
          478.0         66.065       -999.250
          478.5         64.046       -999.250
          479.0         64.618       -999.250
          479.5         65.191       -999.250
          480.0         65.764       -999.250
          480.5         66.337       -999.250
          481.0         66.910       -999.250
          481.5         67.483       -999.250
          482.0         68.056       -999.250
          482.5         68.629       -999.250
          483.0         68.870       -999.250
          483.5         68.788       -999.250
          484.0         68.705       -999.250
          484.5         68.623       -999.250
          485.0         68.541       -999.250
          485.5         67.788       -999.250
          486.0         66.702       -999.250
          486.5         65.616       -999.250
          487.0         63.512       -999.250
          487.5         60.925       -999.250
          488.0         62.906       -999.250
          488.5         66.484       -999.250
          489.0         70.062       -999.250
          489.5         73.640       -999.250
          490.0         74.588       -999.250
          490.5         73.860       -999.250
          491.0         73.132       -999.250
          491.5         72.404       -999.250
          492.0         71.676       -999.250
          492.5         70.948       -999.250
          493.0         70.036       -999.250
          493.5         67.649       -999.250
          494.0         65.262       -999.250
          494.5         62.875       -999.250
          495.0         60.488       -999.250
          495.5         58.101       -999.250
          496.0         55.673       -999.250
          496.5         52.277       -999.250
          497.0         48.880       -999.250
          497.5         45.483       -999.250
          498.0         47.298       -999.250
          498.5         51.449       -999.250
          499.0         55.600       -999.250
          499.5         59.388       -999.250
          500.0         59.824       -999.250
          500.5         60.261       -999.250
          501.0         60.697       -999.250
          501.5         61.133       -999.250
          502.0         61.569       -999.250
          502.5         62.006       -999.250
          503.0         62.442       -999.250
          503.5         62.878       -999.250
          504.0         63.314       -999.250
          504.5         59.417       -999.250
          505.0         54.025       -999.250
          505.5         48.632       -999.250
          506.0         43.240       -999.250
          506.5         38.031       -999.250
          507.0         33.890       -999.250
          507.5         33.892       -999.250
          508.0         33.893       -999.250
          508.5         34.122       -999.250
          509.0         36.720       -999.250
          509.5         39.318       -999.250
          510.0         41.916       -999.250
          510.5         44.515       -999.250
          511.0         49.134       -999.250
          511.5         53.948       -999.250
          512.0         58.763       -999.250
          512.5         63.577       -999.250
          513.0         68.392       -999.250
          513.5         70.544       -999.250
          514.0         70.613       -999.250
          514.5         70.682       -999.250
          515.0         70.751       -999.250
          515.5         70.320       -999.250
          516.0         69.457       -999.250
          516.5         68.594       -999.250
          517.0         67.730       -999.250
          517.5         66.867       -999.250
          518.0         66.004       -999.250
          518.5         65.140       -999.250
          519.0         63.564       -999.250
          519.5         61.231       -999.250
          520.0         58.898       -999.250
          520.5         56.565       -999.250
          521.0         54.232       -999.250
          521.5         51.899       -999.250
          522.0         52.039       -999.250
          522.5         52.258       -999.250
          523.0         52.476       -999.250
          523.5         52.927       -999.250
          524.0         54.084       -999.250
          524.5         55.327       -999.250
          525.0         55.975       -999.250
          525.5         57.117       -999.250
          526.0         58.259       -999.250
          526.5         59.401       -999.250
          527.0         60.543       -999.250
          527.5         61.685       -999.250
          528.0         62.827       -999.250
          528.5         63.559       -999.250
          529.0         63.687       -999.250
          529.5         63.815       -999.250
          530.0         63.943       -999.250
          530.5         64.071       -999.250
          531.0         64.039       -999.250
          531.5         63.024       -999.250
          532.0         61.737       -999.250
          532.5         60.510       -999.250
          533.0         56.996       -999.250
          533.5         58.152       -999.250
          534.0         59.667       -999.250
          534.5         61.181       -999.250
          535.0         62.696       -999.250
          535.5         64.211       -999.250
