#--------------------------------------------------#
#-------------------ENVERUS, INC.------------------#
#------------------WWW.ENVERUS.COM-----------------#
#------------------COPYRIGHT 2020------------------#
#--------------------------------------------------#
#THIS FILE MAY BE USED ONLY IN ACCORDANCE WITH A CURRENT SUBSCRIPTION AGREEMENT BETWEEN
#THE USER AND ENVERUS, INC. NO PART OF THIS FILE MAY BE REPRODUCED, USED, COPIED,
#MODIFIED, PROPAGATED, OR DISTRIBUTED EXCEPT IN ACCORDANCE WITH THE SUBSCRIPTION
#AGREEMENT. UNAUTHORIZED USE OR DISTRIBUTION OF ALL OR ANY PART OF THIS FILE MAY VIOLATE
#COPYRIGHT, TRADEMARK, AND/OR OTHER LAWS AND IS SUBJECT TO CIVIL AS WELL AS CRIMINAL
#SANCTIONS.
#--------------------------------------------------#
#THIS FILE IS PROVIDED "AS-IS" AND ALL WARRANTIES ARE EXPRESSLY DISCLAIMED, WHETHER
#EXPRESS, ORAL, IMPLIED, STATUTORY OR OTHERWISE, INCLUDING ANY IMPLIED WARRANTY OF FITNESS
#FOR A PARTICULAR PURPOSE, MERCHANTABILITY, TITLE OR NON-INFRINGEMENT, AND ANY WARRANTIES
#ARISING BY VIRTUE OF CUSTOM OF TRADE OR COURSE OF DEALING.  FURTHER, ENVERUS, INC.
#AND ITS LICENSORS DO NOT REPRESENT OR WARRANT THAT THIS FILE WILL MEET USER'S
#REQUIREMENTS OR ARE SUITABLE FOR USER'S NEEDS OR THAT THE DATA OR RESULTS PROVIDED IN
#CONJUNCTION THEREWITH ARE CORRECT, ACCURATE, TIMELY OR RELIABLE. THESE DISCLAIMERS SHALL
#APPLY REGARDLESS OF ANY FAILURE OF ESSENTIAL PURPOSE OF ANY LIMITED REMEDY.  SOME
#JURISDICTIONS DO NOT ALLOW THE EXCLUSION OF CERTAIN WARRANTIES SO SOME OF THE ABOVE
#EXCLUSIONS MAY NOT APPLY. IN NO EVENT SHALL ENVERUS, INC. OR ANY OF ITS AFFILIATES
#BE LIABLE UNDER ANY LEGAL THEORY, WHETHER IN TORT (INCLUDING WITHOUT LIMITATION
#NEGLIGENCE), CONTRACT, STRICT LIABILITY, STATUTORY OR OTHERWISE, FOR ANY SPECIAL,
#INCIDENTAL, CONSEQUENTIAL, EXEMPLARY, PUNITIVE OR INDIRECT DAMAGE OF ANY KIND, INCLUDING
#WITHOUT LIMITATION LOSS OF REVENUE, PROFITS, GOODWILL, USE, AND/OR DATA OR THE COST OF
#PROCUREMENT OF SUBSTITUTE GOODS OR SERVICES, EVEN IF APPRISED OF THE POSSIBILITY OF SUCH
#DAMAGES IN ADVANCE.
#--------------------------------------------------#

~VERSION INFORMATION
VERS. 2.0 : CWLS LOG ASCII STANDARD - VERSION 2.0
WRAP.  NO : ONE LINE PER DEPTH STEP
~WELL INFORMATION
#MNEMONIC     .UNIT              VALUE :DESCRIPTION
STRT       .FT                2 :START DEPTH
STOP       .FT                6341 :STOP DEPTH
STEP       .FT                   0.500 :STEP
NULL       .                  -999.990 :NULL
UWI        .              42389104050000 :UNIQUE WELL ID
API        .              42389104050000 :API NUMBER
COMP       .         ENDEAVOR ENERGY RESOURCES L.P. :COMPANY
WELL       .        TXL REEVES STATE UNIT  2 :WELL
DATE       .                            :LOG DATE
~CURVE INFORMATION
#MNEMONIC     .UNIT      API CODE :CURVE DESCRIPTION
DEPTH       .FT                      :MEASURED DEPTH
GR.API        UNKNOWN   :GR
DT.US/FT        UNKNOWN   :DT
~A    DEPTH    GR    DT
# ...
 4598.5     13.128   48.799
 4599     14.243   48.789
 4599.5     15.358   48.779
 4600     11.844   48.769
 4600.5     11.993   48.759
 4601     12.141   48.749
 4601.5     12.29   48.739
 4602     12.439   48.729
 4602.5     12.587   48.719
 4603     12.427   48.709
 4603.5     12.06   48.699
 4604     11.692   48.689
 4604.5     11.324   48.679
 4605     11.495   48.669
 4605.5     12.451   48.659
 4606     13.258   48.616
 4606.5     12.829   48.514
 4607     12.399   48.412
 4607.5     11.97   48.386
 4608     11.804   48.397
 4608.5     12.257   48.408
 4609     12.711   48.42
 4609.5     13.165   48.431
 4610     13.298   48.442
 4610.5     10.334   48.454
 4611     11.837   48.465
 4611.5     13.518   48.471
 4612     15.199   48.463
 4612.5     15.163   48.455
 4613     14.91   48.447
 4613.5     14.657   48.439
 4614     14.403   48.431
 4614.5     14.15   48.454
 4615     13.348   48.481
 4615.5     12.507   48.508
 4616     11.665   48.536
 4616.5     10.823   48.563
 4617     10.535   48.59
 4617.5     11.2   48.617
 4618     11.866   48.644
 4618.5     12.532   48.671
 4619     13.198   48.698
 4619.5     13.863   48.725
 4620     14.462   48.752
 4620.5     13.882   48.78
 4621     13.303   48.8
 4621.5     12.724   48.773
 4622     12.144   48.746
 4622.5     11.565   48.719
 4623     10.985   48.692
 4623.5     11.212   48.665
 4624     12.018   48.638
 4624.5     12.647   48.611
 4625     11.535   48.584
 4625.5     10.823   48.557
 4626     11.776   48.53
 4626.5     12.61   48.503
 4627     12.184   48.476
 4627.5     11.758   48.449
 4628     11.332   48.524
 4628.5     11.61   48.637
 4629     12.688   48.749
 4629.5     13.765   48.862
 4630     14.843   48.974
 4630.5     15.921   49.087
 4631     15.98   48.989
 4631.5     15.55   48.892
 4632     15.12   48.794
 4632.5     14.69   48.697
 4633     13.788   48.714
 4633.5     12.814   48.762
 4634     12.124   48.811
 4634.5     12.528   48.859
 4635     12.932   48.907
 4635.5     13.336   48.942
 4636     13.739   48.703
 4636.5     14.143   48.517
 4637     14.547   48.686
 4637.5     14.951   48.855
 4638     15.098   49.024
 4638.5     14.067   49.124
 4639     13.036   49.073
 4639.5     12.005   49.022
 4640     10.974   48.971
 4640.5     13.121   48.92
 4641     12.396   48.869
 4641.5     11.671   48.818
 4642     10.946   48.767
 4642.5     11.934   48.717
 4643     14.014   48.666
 4643.5     14.64   48.615
 4644     13.771   48.564
 4644.5     12.901   48.513
 4645     12.032   48.462
 4645.5     11.163   48.523
 4646     12.448   48.596
 4646.5     14.488   48.668
 4647     14.359   48.741
 4647.5     13.743   48.813
 4648     13.127   48.872
 4648.5     12.511   48.867
 4649     11.895   48.861
 4649.5     11.279   48.855
 4650     10.662   48.85
 4650.5     13.282   48.844
 4651     13.358   48.839
 4651.5     12.828   48.833
 4652     12.297   48.828
 4652.5     12.773   48.822
 4653     16.386   48.817
 4653.5     15.573   48.811
 4654     14.759   48.806
 4654.5     13.946   48.8
 4655     13.133   48.794
 4655.5     12.319   48.789
 4656     11.506   48.783
 4656.5     10.693   48.778
 4657     10.377   48.772
 4657.5     10.754   48.767
 4658     11.131   48.761
 4658.5     11.508   48.756
 4659     11.885   48.75
 4659.5     12.262   48.745
 4660     12.639   48.739
 4660.5     13.016   48.734
 4661     12.866   48.728
 4661.5     12.337   48.722
 4662     11.809   48.717
 4662.5     11.28   48.711
 4663     12.454   48.706
 4663.5     12.809   48.7
 4664     12.374   48.695
 4664.5     11.938   48.689
 4665     11.503   48.684
 4665.5     11.067   48.678
 4666     10.632   48.673
 4666.5     10.196   48.667
 4667     11.241   48.662
 4667.5     12.355   48.705
 4668     12.561   48.753
 4668.5     11.719   48.802
 4669     10.877   48.85
 4669.5     10.034   48.899
 4670     9.192   48.947
 4670.5     10.375   48.996
 4671     11.784   48.971
 4671.5     13.193   48.767
 4672     14.603   48.868
 4672.5     15.258   48.968
 4673     15.681   49.069
 4673.5     19.356   49.169
 4674     18.83   49.27
 4674.5     17.209   49.371
 4675     15.589   49.416
 4675.5     13.968   49.269
 4676     12.448   49.122
 4676.5     12.657   48.975
 4677     12.865   48.829
 4677.5     13.074   48.828
 4678     13.282   49.298
 4678.5     13.491   49.769
 4679     13.699   50.24
 4679.5     13.908   49.839
 4680     14.116   49.245
 4680.5     14.325   48.719
 4681     14.058   48.713
 4681.5     13.325   48.707
 4682     12.593   48.7
 4682.5     11.86   48.694
 4683     13.006   48.688
 4683.5     14.955   48.682
 4684     15.837   48.676
 4684.5     15.06   48.67
 4685     14.282   48.664
 4685.5     13.505   48.658
 4686     12.727   48.652
 4686.5     12.518   48.646
 4687     12.855   48.64
 4687.5     11.843   48.634
 4688     11.492   48.628
 4688.5     12.141   48.622
 4689     12.79   48.615
 4689.5     13.44   48.609
 4690     14.089   48.603
 4690.5     14.738   48.597
 4691     14.769   48.594
 4691.5     14.477   48.633
 4692     14.186   48.672
 4692.5     13.894   48.711
 4693     13.603   48.75
 4693.5     13.311   48.788
 4694     13.02   48.827
 4694.5     12.79   48.866
 4695     14.285   48.905
 4695.5     15.78   48.944
 4696     14.714   48.95
 4696.5     13.43   48.922
 4697     13.244   48.895
 4697.5     14.381   48.867
 4698     15.518   48.84
 4698.5     16.649   48.812
 4699     15.865   48.785
 4699.5     15.081   48.757
 4700     14.296   48.73
 4700.5     13.512   48.702
 4701     12.728   48.675
 4701.5     12.646   48.648
 4702     13.306   48.7
 4702.5     13.966   48.752
 4703     14.626   48.804
 4703.5     15.285   48.856
 4704     15.8   48.908
 4704.5     15.335   48.96
 4705     14.87   49.012
 4705.5     14.406   49.064
 4706     13.941   49.036
 4706.5     13.476   49.006
 4707     13.011   48.977
 4707.5     12.587   48.947
 4708     12.618   48.918
 4708.5     12.648   48.888
 4709     12.679   48.859
 4709.5     12.71   48.83
 4710     12.74   48.8
 4710.5     12.771   48.771
 4711     12.802   48.741
 4711.5     12.833   48.712
 4712     12.863   48.682
 4712.5     12.894   48.659
 4713     12.925   48.664
 4713.5     12.787   48.668
 4714     12.434   48.673
 4714.5     12.081   48.678
 4715     11.728   48.682
 4715.5     11.375   48.687
 4716     11.023   48.691
 4716.5     10.845   48.696
 4717     11.657   48.7
 4717.5     12.469   48.705
 4718     13.168   48.709
 4718.5     12.702   48.714
 4719     12.237   48.719
 4719.5     11.772   48.723
 4720     11.307   48.728
 4720.5     11.205   48.732
 4721     11.858   48.737
 4721.5     12.511   48.741
 4722     13.164   48.746
 4722.5     13.816   48.75
 4723     14.057   48.755
 4723.5     13.532   48.76
 4724     13.008   48.771
 4724.5     12.483   48.787
 4725     11.958   48.804
 4725.5     11.563   48.82
 4726     11.655   48.836
 4726.5     11.747   48.852
 4727     11.994   48.868
 4727.5     13.08   48.884
 4728     14.166   48.9
 4728.5     15.252   48.876
 4729     14.995   48.841
 4729.5     14.581   48.807
 4730     14.166   48.773
 4730.5     13.752   48.738
 4731     14.26   48.704
 4731.5     15.154   48.67
 4732     16.047   48.635
 4732.5     16.781   48.601
 4733     15.229   48.567
 4733.5     13.677   48.533
 4734     12.239   48.498
 4734.5     14.129   48.669
 4735     15.74   48.854
 4735.5     15.038   49.038
 4736     14.337   49.222
 4736.5     13.635   49.406
 4737     12.933   49.59
 4737.5     12.231   49.774
 4738     11.53   49.755
 4738.5     10.828   49.645
 4739     10.126   49.534
 4739.5     9.424   49.424
 4740     9.817   49.314
 4740.5     10.512   49.203
 4741     11.207   49.093
 4741.5     11.902   48.983
 4742     12.597   48.872
 4742.5     13.292   48.762
 4743     13.986   48.686
 4743.5     14.681   48.678
 4744     15.376   48.67
 4744.5     14.481   48.663
 4745     13.554   48.655
 4745.5     12.626   48.647
 4746     11.699   48.639
 4746.5     11.199   48.631
 4747     11.295   48.623
 4747.5     11.391   48.615
 4748     11.486   48.608
