~VERSION INFORMATION
VERS.           1.2   :CWLS Log ASCII Standard - VERSION 1.2
WRAP.           NO    :One Line per depth step
PROD.  Schlumberger   :LAS Producer
PROG.  DLIS to ASCII 17C0-152                          :LAS Program name and version
CREA.        2014/05/28 16:07                          :LAS Creation date {YYYY/MM/DD hh:mm}
DLIS_CREA.  2014-May-27 22:17                          :DLIS Creation date and time {YYYY-MMM-DD hh:mm}
SOURCE.     db5fefe1-f67d-4e3f-8816-ab53d5f8be46       :DLIS File Name
#--------------------------------------------------
~WELL INFORMATION
#MNEM.UNIT      DATA             DESCRIPTION
#---- ------ --------------   -----------------------------
# Enverus has updated the API/UWI.  The previous names are renamed to  PREV_API / PREV_UWI
API.  API (14 Digits with Dashes) : 42-389-34023-90-00
UWI.              UNIQUE WELL ID : 42389340239000

STRT .F      9586.5000       :START DEPTH     
STOP .F      10811.5000      :STOP DEPTH     
STEP .F       0.5000         :STEP       
NULL .          -999.25      :NULL VALUE
COMP .                 COMPANY:  J. Cleo Thompson                   
WELL .                    WELL:  Okapi State Unit B35 #2H           
FLD  .                   FIELD:  Wolfbone (Trend Area)              
LOC  .                LOCATION:  260' FNL & 500' FEL                
CNTY .                  COUNTY:  Reeves                             
STAT .                   STATE:  Texas                              
CTRY .                 COUNTRY:                                     
SRVC .         SERVICE COMPANY:  Schlumberger                       
LATI .DEG             LATITUDE:  31.112200 degrees                  
LONG .DEG            LONGITUDE:  -103.28900 degrees                 
PREV_API  .              API NUMBER:  42-389-34023                       
DATE .                LOG DATE:  27-May-2014
PREV_UWI  .          UNIQUE WELL ID:                                     
#-----------------------------------------------------------------------------
~PARAMETER INFORMATION
#MNEM.UNIT    VALUE                      DESCRIPTION
#---- -----   --------------------       ------------------------
CN   .        J. Cleo Thompson           :Company Name
WN   .        Okapi State Unit B35 #2H   :Well Name
FN   .        Wolfbone (Trend Area)      :Field Name
FL   .        260' FNL & 500' FEL        :Field Location
FL1  .        Section  35  Block  50 T8S  Abstract 4369 :Field Location, Line 1
COUN .        Reeves                     :County or Parish
STAT .        Texas                      :State or Province
NATI .                                   :Nation
DATE .        27-May-2014                :Tools Above Rotary Table Date
APIN .        42-389-34023               :API Well Number
SECT .        35                         :Section
TOWN .        50 T8S                     :Township
RANG .        4369                       :Range
DMF  .        KB                         :Drilling Measured From (Name of Drilling Elevation Reference)
LMF  .        KB                         :Logging Measured From (Name of Logging Elevation Reference)
PDAT .        GL                         :Permanent Datum
ENGI .        AJ Massis                  :Engineer s Name
WITN .        Bennie McNett              :Witness s Name
LATI .        31.112200 degrees          :Latitude
LONG .        -103.28900 degrees         :Longitude
LUL  .        Midland                    :Logging Unit Location
LUN  .        9105                       :Logging Unit Number
RUN  .        1B                         :Run Number
SON  .                                   :Service Order Number
BHT  .DEGF     162.00000                 :Bottom Hole Temperature
BS   .IN         8.50000                 :Bit Size
MDEN .G/C3       2.71000                 :Matrix Density for Density Porosity
DFD  .LB/G      10.70000                 :Drilling Fluid Density
DFV  .S         46.00000                 :Drilling Fluid Viscosity
DFL  .C3        10.00000                 :Drilling Fluid Loss
RMFS .OHMM       0.30000                 :Resistivity of Mud Filtrate Sample
EKB  .F       2829.00000                 :Elevation of Kelly Bushing
EGL  .F       2807.00000                 :Elevation of Ground Level
BLI  .F       11012.00000                :Bottom Log Interval
BSAL .PPM     132000.00000               :Borehole Salinity
FLEV .F          8.00000                 :Depth of Drilling Fluid Level to LMF (Log Measured From)
MCST .DEGF      68.00000                 :Mudcake Sample Temperature
MFST .DEGF      80.20000                 :Mud Filtrate Sample Temperature
MRT  .DEGF     162.00000                 :Maximum Recorded Temperature
MST  .DEGF      80.20000                 :Mud Sample Temperature
RMCS .OHMM    -999.25000                 :Resistivity of Mud Cake Sample
RMS  .OHMM       0.30000                 :Resistivity of Mud Sample
RW   .OHMM       1.00000                 :Connate Water Resistivity
TDD  .F       11012.00000                :Driller Total Depth
TDL  .F       11012.00000                :Logger Total Depth
TLI  .F       9676.00000                 :Top Log Interval
HIDE .        Wolfbone (Trend Area)      :Header Identifier
MATR .        LIME                       :Rock Matrix for Neutron Porosity Corrections
FNUM .           1.00000                 :F-Numerator for Formation Factor Formula
FEXP .           2.00000                 :Exponent "m" for Formation Factor Formula
DFT  .        Salt Brine                 :Drilling Fluid Type
DFPH .           9.00000                 :Drilling Fluid pH
MCSS .                                   :Mudcake Sample Source
MFSS .                                   :Mud Filtrate Sample Source
FD   .G/C3       1.10000                 :Fluid Density
MSS  .        Active Tank                :Mud Sample Source
OS1  .                                   :Other Services Line 1
OS2  .                                   :Other Services Line 2
OS3  .                                   :Other Services Line 3
OS4  .                                   :Other Services Line 4
OS5  .                                   :Other Services Line 5
R1   .        Tools run as per toolsketch :Remarks Line 1
R2   .        Logs performed on a Limestone matrix (2.71

g/cc  47.6 us/ft ). Mud Properties  MW =

10.7 g/cc  FD = 1.1 g/cc. :Remarks Line 2
R3   .        Max recorded temperature from downhole

thermometer = 162 degF. :Remarks Line 3
R4   .        Logs run from TD to casing. GR & Neutron

logged from casing to 200ft as per client

request. :Remarks Line 4
R5   .        Tools got stuck near TD and calipers had to be closed in order to get free. :Remarks Line 5
R6   .        Well was washed out for many intervals. :Remarks Line 6
R7   .        Repeat done at casing due to getting stuck at TD :Remarks Line 7
R8   .                                   :Remarks Line 8
TCS  .        18 00 00                   :Time Circulation Stopped
TLAB .        16 19 01                   :Time Logger At Bottom
EPD  .C3         2807.000000             :Elevation of Permanent Datum above Mean Sea Level
APD  .F          22.000000               :Elevation of Depth Reference (LMF) above Permanent Datum
#-----------------------------------------------------------------------------
~CURVE INFORMATION
#MNEM.UNIT   API CODE                                  DESCRIPTION
#---- -----  --------                                  -----------------------
DEPT .F                                                :DEPTH (BOREHOLE) {F12.4}
CDF  .LBF                                              :Calibrated Downhole Force {F11.4}
CTEM .DEGF                                             :Cartridge Temperature {F11.4}
DCAL .IN                                               :Differential Caliper {F11.4}
DTCO .US/F                                             :Delta-T Compressional {F11.4}
DTSM .US/F                                             :Delta-T Shear {F11.4}
ED   .F                                                :East Departure {F11.4}
GR_EDTC.GAPI                                           :Gamma Ray {F11.4}
GTEM .DEGF                                             :Generalized Borehole Temperature {F11.4}
HAZI .DEG                                              :Hole Azimuth Relative to True North {F11.4}
HAZIM.DEG                                              :Memorized Hole Azimuth {F11.4}
ITT  .S                                                :Integrated Transit Time {F11.4}
ND   .F                                                :North Departure {F11.4}
P1AZ .DEG                                              :Pad 1 Azimuth in Horizontal Plane (0 = True North) {F11.4}
PR   .                                                 :Poisson s Ratio {F11.4}
RB   .DEG                                              :Relative Bearing {F11.4}
SDEV .DEG                                              :Sonde Deviation {F11.4}
SDEVM.DEG                                              :Memorized Sonde Deviation {F11.4}
SPHI .CFCF                                             :Sonic Porosity {F11.4}
STIT .F                                                :Stuck Tool Indicator, Total {F11.4}
TENS .LBF                                              :Cable Tension {F11.4}
#-----------------------------------------------------------------------------
# 
#      DEPT        CDF        CTEM       DCAL       DTCO       DTSM        ED      GR_EDTC      GTEM       HAZI      HAZIM       ITT         ND        P1AZ        PR         RB        SDEV      SDEVM       SPHI       STIT       TENS
#
~A  
# ...
   9901.5000  1211.9276   163.5764     0.2132    76.1700   123.3726     0.0000   104.1416   152.5206   282.6490   281.6118     0.0668     0.0000    97.3824     0.1920   174.7364     1.8345     1.9165     0.2021     0.0000  4001.0002
   9902.0000  1214.6125   163.5764     0.2153    75.4795   123.4295     0.0000   102.3781   152.5249   282.9092   281.8312     0.0668     0.0000    94.8415     0.2013   171.9364     1.8618     1.9038     0.1972     0.0000  3983.3335
   9902.5000  1215.2606   163.5764     0.2132    75.1778   122.8751     0.0000    93.3737   152.5291   283.0105   282.2757     0.0667     0.0000    92.2585     0.2009   169.2535     1.8748     1.8816     0.1950     0.0000  3984.0000
   9903.0000  1215.3407   163.5764     0.2132    75.3956   122.7085     0.0000    76.8211   152.5334   282.9772   282.8192     0.0667     0.0000    89.5094     0.1968   166.5392     1.8696     1.8592     0.1966     0.0000  3989.0002
   9903.5000  1215.3329   163.5764     0.2153    75.5498   121.9364     0.0000    64.5621   152.5377   282.8855   283.2812     0.0667     0.0000    86.8882     0.1885   164.0109     1.8486     1.8450     0.1977     0.0000  3987.6667
   9904.0000  1214.7435   163.5764     0.2021    75.6897   122.7918     0.0000    66.1976   152.5420   282.8023   283.4404     0.0666     0.0000    84.3238     0.1936   161.5302     1.8198     1.8431     0.1987     0.0000  3985.6667
   9904.5000  1215.0753   163.5764     0.2153    76.3693   123.1858     0.0000    84.8346   152.5462   282.7722   283.2628     0.0666     0.0000    82.2867     0.1879   159.5234     1.7978     1.8536     0.2035     0.0000  3976.0000
   9905.0000  1212.7134   163.5764     0.2153    77.0099   124.1008     0.0000    97.9850   152.5505   282.7718   282.6639     0.0666     0.0000    79.7775     0.1869   157.0158     1.7803     1.8750     0.2080     0.0000  3976.6670
   9905.5000  1212.3223   163.5764     0.2042    77.7928   125.1426     0.0000   102.5817   152.5547   282.7518   281.7928     0.0665     0.0000    77.1499     0.1851   154.4089     1.7801     1.9014     0.2135     0.0000  3972.6670
   9906.0000  1209.2642   163.5764     0.2265    79.0337   127.2849     0.0000    94.7845   152.5590   282.6413   280.9004     0.0665     0.0000    74.6934     0.1863   152.0635     1.7986     1.9254     0.2223     0.0000  3984.3337
   9906.5000  1210.9611   163.5764     0.2376    79.6275   127.9409     0.0000    93.9462   152.5633   282.4109   280.3314     0.0664     0.0000    72.2502     0.1839   149.8520     1.8308     1.9389     0.2265     0.0000  3981.6667
   9907.0000  1212.1896   163.5764     0.2153    79.4519   127.4987     0.0000    92.4879   152.5676   282.1663   279.9802     0.0664     0.0000    70.1517     0.1826   147.9994     1.8603     1.9460     0.2253     0.0000  3963.6667
   9907.5000  1209.7666   163.5764     0.2153    78.2583   127.2471     0.0000    96.4411   152.5718   281.8495   280.0988     0.0664     0.0000    67.4240     0.1958   145.5890     1.8932     1.9428     0.2168     0.0000  3984.0000
   9908.0000  1210.1648   163.5764     0.2042    76.5683   125.5061     0.0000    95.6591   152.5761   281.6342   280.6491     0.0663     0.0000    64.9535     0.2036   143.3345     1.9133     1.9331     0.2049     0.0000  3970.5000
   9908.5000  1209.8993   163.5764     0.2265    76.2356   123.7683     0.0000    99.3423   152.5804   281.6118   281.4297     0.0663     0.0000    62.3145     0.1943   140.7188     1.9165     1.9227     0.2025     0.0000  3959.6665
   9909.0000  1209.9631   163.5764     0.2265    75.5287   123.4071     0.0000    89.5774   152.5846   281.8312   282.0369     0.0662     0.0000    59.7863     0.2005   137.9711     1.9038     1.9173     0.1975     0.0000  3961.0000
   9909.5000  1214.2791   163.5764     0.2153    75.0361   122.7694     0.0000    76.7061   152.5889   282.2757   282.4981     0.0662     0.0000    57.1278     0.2018   134.8675     1.8816     1.9159     0.1940     0.0000  3950.3335
   9910.0000  1213.4827   163.5764     0.2042    75.2319   121.8012     0.0000    66.5894   152.5932   282.7127   282.4316     0.0662     0.0000    54.8813     0.1916   132.1836     1.8632     1.9202     0.1954     0.0000  3959.3333
   9910.5000  1210.7620   163.5764     0.2042    75.2975   121.8624     0.0000    73.7650   152.5974   283.2119   281.7859     0.0661     0.0000    52.2142     0.1912   129.0170     1.8467     1.9274     0.1959     0.0000  3926.3335
   9911.0000  1212.0228   163.5764     0.2042    75.6453   121.0772     0.0000    88.4789   152.6017   283.4404   280.7070     0.0661     0.0000    49.7132     0.1799   126.2868     1.8431     1.9349     0.1983     0.0000  3945.6665
   9911.5000  1212.4873   163.5764     0.2042    76.1014   121.1824     0.0000    92.4728   152.6060   283.2628   279.4783     0.0661     0.0000    47.0750     0.1744   123.8262     1.8536     1.9405     0.2016     0.0000  3941.6665
   9912.0000  1213.6302   163.5764     0.2132    76.0151   121.1704     0.0000    97.0905   152.6102   282.6639   278.4359     0.0660     0.0000    44.2699     0.1755   121.6198     1.8750     1.9428     0.2010     0.0000  3927.6670
   9912.5000  1209.0887   163.5764     0.2021    75.2155   121.2535     0.0000    96.5666   152.6145   281.7928   277.8625     0.0660     0.0000    41.6101     0.1873   119.8313     1.9014     1.9416     0.1953     0.0000  3938.3335
   9913.0000  1207.9180   163.7048     0.2132    75.2279   120.2181     0.0000    97.5802   152.6188   281.0671   277.8992     0.0659     0.0000    39.7303     0.1782   118.6768     1.9210     1.9386     0.1954     0.0000  3925.0000
   9913.5000  1209.4015   163.5764     0.2153    75.3825   117.1003     0.0000    86.7453   152.6230   280.3314   278.3548     0.0659     0.0000    37.0938     0.1462   116.7755     1.9389     1.9368     0.1965     0.0000  3951.6665
   9914.0000  1209.0746   163.6791     0.2153    65.6610   115.7926     0.0000    75.8304   152.6273   279.9802   279.2509     0.0659     0.0000    34.2409     0.2630   114.2733     1.9460     1.9372     0.1277     0.0000  3918.6667
   9914.5000  1205.1450   163.7065     0.2153    53.4446   112.2958     0.0000    57.0563   152.6316   280.0988   280.2022     0.0658     0.0000    31.6127     0.3536   111.5254     1.9428     1.9413     0.0413     0.0000  3910.9998
   9915.0000  1208.8802   163.5764     0.2132    53.1857   107.9907     0.0000    38.1752   152.6358   280.5122   280.8316     0.0658     0.0000    29.5146     0.3399   109.0126     1.9352     1.9467     0.0395     0.0000  3916.0000
   9915.5000  1209.7666   163.6791     0.2153    55.8469   106.5909     0.0000    23.3278   152.6401   281.2699   280.8897     0.0658     0.0000    26.6764     0.3108   105.4147     1.9246     1.9495     0.0583     0.0000  3888.6665
   9916.0000  1215.3788   163.7082     0.2021    57.6466   102.8222     0.0000    19.7996   152.6444   282.0369   280.2910     0.0658     0.0000    23.9086     0.2708   101.8780     1.9173     1.9462     0.0711     0.0000  3923.3333
   9916.5000  1219.2371   163.9666     0.2031    57.6114   101.5862     0.0000    21.2802   152.6487   282.4981   279.1552     0.0657     0.0000    21.0845     0.2629    98.5910     1.9159     1.9359     0.0708     0.0000  3908.0000
   9917.0000  1221.6449   163.6285     0.2021    58.0305   100.5747     0.0000    25.2514   152.6529   282.4316   277.7386     0.0657     0.0000    18.4148     0.2505    95.9863     1.9202     1.9209     0.0738     0.0000  3927.6670
   9917.5000  1218.9183   163.8885     0.1909    59.7164   100.9489     0.0000    34.7846   152.6572   281.9599   276.4161     0.0657     0.0000    16.3317     0.2308    94.3743     1.9258     1.9049     0.0857     0.0000  3948.3335
   9918.0000  1222.1213   163.9454     0.1909    60.4092   101.1572     0.0000    45.8418   152.6615   280.9503   275.5104     0.0656     0.0000    13.9142     0.2228    92.9655     1.9335     1.8922     0.0906     0.0000  3927.0000
   9918.5000  1220.4039   163.9145     0.2021    61.9711   102.9920     0.0000    53.7010   152.6657   279.7171   275.2336     0.0656     0.0000    11.4561     0.2162    91.7398     1.9396     1.8869     0.1016     0.0000  3924.3335
