#--------------------------------------------------#
#-------------------ENVERUS, INC.------------------#
#------------------WWW.ENVERUS.COM-----------------#
#------------------COPYRIGHT 2020------------------#
#--------------------------------------------------#
#THIS FILE MAY BE USED ONLY IN ACCORDANCE WITH A CURRENT SUBSCRIPTION AGREEMENT BETWEEN
#THE USER AND ENVERUS, INC. NO PART OF THIS FILE MAY BE REPRODUCED, USED, COPIED,
#MODIFIED, PROPAGATED, OR DISTRIBUTED EXCEPT IN ACCORDANCE WITH THE SUBSCRIPTION
#AGREEMENT. UNAUTHORIZED USE OR DISTRIBUTION OF ALL OR ANY PART OF THIS FILE MAY VIOLATE
#COPYRIGHT, TRADEMARK, AND/OR OTHER LAWS AND IS SUBJECT TO CIVIL AS WELL AS CRIMINAL
#SANCTIONS.
#--------------------------------------------------#
#THIS FILE IS PROVIDED "AS-IS" AND ALL WARRANTIES ARE EXPRESSLY DISCLAIMED, WHETHER
#EXPRESS, ORAL, IMPLIED, STATUTORY OR OTHERWISE, INCLUDING ANY IMPLIED WARRANTY OF FITNESS
#FOR A PARTICULAR PURPOSE, MERCHANTABILITY, TITLE OR NON-INFRINGEMENT, AND ANY WARRANTIES
#ARISING BY VIRTUE OF CUSTOM OF TRADE OR COURSE OF DEALING.  FURTHER, ENVERUS, INC.
#AND ITS LICENSORS DO NOT REPRESENT OR WARRANT THAT THIS FILE WILL MEET USER'S
#REQUIREMENTS OR ARE SUITABLE FOR USER'S NEEDS OR THAT THE DATA OR RESULTS PROVIDED IN
#CONJUNCTION THEREWITH ARE CORRECT, ACCURATE, TIMELY OR RELIABLE. THESE DISCLAIMERS SHALL
#APPLY REGARDLESS OF ANY FAILURE OF ESSENTIAL PURPOSE OF ANY LIMITED REMEDY.  SOME
#JURISDICTIONS DO NOT ALLOW THE EXCLUSION OF CERTAIN WARRANTIES SO SOME OF THE ABOVE
#EXCLUSIONS MAY NOT APPLY. IN NO EVENT SHALL ENVERUS, INC. OR ANY OF ITS AFFILIATES
#BE LIABLE UNDER ANY LEGAL THEORY, WHETHER IN TORT (INCLUDING WITHOUT LIMITATION
#NEGLIGENCE), CONTRACT, STRICT LIABILITY, STATUTORY OR OTHERWISE, FOR ANY SPECIAL,
#INCIDENTAL, CONSEQUENTIAL, EXEMPLARY, PUNITIVE OR INDIRECT DAMAGE OF ANY KIND, INCLUDING
#WITHOUT LIMITATION LOSS OF REVENUE, PROFITS, GOODWILL, USE, AND/OR DATA OR THE COST OF
#PROCUREMENT OF SUBSTITUTE GOODS OR SERVICES, EVEN IF APPRISED OF THE POSSIBILITY OF SUCH
#DAMAGES IN ADVANCE.
#--------------------------------------------------#

~VERSION INFORMATION
VERS. 2.0 : CWLS LOG ASCII STANDARD - VERSION 2.0
WRAP. NO : ONE LINE PER DEPTH STEP
~WELL INFORMATION
#MNEMONIC     .UNIT              VALUE :DESCRIPTION
STRT       .FT                38.00000 :START DEPTH
STOP       .FT                20083.00000 :STOP DEPTH
STEP       .FT                0.50000 :STEP
NULL       .                -999.25000 :NULL VALUE
UWI       .                42389302750000 :UNIQUE WELL ID
API       .                42389302750000 :API NUMBER
COMP       .                 :COMPANY
WELL       .                 :WELL
FLD       .                 :FIELD
LOC       .                 :LOCATION
CNTY       .                 :COUNTY
STAT       .                 :STATE
CTRY       .                 :COUNTRY
SRVC       .                 :SERVICE COMPANY
DATE       .                 :DATE
~CURVE INFORMATION
#MNEMONIC     .UNIT      API CODE :CURVE DESCRIPTION
DEPTH       .FT                      :MEASURED DEPTH
CAL       .IN        UNKNOWN   :CAL
DT       .US/FT        UNKNOWN   :DT
GR       .GAPI        UNKNOWN   :GR
~A    DEPTH    CAL    DT    GR
# ...
6106.00000    13.70760    57.92976    57.53224
6106.50000    13.72202    56.95273    60.86131
6107.00000    13.73644    57.82035    62.46608
6107.50000    13.75085    58.99676    61.04263
6108.00000    13.76527    60.17316    59.61919
6108.50000    13.77969    61.34956    58.19574
6109.00000    13.79410    62.52596    56.77229
6109.50000    13.80852    61.68533    55.34885
6110.00000    13.82293    60.19367    53.84128
6110.50000    13.83735    58.88388    51.70717
6111.00000    13.85177    59.99901    49.57305
6111.50000    13.86618    61.11415    47.43894
6112.00000    13.88884    62.22928    45.30483
6112.50000    13.94593    63.34441    43.17072
6113.00000    14.00302    64.45954    41.41114
6113.50000    14.06011    65.68203    40.01580
6114.00000    14.11719    67.79370    38.62046
6114.50000    14.17428    69.90537    37.22512
6115.00000    14.23137    72.01705    36.45545
6115.50000    14.28846    74.12872    36.88255
6116.00000    14.34555    76.24040    37.30965
6116.50000    14.40263    78.35207    37.73674
6117.00000    14.45972    78.82994    39.16736
6117.50000    14.51681    78.98435    43.03579
6118.00000    14.55378    79.13876    46.90423
6118.50000    14.55190    79.04917    46.24542
6119.00000    14.55001    78.52272    43.81745
6119.50000    14.54812    77.99627    41.38947
6120.00000    14.54623    77.46982    39.63781
6120.50000    14.54434    76.94337    40.66582
6121.00000    14.54245    76.42605    41.69382
6121.50000    14.54056    75.91718    42.72182
6122.00000    14.53867    75.40831    43.74983
6122.50000    14.53678    74.90138    44.77803
6123.00000    14.53489    74.87363    45.80642
6123.50000    14.53300    74.84589    46.83481
6124.00000    14.53111    74.81814    47.86321
6124.50000    14.52922    74.79040    48.89160
6125.00000    14.52733    74.76265    49.44091
6125.50000    14.52544    74.73491    47.30738
6126.00000    14.52355    73.89084    45.17384
6126.50000    14.52166    72.96031    43.04030
6127.00000    14.51977    72.58756    40.90676
6127.50000    14.51788    72.46247    38.77322
6128.00000    14.51599    72.33738    38.62479
6128.50000    14.51333    72.21228    40.17591
6129.00000    14.50353    72.08719    41.72703
6129.50000    14.49373    71.96210    43.27815
6130.00000    14.48393    71.83700    44.82927
6130.50000    14.47413    71.54700    45.69452
6131.00000    14.46433    70.81974    44.12225
6131.50000    14.45453    70.09249    42.54997
6132.00000    14.44473    69.36523    40.97769
6132.50000    14.43493    68.63797    42.85191
6133.00000    14.42513    67.69051    45.92916
6133.50000    14.41533    66.45230    49.00641
6134.00000    14.40553    65.21410    52.08366
6134.50000    14.39116    63.97589    52.03345
6135.00000    14.36609    62.73768    51.37202
6135.50000    14.34102    61.49947    50.71059
6136.00000    14.31595    60.26127    50.04916
6136.50000    14.29088    58.90149    49.38773
6137.00000    14.26581    57.31158    48.72630
6137.50000    14.24074    56.20083    50.34382
6138.00000    14.21567    58.23787    53.14531
6138.50000    14.19060    59.55446    55.94680
6139.00000    14.16553    59.92842    58.74829
6139.50000    14.18018    60.30237    58.01135
6140.00000    14.20088    60.67632    56.00291
6140.50000    14.22159    60.67010    53.99447
6141.00000    14.24230    60.33826    51.98602
6141.50000    14.26300    60.00643    49.97758
6142.00000    14.28371    59.67460    47.96914
6142.50000    14.30441    60.56007    47.15389
6143.00000    14.32512    62.21889    47.89426
6143.50000    14.34582    63.87770    48.63463
6144.00000    14.36653    65.53652    49.37500
6144.50000    14.38724    67.19533    50.11537
6145.00000    14.40794    68.16643    50.85574
6145.50000    14.42865    69.07634    49.79137
6146.00000    14.44936    69.98625    45.75739
6146.50000    14.47006    70.89616    45.65670
6147.00000    14.49077    71.80606    45.82964
6147.50000    14.51147    71.95701    46.00259
6148.00000    14.53218    71.85825    46.17553
6148.50000    14.55289    71.75950    44.30475
6149.00000    14.57359    71.66074    42.11362
6149.50000    14.59430    71.56199    40.08747
6150.00000    14.60130    71.46323    40.94256
6150.50000    14.59889    75.30386    41.79764
6151.00000    14.59649    76.94339    42.65273
6151.50000    14.59408    77.57564    43.50781
6152.00000    14.59168    77.34325    44.36290
6152.50000    14.58927    77.11086    45.20369
6153.00000    14.58687    76.87847    44.15350
6153.50000    14.58446    76.64608    43.10331
6154.00000    14.58206    76.41369    42.05312
6154.50000    14.57965    76.18130    41.00293
6155.00000    14.57725    76.23851    39.95274
6155.50000    14.57484    76.29940    39.33930
6156.00000    14.57244    76.36029    39.19317
6156.50000    14.57003    76.42118    39.04703
6157.00000    14.56762    76.06408    38.90089
6157.50000    14.56522    75.46562    38.75476
6158.00000    14.56282    74.87447    38.60863
6158.50000    14.56041    75.22911    38.46249
6159.00000    14.55800    75.58376    38.82773
6159.50000    14.55560    75.93840    39.44989
6160.00000    14.55319    75.44187    40.07205
6160.50000    14.55079    74.91682    40.69422
6161.00000    14.54838    74.39178    41.31638
6161.50000    14.54598    73.86674    41.93855
6162.00000    14.54357    73.34170    42.56071
6162.50000    14.54117    72.81666    43.18287
6163.00000    14.53876    72.29161    43.80504
6163.50000    14.53636    72.34989    44.15968
6164.00000    14.53395    72.91887    43.60204
6164.50000    14.53155    73.48785    43.04441
6165.00000    14.52914    73.48562    42.48678
6165.50000    14.52674    72.96820    41.92914
6166.00000    14.52433    72.52648    41.37151
6166.50000    14.52193    72.20196    42.53152
6167.00000    14.51949    72.48050    44.29197
6167.50000    14.51700    72.75904    46.05243
6168.00000    14.51450    73.03758    47.11968
6168.50000    14.51201    72.36786    47.23270
6169.00000    14.50951    70.83960    47.34573
6169.50000    14.50702    69.33496    47.45875
6170.00000    14.50452    67.87856    47.57178
6170.50000    14.50203    66.57029    47.68481
6171.00000    14.49953    66.20695    47.79783
6171.50000    14.49704    65.84361    47.91086
6172.00000    14.49454    65.48027    48.02388
6172.50000    14.49205    65.11693    48.13691
6173.00000    14.48955    64.75359    48.57778
6173.50000    14.48706    65.05767    49.05082
6174.00000    14.48456    65.43022    49.52387
6174.50000    14.48207    65.80277    49.99691
6175.00000    14.47957    65.49432    50.46996
6175.50000    14.46721    65.08174    50.94300
6176.00000    14.45264    64.66915    51.41605
6176.50000    14.43807    64.25657    51.88909
6177.00000    14.42349    63.84398    52.62286
6177.50000    14.40892    63.43140    55.23912
6178.00000    14.39434    63.01881    57.85538
6178.50000    14.37977    63.13162    60.47164
6179.00000    14.36520    63.30462    56.00323
6179.50000    14.35063    62.28850    50.17854
6180.00000    14.33605    60.81959    44.35384
6180.50000    14.32148    59.35069    39.57491
6181.00000    14.26988    57.88179    41.54674
6181.50000    14.19339    56.41288    43.51856
6182.00000    14.11689    54.94398    45.49038
6182.50000    14.04040    53.88976    43.46247
6183.00000    13.96390    54.48949    40.56889
6183.50000    13.91898    55.08922    40.36015
6184.00000    13.95148    55.25355    41.34021
6184.50000    13.98398    55.11532    42.32028
6185.00000    14.01647    54.97708    43.30034
6185.50000    14.04897    54.83884    44.28040
6186.00000    14.08147    54.99144    45.26047
6186.50000    14.11397    56.02611    46.24053
6187.00000    14.14647    58.81828    46.63374
6187.50000    14.17896    61.71785    45.71551
6188.00000    14.21146    64.61741    44.79729
6188.50000    14.24396    67.50380    43.87906
6189.00000    14.27643    69.90642    42.96083
6189.50000    14.30848    72.30905    42.04261
6190.00000    14.34052    74.86745    41.12438
6190.50000    14.37257    77.64417    40.20615
6191.00000    14.40462    80.42088    39.28792
