~Version Information Block
 VERS.                2.00:     CWLS LOG ASCII STANDARD - VERSION 2.000000
 WRAP.                  NO:     One Line Per Depth Step
#
~Well Information Block
#MNEM.UNIT                     Data                         Information
#----------   ------------------------------------------   ----------------
 STRT.FT                                       50.0000:     START DEPTH
 STOP.FT                                    15192.0000:     STOP DEPTH
 STEP.FT                                        0.5000:     STEP
 NULL.                                       -999.0000:     NULL VALUE
 COMP.                                 MOBIL PRODUCING:     COMPANY
 WELL.                                     ST MCINTYRE:     WELL
 FLD .                                   ROJO CABALLOS:     FIELD
 LOC .                                         UNKNOWN:     LOCATION
 LONG.                                 -103.1618580000:     LONGITUDE
 LATI.                                   31.1192890000:     LATITUDE
 CNTY.                                           PECOS:     COUNTY
 STAT.                                           TEXAS:     STATE
 CTRY.                                           U.S.A:     COUNTRY
 SRVC.                                         UNKNOWN:     SERVICE COMPANY
 DATE.                                         UNKNOWN:     DATE
 API .                                  42371053110000:     API NUMBER
 UWI .                                  42371053110000:     UWI NUMBER
 SLAT.                                       31.119289:     Surface latitude
 SLON.                                     -103.161858:     surface longitude
 TVD .                                              NO:     TVD flag
 WSTA.                                             LOC:     Well status
#
~Curve Information Block
#MNEM.UNIT       API CODE      Curve Description
#----------    -------------   -------------------
 DEPT.FT                   :   Depth in Feet
 DT  .UNKNOWN          UNKNOWN:   DT-Load
 DTedit.ft/s          UNKNOWN:   DT-Load
 GR  .UNKNOWN          UNKNOWN:   GR-Load
#
~Parameter Information Block
#MNEM.UNIT            Value               Description
#----------    --------------------    -------------------
 RUN .                         ONE:    Run Number
 PDAT.                          GL:    Permanent Datum
 EPD .FT                          :    Elevation Of Perm. Datum
 LMF .               KELLY BUSHING:    Log Measured From
 EKB .FT                          :    Elevation Of Kelly Bushing
 DF .FT                           :    Elevation Of Derrick Floor
 GL .FT                           :    Elevation Of Ground Level
 TD  .FT                          :    Total Depth
 CSGD.FT                          :    Casing Bottom (Driller) 1
 CSGL.FT                          :    Casing Bottom (Logger) 1
 MUD .                            :    Drilling Fluid Type
 MUDV .CP                         :    Drilling Fluid Viscosity
 MUDD .LB/USG                     :    Drilling Fluid Density
 FL .ML/30MIN                     :    Drilling Fluid Loss
 PH.                              :    Drilling Fluid Ph
 MUDS .                           :    Mud Sample Source
 RM .OHMM                         :    Resistivity Of Mud Sample
 RMT .DEGF                        :    Mud Sample Temperature
 RMF .OHMM                        :    Mud Filtrate Resistivity
 RMFT.DEGF                        :    Mud Filtrate Sample Temperature
 RMC .OHMM                        :    Mud Cake Resistivity
 RMCT.DEGF                        :    Mud Cake Sample Temperature
 RMB .OHMM                        :    Mud Resistivity At Bht
 TMAX .DEGF                       :    Bottom Hole Temperature
#
~Other Information Block
<DescLogPlotStart>   NEURALOG PLOT DEFINITION
PLOTDEFVERSION: 3
LASFILE: E:\Nair Innovations\42_TEXAS\371_Pecos\Mobil_St McIntyre 1 Pecos_1.las
DEPTHSCALE: 239.999996
RESOLUTION: 200
DEPTHLABELFREQ: 100.000000
HEAVYGRIDFREQ: 50.000000
MEDIUMGRIDFREQ: 50.000000
LIGHTGRIDFREQ: 10.000000
#
#   TRACK 1
#
STARTTRACK: 
 LEFTX: 0.500000 inch
 RIGHTX: 3.000000 inch
 SCALETYPE: Linear
 NUMCHARTDIVISIONS: 10
CURVE: GR    0.000000   150.000000 (255,0,0)      Short_Dash        4     N    
CURVE: DTedit 5571.227500 23879.853500 (0,131,131)    Solid             2     N
ENDTRACK: 
#
#   TRACK 2
#
STARTTRACK: 
 LEFTX: 3.750000 inch
 RIGHTX: 6.250000 inch
 SCALETYPE: Linear
 NUMCHARTDIVISIONS: 10
ENDTRACK: 
#
#   TRACK 3
#
STARTTRACK: 
 LEFTX: 6.250000 inch
 RIGHTX: 8.750000 inch
 SCALETYPE: Linear
 NUMCHARTDIVISIONS: 10
CURVE: DT    190.000000 50.000000  (255,0,131)    Solid             2     N    
ENDTRACK: 
<DescLogPlotEnd>
<DepthTrack type='Reference' track='1' Label='0' color='0' hor='0' />
<Reference font='144,0,-900,0,500,0,16777216,Arial' />
~A DEPTH     DT               DTedit             GR              
# ...
   12175.000 77.72610000      12865.69140000   65.32740000     
   12175.500 81.05320000      12337.57620000   67.76260000     
   12176.000 100.85110000     9915.60840000    69.69850000     
   12176.500 95.78190000      10440.38570000   62.97610000     
   12177.000 99.55970000      10044.22460000   58.34630000     
   12177.500 86.29940000      11587.56640000   53.89180000     
   12178.000 81.01710000      12343.07320000   50.04510000     
   12178.500 86.34770000      11581.08400000   47.57000000     
   12179.000 84.27640000      11865.71880000   48.79830000     
   12179.500 73.56980000      13592.53320000   55.88410000     
   12180.000 99.95790000      10004.21190000   70.18710000     
   12180.500 108.77990000     9192.87500000    69.84250000     
   12181.000 114.84630000     8707.29000000    64.69270000     
   12181.500 121.49900000     8230.52050000    61.21150000     
   12182.000 109.50280000     9132.18650000    61.91110000     
   12182.500 113.13980000     8838.62300000    66.35930000     
   12183.000 102.03830000     9800.24220000    70.77600000     
   12183.500 84.36990000      11852.56740000   73.93360000     
   12184.000 63.33670000      15788.63480000   72.89990000     
   12184.500 53.60260000      18655.81050000   69.40410000     
   12185.000 70.43420000      14197.64940000   64.25420000     
   12185.500 62.10210000      16102.51460000   62.75050000     
   12186.000 83.11560000      12031.43550000   66.65370000     
   12186.500 99.96590000      10003.41110000   69.70790000     
   12187.000 106.58500000     9382.18360000    71.59680000     
   12187.500 100.14480000     9985.54100000    72.80750000     
   12188.000 82.81410000      12075.23830000   69.15340000     
   12188.500 86.54060000      11555.26950000   59.59300000     
   12189.000 87.68640000      11404.27730000   50.49620000     
   12189.500 74.91460000      13348.53320000   43.20990000     
   12190.000 68.14880000      14673.77150000   42.25530000     
   12190.500 66.89450000      14948.91210000   45.60310000     
   12191.000 83.09740000      12034.07130000   48.54770000     
   12191.500 83.45320000      11982.76370000   51.98720000     
   12192.000 70.26680000      14231.47170000   56.64530000     
   12192.500 72.97290000      13703.71780000   52.15010000     
   12193.000 81.08950000      12332.05270000   44.97040000     
   12193.500 82.93990000      12056.92290000   41.63430000     
   12194.000 70.36780000      14211.04590000   41.66560000     
   12194.500 68.40200000      14619.45510000   38.78370000     
   12195.000 76.09640000      13141.22660000   37.52750000     
   12195.500 75.16780000      13303.56840000   38.64900000     
   12196.000 69.57190000      14373.61910000   43.29140000     
   12196.500 66.62610000      15009.13380000   50.22050000     
   12197.000 67.26540000      14866.48340000   52.00840000     
   12197.500 73.05730000      13687.88670000   51.10080000     
   12198.000 76.89250000      13005.16890000   48.45370000     
   12198.500 78.26210000      12777.57710000   45.74100000     
   12199.000 77.22410000      12949.32620000   45.13960000     
   12199.500 76.55320000      13062.81150000   46.92190000     
   12200.000 77.92070000      12833.56050000   46.68700000     
   12200.500 78.81730000      12687.57030000   45.53420000     
   12201.000 74.74570000      13378.69630000   44.34390000     
   12201.500 71.31600000      14022.09860000   42.34530000     
   12202.000 71.56590000      13973.13480000   42.22630000     
   12202.500 71.13670000      14057.44040000   39.15020000     
   12203.000 72.87040000      13722.99320000   38.99670000     
   12203.500 76.58040000      13058.17190000   40.52220000     
   12204.000 75.95180000      13166.24510000   42.50200000     
   12204.500 74.60250000      13404.37600000   44.70100000     
   12205.000 74.66360000      13393.40820000   43.78470000     
   12205.500 73.57590000      13591.40720000   43.63200000     
   12206.000 71.73070000      13941.03220000   43.54390000     
   12206.500 68.98100000      14496.74510000   42.33280000     
   12207.000 73.56380000      13593.64360000   41.78780000     
   12207.500 75.01710000      13330.29490000   40.69140000     
   12208.000 73.34070000      13634.99410000   40.05490000     
   12208.500 73.95280000      13522.13870000   41.22080000     
   12209.000 74.77210000      13373.97170000   43.86770000     
   12209.500 74.00850000      13511.96190000   43.60770000     
   12210.000 72.27330000      13836.36820000   38.74610000     
   12210.500 67.43420000      14829.27150000   38.51270000     
   12211.000 66.08190000      15132.73630000   39.33500000     
   12211.500 66.38570000      15063.48630000   40.72890000     
   12212.000 67.12960000      14896.55860000   43.18180000     
   12212.500 68.89790000      14514.22950000   44.01930000     
   12213.000 68.36890000      14626.53420000   42.62100000     
   12213.500 67.74650000      14760.91020000   39.15020000     
   12214.000 69.58400000      14371.12010000   37.15160000     
   12214.500 73.83110000      13544.42770000   36.95980000     
   12215.000 72.68190000      13758.58400000   36.68490000     
   12215.500 74.08240000      13498.48340000   36.88070000     
   12216.000 74.89420000      13352.16800000   38.70540000     
   12216.500 74.72460000      13382.47360000   43.55450000     
   12217.000 72.71960000      13751.45120000   48.57280000     
   12217.500 68.87240000      14519.60450000   47.51400000     
   12218.000 67.90910000      14725.56640000   43.39790000     
   12218.500 68.10420000      14683.38180000   40.18390000     
   12219.000 68.25430000      14651.09080000   38.53410000     
   12219.500 70.34380000      14215.89360000   39.61690000     
   12220.000 70.97080000      14090.30180000   40.92940000     
   12220.500 70.89440000      14105.48630000   43.26010000     
   12221.000 70.63550000      14157.18750000   45.28520000     
   12221.500 70.97240000      14089.98540000   43.62970000     
   12222.000 72.29150000      13832.88570000   39.39450000     
   12222.500 71.64620000      13957.47360000   36.66300000     
   12223.000 71.27540000      14030.08690000   37.59020000     
   12223.500 72.27940000      13835.20020000   39.79550000     
   12224.000 74.43210000      13435.06350000   40.81120000     
   12224.500 78.90050000      12674.19140000   41.53090000     
   12225.000 81.34880000      12292.74410000   43.09400000     
   12225.500 82.46580000      12126.23930000   43.53810000     
   12226.000 82.52160000      12118.04000000   43.11820000     
   12226.500 81.22510000      12311.46580000   42.13230000     
   12227.000 80.43820000      12431.90430000   41.81440000     
   12227.500 78.33670000      12765.40920000   42.45970000     
   12228.000 75.88240000      13178.28610000   42.01020000     
   12228.500 76.23220000      13117.81640000   41.40090000     
   12229.000 78.35180000      12762.94920000   42.06090000     
   12229.500 80.89870000      12361.13870000   41.57630000     
   12230.000 82.34070000      12144.66310000   40.69530000     
   12230.500 80.71860000      12388.71880000   40.11030000     
   12231.000 81.28540000      12302.33200000   37.73430000     
   12231.500 82.28040000      12153.56250000   38.06630000     
   12232.000 82.58950000      12108.07620000   42.08850000     
   12232.500 82.50050000      12121.13770000   56.15970000     
   12233.000 80.16980000      12473.52540000   66.71010000     
   12233.500 83.04320000      12041.92580000   72.58670000     
   12234.000 85.79970000      11655.05270000   76.12630000     
   12234.500 82.22010000      12162.47560000   77.84300000     
   12235.000 82.64890000      12099.37400000   78.73110000     
   12235.500 81.72860000      12235.61910000   79.08970000     
   12236.000 80.02660000      12495.84470000   76.38330000     
   12236.500 84.96080000      11770.13380000   71.28360000     
   12237.000 88.37990000      11314.79000000   69.66410000     
