###############################################
##         ENVERUS                           ##
##         ESS - Open Hole                   ##
##         PERMIAN / DELAWARE                ##
##         Nov 04 2023  V4.0                 ##
##         42-389-30075-00-00                ##
###############################################
## Copyright 2017-2023  ENVERUS.  All Rights Reserved. 
## Confidential - Property of ENVERUS, use governed by terms and 
## conditions found within the existing Information Services Subscription Agreement 
## (as may be amended, the “ISSA”) between Customer and ENVERUS. 
## 
~VERSION INFORMATION
# MNEM.UNIT                               DATA : DESCRIPTION OF MNEMONIC
#-----.-----     ----------------------------- : -----------------------------
VERS.                                     2.00 : CWLS LOG ASCII STANDARD - VERSION 2.00
WRAP.                                       NO : MULTIPLE LINES PER DEPTH STEP
VEND.                                  ENVERUS : VENDOR
TYPE.                          ESS - OPEN HOLE : ENVERUS ESSENTIAL CURVES – ACCESSIBLE THROUGH ENVERUS PRISM(TM)
DOC.                                  32306518 : ENVERUS HEADER RAW DOCUMENT ID
#___________________________________________________________________________________________________ 
~WELL INFORMATION 
# kPY+8M9YT4rQMtoZY4hkcKqQFbcx8dAfbukAxGfLCr0mY2TilAra5+x7Ygngqds2nYZXTdz9AGmqNniTAH+qTQ== 
# MNEM.UNIT                                              DATA : DESCRIPTION OF MNEMONIC 
#-----.-----                    ----------------------------- : ----------------------------- 
CNTY.                                                  REEVES : COUNTY 
STATE.                                                  TEXAS : STATE 
CNTRY.                                                    USA : COUNTRY 
API.                                             42-389-30075 : API (10 Digit) 
API_14.                                    42-389-30075-00-00 : API (14 Digits) 
API_14_std.                                 42-389-30075-0000 : API (14 Digits Standard) 
UWI.                                           42389300750000 : UNIQUE WELL ID 
WELL.                                        CAMPBELL STATE 1 : WELL NAME
STRT.FT                                                   5.0 : START DEPTH
STOP.FT                                               20980.0 : STOP DEPTH
STEP.FT                                                   0.5 : STEP BETWEEN DEPTHS
NULL.                                                 -999.25 : NULL VALUE
#___________________________________________________________________________________________________ 
~CURVE INFORMATION 
# MNEM.UNIT           : CURVE DESCRIPTION 
#-----.-----          : ----------------------------- 
 DEPT.FT               : MEASURED DEPTH 
 CALI.IN               : CALIPER (CAL - CAL) 
 GR.API                : GAMMA RAY (GR) 
 DT.US/FT              : SONIC DELTA TRANSIT TIME (DT) 
 NPHI.V/V              : NEUTRON POROSITY (NPHI) 
 #___________________________________________________________________________________________________ 
~A         DEPT           CALI             GR             DT           NPHI
# ...
         3874.0       -999.250          8.515         51.491     -999.25000
         3874.5       -999.250          8.191         51.478     -999.25000
         3875.0       -999.250          7.867         51.466     -999.25000
         3875.5       -999.250          7.543         51.453     -999.25000
         3876.0       -999.250          7.219         51.411     -999.25000
         3876.5       -999.250          6.895         51.329     -999.25000
         3877.0       -999.250          6.571         51.248     -999.25000
         3877.5       -999.250          6.247         51.167     -999.25000
         3878.0       -999.250          5.923         51.085     -999.25000
         3878.5       -999.250          5.599         51.004     -999.25000
         3879.0       -999.250          5.275         50.923     -999.25000
         3879.5       -999.250          4.951         50.841     -999.25000
         3880.0       -999.250          4.627         50.760     -999.25000
         3880.5       -999.250          4.813         50.679     -999.25000
         3881.0       -999.250          5.002         50.598     -999.25000
         3881.5       -999.250          5.191         50.571     -999.25000
         3882.0       -999.250          5.380         50.657     -999.25000
         3882.5       -999.250          5.569         50.744     -999.25000
         3883.0       -999.250          5.758         50.831     -999.25000
         3883.5       -999.250          5.947         50.917     -999.25000
         3884.0       -999.250          6.136         51.004     -999.25000
         3884.5       -999.250          6.325         51.091     -999.25000
         3885.0       -999.250          6.514         51.177     -999.25000
         3885.5       -999.250          6.703         51.264     -999.25000
         3886.0       -999.250          6.892         51.350     -999.25000
         3886.5       -999.250          7.081         51.437     -999.25000
         3887.0       -999.250          7.113         51.524     -999.25000
         3887.5       -999.250          6.989         51.610     -999.25000
         3888.0       -999.250          6.866         51.697     -999.25000
         3888.5       -999.250          6.743         51.648     -999.25000
         3889.0       -999.250          6.620         51.520     -999.25000
         3889.5       -999.250          6.496         51.393     -999.25000
         3890.0       -999.250          6.373         51.265     -999.25000
         3890.5       -999.250          6.250         51.138     -999.25000
         3891.0       -999.250          6.127         51.010     -999.25000
         3891.5       -999.250          6.003         50.963     -999.25000
         3892.0       -999.250          5.880         51.157     -999.25000
         3892.5       -999.250          5.757         51.352     -999.25000
         3893.0       -999.250          5.634         51.547     -999.25000
         3893.5       -999.250          5.511         51.742     -999.25000
         3894.0       -999.250          5.387         51.937     -999.25000
         3894.5       -999.250          5.264         52.938     -999.25000
         3895.0       -999.250          5.141         54.536     -999.25000
         3895.5       -999.250          5.018         56.135     -999.25000
         3896.0       -999.250          4.894         56.999     -999.25000
         3896.5       -999.250          4.771         57.821     -999.25000
         3897.0       -999.250          4.648         58.797     -999.25000
         3897.5       -999.250          4.525         59.772     -999.25000
         3898.0       -999.250          4.401         60.748     -999.25000
         3898.5       -999.250          4.278         61.723     -999.25000
         3899.0       -999.250          4.155         62.554     -999.25000
         3899.5       -999.250          4.032         62.795     -999.25000
         3900.0       -999.250          3.908         63.035     -999.25000
         3900.5       -999.250          3.785         63.275     -999.25000
         3901.0       -999.250          3.662         63.515     -999.25000
         3901.5       -999.250          3.748         63.755     -999.25000
         3902.0       -999.250          3.873         63.995     -999.25000
         3902.5       -999.250          3.998         64.235     -999.25000
         3903.0       -999.250          4.123         61.571     -999.25000
         3903.5       -999.250          4.248         58.680     -999.25000
         3904.0       -999.250          4.373         55.279     -999.25000
         3904.5       -999.250          4.498         51.796     -999.25000
         3905.0       -999.250          4.623         48.942     -999.25000
         3905.5       -999.250          4.748         48.803     -999.25000
         3906.0       -999.250          4.873         48.670     -999.25000
         3906.5       -999.250          4.998         48.537     -999.25000
         3907.0       -999.250          5.123         48.548     -999.25000
         3907.5       -999.250          5.248         48.731     -999.25000
         3908.0       -999.250          5.373         48.914     -999.25000
         3908.5       -999.250          5.499         49.097     -999.25000
         3909.0       -999.250          5.624         49.280     -999.25000
         3909.5       -999.250          5.723         49.464     -999.25000
         3910.0       -999.250          5.741         49.566     -999.25000
         3910.5       -999.250          5.759         49.555     -999.25000
         3911.0       -999.250          5.778         49.544     -999.25000
         3911.5       -999.250          5.796         49.533     -999.25000
         3912.0       -999.250          5.814         49.522     -999.25000
         3912.5       -999.250          5.833         49.511     -999.25000
         3913.0       -999.250          5.851         49.500     -999.25000
         3913.5       -999.250          5.870         49.489     -999.25000
         3914.0       -999.250          5.888         49.478     -999.25000
         3914.5       -999.250          5.906         49.467     -999.25000
         3915.0       -999.250          5.925         49.456     -999.25000
         3915.5       -999.250          5.943         49.445     -999.25000
         3916.0       -999.250          5.961         49.463     -999.25000
         3916.5       -999.250          5.980         49.817     -999.25000
         3917.0       -999.250          5.998         50.171     -999.25000
         3917.5       -999.250          6.017         50.525     -999.25000
         3918.0       -999.250          6.035         50.879     -999.25000
         3918.5       -999.250          6.053         50.868     -999.25000
         3919.0       -999.250          6.072         50.277     -999.25000
         3919.5       -999.250          6.090         49.687     -999.25000
         3920.0       -999.250          6.108         49.590     -999.25000
         3920.5       -999.250          6.127         52.731     -999.25000
         3921.0       -999.250          5.848         55.873     -999.25000
         3921.5       -999.250          5.567         59.015     -999.25000
         3922.0       -999.250          5.287         62.092     -999.25000
         3922.5       -999.250          5.007         64.777     -999.25000
         3923.0       -999.250          4.727         64.858     -999.25000
         3923.5       -999.250          4.447         62.544     -999.25000
         3924.0       -999.250          4.166         60.229     -999.25000
         3924.5       -999.250          4.134         57.104     -999.25000
         3925.0       -999.250          4.174         52.193     -999.25000
         3925.5       -999.250          4.213         49.048     -999.25000
         3926.0       -999.250          4.253         48.917     -999.25000
         3926.5       -999.250          4.292         48.786     -999.25000
