#--------------------------------------------------#
#-------------------ENVERUS, INC.------------------#
#------------------WWW.ENVERUS.COM-----------------#
#------------------COPYRIGHT 2020------------------#
#--------------------------------------------------#
#THIS FILE MAY BE USED ONLY IN ACCORDANCE WITH A CURRENT SUBSCRIPTION AGREEMENT BETWEEN
#THE USER AND ENVERUS, INC. NO PART OF THIS FILE MAY BE REPRODUCED, USED, COPIED,
#MODIFIED, PROPAGATED, OR DISTRIBUTED EXCEPT IN ACCORDANCE WITH THE SUBSCRIPTION
#AGREEMENT. UNAUTHORIZED USE OR DISTRIBUTION OF ALL OR ANY PART OF THIS FILE MAY VIOLATE
#COPYRIGHT, TRADEMARK, AND/OR OTHER LAWS AND IS SUBJECT TO CIVIL AS WELL AS CRIMINAL
#SANCTIONS.
#--------------------------------------------------#
#THIS FILE IS PROVIDED "AS-IS" AND ALL WARRANTIES ARE EXPRESSLY DISCLAIMED, WHETHER
#EXPRESS, ORAL, IMPLIED, STATUTORY OR OTHERWISE, INCLUDING ANY IMPLIED WARRANTY OF FITNESS
#FOR A PARTICULAR PURPOSE, MERCHANTABILITY, TITLE OR NON-INFRINGEMENT, AND ANY WARRANTIES
#ARISING BY VIRTUE OF CUSTOM OF TRADE OR COURSE OF DEALING.  FURTHER, ENVERUS, INC.
#AND ITS LICENSORS DO NOT REPRESENT OR WARRANT THAT THIS FILE WILL MEET USER'S
#REQUIREMENTS OR ARE SUITABLE FOR USER'S NEEDS OR THAT THE DATA OR RESULTS PROVIDED IN
#CONJUNCTION THEREWITH ARE CORRECT, ACCURATE, TIMELY OR RELIABLE. THESE DISCLAIMERS SHALL
#APPLY REGARDLESS OF ANY FAILURE OF ESSENTIAL PURPOSE OF ANY LIMITED REMEDY.  SOME
#JURISDICTIONS DO NOT ALLOW THE EXCLUSION OF CERTAIN WARRANTIES SO SOME OF THE ABOVE
#EXCLUSIONS MAY NOT APPLY. IN NO EVENT SHALL ENVERUS, INC. OR ANY OF ITS AFFILIATES
#BE LIABLE UNDER ANY LEGAL THEORY, WHETHER IN TORT (INCLUDING WITHOUT LIMITATION
#NEGLIGENCE), CONTRACT, STRICT LIABILITY, STATUTORY OR OTHERWISE, FOR ANY SPECIAL,
#INCIDENTAL, CONSEQUENTIAL, EXEMPLARY, PUNITIVE OR INDIRECT DAMAGE OF ANY KIND, INCLUDING
#WITHOUT LIMITATION LOSS OF REVENUE, PROFITS, GOODWILL, USE, AND/OR DATA OR THE COST OF
#PROCUREMENT OF SUBSTITUTE GOODS OR SERVICES, EVEN IF APPRISED OF THE POSSIBILITY OF SUCH
#DAMAGES IN ADVANCE.
#--------------------------------------------------#

# EXPORTED FROM DI TRANSFORM
# DI TRANSFORM - A PRODUCT OF DRILLINGINFO, INC. - WWW.DRILLINGINFO.COM
#
~VERSION INFORMATION
 VERS.        2.0 : LAS ASCII STANDARD - VERSION 2.0
 WRAP.         NO : ONE LINE PER DEPTH STEP

~WELL INFORMATION
#MNEM.UNIT       DATA TYPE       INFORMATION
#---------       ---------       -----------
 STRT.FT           190 : START DEPTH
 STOP.FT         12010 : STOP DEPTH
 STEP.FT           0.5 : STEP LENGTH
 NULL.         -999.25 : NULL VALUE
 UWI.   42389335580000 : UNIQUE WELL ID
 API.   42389335580000 : WELL IDENTIFIER
 COMP.                 : COMPANY
 WELL.          DRD_55 : WELL NAME
 FLD.                  : FIELD NAME
 LOC.                  : WELL LOCATION
 CNTY.                 : COUNTY
 STAT.                 : STATE OR PROVINCE
 CTRY.                 : COUNTRY
 SRVC.                 : SERVICE COMPANY
 DATE.                 : DATE

~CURVE INFORMATION
#MNEM.UNIT       API CODE       CURVE DESCRIPTION
#---------       --------       -----------------
 DEPT.FT          : <MEASURED DEPTH>
 CAL.IN           : CALIPER
 DPHI.%           : DENSITY POROSITY
 DT.US/FT         : SONIC
 GR.GAPI          : GAMMA RAY
 NPHI.%           : NEUTRON POROSITY
 RHOB.G/CM3       : DENSITY

~PARAMETER INFORMATION
#MNEM.UNIT       VALUE       DESCRIPTION
#---------       -----       -----------
 EKB.FT      2793 : ELEVATION ABOVE MSL

~A      DEPT         CAL        DPHI          DT          GR        NPHI        RHOB
# ...
        6840      8.8745      5.4433     -999.25     52.0367      9.1371      2.5353
      6840.5      8.8745      7.6572     -999.25     51.1248      8.5837      2.4508
        6841      8.8745     10.4443     -999.25     56.3056      8.8198      2.3881
      6841.5      8.8745     17.0206     -999.25     57.5444     11.0949      2.3739
        6842      8.8745     19.8177     -999.25      57.085      16.962      2.3861
      6842.5      8.8745      20.593     -999.25     55.9281     19.4108      2.4014
        6843      8.8745     20.4093     -999.25     49.6816     18.5084        2.41
      6843.5      8.8745     18.9358     -999.25     55.4817     17.5587      2.4122
        6844      8.8745     18.4072     -999.25     58.5694     17.0211      2.4122
      6844.5      8.8745     17.6416     -999.25     64.2874     16.0764       2.433
        6845      8.8745       19.31     -999.25     62.6266     15.6076      2.4936
      6845.5      8.8745     16.7915     -999.25     62.2615     14.5283      2.5337
        6846      8.8745     12.4904     -999.25     59.8132     14.4211      2.4913
      6846.5      8.8745     11.4069     -999.25     57.6509     15.2953      2.4528
        6847      8.8745      11.328     -999.25     56.0621     13.8946      2.4329
      6847.5      8.8745     16.7572     -999.25      60.536     13.9983      2.4727
        6848      8.8745     16.2292     -999.25      58.592     14.7233      2.5051
      6848.5      8.8745     14.9118     -999.25     59.2552     17.1869      2.5507
        6849      8.8745     12.6669     -999.25     57.6923     12.2895      2.5742
      6849.5      8.8745      9.7648     -999.25      60.539     10.0197      2.5552
        6850      8.8745      7.7362     -999.25     64.5887     10.3578      2.5377
      6850.5      8.8745      9.4573     -999.25     69.5035     11.1541       2.515
        6851      8.8745     10.4285     -999.25     75.5039     11.6416       2.504
      6851.5      8.8745     12.4913     -999.25     79.8603     14.5391      2.5233
        6852      8.8745     12.1168     -999.25     80.5914     15.2252      2.5346
      6852.5      8.8745     11.5686     -999.25     84.8421     15.0361       2.545
        6853      8.8745      9.9391     -999.25     93.4679     15.4648      2.5486
      6853.5      8.8745     10.4426     -999.25     105.812     15.8574      2.5418
        6854      8.8745      9.6659     -999.25    100.8466     15.0539      2.5364
      6854.5      8.8745      9.6314     -999.25    112.4681     15.1939      2.5307
        6855      8.8745     10.3772     -999.25     107.903     16.0384      2.5255
      6855.5      8.8745     10.7911     -999.25    103.4313     16.6652       2.517
        6856      8.8745     11.3807     -999.25     84.4982     15.9503      2.5061
      6856.5      8.8745     11.7051     -999.25      73.052     15.2384      2.4911
        6857      8.8745     12.2058     -999.25     61.6809     13.7912      2.4837
      6857.5      8.8745     12.9849     -999.25     61.4412     12.8897      2.4904
        6858      8.8745     14.2308     -999.25     61.9433     12.1793      2.4925
      6858.5      8.8745     13.3663     -999.25     59.3264     13.7769      2.4992
        6859      8.8745     12.5648     -999.25     55.8597     12.3509      2.5155
      6859.5      8.8745     13.4142     -999.25     66.9773     11.9912       2.523
        6860      8.8745     11.9669     -999.25     68.5132     13.1598       2.514
      6860.5      8.8745     11.3462     -999.25     72.4239     15.2747      2.5052
        6861      8.8745     11.4231     -999.25     80.2274     15.1156      2.5052
      6861.5      8.8745      12.685     -999.25     74.7371     14.8504      2.5165
        6862      8.8745     12.2671     -999.25     68.6632     15.3681      2.5305
      6862.5      8.8745     11.7836     -999.25     69.1865     12.1597      2.5575
        6863      8.8745     11.5139     -999.25     61.1042     12.7361      2.5839
      6863.5      8.8745      9.0292     -999.25     53.7055       11.22      2.5861
        6864      8.8745       6.688     -999.25     48.1466      6.7554      2.5715
      6864.5      8.8745      7.8412     -999.25     56.4163      7.8327      2.5549
        6865      8.8745      7.1164     -999.25     63.3231      6.7717      2.5351
      6865.5      8.8745       9.459     -999.25     65.9744      8.7962      2.5231
        6866      8.8745     10.7022     -999.25     71.0386     11.3637      2.5138
      6866.5      8.8745      10.994     -999.25     71.8446     12.8666      2.5025
        6867      8.8745     11.6339     -999.25     69.9367     13.6237       2.494
      6867.5      8.8745     13.1908     -999.25     66.1248     14.9654      2.4975
        6868      8.8745     13.3968     -999.25     71.1275     13.3664      2.5058
      6868.5      8.8745     12.8094     -999.25     79.7056     14.4145      2.4916
        6869      8.8745     11.7908     -999.25     84.7381     14.9927      2.4889
      6869.5      8.8745     13.5726     -999.25    101.9386     17.1013      2.5046
        6870      8.8745     13.9874     -999.25     132.132     15.8079      2.5186
      6870.5      8.8745     13.1551     -999.25    164.6489     16.8892      2.5392
        6871      8.8745     12.0986     -999.25    118.3997     20.0485      2.5583
      6871.5      8.8745      9.7259     -999.25     95.9968      15.212        2.57
        6872      8.8745      8.1019     -999.25     94.4021     11.0507      2.5788
      6872.5      8.8745      9.6089     -999.25      100.27     11.4351      2.5667
        6873      8.8745      8.0927     -999.25    105.3689     12.6707      2.5629
      6873.5      8.8745      8.0463     -999.25    108.6501     12.2683      2.5674
        6874      8.8745      8.8656     -999.25    107.7915     12.0452      2.5703
      6874.5      8.8745      8.9823     -999.25     94.5417     12.9039      2.5573
        6875      8.8745      7.8568     -999.25      93.405     12.7268      2.5525
      6875.5      8.8745      9.5238     -999.25    106.2187     13.2971      2.5545
        6876      8.8745      9.1724     -999.25    115.8388     14.5593      2.5581
      6876.5      8.8745      9.5885     -999.25    122.6206      14.497      2.5675
        6877      8.8745       9.537     -999.25    126.2069      16.953       2.588
      6877.5      8.8745      8.7178     -999.25    109.7081     13.0391       2.621
        6878      8.8745      7.5552     -999.25    100.8923     13.0953      2.6454
      6878.5      8.8745      5.6455     -999.25     91.5266     11.9421      2.6332
        6879      8.8752      4.6517     -999.25     95.7419     13.1297      2.5953
      6879.5      8.8745      3.2057     -999.25    108.3712     16.1125      2.5538
        6880      8.8745      7.0838     -999.25    111.2946     14.3621      2.5351
      6880.5      8.8745      9.7152     -999.25     94.8184     15.1137      2.5248
        6881      8.8745     10.0188     -999.25     80.3854     14.4314       2.532
      6881.5      8.8745     11.2081     -999.25     64.2972     12.4807       2.538
        6882      8.8745     10.9461     -999.25     65.9785     12.3392      2.5422
      6882.5      8.8745     10.1993     -999.25     67.1814     13.5531      2.5339
        6883      8.8745     10.2644     -999.25     68.7173     12.9887      2.5245
      6883.5      8.8745     10.5338     -999.25     69.2308      12.814      2.5125
        6884      8.8745     11.1304     -999.25     69.4244     13.3415      2.4992
      6884.5      8.8745     12.1714     -999.25     72.7074     14.3933      2.4898
        6885      8.8745     13.3725     -999.25     68.9627     14.9739      2.5104
      6885.5      8.8745     13.1657     -999.25      73.785     14.2455      2.5065
        6886      8.8745     12.2668     -999.25     73.0825     14.0794      2.5022
      6886.5      8.8745     12.0219     -999.25     67.3929     14.4614      2.4987
        6887      8.8745     12.6242     -999.25     68.8584     13.9252      2.5578
