#--------------------------------------------------#
#-------------------ENVERUS, INC.------------------#
#------------------WWW.ENVERUS.COM-----------------#
#------------------COPYRIGHT 2020------------------#
#--------------------------------------------------#
#THIS FILE MAY BE USED ONLY IN ACCORDANCE WITH A CURRENT SUBSCRIPTION AGREEMENT BETWEEN
#THE USER AND ENVERUS, INC. NO PART OF THIS FILE MAY BE REPRODUCED, USED, COPIED,
#MODIFIED, PROPAGATED, OR DISTRIBUTED EXCEPT IN ACCORDANCE WITH THE SUBSCRIPTION
#AGREEMENT. UNAUTHORIZED USE OR DISTRIBUTION OF ALL OR ANY PART OF THIS FILE MAY VIOLATE
#COPYRIGHT, TRADEMARK, AND/OR OTHER LAWS AND IS SUBJECT TO CIVIL AS WELL AS CRIMINAL
#SANCTIONS.
#--------------------------------------------------#
#THIS FILE IS PROVIDED "AS-IS" AND ALL WARRANTIES ARE EXPRESSLY DISCLAIMED, WHETHER
#EXPRESS, ORAL, IMPLIED, STATUTORY OR OTHERWISE, INCLUDING ANY IMPLIED WARRANTY OF FITNESS
#FOR A PARTICULAR PURPOSE, MERCHANTABILITY, TITLE OR NON-INFRINGEMENT, AND ANY WARRANTIES
#ARISING BY VIRTUE OF CUSTOM OF TRADE OR COURSE OF DEALING.  FURTHER, ENVERUS, INC.
#AND ITS LICENSORS DO NOT REPRESENT OR WARRANT THAT THIS FILE WILL MEET USER'S
#REQUIREMENTS OR ARE SUITABLE FOR USER'S NEEDS OR THAT THE DATA OR RESULTS PROVIDED IN
#CONJUNCTION THEREWITH ARE CORRECT, ACCURATE, TIMELY OR RELIABLE. THESE DISCLAIMERS SHALL
#APPLY REGARDLESS OF ANY FAILURE OF ESSENTIAL PURPOSE OF ANY LIMITED REMEDY.  SOME
#JURISDICTIONS DO NOT ALLOW THE EXCLUSION OF CERTAIN WARRANTIES SO SOME OF THE ABOVE
#EXCLUSIONS MAY NOT APPLY. IN NO EVENT SHALL ENVERUS, INC. OR ANY OF ITS AFFILIATES
#BE LIABLE UNDER ANY LEGAL THEORY, WHETHER IN TORT (INCLUDING WITHOUT LIMITATION
#NEGLIGENCE), CONTRACT, STRICT LIABILITY, STATUTORY OR OTHERWISE, FOR ANY SPECIAL,
#INCIDENTAL, CONSEQUENTIAL, EXEMPLARY, PUNITIVE OR INDIRECT DAMAGE OF ANY KIND, INCLUDING
#WITHOUT LIMITATION LOSS OF REVENUE, PROFITS, GOODWILL, USE, AND/OR DATA OR THE COST OF
#PROCUREMENT OF SUBSTITUTE GOODS OR SERVICES, EVEN IF APPRISED OF THE POSSIBILITY OF SUCH
#DAMAGES IN ADVANCE.
#--------------------------------------------------#

~VERSION INFORMATION
VERS. 2.0 : CWLS LOG ASCII STANDARD - VERSION 2.0
WRAP.  NO : ONE LINE PER DEPTH STEP
~WELL INFORMATION
#MNEMONIC     .UNIT              VALUE :DESCRIPTION
STRT       .FT                50 :START DEPTH
STOP       .FT                6118 :STOP DEPTH
STEP       .FT                   0.500 :STEP
NULL       .                  -999.990 :NULL
UWI        .              42389003090000 :UNIQUE WELL ID
API        .              42389003090000 :API NUMBER
COMP       .         :COMPANY
WELL       .         1, :WELL
DATE       .                            :LOG DATE
~CURVE INFORMATION
#MNEMONIC     .UNIT      API CODE :CURVE DESCRIPTION
DEPTH       .FT                      :MEASURED DEPTH
NEUT.API        UNKNOWN   :NEUT
GR.API        UNKNOWN   :GR
DT.US/FT        UNKNOWN   :DT
~A    DEPTH    NEUT    GR    DT
# ...
 1382.5     -999.990   23.591   65.344
 1383     -999.990   22.152   56.857
 1383.5     -999.990   20.713   58.089
 1384     -999.990   19.274   55.839
 1384.5     -999.990   20.268   57.355
 1385     -999.990   21.319   56.126
 1385.5     -999.990   22.371   54.787
 1386     -999.990   23.422   55.768
 1386.5     -999.990   24.474   56.9
 1387     -999.990   25.525   56.991
 1387.5     -999.990   26.577   56.868
 1388     -999.990   27.552   56.746
 1388.5     -999.990   27.808   55.018
 1389     -999.990   28.064   54.434
 1389.5     -999.990   28.32   55.803
 1390     -999.990   28.576   57.172
 1390.5     -999.990   27.599   58.058
 1391     -999.990   25.649   56.238
 1391.5     -999.990   23.698   54.418
 1392     -999.990   21.748   54.263
 1392.5     -999.990   19.797   55.454
 1393     -999.990   17.847   56.645
 1393.5     -999.990   15.896   57.836
 1394     -999.990   13.946   57.949
 1394.5     -999.990   11.995   57.675
 1395     -999.990   11.632   57.402
 1395.5     -999.990   12.002   57.128
 1396     -999.990   12.372   56.855
 1396.5     -999.990   12.743   56.718
 1397     -999.990   13.113   57.134
 1397.5     -999.990   13.484   57.549
 1398     -999.990   13.854   57.965
 1398.5     -999.990   14.224   58.15
 1399     -999.990   14.595   58.217
 1399.5     -999.990   14.965   58.284
 1400     -999.990   15.336   57.552
 1400.5     -999.990   14.277   54.624
 1401     -999.990   12.693   56.676
 1401.5     -999.990   12.452   58.207
 1402     -999.990   14.034   57.817
 1402.5     -999.990   15.615   57.428
 1403     -999.990   17.197   57.038
 1403.5     -999.990   18.778   57.111
 1404     -999.990   20.36   57.549
 1404.5     -999.990   19.473   55.001
 1405     -999.990   18.048   56.654
 1405.5     -999.990   16.622   57.747
 1406     -999.990   15.196   57.624
 1406.5     -999.990   13.771   57.349
 1407     -999.990   14.579   55.086
 1407.5     -999.990   15.844   54.051
 1408     -999.990   17.11   58.459
 1408.5     -999.990   18.376   62.866
 1409     -999.990   19.642   66.97
 1409.5     -999.990   17.255   66.939
 1410     -999.990   14.712   53.519
 1410.5     -999.990   12.17   59.928
 1411     -999.990   14.647   56.628
 1411.5     -999.990   17.959   57.885
 1412     -999.990   21.271   60.94
 1412.5     -999.990   21.639   63.229
 1413     -999.990   19.536   62.419
 1413.5     -999.990   17.433   61.61
 1414     -999.990   15.578   60.852
 1414.5     -999.990   17.125   62.329
 1415     -999.990   18.671   62.384
 1415.5     -999.990   20.218   63.09
 1416     -999.990   21.764   64.507
 1416.5     -999.990   23.311   65.872
 1417     -999.990   21.969   65.872
 1417.5     -999.990   20.061   52.822
 1418     -999.990   18.154   49.79
 1418.5     -999.990   16.246   48.333
 1419     -999.990   14.339   46.974
 1419.5     -999.990   12.431   50.233
 1420     -999.990   11.856   49.725
 1420.5     -999.990   14.67   49.218
 1421     -999.990   16.513   48.71
 1421.5     -999.990   17.093   50.393
 1422     -999.990   17.673   52.149
 1422.5     -999.990   18.253   53.905
 1423     -999.990   18.833   54.596
 1423.5     -999.990   19.413   53.577
 1424     -999.990   20.744   52.557
 1424.5     -999.990   22.29   51.538
 1425     -999.990   23.836   54.776
 1425.5     -999.990   25.382   58.415
 1426     -999.990   26.928   62.054
 1426.5     -999.990   28.297   68.558
 1427     -999.990   28.808   76.399
 1427.5     -999.990   29.32   76.399
 1428     -999.990   27.114   66.66
 1428.5     -999.990   24.633   70.228
 1429     -999.990   25.087   56.756
 1429.5     -999.990   25.633   64.859
 1430     -999.990   26.178   72.962
 1430.5     -999.990   26.724   83.232
 1431     -999.990   27.27   71.649
 1431.5     -999.990   26.729   72.811
 1432     -999.990   23.806   52.916
 1432.5     -999.990   20.883   54.188
 1433     -999.990   17.96   55.46
 1433.5     -999.990   15.094   52.873
 1434     -999.990   13.777   51.335
 1434.5     -999.990   12.461   51.955
 1435     -999.990   11.144   52.201
 1435.5     -999.990   9.827   51.895
 1436     -999.990   8.511   51.589
 1436.5     -999.990   7.194   51.283
 1437     -999.990   10.704   52.03
 1437.5     -999.990   14.737   54.723
 1438     -999.990   17.682   57.416
 1438.5     -999.990   20.174   58.138
 1439     -999.990   22.666   55.679
 1439.5     -999.990   25.158   53.221
 1440     -999.990   21.679   50.763
 1440.5     -999.990   18.184   54.13
 1441     -999.990   14.69   55.755
 1441.5     -999.990   11.637   67.297
 1442     -999.990   13.121   65.199
 1442.5     -999.990   14.605   56.128
 1443     -999.990   16.089   55.181
 1443.5     -999.990   17.573   57.464
 1444     -999.990   19.057   56.827
 1444.5     -999.990   20.541   55.866
 1445     -999.990   18.606   54.905
 1445.5     -999.990   15.397   55.75
 1446     -999.990   12.188   59.092
 1446.5     -999.990   11.691   68.562
 1447     -999.990   12.92   64.345
 1447.5     -999.990   14.148   58.436
 1448     -999.990   15.377   52.527
 1448.5     -999.990   16.606   57.578
 1449     -999.990   17.834   63.391
 1449.5     -999.990   19.063   65.565
 1450     -999.990   20.292   65.85
 1450.5     -999.990   21.52   56.962
 1451     -999.990   18.871   59.487
 1451.5     -999.990   16.172   56.833
 1452     -999.990   13.472   54.18
 1452.5     -999.990   12.343   53.121
 1453     -999.990   12.812   57.328
 1453.5     -999.990   13.281   61.535
 1454     -999.990   13.749   65.742
 1454.5     -999.990   14.218   60.897
 1455     -999.990   13.068   51.834
 1455.5     -999.990   11.964   56.551
 1456     -999.990   12.677   61.574
 1456.5     -999.990   13.39   61.265
 1457     -999.990   14.103   60.867
 1457.5     -999.990   14.816   63.205
 1458     -999.990   15.529   55.048
 1458.5     -999.990   16.242   60.403
 1459     -999.990   16.956   65.757
 1459.5     -999.990   17.669   71.112
 1460     -999.990   18.382   65.614
 1460.5     -999.990   19.095   25.112
 1461     -999.990   19.911   25.071
 1461.5     -999.990   20.826   25.498
 1462     -999.990   21.741   38.465
 1462.5     -999.990   22.657   25.684
 1463     -999.990   23.572   12.903
 1463.5     -999.990   23.809   14.185
 1464     -999.990   21.944   17.21
 1464.5     -999.990   20.08   10.479
 1465     -999.990   18.216   10.068
 1465.5     -999.990   16.351   9.327
 1466     -999.990   14.487   8.586
 1466.5     -999.990   14.633   32.951
 1467     -999.990   17.066   51.311
 1467.5     -999.990   19.5   47.66
 1468     -999.990   21.933   44.008
 1468.5     -999.990   24.367   44.532
 1469     -999.990   23.335   48.891
 1469.5     -999.990   20.365   53.25
 1470     -999.990   17.395   57.609
 1470.5     -999.990   14.425   54.372
 1471     -999.990   11.455   50.61
 1471.5     -999.990   9.211   51.074
 1472     -999.990   9.858   53.934
 1472.5     -999.990   10.504   56.795
 1473     -999.990   11.15   57.37
 1473.5     -999.990   11.797   56.707
 1474     -999.990   12.443   56.044
 1474.5     -999.990   13.089   55.381
 1475     -999.990   13.689   55.899
 1475.5     -999.990   13.184   58.619
 1476     -999.990   12.68   61.34
 1476.5     -999.990   12.175   60.568
 1477     -999.990   11.671   54.733
 1477.5     -999.990   11.246   51.406
 1478     -999.990   11.587   52.252
 1478.5     -999.990   11.927   52.393
 1479     -999.990   12.268   52.293
 1479.5     -999.990   12.609   52.192
 1480     -999.990   12.95   52.092
 1480.5     -999.990   12.976   51.992
 1481     -999.990   12.58   51.892
 1481.5     -999.990   12.184   51.792
 1482     -999.990   11.787   51.691
 1482.5     -999.990   11.391   52.099
 1483     -999.990   11.184   53.032
 1483.5     -999.990   12.608   57.645
 1484     -999.990   14.033   57.124
 1484.5     -999.990   15.457   56.603
 1485     -999.990   16.881   56.081
 1485.5     -999.990   17.88   55.56
 1486     -999.990   17.501   55.039
 1486.5     -999.990   17.123   59.195
 1487     -999.990   16.984   65.795
 1487.5     -999.990   17.827   72.396
 1488     -999.990   18.671   78.996
