###############################################
##         ENVERUS                           ##
##         ESS - Open Hole                   ##
##         PERMIAN / DELAWARE                ##
##         Nov 04 2023  V4.0                 ##
##         42-389-30075-00-00                ##
###############################################
## Copyright 2017-2023  ENVERUS.  All Rights Reserved. 
## Confidential - Property of ENVERUS, use governed by terms and 
## conditions found within the existing Information Services Subscription Agreement 
## (as may be amended, the “ISSA”) between Customer and ENVERUS. 
## 
~VERSION INFORMATION
# MNEM.UNIT                               DATA : DESCRIPTION OF MNEMONIC
#-----.-----     ----------------------------- : -----------------------------
VERS.                                     2.00 : CWLS LOG ASCII STANDARD - VERSION 2.00
WRAP.                                       NO : MULTIPLE LINES PER DEPTH STEP
VEND.                                  ENVERUS : VENDOR
TYPE.                          ESS - OPEN HOLE : ENVERUS ESSENTIAL CURVES – ACCESSIBLE THROUGH ENVERUS PRISM(TM)
DOC.                                  32306518 : ENVERUS HEADER RAW DOCUMENT ID
#___________________________________________________________________________________________________ 
~WELL INFORMATION 
# kPY+8M9YT4rQMtoZY4hkcKqQFbcx8dAfbukAxGfLCr0mY2TilAra5+x7Ygngqds2nYZXTdz9AGmqNniTAH+qTQ== 
# MNEM.UNIT                                              DATA : DESCRIPTION OF MNEMONIC 
#-----.-----                    ----------------------------- : ----------------------------- 
CNTY.                                                  REEVES : COUNTY 
STATE.                                                  TEXAS : STATE 
CNTRY.                                                    USA : COUNTRY 
API.                                             42-389-30075 : API (10 Digit) 
API_14.                                    42-389-30075-00-00 : API (14 Digits) 
API_14_std.                                 42-389-30075-0000 : API (14 Digits Standard) 
UWI.                                           42389300750000 : UNIQUE WELL ID 
WELL.                                        CAMPBELL STATE 1 : WELL NAME
STRT.FT                                                   5.0 : START DEPTH
STOP.FT                                               20980.0 : STOP DEPTH
STEP.FT                                                   0.5 : STEP BETWEEN DEPTHS
NULL.                                                 -999.25 : NULL VALUE
#___________________________________________________________________________________________________ 
~CURVE INFORMATION 
# MNEM.UNIT           : CURVE DESCRIPTION 
#-----.-----          : ----------------------------- 
 DEPT.FT               : MEASURED DEPTH 
 CALI.IN               : CALIPER (CAL - CAL) 
 GR.API                : GAMMA RAY (GR) 
 DT.US/FT              : SONIC DELTA TRANSIT TIME (DT) 
 NPHI.V/V              : NEUTRON POROSITY (NPHI) 
 #___________________________________________________________________________________________________ 
~A         DEPT           CALI             GR             DT           NPHI
# ...
         6206.0         14.056         33.004         70.893     -999.25000
         6206.5         14.047         32.686         67.258     -999.25000
         6207.0         14.036         32.369         64.722     -999.25000
         6207.5         14.014         32.052         64.203     -999.25000
         6208.0         13.992         32.279         62.527     -999.25000
         6208.5         13.970         33.380         60.581     -999.25000
         6209.0         13.948         34.481         58.733     -999.25000
         6209.5         13.926         35.093         58.727     -999.25000
         6210.0         13.904         34.805         58.721     -999.25000
         6210.5         13.882         34.516         58.716     -999.25000
         6211.0         13.860         34.228         58.662     -999.25000
         6211.5         13.838         33.940         57.439     -999.25000
         6212.0         13.797         33.651         56.216     -999.25000
         6212.5         13.755         33.363         55.853     -999.25000
         6213.0         13.712         33.184         55.706     -999.25000
         6213.5         13.669         33.191         55.766     -999.25000
         6214.0         13.626         33.198         55.826     -999.25000
         6214.5         13.583         33.205         55.886     -999.25000
         6215.0         13.541         33.211         55.946     -999.25000
         6215.5         13.498         33.218         56.006     -999.25000
         6216.0         13.455         33.225         56.066     -999.25000
         6216.5         13.433         31.696         56.126     -999.25000
         6217.0         13.412         30.163         56.186     -999.25000
         6217.5         13.390         28.631         56.246     -999.25000
         6218.0         13.369         28.176         56.306     -999.25000
         6218.5         13.348         29.716         56.366     -999.25000
         6219.0         13.327         31.256         56.426     -999.25000
         6219.5         13.306         32.290         56.663     -999.25000
         6220.0         13.285         32.259         57.180     -999.25000
         6220.5         13.264         32.228         57.697     -999.25000
         6221.0         13.243         32.197         58.213     -999.25000
         6221.5         13.222         32.166         58.730     -999.25000
         6222.0         13.200         32.134         58.249     -999.25000
         6222.5         13.179         32.103         57.438     -999.25000
         6223.0         13.158         32.483         56.626     -999.25000
         6223.5         13.137         32.885         55.814     -999.25000
         6224.0         13.116         33.287         56.006     -999.25000
         6224.5         13.095         33.689         56.525     -999.25000
         6225.0         13.074         34.090         57.044     -999.25000
         6225.5         13.053         34.492         57.562     -999.25000
         6226.0         13.035         34.894         58.081     -999.25000
         6226.5         13.022         33.601         58.075     -999.25000
         6227.0         13.008         31.475         57.536     -999.25000
         6227.5         12.995         29.349         56.998     -999.25000
         6228.0         12.982         28.972         57.288     -999.25000
         6228.5         12.969         28.721         57.889     -999.25000
         6229.0         12.956         28.471         58.490     -999.25000
         6229.5         12.943         28.220         59.091     -999.25000
         6230.0         12.933         28.262         59.691     -999.25000
         6230.5         12.934         28.780         60.292     -999.25000
         6231.0         12.935         28.797         60.893     -999.25000
         6231.5         12.936         28.424         61.211     -999.25000
         6232.0         12.937         28.051         61.353     -999.25000
         6232.5         12.938         27.962         61.495     -999.25000
         6233.0         12.939         28.862         61.637     -999.25000
         6233.5         12.940         29.762         61.779     -999.25000
         6234.0         12.964         30.662         61.887     -999.25000
         6234.5         13.008         31.563         61.475     -999.25000
         6235.0         13.051         32.664         60.909     -999.25000
         6235.5         13.081         36.377         59.780     -999.25000
         6236.0         13.076         39.369         58.651     -999.25000
         6236.5         13.072         40.302         57.522     -999.25000
         6237.0         13.068         41.235         56.361     -999.25000
         6237.5         13.063         41.071         55.690     -999.25000
         6238.0         13.059         40.691         56.221     -999.25000
         6238.5         13.011         40.310         56.753     -999.25000
         6239.0         12.964         39.930         57.285     -999.25000
         6239.5         12.917         39.550         57.619     -999.25000
         6240.0         12.869         39.170         57.447     -999.25000
         6240.5         12.822         38.790         57.275     -999.25000
         6241.0         12.775         38.410         57.103     -999.25000
         6241.5         12.728         37.026         56.931     -999.25000
         6242.0         12.695         35.081         56.759     -999.25000
         6242.5         12.701         33.588         56.587     -999.25000
         6243.0         12.707         33.814         56.226     -999.25000
         6243.5         12.713         34.839         55.075     -999.25000
         6244.0         12.719         36.221         53.924     -999.25000
         6244.5         12.725         47.483         53.033     -999.25000
         6245.0         12.731         49.189         52.482     -999.25000
         6245.5         12.737         49.144         52.529     -999.25000
         6246.0         12.743         47.348         52.994     -999.25000
         6246.5         12.752         45.471         53.460     -999.25000
         6247.0         12.766         41.431         54.136     -999.25000
         6247.5         12.780         38.261         55.025     -999.25000
         6248.0         12.794         35.930         55.803     -999.25000
         6248.5         12.809         33.599         56.516     -999.25000
         6249.0         12.823         31.268         57.230     -999.25000
         6249.5         12.837         28.936         57.943     -999.25000
         6250.0         12.851         26.605         60.039     -999.25000
         6250.5         12.865         25.196         60.733     -999.25000
         6251.0         12.880         25.034         61.428     -999.25000
         6251.5         12.894         24.873         62.122     -999.25000
         6252.0         12.908         27.166         62.629     -999.25000
         6252.5         12.922         29.931         63.005     -999.25000
         6253.0         12.960         33.186         63.382     -999.25000
         6253.5         13.007         36.441         63.758     -999.25000
         6254.0         13.054         39.619         64.135     -999.25000
         6254.5         13.101         42.402         64.511     -999.25000
         6255.0         13.148         45.185         64.766     -999.25000
         6255.5         13.195         46.372         63.996     -999.25000
         6256.0         13.243         47.023         63.226     -999.25000
         6256.5         13.289         44.781         62.491     -999.25000
         6257.0         13.296         42.326         62.920     -999.25000
         6257.5         13.303         39.872         63.349     -999.25000
         6258.0         13.309         37.977         63.779     -999.25000
         6258.5         13.316         37.539         64.208     -999.25000
