#--------------------------------------------------#
#-------------------ENVERUS, INC.------------------#
#------------------WWW.ENVERUS.COM-----------------#
#------------------COPYRIGHT 2020------------------#
#--------------------------------------------------#
#THIS FILE MAY BE USED ONLY IN ACCORDANCE WITH A CURRENT SUBSCRIPTION AGREEMENT BETWEEN
#THE USER AND ENVERUS, INC. NO PART OF THIS FILE MAY BE REPRODUCED, USED, COPIED,
#MODIFIED, PROPAGATED, OR DISTRIBUTED EXCEPT IN ACCORDANCE WITH THE SUBSCRIPTION
#AGREEMENT. UNAUTHORIZED USE OR DISTRIBUTION OF ALL OR ANY PART OF THIS FILE MAY VIOLATE
#COPYRIGHT, TRADEMARK, AND/OR OTHER LAWS AND IS SUBJECT TO CIVIL AS WELL AS CRIMINAL
#SANCTIONS.
#--------------------------------------------------#
#THIS FILE IS PROVIDED "AS-IS" AND ALL WARRANTIES ARE EXPRESSLY DISCLAIMED, WHETHER
#EXPRESS, ORAL, IMPLIED, STATUTORY OR OTHERWISE, INCLUDING ANY IMPLIED WARRANTY OF FITNESS
#FOR A PARTICULAR PURPOSE, MERCHANTABILITY, TITLE OR NON-INFRINGEMENT, AND ANY WARRANTIES
#ARISING BY VIRTUE OF CUSTOM OF TRADE OR COURSE OF DEALING.  FURTHER, ENVERUS, INC.
#AND ITS LICENSORS DO NOT REPRESENT OR WARRANT THAT THIS FILE WILL MEET USER'S
#REQUIREMENTS OR ARE SUITABLE FOR USER'S NEEDS OR THAT THE DATA OR RESULTS PROVIDED IN
#CONJUNCTION THEREWITH ARE CORRECT, ACCURATE, TIMELY OR RELIABLE. THESE DISCLAIMERS SHALL
#APPLY REGARDLESS OF ANY FAILURE OF ESSENTIAL PURPOSE OF ANY LIMITED REMEDY.  SOME
#JURISDICTIONS DO NOT ALLOW THE EXCLUSION OF CERTAIN WARRANTIES SO SOME OF THE ABOVE
#EXCLUSIONS MAY NOT APPLY. IN NO EVENT SHALL ENVERUS, INC. OR ANY OF ITS AFFILIATES
#BE LIABLE UNDER ANY LEGAL THEORY, WHETHER IN TORT (INCLUDING WITHOUT LIMITATION
#NEGLIGENCE), CONTRACT, STRICT LIABILITY, STATUTORY OR OTHERWISE, FOR ANY SPECIAL,
#INCIDENTAL, CONSEQUENTIAL, EXEMPLARY, PUNITIVE OR INDIRECT DAMAGE OF ANY KIND, INCLUDING
#WITHOUT LIMITATION LOSS OF REVENUE, PROFITS, GOODWILL, USE, AND/OR DATA OR THE COST OF
#PROCUREMENT OF SUBSTITUTE GOODS OR SERVICES, EVEN IF APPRISED OF THE POSSIBILITY OF SUCH
#DAMAGES IN ADVANCE.
#--------------------------------------------------#

~VERSION INFORMATION
VERS. 2.0 : CWLS LOG ASCII STANDARD - VERSION 2.0
WRAP.  NO : ONE LINE PER DEPTH STEP
~WELL INFORMATION
#MNEMONIC     .UNIT              VALUE :DESCRIPTION
STRT       .FT                86 :START DEPTH
STOP       .FT                5215 :STOP DEPTH
STEP       .FT                   0.500 :STEP
NULL       .                  -999.990 :NULL
UWI        .              42389101440000 :UNIQUE WELL ID
API        .              42389101440000 :API NUMBER
COMP       .         :COMPANY
WELL       .         1, :WELL
DATE       .                            :LOG DATE
~CURVE INFORMATION
#MNEMONIC     .UNIT      API CODE :CURVE DESCRIPTION
DEPTH       .FT                      :MEASURED DEPTH
DT.US/FT        UNKNOWN   :DT
GR.API        UNKNOWN   :GR
~A    DEPTH    DT    GR
# ...
 3349     70.054   8.092
 3349.5     69.155   7.292
 3350     68.624   6.493
 3350.5     69.004   6.053
 3351     69.383   6.545
 3351.5     69.763   7.037
 3352     69.635   7.529
 3352.5     69.491   8.02
 3353     69.346   8.512
 3353.5     69.202   9.004
 3354     69.057   8.46
 3354.5     68.913   7.434
 3355     68.769   6.408
 3355.5     68.741   6.083
 3356     68.872   7.099
 3356.5     69.003   8.115
 3357     69.134   9.131
 3357.5     69.265   9.048
 3358     69.396   8.199
 3358.5     69.367   7.349
 3359     69.283   6.5
 3359.5     69.2   7.219
 3360     69.117   8.382
 3360.5     69.034   9.544
 3361     68.95   9.464
 3361.5     68.867   8.137
 3362     68.784   6.81
 3362.5     68.701   6.766
 3363     68.887   7.476
 3363.5     69.149   5.73
 3364     69.411   6.389
 3364.5     69.824   7.048
 3365     73.819   7.707
 3365.5     73.343   8.015
 3366     71.564   7.965
 3366.5     69.784   7.916
 3367     68.571   7.866
 3367.5     68.791   7.172
 3368     69.011   6.214
 3368.5     69.231   5.792
 3369     69.45   6.478
 3369.5     69.64   7.164
 3370     69.453   7.851
 3370.5     69.265   8.537
 3371     69.078   9.223
 3371.5     68.891   9.666
 3372     68.704   9.195
 3372.5     68.517   8.724
 3373     68.657   8.253
 3373.5     68.815   7.782
 3374     68.973   7.311
 3374.5     69.131   6.839
 3375     69.29   6.368
 3375.5     69.448   5.991
 3376     69.285   6.193
 3376.5     69.042   6.396
 3377     68.799   6.598
 3377.5     68.555   6.801
 3378     68.492   7.004
 3378.5     68.571   7.206
 3379     68.65   7.409
 3379.5     68.729   7.966
 3380     68.807   8.778
 3380.5     68.886   9.59
 3381     68.965   9.451
 3381.5     69.044   9.017
 3382     69.123   8.583
 3382.5     69.202   8.149
 3383     69.28   7.716
 3383.5     69.251   7.362
 3384     69.173   8.115
 3384.5     69.095   8.868
 3385     69.017   9.621
 3385.5     68.938   9.461
 3386     68.86   9.035
 3386.5     68.794   8.61
 3387     68.867   8.184
 3387.5     68.939   7.759
 3388     69.012   7.333
 3388.5     69.084   6.907
 3389     69.157   6.696
 3389.5     69.229   7.449
 3390     69.302   8.203
 3390.5     69.192   8.956
 3391     69.081   8.585
 3391.5     68.969   8.075
 3392     68.858   7.566
 3392.5     68.746   7.056
 3393     68.747   6.547
 3393.5     68.974   6.665
 3394     69.2   7.099
 3394.5     69.427   7.533
 3395     69.464   7.967
 3395.5     69.342   8.401
 3396     69.221   8.835
 3396.5     69.099   9.24
 3397     68.977   9.241
 3397.5     68.856   9.242
 3398     68.929   9.243
 3398.5     69.028   9.244
 3399     69.127   9.245
 3399.5     69.226   9.077
 3400     69.325   8.646
 3400.5     69.424   8.215
 3401     69.523   7.783
 3401.5     69.622   7.352
 3402     69.72   6.921
 3402.5     69.819   6.588
 3403     69.8   6.603
 3403.5     69.654   6.618
 3404     69.508   6.634
 3404.5     69.362   6.649
 3405     69.216   6.664
 3405.5     69.07   6.68
 3406     68.924   6.695
 3406.5     68.916   6.71
 3407     69.104   6.726
 3407.5     69.292   6.741
 3408     69.48   6.756
 3408.5     69.603   6.772
 3409     69.359   6.787
 3409.5     69.116   7.051
 3410     68.872   7.321
 3410.5     68.628   7.591
 3411     70.705   7.861
 3411.5     70.424   8.131
 3412     69.98   8.401
 3412.5     69.536   8.671
 3413     69.092   8.941
 3413.5     68.648   9.211
 3414     68.675   7.411
 3414.5     68.836   7.861
 3415     68.997   8.311
 3415.5     69.158   8.761
 3416     69.154   8.919
 3416.5     68.996   8.319
 3417     68.838   7.719
 3417.5     68.679   7.118
 3418     68.521   6.518
 3418.5     68.645   6.499
 3419     68.836   7.006
 3419.5     69.027   7.512
 3420     69.219   8.018
 3420.5     69.41   8.525
 3421     69.564   9.031
 3421.5     69.458   8.669
 3422     69.351   8.18
 3422.5     69.245   7.691
 3423     69.138   7.201
 3423.5     69.032   7.408
 3424     68.926   8.084
 3424.5     68.819   8.76
 3425     68.879   9.436
 3425.5     69.061   9.781
 3426     69.242   9.549
 3426.5     69.423   9.316
 3427     69.604   9.084
 3427.5     69.086   8.852
 3428     68.439   8.619
 3428.5     67.791   8.387
 3429     67.661   8.154
 3429.5     67.919   7.922
 3430     68.178   7.689
 3430.5     68.248   7.457
 3431     67.759   7.224
 3431.5     67.27   6.992
 3432     66.782   6.76
 3432.5     66.293   6.527
 3433     65.804   6.997
 3433.5     67.089   7.809
 3434     69.43   8.62
 3434.5     68.95   9.432
 3435     67.079   10.243
 3435.5     65.209   11.055
 3436     63.339   11.704
 3436.5     61.34   10.772
 3437     59.341   9.84
 3437.5     61.825   9.509
 3438     66.196   11.142
 3438.5     69.491   12.775
 3439     67.726   11.579
 3439.5     65.962   10.069
 3440     63.53   10.356
 3440.5     60.163   12.006
 3441     57.629   10.417
 3441.5     59.127   8.829
 3442     60.624   7.829
 3442.5     62.121   8.757
 3443     63.618   9.686
 3443.5     65.116   10.614
 3444     64.574   8.908
 3444.5     63.689   7.816
 3445     64.814   7.46
 3445.5     67.746   7.104
 3446     70.678   6.749
 3446.5     68.642   6.644
 3447     62.676   7.344
 3447.5     57.979   8.045
 3448     55.194   8.745
 3448.5     52.409   9.446
 3449     50.315   9.967
 3449.5     50.511   7.89
 3450     50.708   6.746
 3450.5     50.904   10.132
 3451     51.1   9.418
 3451.5     51.297   8.704
 3452     51.493   7.99
 3452.5     51.689   7.276
 3453     51.622   6.562
 3453.5     51.417   5.848
 3454     51.211   6.128
 3454.5     51.006   7.167
 3455     50.8   8.205
 3455.5     50.594   9.244
 3456     50.389   9.824
 3456.5     50.234   9.535
 3457     50.422   9.246
 3457.5     50.61   8.957
 3458     50.798   8.667
 3458.5     50.986   8.378
 3459     50.372   8.089
 3459.5     49.636   7.8
 3460     49.78   7.511
 3460.5     49.923   8.031
 3461     50.067   8.741
 3461.5     50.21   9.45
 3462     50.354   10.085
 3462.5     50.498   9.247
 3463     50.641   8.408
 3463.5     50.663   7.569
 3464     50.524   6.73
 3464.5     50.386   6.34
 3465     50.247   7.07
 3465.5     50.109   7.799
 3466     49.97   7.517
 3466.5     49.832   7.164
 3467     49.693   6.81
 3467.5     49.555   6.457
 3468     49.416   6.104
 3468.5     49.278   5.751
 3469     49.139   5.397
 3469.5     49.001   5.044
 3470     48.862   5.776
 3470.5     48.87   6.669
 3471     48.92   7.562
 3471.5     48.97   8.455
 3472     49.021   9.135
 3472.5     49.071   8.801
 3473     49.121   8.467
 3473.5     49.172   8.134
 3474     49.222   7.8
 3474.5     49.272   7.466
 3475     49.323   7.44
 3475.5     49.373   7.744
 3476     49.348   8.048
 3476.5     49.227   8.352
 3477     49.105   7.91
 3477.5     48.983   7.16
 3478     48.861   6.411
 3478.5     48.892   5.661
 3479     48.98   8.376
 3479.5     49.068   11.471
 3480     49.156   13.918
 3480.5     49.244   12.085
 3481     49.332   10.251
 3481.5     49.42   8.418
 3482     49.508   7.235
 3482.5     49.595   7.639
 3483     49.683   8.044
 3483.5     49.66   8.449
 3484     49.408   8.854
 3484.5     49.156   9.149
 3485     48.904   8.499
 3485.5     48.652   7.849
 3486     48.4   7.2
 3486.5     48.148   6.936
 3487     48.046   7.573
 3487.5     48.331   8.21
 3488     48.616   8.841
 3488.5     48.901   8.498
 3489     49.186   8.155
 3489.5     49.439   7.811
 3490     49.195   7.468
 3490.5     48.952   7.125
 3491     48.708   6.782
 3491.5     48.464   6.779
 3492     48.22   7.369
 3492.5     47.976   7.958
 3493     47.945   8.547
 3493.5     47.925   9.137
 3494     47.904   9.363
 3494.5     47.884   8.01
 3495     47.863   6.658
 3495.5     47.923   7.166
 3496     48.18   8.152
 3496.5     48.436   9.139
 3497     48.692   9.383
 3497.5     48.949   8.916
 3498     49.205   8.449
 3498.5     49.462   7.983
 3499     49.718   7.516
 3499.5     49.642   7.049
 3500     49.425   7.309
 3500.5     49.209   7.738
 3501     48.992   8.167
 3501.5     49.179   8.596
 3502     49.787   9.024
 3502.5     49.625   9.453
 3503     49.462   9.882
 3503.5     49.3   10.31
