~Version Information Block
 VERS.                2.00:     CWLS LOG ASCII STANDARD - VERSION 2.000000
 WRAP.                  NO:     One Line Per Depth Step
#
~Well Information Block
#MNEM.UNIT                     Data                         Information
#----------   ------------------------------------------   ----------------
 STRT.FT                                       50.0000:     START DEPTH
 STOP.FT                                    15192.0000:     STOP DEPTH
 STEP.FT                                        0.5000:     STEP
 NULL.                                       -999.0000:     NULL VALUE
 COMP.                                 MOBIL PRODUCING:     COMPANY
 WELL.                                     ST MCINTYRE:     WELL
 FLD .                                   ROJO CABALLOS:     FIELD
 LOC .                                         UNKNOWN:     LOCATION
 LONG.                                 -103.1618580000:     LONGITUDE
 LATI.                                   31.1192890000:     LATITUDE
 CNTY.                                           PECOS:     COUNTY
 STAT.                                           TEXAS:     STATE
 CTRY.                                           U.S.A:     COUNTRY
 SRVC.                                         UNKNOWN:     SERVICE COMPANY
 DATE.                                         UNKNOWN:     DATE
 API .                                  42371053110000:     API NUMBER
 UWI .                                  42371053110000:     UWI NUMBER
 SLAT.                                       31.119289:     Surface latitude
 SLON.                                     -103.161858:     surface longitude
 TVD .                                              NO:     TVD flag
 WSTA.                                             LOC:     Well status
#
~Curve Information Block
#MNEM.UNIT       API CODE      Curve Description
#----------    -------------   -------------------
 DEPT.FT                   :   Depth in Feet
 DT  .UNKNOWN          UNKNOWN:   DT-Load
 DTedit.ft/s          UNKNOWN:   DT-Load
 GR  .UNKNOWN          UNKNOWN:   GR-Load
#
~Parameter Information Block
#MNEM.UNIT            Value               Description
#----------    --------------------    -------------------
 RUN .                         ONE:    Run Number
 PDAT.                          GL:    Permanent Datum
 EPD .FT                          :    Elevation Of Perm. Datum
 LMF .               KELLY BUSHING:    Log Measured From
 EKB .FT                          :    Elevation Of Kelly Bushing
 DF .FT                           :    Elevation Of Derrick Floor
 GL .FT                           :    Elevation Of Ground Level
 TD  .FT                          :    Total Depth
 CSGD.FT                          :    Casing Bottom (Driller) 1
 CSGL.FT                          :    Casing Bottom (Logger) 1
 MUD .                            :    Drilling Fluid Type
 MUDV .CP                         :    Drilling Fluid Viscosity
 MUDD .LB/USG                     :    Drilling Fluid Density
 FL .ML/30MIN                     :    Drilling Fluid Loss
 PH.                              :    Drilling Fluid Ph
 MUDS .                           :    Mud Sample Source
 RM .OHMM                         :    Resistivity Of Mud Sample
 RMT .DEGF                        :    Mud Sample Temperature
 RMF .OHMM                        :    Mud Filtrate Resistivity
 RMFT.DEGF                        :    Mud Filtrate Sample Temperature
 RMC .OHMM                        :    Mud Cake Resistivity
 RMCT.DEGF                        :    Mud Cake Sample Temperature
 RMB .OHMM                        :    Mud Resistivity At Bht
 TMAX .DEGF                       :    Bottom Hole Temperature
#
~Other Information Block
<DescLogPlotStart>   NEURALOG PLOT DEFINITION
PLOTDEFVERSION: 3
LASFILE: E:\Nair Innovations\42_TEXAS\371_Pecos\Mobil_St McIntyre 1 Pecos_1.las
DEPTHSCALE: 239.999996
RESOLUTION: 200
DEPTHLABELFREQ: 100.000000
HEAVYGRIDFREQ: 50.000000
MEDIUMGRIDFREQ: 50.000000
LIGHTGRIDFREQ: 10.000000
#
#   TRACK 1
#
STARTTRACK: 
 LEFTX: 0.500000 inch
 RIGHTX: 3.000000 inch
 SCALETYPE: Linear
 NUMCHARTDIVISIONS: 10
CURVE: GR    0.000000   150.000000 (255,0,0)      Short_Dash        4     N    
CURVE: DTedit 5571.227500 23879.853500 (0,131,131)    Solid             2     N
ENDTRACK: 
#
#   TRACK 2
#
STARTTRACK: 
 LEFTX: 3.750000 inch
 RIGHTX: 6.250000 inch
 SCALETYPE: Linear
 NUMCHARTDIVISIONS: 10
ENDTRACK: 
#
#   TRACK 3
#
STARTTRACK: 
 LEFTX: 6.250000 inch
 RIGHTX: 8.750000 inch
 SCALETYPE: Linear
 NUMCHARTDIVISIONS: 10
CURVE: DT    190.000000 50.000000  (255,0,131)    Solid             2     N    
ENDTRACK: 
<DescLogPlotEnd>
<DepthTrack type='Reference' track='1' Label='0' color='0' hor='0' />
<Reference font='144,0,-900,0,500,0,16777216,Arial' />
~A DEPTH     DT               DTedit             GR              
# ...
    4362.500 69.08360000      14745.98140000   16.02680000     
    4363.000 69.08250000      14730.83500000   15.73360000     
    4363.500 64.92810000      14715.67680000   15.34000000     
    4364.000 62.49720000      14700.51860000   14.95350000     
    4364.500 61.78520000      14685.36230000   14.56690000     
    4365.000 65.31820000      14670.21480000   14.18070000     
    4365.500 67.05970000      14655.05760000   14.30430000     
    4366.000 66.93370000      14639.90040000   14.51150000     
    4366.500 68.24600000      14624.74320000   14.71860000     
    4367.000 71.32810000      14609.59670000   14.71700000     
    4367.500 74.07350000      14594.43950000   14.54970000     
    4368.000 75.98740000      14579.28120000   14.38230000     
    4368.500 81.07450000      14564.12700000   14.21120000     
    4369.000 82.54710000      14548.96970000   14.02200000     
    4369.500 82.66640000      14533.82320000   13.83300000     
    4370.000 70.56430000      14518.66600000   13.81450000     
    4370.500 48.87180000      14503.50780000   14.50400000     
    4371.000 40.43400000      14488.35250000   15.20690000     
    4371.500 -999.99000000    14473.20410000   15.96900000     
    4372.000 -999.99000000    14458.04690000   16.45940000     
    4372.500 -999.99000000    14442.89060000   15.52310000     
    4373.000 -999.99000000    14427.73140000   14.50090000     
    4373.500 63.67360000      14412.57520000   13.47710000     
    4374.000 75.08030000      14397.42870000   12.85010000     
    4374.500 79.91830000      14382.27050000   12.46000000     
    4375.000 80.29800000      14367.11620000   12.57390000     
    4375.500 76.42330000      14351.95700000   12.71920000     
    4376.000 75.21550000      14336.80960000   13.86910000     
    4376.500 73.08230000      14321.65430000   15.08110000     
    4377.000 65.39620000      14306.49710000   15.85250000     
    4377.500 56.34470000      14291.34180000   15.94420000     
    4378.000 46.14670000      14276.19240000   16.03040000     
    4378.500 43.06150000      14261.03610000   16.11670000     
    4379.000 -999.99000000    14245.87990000   16.21120000     
    4379.500 -999.99000000    14230.72270000   16.37320000     
    4380.000 -999.99000000    14215.56350000   16.52820000     
    4380.500 40.61550000      14200.41800000   15.91090000     
    4381.000 43.45770000      14185.25980000   15.42750000     
    4381.500 45.58180000      14170.10450000   15.82110000     
    4382.000 46.66300000      14154.94730000   16.19380000     
    4382.500 49.38950000      14139.79980000   16.41960000     
    4383.000 50.94640000      14124.64260000   16.64530000     
    4383.500 51.88570000      14109.48540000   16.91530000     
    4384.000 52.28090000      14094.32810000   17.22550000     
    4384.500 52.57280000      14079.18160000   16.54690000     
    4385.000 51.99600000      14064.02340000   15.52940000     
    4385.500 50.65600000      14048.86720000   15.19320000     
    4386.000 48.01650000      14033.71090000   15.32910000     
    4386.500 47.07110000      14018.55470000   15.97140000     
    4387.000 46.53500000      14003.40720000   16.71400000     
    4387.500 46.89440000      13988.24900000   18.01740000     
    4388.000 47.00730000      13973.09470000   19.81430000     
    4388.500 46.17300000      13957.93650000   20.83650000     
    4389.000 45.79260000      13942.78910000   21.38820000     
    4389.500 45.57690000      13927.63280000   20.94970000     
    4390.000 49.32200000      13912.47360000   20.01030000     
    4390.500 65.64540000      13897.31740000   15.66530000     
    4391.000 69.26330000      13882.17090000   13.53340000     
    4391.500 70.83740000      13867.01270000   13.95390000     
    4392.000 75.33020000      13851.85740000   14.57510000     
    4392.500 76.41870000      13836.69920000   15.21150000     
    4393.000 75.24020000      13821.54200000   15.85780000     
    4393.500 66.44670000      13806.39550000   14.68130000     
    4394.000 64.83620000      13791.23830000   13.92690000     
    4394.500 63.61510000      13776.08200000   13.33660000     
    4395.000 62.84910000      13760.92580000   13.20190000     
    4395.500 60.16300000      13745.77730000   13.14940000     
    4396.000 59.63730000      13730.62210000   13.84180000     
    4396.500 62.38760000      13715.46480000   14.77580000     
    4397.000 64.27380000      13700.30570000   16.09710000     
    4397.500 68.81240000      13685.16020000   17.41610000     
    4398.000 69.21670000      13670.00200000   17.75190000     
    4398.500 67.25100000      13654.84570000   16.38840000     
    4399.000 65.36470000      13639.68850000   15.02490000     
    4399.500 63.61060000      13624.53030000   14.58550000     
    4400.000 61.95400000      13609.38480000   15.40050000     
    4400.500 63.10630000      13594.22660000   16.46180000     
    4401.000 63.57010000      13579.07030000   16.99520000     
    4401.500 68.62400000      13563.91410000   17.51330000     
    4402.000 69.82600000      13548.76660000   17.50850000     
    4402.500 71.71680000      13533.60940000   17.43420000     
    4403.000 75.01510000      13518.45210000   17.11020000     
    4403.500 75.90320000      13503.29590000   16.32980000     
    4404.000 63.02540000      13488.14940000   15.85030000     
    4404.500 47.06960000      13472.99020000   15.71200000     
    4405.000 44.73620000      13457.83500000   15.48570000     
    4405.500 42.50030000      13442.67680000   15.10730000     
    4406.000 40.56750000      13427.51950000   14.72930000     
    4406.500 -999.99000000    13412.37400000   14.24440000     
    4407.000 39.25560000      13397.21480000   13.68060000     
    4407.500 45.35440000      13382.05860000   13.95820000     
    4408.000 47.91550000      13366.90330000   14.34470000     
    4408.500 47.73440000      13351.75490000   14.96790000     
    4409.000 49.08340000      13336.59960000   15.77070000     
    4409.500 50.27410000      13321.44140000   16.49340000     
    4410.000 52.05940000      13306.28320000   16.69930000     
    4410.500 51.49560000      13291.12790000   16.76780000     
    4411.000 50.47070000      13275.98050000   16.79690000     
    4411.500 50.76260000      13260.82320000   16.95320000     
    4412.000 52.27030000      13245.66600000   16.33370000     
    4412.500 52.68040000      13230.50880000   15.57010000     
    4413.000 52.26310000      13215.36230000   15.77380000     
    4413.500 47.32240000      13200.20510000   16.96780000     
    4414.000 46.77550000      13185.04590000   17.82290000     
    4414.500 46.52150000      13168.35550000   18.17750000     
    4415.000 46.30920000      13193.35940000   17.35910000     
    4415.500 46.17240000      13218.36430000   16.61460000     
    4416.000 46.04910000      13243.36910000   16.54610000     
    4416.500 45.93520000      13268.37400000   17.14040000     
    4417.000 45.83970000      13293.37890000   17.73510000     
    4417.500 46.05440000      13318.38180000   18.32940000     
    4418.000 46.26920000      13343.38670000   18.69840000     
    4418.500 46.36870000      13368.39060000   18.95960000     
    4419.000 46.46100000      13393.39650000   19.22060000     
    4419.500 46.47710000      13418.40140000   19.16380000     
    4420.000 46.40110000      13443.40430000   18.18690000     
    4420.500 46.32510000      13468.41020000   17.17790000     
    4421.000 46.20860000      13493.41600000   16.24080000     
    4421.500 46.06920000      13518.43750000   15.45640000     
    4422.000 45.92980000      13543.44240000   15.14090000     
    4422.500 46.01310000      13568.44730000   15.54730000     
    4423.000 46.14760000      13593.44920000   15.45090000     
    4423.500 46.28370000      13618.45410000   14.84020000     
    4424.000 46.46150000      13643.45900000   14.47200000     
    4424.500 46.63950000      13668.46390000   14.26160000     
