#--------------------------------------------------#
#-------------------ENVERUS, INC.------------------#
#------------------WWW.ENVERUS.COM-----------------#
#------------------COPYRIGHT 2020------------------#
#--------------------------------------------------#
#THIS FILE MAY BE USED ONLY IN ACCORDANCE WITH A CURRENT SUBSCRIPTION AGREEMENT BETWEEN
#THE USER AND ENVERUS, INC. NO PART OF THIS FILE MAY BE REPRODUCED, USED, COPIED,
#MODIFIED, PROPAGATED, OR DISTRIBUTED EXCEPT IN ACCORDANCE WITH THE SUBSCRIPTION
#AGREEMENT. UNAUTHORIZED USE OR DISTRIBUTION OF ALL OR ANY PART OF THIS FILE MAY VIOLATE
#COPYRIGHT, TRADEMARK, AND/OR OTHER LAWS AND IS SUBJECT TO CIVIL AS WELL AS CRIMINAL
#SANCTIONS.
#--------------------------------------------------#
#THIS FILE IS PROVIDED "AS-IS" AND ALL WARRANTIES ARE EXPRESSLY DISCLAIMED, WHETHER
#EXPRESS, ORAL, IMPLIED, STATUTORY OR OTHERWISE, INCLUDING ANY IMPLIED WARRANTY OF FITNESS
#FOR A PARTICULAR PURPOSE, MERCHANTABILITY, TITLE OR NON-INFRINGEMENT, AND ANY WARRANTIES
#ARISING BY VIRTUE OF CUSTOM OF TRADE OR COURSE OF DEALING.  FURTHER, ENVERUS, INC.
#AND ITS LICENSORS DO NOT REPRESENT OR WARRANT THAT THIS FILE WILL MEET USER'S
#REQUIREMENTS OR ARE SUITABLE FOR USER'S NEEDS OR THAT THE DATA OR RESULTS PROVIDED IN
#CONJUNCTION THEREWITH ARE CORRECT, ACCURATE, TIMELY OR RELIABLE. THESE DISCLAIMERS SHALL
#APPLY REGARDLESS OF ANY FAILURE OF ESSENTIAL PURPOSE OF ANY LIMITED REMEDY.  SOME
#JURISDICTIONS DO NOT ALLOW THE EXCLUSION OF CERTAIN WARRANTIES SO SOME OF THE ABOVE
#EXCLUSIONS MAY NOT APPLY. IN NO EVENT SHALL ENVERUS, INC. OR ANY OF ITS AFFILIATES
#BE LIABLE UNDER ANY LEGAL THEORY, WHETHER IN TORT (INCLUDING WITHOUT LIMITATION
#NEGLIGENCE), CONTRACT, STRICT LIABILITY, STATUTORY OR OTHERWISE, FOR ANY SPECIAL,
#INCIDENTAL, CONSEQUENTIAL, EXEMPLARY, PUNITIVE OR INDIRECT DAMAGE OF ANY KIND, INCLUDING
#WITHOUT LIMITATION LOSS OF REVENUE, PROFITS, GOODWILL, USE, AND/OR DATA OR THE COST OF
#PROCUREMENT OF SUBSTITUTE GOODS OR SERVICES, EVEN IF APPRISED OF THE POSSIBILITY OF SUCH
#DAMAGES IN ADVANCE.
#--------------------------------------------------#

~VERSION INFORMATION
VERS. 2.0 : CWLS LOG ASCII STANDARD - VERSION 2.0
WRAP.  NO : ONE LINE PER DEPTH STEP
~WELL INFORMATION
#MNEMONIC     .UNIT              VALUE :DESCRIPTION
STRT       .FT                50 :START DEPTH
STOP       .FT                6118 :STOP DEPTH
STEP       .FT                   0.500 :STEP
NULL       .                  -999.990 :NULL
UWI        .              42389003090000 :UNIQUE WELL ID
API        .              42389003090000 :API NUMBER
COMP       .         :COMPANY
WELL       .         1, :WELL
DATE       .                            :LOG DATE
~CURVE INFORMATION
#MNEMONIC     .UNIT      API CODE :CURVE DESCRIPTION
DEPTH       .FT                      :MEASURED DEPTH
NEUT.API        UNKNOWN   :NEUT
GR.API        UNKNOWN   :GR
DT.US/FT        UNKNOWN   :DT
~A    DEPTH    NEUT    GR    DT
# ...
 4470.5     -999.990   6.795   50.496
 4471     -999.990   8.245   51.103
 4471.5     -999.990   9.696   50.767
 4472     -999.990   11.146   50.43
 4472.5     -999.990   12.596   50.094
 4473     -999.990   14.046   50.163
 4473.5     -999.990   15.333   50.287
 4474     -999.990   15.294   50.412
 4474.5     -999.990   15.254   50.537
 4475     -999.990   15.215   50.661
 4475.5     -999.990   15.175   50.786
 4476     -999.990   15.019   50.91
 4476.5     -999.990   14.277   51.035
 4477     -999.990   13.535   51.16
 4477.5     -999.990   12.793   51.166
 4478     -999.990   12.051   50.971
 4478.5     -999.990   11.309   50.775
 4479     -999.990   10.567   50.58
 4479.5     -999.990   9.825   50.384
 4480     -999.990   10.661   50.189
 4480.5     -999.990   11.684   50.089
 4481     -999.990   12.707   50.137
 4481.5     -999.990   13.73   50.185
 4482     -999.990   14.753   50.233
 4482.5     -999.990   14.787   50.209
 4483     -999.990   14.224   49.937
 4483.5     -999.990   13.662   49.665
 4484     -999.990   13.099   49.393
 4484.5     -999.990   12.537   49.121
 4485     -999.990   11.974   48.872
 4485.5     -999.990   11.412   49.567
 4486     -999.990   10.849   50.261
 4486.5     -999.990   10.286   50.766
 4487     -999.990   9.724   50.752
 4487.5     -999.990   10.124   50.739
 4488     -999.990   10.96   50.726
 4488.5     -999.990   11.796   50.21
 4489     -999.990   12.631   49.653
 4489.5     -999.990   12.381   49.75
 4490     -999.990   11.212   49.848
 4490.5     -999.990   10.445   49.94
 4491     -999.990   10.991   49.337
 4491.5     -999.990   11.536   49.539
 4492     -999.990   12.082   49.687
 4492.5     -999.990   12.627   48.54
 4493     -999.990   13.172   47.393
 4493.5     -999.990   11.717   48.397
 4494     -999.990   10.136   49.697
 4494.5     -999.990   9.996   50.394
 4495     -999.990   10.719   50.279
 4495.5     -999.990   11.442   50.164
 4496     -999.990   12.165   50.058
 4496.5     -999.990   12.72   50.113
 4497     -999.990   11.717   50.169
 4497.5     -999.990   10.713   50.224
 4498     -999.990   9.709   50.28
 4498.5     -999.990   9.691   50.335
 4499     -999.990   10.222   50.391
 4499.5     -999.990   10.754   50.447
 4500     -999.990   11.285   50.154
 4500.5     -999.990   11.816   49.802
 4501     -999.990   12.347   49.449
 4501.5     -999.990   12.878   49.096
 4502     -999.990   13.41   47.797
 4502.5     -999.990   13.941   46.541
 4503     -999.990   13.826   47.384
 4503.5     -999.990   13.674   48.969
 4504     -999.990   13.522   50.554
 4504.5     -999.990   13.37   51.448
 4505     -999.990   13.218   51.025
 4505.5     -999.990   13.066   50.603
 4506     -999.990   12.914   50.18
 4506.5     -999.990   13.42   48.799
 4507     -999.990   15.25   48.616
 4507.5     -999.990   17.08   50.172
 4508     -999.990   18.91   51.403
 4508.5     -999.990   20.037   51.111
 4509     -999.990   18.786   50.819
 4509.5     -999.990   17.536   50.527
 4510     -999.990   16.285   50.236
 4510.5     -999.990   15.034   49.944
 4511     -999.990   13.783   50.115
 4511.5     -999.990   12.532   50.296
 4512     -999.990   11.863   50.477
 4512.5     -999.990   12.561   50.586
 4513     -999.990   13.259   50.323
 4513.5     -999.990   13.957   50.209
 4514     -999.990   14.655   50.438
 4514.5     -999.990   15.353   50.667
 4515     -999.990   16.051   50.897
 4515.5     -999.990   16.49   50.665
 4516     -999.990   15.157   50.357
 4516.5     -999.990   13.824   50.383
 4517     -999.990   12.491   50.605
 4517.5     -999.990   11.158   50.826
 4518     -999.990   10.92   50.665
 4518.5     -999.990   11.76   50.485
 4519     -999.990   12.599   50.305
 4519.5     -999.990   13.439   50.417
 4520     -999.990   14.278   50.539
 4520.5     -999.990   14.707   50.662
 4521     -999.990   13.76   50.785
 4521.5     -999.990   12.812   50.908
 4522     -999.990   11.865   51.03
 4522.5     -999.990   12.407   50.855
 4523     -999.990   13.384   50.38
 4523.5     -999.990   14.361   49.905
 4524     -999.990   15.338   49.568
 4524.5     -999.990   15.532   49.813
 4525     -999.990   15.28   50.058
 4525.5     -999.990   15.027   50.303
 4526     -999.990   14.774   50.456
 4526.5     -999.990   14.446   50.447
 4527     -999.990   13.021   50.438
 4527.5     -999.990   11.595   50.429
 4528     -999.990   11.002   50.42
 4528.5     -999.990   11.874   50.001
 4529     -999.990   12.746   49.091
 4529.5     -999.990   13.617   48.181
 4530     -999.990   14.489   47.27
 4530.5     -999.990   15.361   51.985
 4531     -999.990   16.233   51.2
 4531.5     -999.990   15.096   50.414
 4532     -999.990   13.873   49.628
 4532.5     -999.990   12.65   48.842
 4533     -999.990   12.297   49.697
 4533.5     -999.990   12.834   51.697
 4534     -999.990   13.37   51.65
 4534.5     -999.990   13.906   51.604
 4535     -999.990   14.442   51.557
 4535.5     -999.990   14.978   51.516
 4536     -999.990   15.515   51.588
 4536.5     -999.990   15.451   51.659
 4537     -999.990   14.078   51.731
 4537.5     -999.990   12.705   51.803
 4538     -999.990   11.769   51.699
 4538.5     -999.990   12.306   51.569
 4539     -999.990   12.842   51.438
 4539.5     -999.990   13.378   51.33
 4540     -999.990   13.914   51.379
 4540.5     -999.990   14.451   51.429
 4541     -999.990   14.987   51.479
 4541.5     -999.990   15.451   51.529
 4542     -999.990   14.532   51.579
 4542.5     -999.990   13.613   51.623
 4543     -999.990   12.694   51.585
 4543.5     -999.990   11.774   51.546
 4544     -999.990   11.238   51.508
 4544.5     -999.990   11.188   51.348
 4545     -999.990   11.137   50.896
 4545.5     -999.990   11.086   50.445
 4546     -999.990   11.035   50.284
 4546.5     -999.990   10.985   50.657
 4547     -999.990   10.934   51.029
 4547.5     -999.990   10.883   51.402
 4548     -999.990   11.913   51.684
 4548.5     -999.990   13.153   51.207
 4549     -999.990   14.393   50.731
 4549.5     -999.990   15.634   50.254
 4550     -999.990   16.102   50.566
 4550.5     -999.990   15.045   51.074
 4551     -999.990   13.988   50.738
 4551.5     -999.990   12.931   50.259
 4552     -999.990   11.875   50.033
 4552.5     -999.990   10.818   50.445
 4553     -999.990   9.761   50.857
 4553.5     -999.990   9.343   51.269
 4554     -999.990   9.826   51.163
 4554.5     -999.990   10.31   50.928
 4555     -999.990   10.794   50.693
 4555.5     -999.990   11.277   50.459
 4556     -999.990   11.761   50.224
 4556.5     -999.990   12.245   49.989
 4557     -999.990   12.728   49.787
 4557.5     -999.990   14.55   49.894
 4558     -999.990   13.813   50
 4558.5     -999.990   13.076   50.107
 4559     -999.990   12.339   50.213
 4559.5     -999.990   11.602   50.32
 4560     -999.990   10.866   50.423
 4560.5     -999.990   10.864   50.358
 4561     -999.990   11.107   50.294
 4561.5     -999.990   11.35   50.229
 4562     -999.990   11.593   50.164
 4562.5     -999.990   11.835   50.099
 4563     -999.990   12.078   50.034
 4563.5     -999.990   12.321   49.969
 4564     -999.990   12.564   49.459
 4564.5     -999.990   12.835   49.614
 4565     -999.990   13.933   50.088
 4565.5     -999.990   15.032   50.522
 4566     -999.990   15.387   50.337
 4566.5     -999.990   14.647   50.153
 4567     -999.990   13.907   49.968
 4567.5     -999.990   13.167   49.977
 4568     -999.990   12.427   50.387
 4568.5     -999.990   11.687   50.57
 4569     -999.990   10.947   50.401
 4569.5     -999.990   10.446   50.232
 4570     -999.990   11.665   50.345
 4570.5     -999.990   12.885   50.54
 4571     -999.990   14.104   50.735
 4571.5     -999.990   15.324   50.611
 4572     -999.990   16.543   50.363
 4572.5     -999.990   17.491   50.114
 4573     -999.990   16.523   48.994
 4573.5     -999.990   15.555   50.25
 4574     -999.990   14.587   51.482
 4574.5     -999.990   13.619   51.142
 4575     -999.990   12.651   50.801
 4575.5     -999.990   11.682   50.46
 4576     -999.990   10.714   50.756
 4576.5     -999.990   9.746   50.93
