#--------------------------------------------------#
#-------------------ENVERUS, INC.------------------#
#------------------WWW.ENVERUS.COM-----------------#
#------------------COPYRIGHT 2020------------------#
#--------------------------------------------------#
#THIS FILE MAY BE USED ONLY IN ACCORDANCE WITH A CURRENT SUBSCRIPTION AGREEMENT BETWEEN
#THE USER AND ENVERUS, INC. NO PART OF THIS FILE MAY BE REPRODUCED, USED, COPIED,
#MODIFIED, PROPAGATED, OR DISTRIBUTED EXCEPT IN ACCORDANCE WITH THE SUBSCRIPTION
#AGREEMENT. UNAUTHORIZED USE OR DISTRIBUTION OF ALL OR ANY PART OF THIS FILE MAY VIOLATE
#COPYRIGHT, TRADEMARK, AND/OR OTHER LAWS AND IS SUBJECT TO CIVIL AS WELL AS CRIMINAL
#SANCTIONS.
#--------------------------------------------------#
#THIS FILE IS PROVIDED "AS-IS" AND ALL WARRANTIES ARE EXPRESSLY DISCLAIMED, WHETHER
#EXPRESS, ORAL, IMPLIED, STATUTORY OR OTHERWISE, INCLUDING ANY IMPLIED WARRANTY OF FITNESS
#FOR A PARTICULAR PURPOSE, MERCHANTABILITY, TITLE OR NON-INFRINGEMENT, AND ANY WARRANTIES
#ARISING BY VIRTUE OF CUSTOM OF TRADE OR COURSE OF DEALING.  FURTHER, ENVERUS, INC.
#AND ITS LICENSORS DO NOT REPRESENT OR WARRANT THAT THIS FILE WILL MEET USER'S
#REQUIREMENTS OR ARE SUITABLE FOR USER'S NEEDS OR THAT THE DATA OR RESULTS PROVIDED IN
#CONJUNCTION THEREWITH ARE CORRECT, ACCURATE, TIMELY OR RELIABLE. THESE DISCLAIMERS SHALL
#APPLY REGARDLESS OF ANY FAILURE OF ESSENTIAL PURPOSE OF ANY LIMITED REMEDY.  SOME
#JURISDICTIONS DO NOT ALLOW THE EXCLUSION OF CERTAIN WARRANTIES SO SOME OF THE ABOVE
#EXCLUSIONS MAY NOT APPLY. IN NO EVENT SHALL ENVERUS, INC. OR ANY OF ITS AFFILIATES
#BE LIABLE UNDER ANY LEGAL THEORY, WHETHER IN TORT (INCLUDING WITHOUT LIMITATION
#NEGLIGENCE), CONTRACT, STRICT LIABILITY, STATUTORY OR OTHERWISE, FOR ANY SPECIAL,
#INCIDENTAL, CONSEQUENTIAL, EXEMPLARY, PUNITIVE OR INDIRECT DAMAGE OF ANY KIND, INCLUDING
#WITHOUT LIMITATION LOSS OF REVENUE, PROFITS, GOODWILL, USE, AND/OR DATA OR THE COST OF
#PROCUREMENT OF SUBSTITUTE GOODS OR SERVICES, EVEN IF APPRISED OF THE POSSIBILITY OF SUCH
#DAMAGES IN ADVANCE.
#--------------------------------------------------#

~VERSION INFORMATION
VERS. 2.0 : CWLS LOG ASCII STANDARD - VERSION 2.0
WRAP. NO : ONE LINE PER DEPTH STEP
~WELL INFORMATION
#MNEMONIC     .UNIT              VALUE :DESCRIPTION
STRT       .FT                7.00000 :START DEPTH
STOP       .FT                16581.00000 :STOP DEPTH
STEP       .FT                0.50000 :STEP
NULL       .                -999.25000 :NULL VALUE
UWI       .                42389300260000 :UNIQUE WELL ID
API       .                42389300260000 :API NUMBER
COMP       .                 :COMPANY
WELL       .                 :WELL
FLD       .                 :FIELD
LOC       .                 :LOCATION
CNTY       .                 :COUNTY
STAT       .                 :STATE
CTRY       .                 :COUNTRY
SRVC       .                 :SERVICE COMPANY
DATE       .                 :DATE
~CURVE INFORMATION
#MNEMONIC     .UNIT      API CODE :CURVE DESCRIPTION
DEPTH       .FT                      :MEASURED DEPTH
CAL       .IN        UNKNOWN   :CAL
DT       .US/FT        UNKNOWN   :DT
GR       .GAPI        UNKNOWN   :GR
~A    DEPTH    CAL    DT    GR
# ...
7413.50000    -999.25000    67.77868    99.12214
7414.00000    -999.25000    67.69910    100.91334
7414.50000    -999.25000    68.72674    102.70453
7415.00000    -999.25000    67.45568    104.49573
7415.50000    -999.25000    65.03548    106.28692
7416.00000    -999.25000    62.61527    108.07811
7416.50000    -999.25000    60.19507    109.86931
7417.00000    -999.25000    61.17874    109.83595
7417.50000    -999.25000    62.74799    106.44635
7418.00000    -999.25000    64.31724    103.05675
7418.50000    -999.25000    63.63067    99.66715
7419.00000    -999.25000    59.47039    96.27755
7419.50000    -999.25000    55.31010    103.12082
7420.00000    -999.25000    57.40594    115.71551
7420.50000    -999.25000    63.17554    128.31020
7421.00000    -999.25000    68.94515    140.90490
7421.50000    -999.25000    70.20479    138.40005
7422.00000    -999.25000    68.39544    125.11201
7422.50000    -999.25000    66.58609    111.82397
7423.00000    -999.25000    68.56636    98.53593
7423.50000    -999.25000    69.06966    86.40182
7424.00000    -999.25000    68.89528    85.05542
7424.50000    -999.25000    68.72090    83.70901
7425.00000    -999.25000    68.92578    82.36261
7425.50000    -999.25000    70.03956    81.01620
7426.00000    -999.25000    70.44280    79.66980
7426.50000    -999.25000    69.55653    79.38516
7427.00000    -999.25000    68.67026    84.53795
7427.50000    -999.25000    67.78398    90.14200
7428.00000    -999.25000    67.55433    95.78309
7428.50000    -999.25000    68.58053    101.42419
7429.00000    -999.25000    69.60672    107.06528
7429.50000    -999.25000    70.63291    112.70637
7430.00000    -999.25000    71.64578    118.34747
7430.50000    -999.25000    72.29995    123.98856
7431.00000    -999.25000    72.95413    129.62966
7431.50000    -999.25000    73.60831    122.05344
7432.00000    -999.25000    73.80937    113.09553
7432.50000    -999.25000    72.40131    105.68322
7433.00000    -999.25000    70.99325    125.93919
7433.50000    -999.25000    69.58519    146.19516
7434.00000    -999.25000    72.06293    166.45113
7434.50000    -999.25000    75.32123    186.70710
7435.00000    -999.25000    75.40736    201.21670
7435.50000    -999.25000    74.82678    186.73837
7436.00000    -999.25000    74.24620    172.26005
7436.50000    -999.25000    73.66561    157.78172
7437.00000    -999.25000    73.41054    143.30339
7437.50000    -999.25000    73.75849    128.82507
7438.00000    -999.25000    73.42596    116.26608
7438.50000    -999.25000    71.13576    121.19533
7439.00000    -999.25000    68.84555    126.12458
7439.50000    -999.25000    68.71873    131.05383
7440.00000    -999.25000    69.89223    135.98308
7440.50000    -999.25000    71.06574    138.68329
7441.00000    -999.25000    72.23924    126.80448
7441.50000    -999.25000    72.67540    114.92567
7442.00000    -999.25000    71.23283    103.04685
7442.50000    -999.25000    69.79027    91.16804
7443.00000    -999.25000    68.34770    79.28923
7443.50000    -999.25000    67.87974    83.55909
7444.00000    -999.25000    67.67696    88.17234
7444.50000    -999.25000    67.47418    92.78559
7445.00000    -999.25000    68.03257    95.09194
7445.50000    -999.25000    69.26562    97.03718
7446.00000    -999.25000    70.49868    103.99595
7446.50000    -999.25000    71.73173    111.21910
7447.00000    -999.25000    72.68651    113.29289
7447.50000    -999.25000    72.13982    110.58495
7448.00000    -999.25000    71.59313    107.87702
7448.50000    -999.25000    71.04645    106.77504
7449.00000    -999.25000    70.65815    113.20821
7449.50000    -999.25000    72.77951    119.64139
7450.00000    -999.25000    74.90088    126.07457
7450.50000    -999.25000    77.02224    132.50774
7451.00000    -999.25000    79.14361    138.94092
7451.50000    -999.25000    78.26395    144.08210
7452.00000    -999.25000    73.92618    126.47062
7452.50000    -999.25000    69.58841    108.85915
7453.00000    -999.25000    67.03344    91.24767
7453.50000    -999.25000    64.95968    96.56575
7454.00000    -999.25000    64.24982    104.14194
7454.50000    -999.25000    69.06018    111.71813
7455.00000    -999.25000    73.87055    119.29433
7455.50000    -999.25000    78.68091    126.44333
7456.00000    -999.25000    80.61568    127.26652
7456.50000    -999.25000    79.52299    128.08971
7457.00000    -999.25000    78.43031    128.91290
7457.50000    -999.25000    77.33762    129.08044
7458.00000    -999.25000    76.24493    126.42230
7458.50000    -999.25000    76.52809    124.96402
7459.00000    -999.25000    79.04541    128.78142
7459.50000    -999.25000    78.99821    132.59882
7460.00000    -999.25000    78.95102    131.69120
7460.50000    -999.25000    78.90383    128.52133
7461.00000    -999.25000    80.67272    131.09221
7461.50000    -999.25000    81.10791    136.61083
7462.00000    -999.25000    77.81519    142.12945
7462.50000    -999.25000    74.52248    144.78954
7463.00000    -999.25000    72.42654    145.33657
7463.50000    -999.25000    74.70137    141.26933
7464.00000    -999.25000    76.97619    134.51932
7464.50000    -999.25000    79.25102    127.76931
7465.00000    -999.25000    77.32283    121.01930
7465.50000    -999.25000    72.56196    119.01074
7466.00000    -999.25000    70.59553    122.73897
7466.50000    -999.25000    74.63896    126.46720
7467.00000    -999.25000    78.68240    127.80063
7467.50000    -999.25000    78.17002    123.86650
7468.00000    -999.25000    72.59999    119.93236
7468.50000    -999.25000    68.85935    115.99823
7469.00000    -999.25000    70.24013    112.06409
7469.50000    -999.25000    71.62090    108.12996
7470.00000    -999.25000    73.00168    104.19582
7470.50000    -999.25000    74.38246    103.54923
7471.00000    -999.25000    73.90288    104.23819
7471.50000    -999.25000    72.26763    101.16234
7472.00000    -999.25000    70.63238    98.08648
7472.50000    -999.25000    68.99713    95.01063
7473.00000    -999.25000    67.36188    91.93478
7473.50000    -999.25000    67.92919    88.85893
7474.00000    -999.25000    69.82365    92.14940
7474.50000    -999.25000    70.28518    95.96792
7475.00000    -999.25000    69.75407    94.01752
7475.50000    -999.25000    69.22296    92.06711
7476.00000    -999.25000    68.69185    90.11670
7476.50000    -999.25000    68.68174    88.16629
7477.00000    -999.25000    69.14001    86.71296
7477.50000    -999.25000    69.59827    86.06198
7478.00000    -999.25000    66.91250    85.41100
7478.50000    -999.25000    67.35687    86.79972
7479.00000    -999.25000    67.80124    105.04960
7479.50000    -999.25000    68.24561    103.17539
7480.00000    -999.25000    68.68998    101.39337
7480.50000    -999.25000    69.36147    106.09881
7481.00000    -999.25000    70.16099    110.80425
7481.50000    -999.25000    70.54348    110.96800
7482.00000    -999.25000    69.53158    107.03345
7482.50000    -999.25000    68.51969    103.09889
7483.00000    -999.25000    67.50779    99.16433
7483.50000    -999.25000    68.66133    98.01346
7484.00000    -999.25000    70.29167    100.05159
7484.50000    -999.25000    71.92201    102.08971
7485.00000    -999.25000    73.55235    104.12783
7485.50000    -999.25000    73.81308    106.16596
7486.00000    -999.25000    73.37325    108.20408
7486.50000    -999.25000    72.93341    103.45278
7487.00000    -999.25000    72.49357    96.10616
7487.50000    -999.25000    72.05374    95.04620
7488.00000    -999.25000    71.76803    97.80500
7488.50000    -999.25000    72.01719    100.56380
7489.00000    -999.25000    72.26636    103.32260
7489.50000    -999.25000    72.51553    105.30571
7490.00000    -999.25000    72.76469    103.89326
7490.50000    -999.25000    73.01386    102.48081
7491.00000    -999.25000    73.26303    102.93614
7491.50000    -999.25000    66.85635    104.93753
7492.00000    -999.25000    68.46678    106.93891
7492.50000    -999.25000    70.07721    109.52177
7493.00000    -999.25000    71.68765    113.15062
7493.50000    -999.25000    73.29808    116.77948
