~Version Information Block
 VERS.                2.00:     CWLS LOG ASCII STANDARD - VERSION 2.000000
 WRAP.                  NO:     One Line Per Depth Step
#
~Well Information Block
#MNEM.UNIT                     Data                         Information
#----------   ------------------------------------------   ----------------
 STRT.FT                                       50.0000:     START DEPTH
 STOP.FT                                    15192.0000:     STOP DEPTH
 STEP.FT                                        0.5000:     STEP
 NULL.                                       -999.0000:     NULL VALUE
 COMP.                                 MOBIL PRODUCING:     COMPANY
 WELL.                                     ST MCINTYRE:     WELL
 FLD .                                   ROJO CABALLOS:     FIELD
 LOC .                                         UNKNOWN:     LOCATION
 LONG.                                 -103.1618580000:     LONGITUDE
 LATI.                                   31.1192890000:     LATITUDE
 CNTY.                                           PECOS:     COUNTY
 STAT.                                           TEXAS:     STATE
 CTRY.                                           U.S.A:     COUNTRY
 SRVC.                                         UNKNOWN:     SERVICE COMPANY
 DATE.                                         UNKNOWN:     DATE
 API .                                  42371053110000:     API NUMBER
 UWI .                                  42371053110000:     UWI NUMBER
 SLAT.                                       31.119289:     Surface latitude
 SLON.                                     -103.161858:     surface longitude
 TVD .                                              NO:     TVD flag
 WSTA.                                             LOC:     Well status
#
~Curve Information Block
#MNEM.UNIT       API CODE      Curve Description
#----------    -------------   -------------------
 DEPT.FT                   :   Depth in Feet
 DT  .UNKNOWN          UNKNOWN:   DT-Load
 DTedit.ft/s          UNKNOWN:   DT-Load
 GR  .UNKNOWN          UNKNOWN:   GR-Load
#
~Parameter Information Block
#MNEM.UNIT            Value               Description
#----------    --------------------    -------------------
 RUN .                         ONE:    Run Number
 PDAT.                          GL:    Permanent Datum
 EPD .FT                          :    Elevation Of Perm. Datum
 LMF .               KELLY BUSHING:    Log Measured From
 EKB .FT                          :    Elevation Of Kelly Bushing
 DF .FT                           :    Elevation Of Derrick Floor
 GL .FT                           :    Elevation Of Ground Level
 TD  .FT                          :    Total Depth
 CSGD.FT                          :    Casing Bottom (Driller) 1
 CSGL.FT                          :    Casing Bottom (Logger) 1
 MUD .                            :    Drilling Fluid Type
 MUDV .CP                         :    Drilling Fluid Viscosity
 MUDD .LB/USG                     :    Drilling Fluid Density
 FL .ML/30MIN                     :    Drilling Fluid Loss
 PH.                              :    Drilling Fluid Ph
 MUDS .                           :    Mud Sample Source
 RM .OHMM                         :    Resistivity Of Mud Sample
 RMT .DEGF                        :    Mud Sample Temperature
 RMF .OHMM                        :    Mud Filtrate Resistivity
 RMFT.DEGF                        :    Mud Filtrate Sample Temperature
 RMC .OHMM                        :    Mud Cake Resistivity
 RMCT.DEGF                        :    Mud Cake Sample Temperature
 RMB .OHMM                        :    Mud Resistivity At Bht
 TMAX .DEGF                       :    Bottom Hole Temperature
#
~Other Information Block
<DescLogPlotStart>   NEURALOG PLOT DEFINITION
PLOTDEFVERSION: 3
LASFILE: E:\Nair Innovations\42_TEXAS\371_Pecos\Mobil_St McIntyre 1 Pecos_1.las
DEPTHSCALE: 239.999996
RESOLUTION: 200
DEPTHLABELFREQ: 100.000000
HEAVYGRIDFREQ: 50.000000
MEDIUMGRIDFREQ: 50.000000
LIGHTGRIDFREQ: 10.000000
#
#   TRACK 1
#
STARTTRACK: 
 LEFTX: 0.500000 inch
 RIGHTX: 3.000000 inch
 SCALETYPE: Linear
 NUMCHARTDIVISIONS: 10
CURVE: GR    0.000000   150.000000 (255,0,0)      Short_Dash        4     N    
CURVE: DTedit 5571.227500 23879.853500 (0,131,131)    Solid             2     N
ENDTRACK: 
#
#   TRACK 2
#
STARTTRACK: 
 LEFTX: 3.750000 inch
 RIGHTX: 6.250000 inch
 SCALETYPE: Linear
 NUMCHARTDIVISIONS: 10
ENDTRACK: 
#
#   TRACK 3
#
STARTTRACK: 
 LEFTX: 6.250000 inch
 RIGHTX: 8.750000 inch
 SCALETYPE: Linear
 NUMCHARTDIVISIONS: 10
CURVE: DT    190.000000 50.000000  (255,0,131)    Solid             2     N    
ENDTRACK: 
<DescLogPlotEnd>
<DepthTrack type='Reference' track='1' Label='0' color='0' hor='0' />
<Reference font='144,0,-900,0,500,0,16777216,Arial' />
~A DEPTH     DT               DTedit             GR              
# ...
    5300.000 78.66770000      12711.69730000   36.89750000     
    5300.500 77.71360000      12867.76070000   37.15860000     
    5301.000 76.57710000      13058.73340000   37.52260000     
    5301.500 76.90780000      13002.58300000   38.88200000     
    5302.000 77.38870000      12921.78320000   40.22530000     
    5302.500 78.35330000      12762.70410000   41.31980000     
    5303.000 78.47810000      12742.40820000   41.70500000     
    5303.500 77.28140000      12939.72360000   40.62300000     
    5304.000 78.25390000      12778.91600000   39.12550000     
    5304.500 78.61580000      12720.08980000   38.61780000     
    5305.000 78.36600000      12760.63670000   38.95290000     
    5305.500 78.21500000      12785.27150000   39.30360000     
    5306.000 78.88290000      12677.01950000   38.98930000     
    5306.500 79.81810000      12528.48630000   39.06240000     
    5307.000 78.80020000      12690.32320000   39.60300000     
    5307.500 78.61280000      12720.57420000   39.75020000     
    5308.000 79.41780000      12591.63570000   39.26520000     
    5308.500 80.09950000      12484.47170000   39.53570000     
    5309.000 80.72110000      12388.33500000   39.21390000     
    5309.500 81.14360000      12323.83110000   37.83930000     
    5310.000 80.41930000      12434.82620000   36.78710000     
    5310.500 79.73840000      12541.00880000   35.92050000     
    5311.000 78.73390000      12701.00880000   35.00540000     
    5311.500 77.75810000      12860.39650000   34.46520000     
    5312.000 77.43870000      12913.44040000   35.14550000     
    5312.500 77.40260000      12919.46190000   35.73930000     
    5313.000 78.14780000      12796.26560000   36.14050000     
    5313.500 79.19140000      12627.63380000   38.14930000     
    5314.000 79.45890000      12585.12210000   40.50520000     
    5314.500 80.65860000      12397.93360000   40.19250000     
    5315.000 80.58480000      12409.28810000   37.89870000     
    5315.500 82.33500000      12145.50290000   35.94640000     
    5316.000 83.45120000      11983.05080000   34.86060000     
    5316.500 82.41170000      12134.20020000   35.03750000     
    5317.000 81.16870000      12320.01950000   35.92440000     
    5317.500 78.32010000      12768.11430000   36.62310000     
    5318.000 78.80620000      12689.35740000   36.44740000     
    5318.500 78.55030000      12730.69630000   35.76590000     
    5319.000 77.26600000      12942.30370000   35.14710000     
    5319.500 77.12710000      12965.61130000   35.49130000     
    5320.000 78.05530000      12811.43070000   35.73220000     
    5320.500 79.48030000      12581.73440000   35.64770000     
    5321.000 80.60600000      12406.02440000   35.32790000     
    5321.500 79.74370000      12540.17580000   35.49780000     
    5322.000 79.13830000      12636.10740000   36.08810000     
    5322.500 77.00040000      12986.94630000   37.13320000     
    5323.000 75.40530000      13261.66800000   39.31570000     
    5323.500 76.91020000      13002.17580000   40.92990000     
    5324.000 75.64000000      13220.51860000   42.34220000     
    5324.500 74.11720000      13492.14450000   43.81080000     
    5325.000 73.88390000      13534.74800000   44.82300000     
    5325.500 76.46770000      13077.41800000   45.39320000     
    5326.000 76.53690000      13065.59280000   46.69320000     
    5326.500 73.52650000      13600.53910000   47.61380000     
    5327.000 73.45280000      13614.18550000   47.47370000     
    5327.500 74.62880000      13399.65230000   46.25950000     
    5328.000 74.46180000      13429.70510000   44.21630000     
    5328.500 73.54610000      13596.91500000   42.28580000     
    5329.000 73.20850000      13659.61520000   42.23650000     
    5329.500 73.00170000      13698.31050000   42.27330000     
    5330.000 72.45210000      13802.22170000   41.66350000     
    5330.500 71.65150000      13956.44240000   41.33190000     
    5331.000 71.03760000      14077.05270000   41.43490000     
    5331.500 70.54060000      14176.23240000   41.95230000     
    5332.000 69.89250000      14307.68650000   43.28000000     
    5332.500 69.20540000      14449.74020000   44.62490000     
    5333.000 69.19750000      14451.38870000   44.55990000     
    5333.500 69.06190000      14479.76460000   44.03960000     
    5334.000 68.76940000      14541.35060000   43.91540000     
    5334.500 68.13850000      14675.99120000   44.65470000     
    5335.000 67.75850000      14758.29590000   46.63210000     
    5335.500 67.54350000      14805.27340000   49.69770000     
    5336.000 67.42830000      14830.56840000   53.17040000     
    5336.500 67.43550000      14828.98440000   56.43010000     
    5337.000 67.38680000      14839.70120000   59.79630000     
    5337.500 67.30420000      14857.91410000   62.54020000     
    5338.000 67.12280000      14898.06640000   62.62010000     
    5338.500 66.85680000      14957.34280000   60.02810000     
    5339.000 66.51670000      15033.81840000   53.37080000     
    5339.500 66.21730000      15101.79390000   48.67690000     
    5340.000 66.40470000      15059.17480000   47.76700000     
    5340.500 67.20320000      14880.24320000   50.68570000     
    5341.000 68.05730000      14693.50200000   52.79930000     
    5341.500 68.73140000      14549.39060000   53.19120000     
    5342.000 69.32470000      14424.87300000   52.20590000     
    5342.500 69.87060000      14312.17190000   50.67000000     
    5343.000 70.45750000      14192.95410000   49.65270000     
    5343.500 70.38010000      14208.56250000   49.62260000     
    5344.000 70.06620000      14272.21680000   50.64650000     
    5344.500 69.63170000      14361.27540000   51.33470000     
    5345.000 69.08730000      14474.43950000   49.75720000     
    5345.500 68.21080000      14660.43460000   47.46190000     
    5346.000 66.60510000      15013.86430000   45.13690000     
    5346.500 65.73120000      15213.47560000   43.85750000     
    5347.000 66.19430000      15107.04100000   44.80970000     
    5347.500 66.73300000      14985.08980000   46.04500000     
    5348.000 67.35750000      14846.15720000   47.23490000     
    5348.500 68.53360000      14591.38280000   47.87050000     
    5349.000 69.59070000      14369.73630000   46.12480000     
    5349.500 70.05660000      14274.17190000   44.22720000     
    5350.000 69.56590000      14374.85840000   42.85410000     
    5350.500 68.80410000      14534.01760000   44.23350000     
    5351.000 68.48070000      14602.65530000   45.55330000     
    5351.500 68.11670000      14680.68750000   46.45720000     
    5352.000 67.49670000      14815.54000000   46.86760000     
    5352.500 66.31020000      15080.63570000   47.00090000     
    5353.000 65.79790000      15198.05370000   48.00130000     
    5353.500 65.33060000      15306.76370000   49.53330000     
    5354.000 64.97070000      15391.55270000   51.59690000     
    5354.500 64.84380000      15421.67380000   54.16300000     
    5355.000 65.00780000      15382.77050000   57.07830000     
    5355.500 65.29360000      15315.43650000   60.25040000     
    5356.000 65.46730000      15274.80080000   63.66980000     
    5356.500 66.39150000      15062.16890000   64.34230000     
    5357.000 67.15890000      14890.05960000   64.09480000     
    5357.500 67.42020000      14832.35060000   64.12040000     
    5358.000 67.06820000      14910.19630000   66.12790000     
    5358.500 66.96250000      14933.73140000   67.71150000     
    5359.000 67.54110000      14805.79980000   69.52230000     
    5359.500 68.01140000      14703.41800000   73.34890000     
    5360.000 68.45530000      14608.07320000   75.29140000     
    5360.500 69.59290000      14369.28120000   74.75050000     
    5361.000 70.38260000      14208.05760000   71.01280000     
    5361.500 69.63350000      14360.90430000   64.19270000     
    5362.000 68.77880000      14539.36330000   55.74440000     
