###############################################
##         ENVERUS                           ##
##         ESS - Open Hole                   ##
##         PERMIAN / DELAWARE                ##
##         Nov 04 2023  V4.0                 ##
##         42-389-30075-00-00                ##
###############################################
## Copyright 2017-2023  ENVERUS.  All Rights Reserved. 
## Confidential - Property of ENVERUS, use governed by terms and 
## conditions found within the existing Information Services Subscription Agreement 
## (as may be amended, the “ISSA”) between Customer and ENVERUS. 
## 
~VERSION INFORMATION
# MNEM.UNIT                               DATA : DESCRIPTION OF MNEMONIC
#-----.-----     ----------------------------- : -----------------------------
VERS.                                     2.00 : CWLS LOG ASCII STANDARD - VERSION 2.00
WRAP.                                       NO : MULTIPLE LINES PER DEPTH STEP
VEND.                                  ENVERUS : VENDOR
TYPE.                          ESS - OPEN HOLE : ENVERUS ESSENTIAL CURVES – ACCESSIBLE THROUGH ENVERUS PRISM(TM)
DOC.                                  32306518 : ENVERUS HEADER RAW DOCUMENT ID
#___________________________________________________________________________________________________ 
~WELL INFORMATION 
# kPY+8M9YT4rQMtoZY4hkcKqQFbcx8dAfbukAxGfLCr0mY2TilAra5+x7Ygngqds2nYZXTdz9AGmqNniTAH+qTQ== 
# MNEM.UNIT                                              DATA : DESCRIPTION OF MNEMONIC 
#-----.-----                    ----------------------------- : ----------------------------- 
CNTY.                                                  REEVES : COUNTY 
STATE.                                                  TEXAS : STATE 
CNTRY.                                                    USA : COUNTRY 
API.                                             42-389-30075 : API (10 Digit) 
API_14.                                    42-389-30075-00-00 : API (14 Digits) 
API_14_std.                                 42-389-30075-0000 : API (14 Digits Standard) 
UWI.                                           42389300750000 : UNIQUE WELL ID 
WELL.                                        CAMPBELL STATE 1 : WELL NAME
STRT.FT                                                   5.0 : START DEPTH
STOP.FT                                               20980.0 : STOP DEPTH
STEP.FT                                                   0.5 : STEP BETWEEN DEPTHS
NULL.                                                 -999.25 : NULL VALUE
#___________________________________________________________________________________________________ 
~CURVE INFORMATION 
# MNEM.UNIT           : CURVE DESCRIPTION 
#-----.-----          : ----------------------------- 
 DEPT.FT               : MEASURED DEPTH 
 CALI.IN               : CALIPER (CAL - CAL) 
 GR.API                : GAMMA RAY (GR) 
 DT.US/FT              : SONIC DELTA TRANSIT TIME (DT) 
 NPHI.V/V              : NEUTRON POROSITY (NPHI) 
 #___________________________________________________________________________________________________ 
~A         DEPT           CALI             GR             DT           NPHI
# ...
         6948.0         12.997         31.504         60.259     -999.25000
         6948.5         12.985         31.581         59.588     -999.25000
         6949.0         12.974         31.440         58.917     -999.25000
         6949.5         12.963         31.299         58.372     -999.25000
         6950.0         12.952         34.311         60.321     -999.25000
         6950.5         12.940         40.490         62.269     -999.25000
         6951.0         12.929         46.514         64.218     -999.25000
         6951.5         12.918         51.727         66.166     -999.25000
         6952.0         12.906         56.939         67.852     -999.25000
         6952.5         12.907         62.151         69.341     -999.25000
         6953.0         12.912         64.570         70.398     -999.25000
         6953.5         12.918         63.718         70.651     -999.25000
         6954.0         12.923         60.583         70.905     -999.25000
         6954.5         12.929         55.730         66.819     -999.25000
         6955.0         12.934         50.569         63.625     -999.25000
         6955.5         12.939         47.066         62.435     -999.25000
         6956.0         12.945         47.058         62.081     -999.25000
         6956.5         12.950         47.050         62.238     -999.25000
         6957.0         12.955         47.042         62.394     -999.25000
         6957.5         12.961         46.006         62.088     -999.25000
         6958.0         12.966         44.933         61.358     -999.25000
         6958.5         12.972         43.860         60.629     -999.25000
         6959.0         12.969         42.787         59.899     -999.25000
         6959.5         12.962         42.628         60.197     -999.25000
         6960.0         12.954         42.498         60.665     -999.25000
         6960.5         12.946         42.367         61.134     -999.25000
         6961.0         12.939         42.237         61.602     -999.25000
         6961.5         12.931         43.622         62.070     -999.25000
         6962.0         12.924         45.009         62.539     -999.25000
         6962.5         12.916         46.396         62.925     -999.25000
         6963.0         12.908         47.783         63.132     -999.25000
         6963.5         12.901         48.312         63.339     -999.25000
         6964.0         12.893         47.850         63.546     -999.25000
         6964.5         12.886         47.208         63.843     -999.25000
         6965.0         12.878         46.187         64.150     -999.25000
         6965.5         12.870         45.166         64.457     -999.25000
         6966.0         12.863         44.145         64.764     -999.25000
         6966.5         12.855         43.123         65.071     -999.25000
         6967.0         12.848         42.955         65.378     -999.25000
         6967.5         12.840         44.051         65.088     -999.25000
         6968.0         12.832         45.148         64.791     -999.25000
         6968.5         12.825         46.245         64.495     -999.25000
         6969.0         12.817         47.341         64.413     -999.25000
         6969.5         12.810         46.947         64.832     -999.25000
         6970.0         12.802         45.363         65.251     -999.25000
         6970.5         12.794         43.780         65.670     -999.25000
         6971.0         12.787         44.116         66.089     -999.25000
         6971.5         12.779         46.622         66.247     -999.25000
         6972.0         12.772         49.127         66.249     -999.25000
         6972.5         12.764         50.268         66.252     -999.25000
         6973.0         12.754         49.863         66.254     -999.25000
         6973.5         12.740         49.477         66.034     -999.25000
         6974.0         12.726         49.978         65.794     -999.25000
         6974.5         12.711         50.480         65.554     -999.25000
         6975.0         12.697         50.981         65.314     -999.25000
         6975.5         12.683         51.006         65.074     -999.25000
         6976.0         12.669         50.800         64.833     -999.25000
         6976.5         12.654         53.878         64.593     -999.25000
         6977.0         12.640         57.586         64.353     -999.25000
         6977.5         12.626         61.293         64.113     -999.25000
         6978.0         12.612         67.814         64.157     -999.25000
         6978.5         12.597         73.925         64.815     -999.25000
         6979.0         12.583         78.712         66.400     -999.25000
         6979.5         12.572         83.498         67.984     -999.25000
         6980.0         12.571        102.910         69.569     -999.25000
         6980.5         12.570        117.854         70.807     -999.25000
         6981.0         12.570        124.750         71.153     -999.25000
         6981.5         12.569        123.160         70.615     -999.25000
         6982.0         12.568        121.055         70.077     -999.25000
         6982.5         12.568        100.647         66.449     -999.25000
         6983.0         12.567         84.704         62.825     -999.25000
         6983.5         12.566         68.762         61.487     -999.25000
         6984.0         12.565         55.391         61.874     -999.25000
         6984.5         12.565         53.371         62.308     -999.25000
         6985.0         12.564         54.165         62.742     -999.25000
         6985.5         12.555         55.227         63.099     -999.25000
         6986.0         12.544         56.515         63.199     -999.25000
         6986.5         12.532         57.802         63.298     -999.25000
         6987.0         12.520         66.471         63.397     -999.25000
         6987.5         12.509         73.714         63.723     -999.25000
         6988.0         12.497         79.479         64.099     -999.25000
         6988.5         12.486         86.596         64.474     -999.25000
         6989.0         12.485         94.220         64.850     -999.25000
         6989.5         12.506         88.477         65.225     -999.25000
         6990.0         12.527         82.733         65.600     -999.25000
         6990.5         12.548         81.262         65.976     -999.25000
         6991.0         12.569         82.286         66.351     -999.25000
         6991.5         12.589         83.310         66.727     -999.25000
         6992.0         12.610         84.333         67.102     -999.25000
         6992.5         12.631         80.359         67.478     -999.25000
         6993.0         12.652         68.253         66.519     -999.25000
         6993.5         12.673         56.148         64.674     -999.25000
         6994.0         12.694         50.160         63.132     -999.25000
         6994.5         12.714         47.795         62.703     -999.25000
         6995.0         12.735         46.963         63.080     -999.25000
         6995.5         12.756         46.132         63.835     -999.25000
         6996.0         12.772         45.301         64.590     -999.25000
         6996.5         12.788         45.500         65.345     -999.25000
         6997.0         12.803         45.967         66.100     -999.25000
         6997.5         12.819         46.435         66.335     -999.25000
         6998.0         12.834         46.902         66.295     -999.25000
         6998.5         12.850         47.370         66.254     -999.25000
         6999.0         12.865         47.348         66.214     -999.25000
         6999.5         12.881         47.284         66.174     -999.25000
         7000.0         12.896         47.220         66.133     -999.25000
         7000.5         12.912         47.157         66.093     -999.25000
