#--------------------------------------------------#
#-------------------ENVERUS, INC.------------------#
#------------------WWW.ENVERUS.COM-----------------#
#------------------COPYRIGHT 2020------------------#
#--------------------------------------------------#
#THIS FILE MAY BE USED ONLY IN ACCORDANCE WITH A CURRENT SUBSCRIPTION AGREEMENT BETWEEN
#THE USER AND ENVERUS, INC. NO PART OF THIS FILE MAY BE REPRODUCED, USED, COPIED,
#MODIFIED, PROPAGATED, OR DISTRIBUTED EXCEPT IN ACCORDANCE WITH THE SUBSCRIPTION
#AGREEMENT. UNAUTHORIZED USE OR DISTRIBUTION OF ALL OR ANY PART OF THIS FILE MAY VIOLATE
#COPYRIGHT, TRADEMARK, AND/OR OTHER LAWS AND IS SUBJECT TO CIVIL AS WELL AS CRIMINAL
#SANCTIONS.
#--------------------------------------------------#
#THIS FILE IS PROVIDED "AS-IS" AND ALL WARRANTIES ARE EXPRESSLY DISCLAIMED, WHETHER
#EXPRESS, ORAL, IMPLIED, STATUTORY OR OTHERWISE, INCLUDING ANY IMPLIED WARRANTY OF FITNESS
#FOR A PARTICULAR PURPOSE, MERCHANTABILITY, TITLE OR NON-INFRINGEMENT, AND ANY WARRANTIES
#ARISING BY VIRTUE OF CUSTOM OF TRADE OR COURSE OF DEALING.  FURTHER, ENVERUS, INC.
#AND ITS LICENSORS DO NOT REPRESENT OR WARRANT THAT THIS FILE WILL MEET USER'S
#REQUIREMENTS OR ARE SUITABLE FOR USER'S NEEDS OR THAT THE DATA OR RESULTS PROVIDED IN
#CONJUNCTION THEREWITH ARE CORRECT, ACCURATE, TIMELY OR RELIABLE. THESE DISCLAIMERS SHALL
#APPLY REGARDLESS OF ANY FAILURE OF ESSENTIAL PURPOSE OF ANY LIMITED REMEDY.  SOME
#JURISDICTIONS DO NOT ALLOW THE EXCLUSION OF CERTAIN WARRANTIES SO SOME OF THE ABOVE
#EXCLUSIONS MAY NOT APPLY. IN NO EVENT SHALL ENVERUS, INC. OR ANY OF ITS AFFILIATES
#BE LIABLE UNDER ANY LEGAL THEORY, WHETHER IN TORT (INCLUDING WITHOUT LIMITATION
#NEGLIGENCE), CONTRACT, STRICT LIABILITY, STATUTORY OR OTHERWISE, FOR ANY SPECIAL,
#INCIDENTAL, CONSEQUENTIAL, EXEMPLARY, PUNITIVE OR INDIRECT DAMAGE OF ANY KIND, INCLUDING
#WITHOUT LIMITATION LOSS OF REVENUE, PROFITS, GOODWILL, USE, AND/OR DATA OR THE COST OF
#PROCUREMENT OF SUBSTITUTE GOODS OR SERVICES, EVEN IF APPRISED OF THE POSSIBILITY OF SUCH
#DAMAGES IN ADVANCE.
#--------------------------------------------------#

# EXPORTED FROM DI TRANSFORM
# DI TRANSFORM - A PRODUCT OF DRILLINGINFO, INC. - WWW.DRILLINGINFO.COM
#
~VERSION INFORMATION
 VERS.        2.0 : LAS ASCII STANDARD - VERSION 2.0
 WRAP.         NO : ONE LINE PER DEPTH STEP

~WELL INFORMATION
#MNEM.UNIT       DATA TYPE       INFORMATION
#---------       ---------       -----------
 STRT.FT           190 : START DEPTH
 STOP.FT         12010 : STOP DEPTH
 STEP.FT           0.5 : STEP LENGTH
 NULL.         -999.25 : NULL VALUE
 UWI.   42389335580000 : UNIQUE WELL ID
 API.   42389335580000 : WELL IDENTIFIER
 COMP.                 : COMPANY
 WELL.          DRD_55 : WELL NAME
 FLD.                  : FIELD NAME
 LOC.                  : WELL LOCATION
 CNTY.                 : COUNTY
 STAT.                 : STATE OR PROVINCE
 CTRY.                 : COUNTRY
 SRVC.                 : SERVICE COMPANY
 DATE.                 : DATE

~CURVE INFORMATION
#MNEM.UNIT       API CODE       CURVE DESCRIPTION
#---------       --------       -----------------
 DEPT.FT          : <MEASURED DEPTH>
 CAL.IN           : CALIPER
 DPHI.%           : DENSITY POROSITY
 DT.US/FT         : SONIC
 GR.GAPI          : GAMMA RAY
 NPHI.%           : NEUTRON POROSITY
 RHOB.G/CM3       : DENSITY

~PARAMETER INFORMATION
#MNEM.UNIT       VALUE       DESCRIPTION
#---------       -----       -----------
 EKB.FT      2793 : ELEVATION ABOVE MSL

~A      DEPT         CAL        DPHI          DT          GR        NPHI        RHOB
# ...
        8645      8.8745     19.3689     79.0009     90.4365     19.8702      2.4045
      8645.5      8.8745     18.7935     78.5929     98.4348     19.8701      2.4089
        8646      8.8745     18.9239     78.2468     90.6487     23.5075      2.4221
      8646.5      8.8745     17.2866     77.9341     92.9772     19.3767      2.4393
        8647      8.8745     16.0876     77.8819     95.0883     19.4219      2.4552
      8647.5      8.8745     15.7487     78.0884     99.9851     20.3273      2.4725
        8648      8.8745     13.7643     78.3705     101.805     19.8668      2.4873
      8648.5      8.8745     14.5207     79.0453     96.3522     19.9042      2.4927
        8649      8.8745     14.1006     80.1999    109.8282     21.0576       2.489
      8649.5      8.8745     12.1611     81.2764    116.6662     23.4257      2.4779
        8650      8.8745     16.8058     81.9738    103.5578     26.9799      2.4397
      8650.5      8.8745     18.2163     82.0313     93.6213     24.3144      2.4228
        8651      8.8745      14.699     81.6817     84.9917     23.3667      2.4526
      8651.5      8.8745     16.4213     81.2638     79.2936     22.8761      2.4426
        8652      8.8745     16.0001     80.7265     83.7676     24.6291      2.4344
      8652.5      8.8745      17.503     80.1963     81.7099       19.59      2.4321
        8653      8.8745     16.8417     79.4072     79.8765     21.4732      2.4409
      8653.5      8.8745      16.211     78.4448     76.9599     23.2081      2.4387
        8654      8.8745     17.2233     77.4673      69.481     22.4997      2.4275
      8654.5      8.8745     18.4376     76.8412     72.6226     20.9947      2.4224
        8655      8.8745     17.2455      76.647     67.2682     18.2948      2.4171
      8655.5      8.8745     17.8835     76.8983     69.6105     17.9996      2.4077
        8656      8.8745     18.8722     77.5861     74.8163     21.8878       2.405
      8656.5      8.8745     19.0716     78.4631     85.3391     21.1363      2.4134
        8657      8.8745     18.1228      79.947     87.9654     19.1275      2.4246
      8657.5      8.8745     16.7223     81.3622     98.5642     22.6001       2.438
        8658      8.8745     16.0053      82.543    111.4696      24.034      2.4478
      8658.5      8.8745     16.3331     82.7699     105.123     22.8837      2.4576
        8659      8.8745     14.7334     82.2304      90.221     24.7847      2.4651
      8659.5      8.8745     14.9241     80.8656     85.2801     27.7393      2.4692
        8660      8.8745     13.5364     79.2068     83.9635     26.6854      2.4734
      8660.5      8.8745     15.6506     77.9694     78.4168     20.1487      2.4647
        8661      8.8745     15.4487     77.2974     77.0575     24.7569      2.4589
      8661.5      8.8745     15.1964     77.1905     78.2498     21.0729      2.4591
        8662      8.8745     15.3995     77.7905     87.9864     19.8339      2.4503
      8662.5      8.8745     16.4275     78.6285     84.3851     18.0257      2.4458
        8663      8.8745     16.0023     79.5945     93.5519     21.5098      2.4432
      8663.5      8.8745     15.9094     80.8786     99.8411     20.8503      2.4356
        8664      8.8745     17.6502     81.7563    107.1285     19.0304      2.4208
      8664.5      8.8745     18.5475     81.9516    115.0472     25.5731      2.4082
        8665      8.8745     18.4637       81.24    116.5135     22.8975       2.423
      8665.5      8.8745     16.7265     79.7177     95.4721     25.0254      2.4529
        8666      8.8745     15.4445     78.0735     71.7761     23.7398      2.4806
      8666.5      8.8745     13.5057     77.9224     60.4936     28.0725       2.502
        8667      8.8745     12.5936     79.3416     65.2105     20.9906      2.4797
      8667.5      8.8745     12.3925       81.34     68.0162     18.2917      2.4401
        8668      8.8745     16.8111     82.6743     70.4332     20.3472       2.415
      8668.5      8.8745     18.4156     82.5148     80.9239     24.0825      2.4275
        8669      8.8745     17.6186     81.2537     77.5116     24.6601      2.4535
      8669.5      8.8745     15.5638     80.1163     77.1854     22.6911      2.4701
        8670      8.8745     14.8537     79.6116      76.485     23.1014      2.4592
      8670.5      8.8745     15.2549     79.8864     68.9244     21.9611      2.4468
        8671      8.8745     16.0607     80.4978     75.0859     20.9034      2.4581
      8671.5      8.8745     16.0353     80.7509     81.0936     20.0629      2.4679
        8672      8.8745     14.4607     80.8147     83.1475     21.8247      2.4617
      8672.5      8.8745     15.7508     80.8147      84.501     20.5005      2.4576
        8673      8.8745     15.2529     80.9733     92.5756     22.8288      2.4532
      8673.5      8.8745      15.308     81.7498     88.2565     22.6634       2.448
        8674      8.8745     16.7367     82.6833    101.4766      21.002      2.4396
      8674.5      8.8745     16.4211     83.5797     93.7945     19.5748      2.4304
        8675      8.8745     17.7699     84.1672     85.4646     23.2358      2.4395
      8675.5      8.8745     16.6136     84.3585     95.5441     24.6447      2.4478
        8676      8.8745     15.9046     84.0127     95.5674     23.2652      2.4576
      8676.5      8.8693     15.6067     83.4147     89.5785     25.0691      2.4644
        8677      8.8745     14.6132     82.7892     83.1159     23.3156      2.4671
      8677.5      8.8745      14.799     82.1638     86.9665     25.6119      2.4687
        8678      8.8745     14.6377     81.5384     86.0698     24.4487      2.4403
      8678.5      8.8745     17.1794     80.9529     84.8415     23.1126      2.4295
        8679      8.8745     17.4862     80.4595     82.2773     22.0795      2.4379
      8679.5      8.8737       17.03      80.144     83.8175     21.6652      2.4463
        8680       8.834     16.0344     80.7611     86.3233     21.0483      2.4508
      8680.5       8.834     17.2904     81.7109     85.1354     23.0884      2.3923
        8681       8.834     20.0686     82.7436     77.6766     21.7489      2.3976
      8681.5       8.834     18.8706     83.3262     84.4153     22.2687      2.3999
        8682       8.834     19.3658     83.6253     84.4147     27.4875       2.405
      8682.5       8.834      19.238     83.4029     79.2195     24.8933      2.4132
        8683       8.834      18.006     82.8838     87.3174     25.4083      2.4191
      8683.5       8.834      18.167     82.3001     91.7595     26.5547      2.4143
        8684       8.834     18.5352     81.6094     84.8944     25.0366      2.4121
      8684.5       8.834     18.2675     81.3035     93.1339     21.2123       2.407
        8685       8.834     17.9319      81.637     89.7704     21.8421       2.404
      8685.5       8.834      19.303     82.3447     86.1715     21.0117      2.4368
        8686       8.834     15.2321     83.1769     79.5946     24.5893      2.4513
      8686.5       8.834     16.9274     83.7831     84.4924      24.076       2.425
        8687       8.834     17.4883     83.9919     88.0295     24.6702       2.419
      8687.5       8.834     17.6246     83.5863     85.3334     27.4288      2.4163
        8688       8.834     18.3212     82.7203     85.6275     24.0645      2.4258
      8688.5       8.834     17.5665     81.7822     85.9569     26.7814      2.4263
        8689       8.834     17.2238     81.2929     86.8836     25.5332      2.4126
      8689.5       8.834     17.8365     81.1813      83.805      24.871      2.4059
        8690       8.834     19.5927     81.4506     81.2979     23.9954      2.4277
      8690.5       8.834     17.6153     81.7634     81.3765     23.2396      2.4361
        8691       8.834     16.3317     81.7529     81.9838     20.9296      2.4238
      8691.5       8.834     18.0418     81.3252     80.9413     22.2365      2.4379
        8692       8.834     16.8618     81.0052     77.4691      24.664      2.4414
