#--------------------------------------------------#
#-------------------ENVERUS, INC.------------------#
#------------------WWW.ENVERUS.COM-----------------#
#------------------COPYRIGHT 2020------------------#
#--------------------------------------------------#
#THIS FILE MAY BE USED ONLY IN ACCORDANCE WITH A CURRENT SUBSCRIPTION AGREEMENT BETWEEN
#THE USER AND ENVERUS, INC. NO PART OF THIS FILE MAY BE REPRODUCED, USED, COPIED,
#MODIFIED, PROPAGATED, OR DISTRIBUTED EXCEPT IN ACCORDANCE WITH THE SUBSCRIPTION
#AGREEMENT. UNAUTHORIZED USE OR DISTRIBUTION OF ALL OR ANY PART OF THIS FILE MAY VIOLATE
#COPYRIGHT, TRADEMARK, AND/OR OTHER LAWS AND IS SUBJECT TO CIVIL AS WELL AS CRIMINAL
#SANCTIONS.
#--------------------------------------------------#
#THIS FILE IS PROVIDED "AS-IS" AND ALL WARRANTIES ARE EXPRESSLY DISCLAIMED, WHETHER
#EXPRESS, ORAL, IMPLIED, STATUTORY OR OTHERWISE, INCLUDING ANY IMPLIED WARRANTY OF FITNESS
#FOR A PARTICULAR PURPOSE, MERCHANTABILITY, TITLE OR NON-INFRINGEMENT, AND ANY WARRANTIES
#ARISING BY VIRTUE OF CUSTOM OF TRADE OR COURSE OF DEALING.  FURTHER, ENVERUS, INC.
#AND ITS LICENSORS DO NOT REPRESENT OR WARRANT THAT THIS FILE WILL MEET USER'S
#REQUIREMENTS OR ARE SUITABLE FOR USER'S NEEDS OR THAT THE DATA OR RESULTS PROVIDED IN
#CONJUNCTION THEREWITH ARE CORRECT, ACCURATE, TIMELY OR RELIABLE. THESE DISCLAIMERS SHALL
#APPLY REGARDLESS OF ANY FAILURE OF ESSENTIAL PURPOSE OF ANY LIMITED REMEDY.  SOME
#JURISDICTIONS DO NOT ALLOW THE EXCLUSION OF CERTAIN WARRANTIES SO SOME OF THE ABOVE
#EXCLUSIONS MAY NOT APPLY. IN NO EVENT SHALL ENVERUS, INC. OR ANY OF ITS AFFILIATES
#BE LIABLE UNDER ANY LEGAL THEORY, WHETHER IN TORT (INCLUDING WITHOUT LIMITATION
#NEGLIGENCE), CONTRACT, STRICT LIABILITY, STATUTORY OR OTHERWISE, FOR ANY SPECIAL,
#INCIDENTAL, CONSEQUENTIAL, EXEMPLARY, PUNITIVE OR INDIRECT DAMAGE OF ANY KIND, INCLUDING
#WITHOUT LIMITATION LOSS OF REVENUE, PROFITS, GOODWILL, USE, AND/OR DATA OR THE COST OF
#PROCUREMENT OF SUBSTITUTE GOODS OR SERVICES, EVEN IF APPRISED OF THE POSSIBILITY OF SUCH
#DAMAGES IN ADVANCE.
#--------------------------------------------------#

# EXPORTED FROM DI TRANSFORM
# DI TRANSFORM - A PRODUCT OF DRILLINGINFO, INC. - WWW.DRILLINGINFO.COM
#
~VERSION INFORMATION
 VERS.        2.0 : LAS ASCII STANDARD - VERSION 2.0
 WRAP.         NO : ONE LINE PER DEPTH STEP

~WELL INFORMATION
#MNEM.UNIT       DATA TYPE       INFORMATION
#---------       ---------       -----------
 STRT.FT           190 : START DEPTH
 STOP.FT         12010 : STOP DEPTH
 STEP.FT           0.5 : STEP LENGTH
 NULL.         -999.25 : NULL VALUE
 UWI.   42389335580000 : UNIQUE WELL ID
 API.   42389335580000 : WELL IDENTIFIER
 COMP.                 : COMPANY
 WELL.          DRD_55 : WELL NAME
 FLD.                  : FIELD NAME
 LOC.                  : WELL LOCATION
 CNTY.                 : COUNTY
 STAT.                 : STATE OR PROVINCE
 CTRY.                 : COUNTRY
 SRVC.                 : SERVICE COMPANY
 DATE.                 : DATE

~CURVE INFORMATION
#MNEM.UNIT       API CODE       CURVE DESCRIPTION
#---------       --------       -----------------
 DEPT.FT          : <MEASURED DEPTH>
 CAL.IN           : CALIPER
 DPHI.%           : DENSITY POROSITY
 DT.US/FT         : SONIC
 GR.GAPI          : GAMMA RAY
 NPHI.%           : NEUTRON POROSITY
 RHOB.G/CM3       : DENSITY

~PARAMETER INFORMATION
#MNEM.UNIT       VALUE       DESCRIPTION
#---------       -----       -----------
 EKB.FT      2793 : ELEVATION ABOVE MSL

~A      DEPT         CAL        DPHI          DT          GR        NPHI        RHOB
# ...
       11970      9.1288     14.9568     -999.25     58.9156     31.4862      2.3305
     11970.5      9.2067     23.7582     -999.25     73.5784     23.1689      2.3807
       11971      9.3091     19.8288     -999.25    101.9072     22.5211      2.4647
     11971.5      9.3603     16.3108     -999.25    100.2024      24.365      2.5189
       11972      9.3603     16.1225     -999.25     98.9376     34.1463      2.4516
     11972.5      9.3603     13.5672     -999.25     88.7939     33.2977      2.3623
       11973      9.3603     19.4468     -999.25     84.3816     21.4156      2.2349
     11973.5      9.3603     24.5269     -999.25     100.371     22.4671      2.1799
       11974      9.3603     34.1497     -999.25    108.7584     17.6047      2.2352
     11974.5      9.3603     28.2495     -999.25    110.1848     20.1697      2.2406
       11975      9.3603     32.2224     -999.25    112.3179     25.1468      2.2692
     11975.5      9.2998     33.8973     -999.25    113.3324     19.6382      2.3568
       11976      9.2389      26.326     -999.25    111.4184     21.3205      2.4547
     11976.5      9.2126     14.5732     -999.25    112.7172      18.862       2.505
       11977      9.0516     14.3621     -999.25     115.894     14.9918       2.549
     11977.5      8.9307     14.7135     -999.25    112.5838      4.1653      2.6084
       11978      8.8745      6.6615     -999.25     110.378      2.3056      2.6643
     11978.5      8.9421      2.6204     -999.25    114.8837      3.6784      2.7009
       11979      8.9555      1.1421     -999.25    118.0584      6.2207      2.7194
     11979.5      8.9555     -1.6497     -999.25    116.6552      7.0409      2.7035
       11980      9.0468     -0.3628     -999.25    114.3088     10.1871      2.6227
     11980.5      9.1492      3.0776     -999.25    112.3482     14.1657       2.521
       11981      9.2771      6.6281     -999.25    113.3713       8.395      2.4024
     11981.5      9.3754     13.1244     -999.25    114.0755      6.3482      2.3577
       11982      9.3673     23.8903     -999.25    118.4919       6.559      2.3923
     11982.5      9.3587     18.0832     -999.25    113.7109      6.8427      2.3208
       11983      9.3501     22.9231     -999.25    114.0899      7.0961      2.2523
     11983.5      9.3014     31.2497     -999.25    113.5867      7.2565      2.3698
       11984      9.1672     29.3048     -999.25    112.8108      7.2597      2.3997
     11984.5      9.0769     20.5974     -999.25     114.766      7.2582      2.4299
       11985      9.0769     16.7767     -999.25    114.4771      7.0513      2.4815
     11985.5      9.0547     15.9118     -999.25    120.7736       7.052       2.453
       11986      9.3327     12.1757     -999.25    117.4459      7.1247      2.4116
     11986.5      9.4413     19.6672     -999.25      115.91       6.813      2.4825
       11987      9.4413      14.278     -999.25    113.7695      7.2613      2.5524
     11987.5      9.4413      7.0705     -999.25    113.5628      6.9985      2.6021
       11988      9.4413      8.0543     -999.25    114.8277      6.7917      2.6311
     11988.5      9.4008      5.4782     -999.25     112.497      6.5721      2.5785
       11989      9.4008      8.5686     -999.25    111.4617      7.1927      2.4824
     11989.5      9.4008     13.2407     -999.25     -999.25      8.4272       2.446
       11990      9.4008     16.2367     -999.25     -999.25      8.5817      2.5056
     11990.5      9.2758     11.6715     -999.25     -999.25      8.7321      2.6089
       11991      9.0567      6.3044     -999.25     -999.25      8.6588      2.6581
     11991.5      9.0252      5.1767     -999.25     -999.25      8.0265      2.6261
       11992       8.996      7.6772     -999.25     -999.25      7.3248      2.5495
     11992.5      8.9764     11.8085     -999.25     -999.25      7.9536       2.491
       11993      8.8745       13.93     -999.25     -999.25      8.0787        2.49
     11993.5      8.8745     12.6024     -999.25     -999.25      8.2413      2.5089
       11994      8.8745     10.8404     -999.25     -999.25      8.0051      2.5208
     11994.5      8.8745     10.9897     -999.25     -999.25      7.5129      2.5357
       11995       8.834     10.9091     -999.25     -999.25      8.2729      2.5484
     11995.5       8.834     10.1798     -999.25     -999.25      8.7579      2.5499
       11996       8.834      9.4146     -999.25     -999.25     -999.25      2.5441
     11996.5       8.834       9.907     -999.25     -999.25     -999.25      2.5369
       11997       8.834     10.4081     -999.25     -999.25     -999.25      2.5333
     11997.5      8.7935      10.967     -999.25     -999.25     -999.25      2.5305
       11998      8.7813     10.4694     -999.25     -999.25     -999.25      2.5251
     11998.5      8.7126     11.1923     -999.25     -999.25     -999.25      2.5175
       11999      8.6575      11.292     -999.25     -999.25     -999.25      2.5054
     11999.5      8.5931     12.4319     -999.25     -999.25     -999.25       2.494
       12000      8.5911     13.2652     -999.25     -999.25     -999.25      2.5059
     12000.5      8.5911     12.1198     -999.25     -999.25     -999.25      2.5113
       12001      8.5911     11.7354     -999.25     -999.25     -999.25      2.5089
     12001.5      8.5911     12.4563     -999.25     -999.25     -999.25      2.5065
       12002      8.5911     11.9812     -999.25     -999.25     -999.25      2.5045
     12002.5      8.5911     12.2547     -999.25     -999.25     -999.25      2.5015
       12003      8.5911     12.4859     -999.25     -999.25     -999.25      2.4967
     12003.5      8.5911     13.0416     -999.25     -999.25     -999.25      2.4924
       12004      8.5911     13.2494     -999.25     -999.25     -999.25      2.4901
     12004.5      8.5911     -999.25     -999.25     -999.25     -999.25      2.4883
       12005      8.5911     -999.25     -999.25     -999.25     -999.25     -999.25
     12005.5      8.6244     -999.25     -999.25     -999.25     -999.25     -999.25
       12006     -999.25     -999.25     -999.25     -999.25     -999.25     -999.25
     12006.5     -999.25     -999.25     -999.25     -999.25     -999.25     -999.25
       12007     -999.25     -999.25     -999.25     -999.25     -999.25     -999.25
     12007.5     -999.25     -999.25     -999.25     -999.25     -999.25     -999.25
       12008     -999.25     -999.25     -999.25     -999.25     -999.25     -999.25
     12008.5     -999.25     -999.25     -999.25     -999.25     -999.25     -999.25
       12009     -999.25     -999.25     -999.25     -999.25     -999.25     -999.25
     12009.5     -999.25     -999.25     -999.25     -999.25     -999.25     -999.25
       12010     -999.25     -999.25     -999.25     -999.25     -999.25     -999.25
