###############################################
##         ENVERUS                           ##
##         ESS - Open Hole                   ##
##         PERMIAN / DELAWARE                ##
##         Nov 04 2023  V4.0                 ##
##         42-389-00802-00-00                ##
###############################################
## Copyright 2017-2023  ENVERUS.  All Rights Reserved. 
## Confidential - Property of ENVERUS, use governed by terms and 
## conditions found within the existing Information Services Subscription Agreement 
## (as may be amended, the “ISSA”) between Customer and ENVERUS. 
## 
~VERSION INFORMATION
# MNEM.UNIT                               DATA : DESCRIPTION OF MNEMONIC
#-----.-----     ----------------------------- : -----------------------------
VERS.                                     2.00 : CWLS LOG ASCII STANDARD - VERSION 2.00
WRAP.                                       NO : MULTIPLE LINES PER DEPTH STEP
VEND.                                  ENVERUS : VENDOR
TYPE.                          ESS - OPEN HOLE : ENVERUS ESSENTIAL CURVES – ACCESSIBLE THROUGH ENVERUS PRISM(TM)
DOC.                                  31817456 : ENVERUS HEADER RAW DOCUMENT ID
#___________________________________________________________________________________________________ 
~WELL INFORMATION 
# RyAIq6UWQPnCIzV1aSVljU5sZzU8mzXCuHzh8Tf3VVfaeSb2oya67RMqigcBPLsftsjdPp3J13KbDcbgGgUr7w== 
# MNEM.UNIT                                              DATA : DESCRIPTION OF MNEMONIC 
#-----.-----                    ----------------------------- : ----------------------------- 
CNTY.                                                  REEVES : COUNTY 
STATE.                                                  TEXAS : STATE 
CNTRY.                                                    USA : COUNTRY 
API.                                             42-389-00802 : API (10 Digit) 
API_14.                                    42-389-00802-00-00 : API (14 Digits) 
API_14_std.                                 42-389-00802-0000 : API (14 Digits Standard) 
UWI.                                           42389008020000 : UNIQUE WELL ID 
WELL.                                                      1, : WELL NAME
STRT.FT                                                 103.0 : START DEPTH
STOP.FT                                                5419.0 : STOP DEPTH
STEP.FT                                                   0.5 : STEP BETWEEN DEPTHS
NULL.                                                 -999.25 : NULL VALUE
#___________________________________________________________________________________________________ 
~CURVE INFORMATION 
# MNEM.UNIT           : CURVE DESCRIPTION 
#-----.-----          : ----------------------------- 
 DEPT.FT               : MEASURED DEPTH 
 GR.API                : GAMMA RAY (GR) 
 DT.US/FT              : SONIC DELTA TRANSIT TIME (DT) 
 #___________________________________________________________________________________________________ 
~A         DEPT             GR             DT
# ...
         4975.0          3.856         64.749
         4975.5          4.154         64.460
         4976.0          4.452         64.172
         4976.5          4.750         63.884
         4977.0          5.047         63.595
         4977.5          5.345         63.307
         4978.0          5.643         63.187
         4978.5          5.941         63.551
         4979.0          6.239         63.914
         4979.5          6.537         64.277
         4980.0          6.414         64.641
         4980.5          6.101         65.004
         4981.0          5.787         65.368
         4981.5          5.474         65.731
         4982.0          5.160         66.070
         4982.5          4.847         66.361
         4983.0          4.533         66.652
         4983.5          4.220         66.942
         4984.0          3.906         67.233
         4984.5          3.593         67.524
         4985.0          3.283         67.769
         4985.5          3.282         67.710
         4986.0          3.281         67.650
         4986.5          3.280         67.590
         4987.0          3.280         67.531
         4987.5          3.279         67.471
         4988.0          3.278         67.494
         4988.5          3.277         67.593
         4989.0          3.277         67.692
         4989.5          3.276         67.791
         4990.0          3.275         67.891
         4990.5          3.274         67.990
         4991.0          3.274         68.089
         4991.5          3.273         68.073
         4992.0          3.272         68.022
         4992.5          3.271         67.971
         4993.0          3.270         67.920
         4993.5          3.270         67.869
         4994.0          3.269         67.818
         4994.5          3.268         67.768
         4995.0          3.267         67.717
         4995.5          3.328         67.878
         4996.0          3.402         68.063
         4996.5          3.476         68.248
         4997.0          3.549         68.433
         4997.5          3.623         68.617
         4998.0          3.696         68.384
         4998.5          3.770         68.065
         4999.0          3.844         67.746
         4999.5          3.917         68.025
         5000.0          3.769         68.966
         5000.5          3.586         69.696
         5001.0          3.403         69.577
         5001.5          3.221         69.458
         5002.0          3.038         69.339
         5002.5          2.855         67.939
         5003.0          2.672         63.107
         5003.5          2.490         58.276
         5004.0          2.307         55.400
         5004.5          2.583         53.621
         5005.0          4.860         51.842
         5005.5          7.137         50.063
         5006.0          9.413         50.322
         5006.5         11.690         51.076
         5007.0         13.966         51.829
         5007.5         16.243         51.104
         5008.0         16.495         50.807
         5008.5         15.855         50.595
         5009.0         15.214         50.383
         5009.5         14.574         50.170
         5010.0         13.934         49.958
         5010.5         13.294         49.902
         5011.0         12.654         49.884
         5011.5         12.609         49.866
         5012.0         13.544         49.847
         5012.5         14.480         49.829
         5013.0         15.415         49.811
         5013.5         16.351         49.793
         5014.0         17.287         49.835
         5014.5         18.222         49.939
         5015.0         19.158         50.043
         5015.5         20.093         50.147
         5016.0         21.111         50.251
         5016.5         22.225         50.355
         5017.0         23.338         50.459
         5017.5         24.451         50.563
         5018.0         24.540         50.667
         5018.5         23.847         50.771
         5019.0         23.154         50.875
         5019.5         22.460         50.979
         5020.0         21.767         51.084
         5020.5         21.073         51.188
         5021.0         20.380         51.113
         5021.5         19.228         51.036
         5022.0         17.970         50.959
         5022.5         16.713         50.881
         5023.0         15.455         50.804
         5023.5         14.624         50.726
         5024.0         14.822         50.649
         5024.5         15.020         50.572
         5025.0         15.218         50.494
         5025.5         15.415         50.417
         5026.0         15.613         50.339
         5026.5         15.811         50.372
         5027.0         16.008         50.441
         5027.5         16.206         50.511
         5028.0         16.404         50.580
         5028.5         16.414         50.650
         5029.0         15.753         50.719
         5029.5         15.092         50.788
         5030.0         14.431         50.527
         5030.5         13.770         50.265
         5031.0         13.109         50.053
         5031.5         12.448         50.053
         5032.0         11.787         50.053
         5032.5         11.126         50.053
         5033.0         10.465         50.053
         5033.5          9.898         50.053
         5034.0         10.262         50.053
         5034.5         10.626         50.053
         5035.0         10.990         50.053
         5035.5         11.353         50.053
         5036.0         11.717         50.053
         5036.5         12.081         50.053
         5037.0         12.445         50.053
         5037.5         12.808         49.955
         5038.0         13.172         49.836
         5038.5         13.509         49.717
         5039.0         12.914         49.598
         5039.5         12.318         49.479
         5040.0         11.722         49.359
         5040.5         11.127         49.240
         5041.0         10.531         49.121
         5041.5         10.257         49.002
         5042.0         10.455         48.980
         5042.5         10.653         48.975
         5043.0         10.850         48.971
         5043.5         11.048         48.967
         5044.0         10.866         48.963
         5044.5         10.033         48.959
         5045.0          9.201         48.954
         5045.5          9.109         48.950
         5046.0          9.614         48.946
         5046.5         10.118         48.942
         5047.0         10.623         48.938
         5047.5         11.128         48.933
         5048.0         11.632         48.929
         5048.5         12.137         48.925
         5049.0         12.374         48.921
         5049.5         11.961         48.938
         5050.0         11.547         49.148
         5050.5         11.134         49.359
         5051.0         10.720         49.569
         5051.5         10.307         49.779
         5052.0          9.893         49.989
         5052.5          9.480         50.200
         5053.0          9.999         50.410
         5053.5         10.525         50.306
         5054.0         11.051         50.110
         5054.5         11.578         49.915
         5055.0         12.104         49.720
         5055.5         12.630         49.525
         5056.0         13.156         49.330
         5056.5         13.683         49.380
         5057.0         14.209         49.592
         5057.5         14.128         49.803
         5058.0         13.434         50.014
         5058.5         12.739         50.226
         5059.0         12.163         50.182
         5059.5         12.435         49.917
         5060.0         12.707         49.652
         5060.5         12.980         49.386
         5061.0         13.252         49.121
         5061.5         13.524         49.073
