###############################################
##         ENVERUS                           ##
##         ESS - Open Hole                   ##
##         PERMIAN / DELAWARE                ##
##         Nov 04 2023  V4.0                 ##
##         42-371-36358-00-00                ##
###############################################
## Copyright 2017-2023  ENVERUS.  All Rights Reserved. 
## Confidential - Property of ENVERUS, use governed by terms and 
## conditions found within the existing Information Services Subscription Agreement 
## (as may be amended, the “ISSA”) between Customer and ENVERUS. 
## 
~VERSION INFORMATION
# MNEM.UNIT                               DATA : DESCRIPTION OF MNEMONIC
#-----.-----     ----------------------------- : -----------------------------
VERS.                                     2.00 : CWLS LOG ASCII STANDARD - VERSION 2.00
WRAP.                                       NO : MULTIPLE LINES PER DEPTH STEP
VEND.                                  ENVERUS : VENDOR
TYPE.                          ESS - OPEN HOLE : ENVERUS ESSENTIAL CURVES – ACCESSIBLE THROUGH ENVERUS PRISM(TM)
DOC.                                  32044985 : ENVERUS HEADER RAW DOCUMENT ID
#___________________________________________________________________________________________________ 
~WELL INFORMATION 
# 9/F+NtSLBEAIaZM9LpLMxALTyCH3LMfPBQiNKTeSadJ6NAezaEZy+3+OEP8rVGNvVB4ifWNnxSKvs1BiqqZA9A== 
# MNEM.UNIT                                              DATA : DESCRIPTION OF MNEMONIC 
#-----.-----                    ----------------------------- : ----------------------------- 
CNTY.                                                   PECOS : COUNTY 
STATE.                                                  TEXAS : STATE 
CNTRY.                                                    USA : COUNTRY 
API.                                             42-371-36358 : API (10 Digit) 
API_14.                                    42-371-36358-00-00 : API (14 Digits) 
API_14_std.                                 42-371-36358-0000 : API (14 Digits Standard) 
UWI.                                           42371363580000 : UNIQUE WELL ID 
WELL.                           SCHLOSSER, FRED ESTATE -B-  9 : WELL NAME
STRT.FT                                                 151.0 : START DEPTH
STOP.FT                                                5707.0 : STOP DEPTH
STEP.FT                                                   0.5 : STEP BETWEEN DEPTHS
NULL.                                                 -999.25 : NULL VALUE
COMP.                                      APACHE CORPORATION : COMPANY 
DATE.                                             07-JUN-1992 : LOG DATE
#___________________________________________________________________________________________________ 
~CURVE INFORMATION 
# MNEM.UNIT           : CURVE DESCRIPTION 
#-----.-----          : ----------------------------- 
 DEPT.FT               : MEASURED DEPTH 
 GR.API                : GAMMA RAY (GR) 
 DT.US/FT              : SONIC DELTA TRANSIT TIME (DT) 
 #___________________________________________________________________________________________________ 
~A         DEPT             GR             DT
# ...
         5284.0         49.996         74.733
         5284.5         53.017         75.143
         5285.0         57.178         75.227
         5285.5         60.773         76.609
         5286.0         59.529         78.706
         5286.5         58.285         80.803
         5287.0         57.041         80.410
         5287.5         55.797         79.497
         5288.0         55.851         78.583
         5288.5         59.144         77.670
         5289.0         62.436         78.608
         5289.5         65.219         80.201
         5290.0         66.460         79.694
         5290.5         67.700         79.350
         5291.0         68.940         79.290
         5291.5         70.180         79.229
         5292.0         71.159         79.168
         5292.5         71.754         78.671
         5293.0         74.188         77.639
         5293.5         77.897         76.608
         5294.0         84.237         75.577
         5294.5         91.384         74.545
         5295.0         98.531         73.514
         5295.5        104.390         73.900
         5296.0         96.130         75.061
         5296.5         87.871         76.222
         5297.0         79.611         77.382
         5297.5         71.351         78.543
         5298.0         63.378         79.500
         5298.5         62.908         79.101
         5299.0         62.438         78.702
         5299.5         61.968         78.303
         5300.0         62.253         78.371
         5300.5         67.120         78.620
         5301.0         67.261         78.869
         5301.5         67.401         79.118
         5302.0         67.541         79.327
         5302.5         60.853         80.332
         5303.0         55.468         81.656
         5303.5         53.658         82.979
         5304.0         51.848         84.337
         5304.5         50.038         85.247
         5305.0         48.251         84.754
         5305.5         46.489         83.253
         5306.0         44.728         82.163
         5306.5         44.603         81.535
         5307.0         44.944         81.429
         5307.5         46.769         80.492
         5308.0         48.646         79.270
         5308.5         50.523         78.159
         5309.0         55.756         77.109
         5309.5         61.234         76.059
         5310.0         66.712         76.801
         5310.5         71.798         78.169
         5311.0         76.577         78.575
         5311.5         81.062         76.537
         5312.0         83.257         74.561
         5312.5         84.620         72.754
         5313.0         83.951         72.159
         5313.5         83.283         72.379
         5314.0         82.614         72.598
         5314.5         81.946         72.818
         5315.0         80.240         73.037
         5315.5         77.346         73.257
         5316.0         74.452         73.477
         5316.5         70.939         73.696
         5317.0         64.428         73.169
         5317.5         57.918         70.681
         5318.0         51.408         71.827
         5318.5         48.512         73.641
         5319.0         53.218         75.456
         5319.5         57.242         77.271
         5320.0         61.267         78.507
         5320.5         65.291         77.911
         5321.0         66.908         77.315
         5321.5         65.271         76.719
         5322.0         67.477         76.555
         5322.5         70.005         76.603
         5323.0         72.533         76.651
         5323.5         73.776         76.698
         5324.0         71.534         76.668
         5324.5         69.293         76.575
         5325.0         67.052         76.481
         5325.5         64.810         76.572
         5326.0         62.569         76.685
         5326.5         63.471         76.797
         5327.0         66.618         76.857
         5327.5         68.189         76.715
         5328.0         69.761         76.360
         5328.5         71.279         76.244
         5329.0         68.190         76.327
         5329.5         63.953         78.471
         5330.0         55.621         82.825
         5330.5         47.289         87.180
         5331.0         43.627         88.343
         5331.5         43.360         89.439
         5332.0         43.092         87.956
         5332.5         42.825         86.473
         5333.0         42.557         84.990
         5333.5         42.290         85.347
         5334.0         43.276         85.727
         5334.5         44.482         86.033
         5335.0         46.035         86.122
         5335.5         48.059         86.212
         5336.0         48.500         85.887
         5336.5         47.881         85.444
         5337.0         47.261         85.603
         5337.5         46.642         86.758
         5338.0         47.939         87.913
         5338.5         52.304         87.626
         5339.0         56.669         85.948
         5339.5         61.033         84.100
         5340.0         64.635         82.217
         5340.5         59.832         80.333
         5341.0         55.029         81.165
         5341.5         50.226         82.386
         5342.0         45.423         83.606
         5342.5         42.470         85.836
         5343.0         43.048         88.356
         5343.5         43.625         89.212
         5344.0         44.203         88.954
         5344.5         44.780         88.137
         5345.0         44.764         87.706
         5345.5         44.604         87.619
         5346.0         44.444         87.532
         5346.5         44.284         87.569
         5347.0         44.125         87.647
         5347.5         43.953         87.724
         5348.0         43.635         87.558
         5348.5         43.318         86.653
         5349.0         42.396         85.747
         5349.5         41.167         84.841
         5350.0         39.938         83.935
         5350.5         38.709         86.449
         5351.0         38.032         87.609
         5351.5         40.219         88.245
         5352.0         42.406         88.881
         5352.5         44.593         89.518
         5353.0         48.184         88.761
         5353.5         53.167         87.474
         5354.0         55.983         84.714
         5354.5         57.628         83.703
         5355.0         59.273         82.764
         5355.5         60.918         81.825
         5356.0         62.563         79.272
         5356.5         59.841         76.711
         5357.0         55.787         77.911
         5357.5         51.470         80.897
         5358.0         47.152         84.112
         5358.5         44.387         88.054
         5359.0         44.606         88.138
         5359.5         44.690         88.188
         5360.0         44.308         86.413
         5360.5         43.927         85.806
         5361.0         43.545         85.763
         5361.5         44.047         85.881
         5362.0         45.113         86.118
         5362.5         46.179         86.365
         5363.0         47.245         86.661
         5363.5         48.311         86.956
         5364.0         49.377         86.753
         5364.5         50.443         86.298
         5365.0         51.509         85.842
         5365.5         52.575         85.386
         5366.0         52.426         85.359
         5366.5         51.099         85.408
         5367.0         49.773         86.334
         5367.5         48.447         86.419
         5368.0         47.121         85.773
         5368.5         46.545         86.249
         5369.0         47.055         86.725
         5369.5         47.565         86.931
         5370.0         49.927         85.677
         5370.5         53.135         84.422
