~Version Information Block
 VERS.                2.00:     CWLS LOG ASCII STANDARD - VERSION 2.000000
 WRAP.                  NO:     One Line Per Depth Step
#
~Well Information Block
#MNEM.UNIT                     Data                         Information
#----------   ------------------------------------------   ----------------
 STRT.FT                                     5200.0000:     START DEPTH
 STOP.FT                                    11550.0000:     STOP DEPTH
 STEP.FT                                        0.5000:     STEP
 NULL.                                       -999.2500:     NULL VALUE
 COMP.               AMERICAN QUASAR PETROLEUM COMPANY:     COMPANY
 WELL.                               MCCARTER # 1 - 31:     WELL
 FLD .                                         WILDCAT:     FIELD
 LOC .                                                :     LOCATION
 CNTY.                                          REEVES:     COUNTY
 STAT.                                           TEXAS:     STATE
 CTRY.                                             USA:     COUNTRY
 SRVC.                                                :     SERVICE COMPANY
 DATE.                                      08/07/2015:     DATE
 API .                                  42389311800000:     API NUMBER
 UWI .                                  42389311800000:     UWI NUMBER
 TVD .                                              NO:     TVD flag
 WSTA.                                             LOC:     Well status
#
~Curve Information Block
#MNEM.UNIT       API CODE      Curve Description
#----------    -------------   -------------------
 DEPT.FT                   :   Depth in Feet
 GR  .GAPI                 :   Gamma Ray
 LLD .OHMM                 :   Latero-Log Deep (Resistivity)
 CALI.IN                   :   Caliper
 DT  .US/F                 :   Delta-T
#
~Parameter Information Block
#MNEM.UNIT            Value               Description
#----------    --------------------    -------------------
 RUN .                         ONE:    Run Number
 PDAT.                          GL:    Permanent Datum
 EPD .FT                          :    Elevation Of Perm. Datum
 LMF .               KELLY BUSHING:    Log Measured From
 EKB .FT                          :    Elevation Of Kelly Bushing
 DF .FT                           :    Elevation Of Derrick Floor
 GL .FT                           :    Elevation Of Ground Level
 TD  .FT                          :    Total Depth
 CSGD.FT                          :    Casing Bottom (Driller) 1
 CSGL.FT                          :    Casing Bottom (Logger) 1
 MUD .                            :    Drilling Fluid Type
 MUDV .CP                         :    Drilling Fluid Viscosity
 MUDD .LB/USG                     :    Drilling Fluid Density
 FL .ML/30MIN                     :    Drilling Fluid Loss
 PH.                              :    Drilling Fluid Ph
 MUDS .                           :    Mud Sample Source
 RM .OHMM                         :    Resistivity Of Mud Sample
 RMT .DEGF                        :    Mud Sample Temperature
 RMF .OHMM                        :    Mud Filtrate Resistivity
 RMFT.DEGF                        :    Mud Filtrate Sample Temperature
 RMC .OHMM                        :    Mud Cake Resistivity
 RMCT.DEGF                        :    Mud Cake Sample Temperature
 RMB .OHMM                        :    Mud Resistivity At Bht
 TMAX .DEGF                       :    Bottom Hole Temperature    
#
~Other Information Block
<DescLogPlotStart>   NEURALOG PLOT DEFINITION
PLOTDEFVERSION: 3
LASFILE: E:\Nair Innovations\Texas - NII\Shivam\42389311800000\42389311800000_G
DEPTHSCALE: 239.999996
RESOLUTION: 200
DEPTHLABELFREQ: 100.000000
HEAVYGRIDFREQ: 100.000000
MEDIUMGRIDFREQ: 50.000000
LIGHTGRIDFREQ: 10.000000
#
#   TRACK 1
#
STARTTRACK: 
 LEFTX: 0.500000 inch
 RIGHTX: 3.000000 inch
 SCALETYPE: Linear
 NUMCHARTDIVISIONS: 10
CURVE: GR    0.000000   125.000000 (0,0,255)      Solid             2     Y    
BACKUP: 125.000000 250.000000 (0,0,255)      Solid             2    
CURVE: CALI  6.000000   16.000000  (0,0,255)      Solid             2     N    
ENDTRACK: 
#
#   TRACK 2
#
STARTTRACK: 
 LEFTX: 3.500000 inch
 RIGHTX: 8.500000 inch
 SCALETYPE: Log
 NUMCYCLES: 4
 STARTCYCLE: 2
CURVE: LLD   0.200000   2000.000000 (0,131,131)    Solid             2     Y   
BACKUP: 2000.000000 20000000.000000 (0,131,131)    Solid             2    
ENDTRACK: 
#
#   TRACK 3
#
STARTTRACK: 
 LEFTX: 3.500000 inch
 RIGHTX: 8.500000 inch
 SCALETYPE: Linear
 NUMCHARTDIVISIONS: 10
CURVE: DT    100.000000 40.000000  (0,131,131)    Solid             2     Y    
BACKUP: 160.000000 100.000000 (0,131,131)    Solid             2    
BACKUP: 40.000000  -20.000000 (0,131,131)    Solid             2    
ENDTRACK: 
<DescLogPlotEnd>
<DepthTrack type='Reference' track='1' Label='0' color='0' hor='0' />
<Reference font='144,0,-900,0,500,0,16777216,Arial' />
~A DEPTH     GR               LLD              CALI             DT              
# ...
    8566.000 71.23314561      20.18775902      12.71656687      81.50426078     
    8566.500 68.05388586      20.12933114      12.71656687      81.47156843     
    8567.000 64.13721448      20.09250123      12.71656687      81.50849151     
    8567.500 62.59700523      19.01016592      12.71656687      81.66604824     
    8568.000 61.87113763      18.66250235      12.71656687      81.74825175     
    8568.500 60.42501292      18.57787034      12.71656687      81.85294705     
    8569.000 59.90450358      18.49106220      12.71656687      81.96583417     
    8569.500 60.12998926      19.01016592      12.71656687      82.16783217     
    8570.000 60.17984635      20.46680424      12.71656687      81.69197955     
    8570.500 59.59936577      22.45590679      12.71656687      80.67216603     
    8571.000 58.87744669      24.38946873      12.71656687      79.69678353     
    8571.500 60.29062665      24.62168414      12.71656687      80.06993007     
    8572.000 63.41606550      21.62958395      12.71656687      78.03196803     
    8572.500 66.54549611      19.47660085      12.71656687      78.07242757     
    8573.000 68.24180659      17.53944988      12.71656687      78.28531469     
    8573.500 68.09334164      16.55257891      12.71656687      79.42737263     
    8574.000 68.83639295      16.68139632      12.71656687      80.72927073     
    8574.500 71.42808921      17.40390601      12.71656687      81.27672328     
    8575.000 72.35344893      18.49106220      12.71656687      81.63586414     
    8575.500 71.18008199      21.24299273      12.71656687      81.66093906     
    8576.000 68.94706221      21.83263468      12.71656687      81.68831169     
    8576.500 64.41499591      21.45314250      12.71656687      81.65794206     
    8577.000 60.87131082      20.84808014      12.71656687      81.62837163     
    8577.500 56.99190022      19.36430612      12.71656687      81.13286713     
    8578.000 54.60290551      17.65719768      12.71656687      80.21018981     
    8578.500 53.81001870      17.65719768      12.71656687      78.97316017     
    8579.000 54.19943417      17.65719768      12.71656687      77.90306892     
    8579.500 56.62877007      18.11607307      12.71656687      77.19570810     
    8580.000 58.10467991      18.43684402      12.71656687      76.93243909     
    8580.500 58.44753480      18.67240728      12.71656687      76.65466115     
    8581.000 59.73159923      18.84074347      12.71656687      76.11937135     
    8581.500 63.02528806      19.02744398      12.71656687      75.90542279     
    8582.000 64.08484624      18.71267366      12.71656687      75.93339993     
    8582.500 66.23646730      18.47749272      12.71656687      76.10056610     
    8583.000 68.77620181      18.15289215      12.71656687      76.59940060     
    8583.500 73.36398975      17.61548987      12.71656687      77.43256743     
    8584.000 74.34479599      17.02868874      12.71656687      78.48172490     
    8584.500 74.16434528      16.60334528      12.71656711      79.34837153     
    8585.000 74.16875694      16.24986042      12.71656712      80.29908720     
    8585.500 75.30481277      16.24986042      12.71656480      80.84915085     
    8586.000 75.50524940      16.70604639      12.71643587      80.90016650     
    8586.500 73.34671422      17.66229075      12.71611305      80.53240093     
    8587.000 71.10876215      18.49454072      12.71579311      80.00666378     
    8587.500 66.91627232      18.49227628      12.71547243      79.10716527     
    8588.000 62.12235481      18.49504566      12.71515193      78.96596833     
    8588.500 62.42068611      17.79543271      12.71483143      78.89723610     
    8589.000 65.57284118      17.33427759      12.71451093      78.79170829     
    8589.500 72.18253000      17.33427759      12.71419043      78.41558442     
    8590.000 74.15201627      17.83586434      12.71386993      78.03946054     
    8590.500 74.94893874      18.29278238      12.71354943      77.66333666     
    8591.000 75.62043817      18.66250235      12.71322892      77.25274725     
    8591.500 76.09287310      18.61627223      12.71290842      76.71760240     
    8592.000 79.34225125      18.43483327      12.71258792      76.54132534     
    8592.500 85.64286137      18.18013609      12.71226742      76.57475857     
    8593.000 86.56296846      17.81329580      12.71194692      76.64999059     
    8593.500 86.64326137      17.82545789      12.71162642      76.85843898     
    8594.000 81.07146371      17.81696681      12.71130592      76.89321206     
    8594.500 69.35658545      18.22142903      12.71098542      76.89310689     
    8595.000 67.24772232      18.49106220      12.71066492      76.94505495     
    8595.500 67.38191697      18.83553201      12.71034441      77.24515485     
    8596.000 74.37865611      18.49106220      12.71002391      77.86737263     
    8596.500 75.63909067      18.03547941      12.70970341      78.80015984     
    8597.000 73.62730059      17.65719768      12.70938291      79.77022977     
    8597.500 66.83854295      16.66754664      12.70906241      80.60939061     
    8598.000 65.60496302      16.24986042      12.70874191      80.84915085     
    8598.500 65.97742629      15.94761811      12.70842141      79.68460111     
    8599.000 68.18370161      15.80613136      12.70810091      78.91968032     
    8599.500 70.74735232      15.80613136      12.70778041      78.45107469     
    8600.000 72.85194484      16.05868076      12.70745990      79.01139214     
    8600.500 74.85290194      16.29294499      12.70713940      79.54044969     
    8601.000 76.07074248      16.55463741      12.70681890      80.12987013     
    8601.500 76.08542188      17.39007030      12.70649840      80.35149850     
    8602.000 75.20001041      19.50703410      12.70617790      80.18981019     
    8602.500 73.12507748      21.08177189      12.70585740      79.68541459     
    8603.000 70.84119665      22.63901863      12.70553690      79.14217782     
    8603.500 69.10469897      23.30179221      12.70521640      78.57142857     
    8604.000 69.08170567      22.89366726      12.70489589      78.02235825     
    8604.500 69.80409842      21.55554728      12.70457539      77.32917521     
    8605.000 70.12232134      20.46680424      12.70425489      76.83283074     
    8605.500 70.84291711      19.82724900      12.70393439      76.89310689     
    8606.000 72.44953703      19.19793180      12.70361389      77.43888838     
    8606.500 75.05432167      18.97686135      12.70329339      78.06992099     
    8607.000 75.02074640      18.83553201      12.70297289      78.51082570     
    8607.500 73.80229301      18.31443489      12.70265239      78.70731380     
    8608.000 72.93070928      17.63676610      12.70233189      78.89636913     
    8608.500 74.56747151      16.98274305      12.70201138      79.08447802     
    8609.000 77.44308936      16.61300417      12.70169088      79.27310190     
    8609.500 79.72599407      16.40105655      12.70137038      79.46172577     
    8610.000 76.18061837      16.62146404      12.70104988      79.25147580     
    8610.500 71.86452319      17.01098237      12.70072938      78.81249659     
    8611.000 69.54248082      17.43747244      12.70040888      78.47342657     
    8611.500 68.88137892      17.99906787      12.70008838      78.14982517     
    8612.000 67.35863678      18.57875018      12.69976788      77.62167832     
    8612.500 64.69070203      19.17710187      12.69944738      77.09353147     
    8613.000 62.57525149      19.36430612      12.69912687      76.65334665     
    8613.500 60.42215974      19.95059477      12.69880637      76.59340659     
    8614.000 56.64232763      20.71298274      12.69848587      75.04935065     
    8614.500 53.76531048      21.91967185      12.69816537      73.31401099     
    8615.000 55.85329839      22.65033966      12.69784487      67.48251748     
