#--------------------------------------------------#
#-------------------ENVERUS, INC.------------------#
#------------------WWW.ENVERUS.COM-----------------#
#------------------COPYRIGHT 2020------------------#
#--------------------------------------------------#
#THIS FILE MAY BE USED ONLY IN ACCORDANCE WITH A CURRENT SUBSCRIPTION AGREEMENT BETWEEN
#THE USER AND ENVERUS, INC. NO PART OF THIS FILE MAY BE REPRODUCED, USED, COPIED,
#MODIFIED, PROPAGATED, OR DISTRIBUTED EXCEPT IN ACCORDANCE WITH THE SUBSCRIPTION
#AGREEMENT. UNAUTHORIZED USE OR DISTRIBUTION OF ALL OR ANY PART OF THIS FILE MAY VIOLATE
#COPYRIGHT, TRADEMARK, AND/OR OTHER LAWS AND IS SUBJECT TO CIVIL AS WELL AS CRIMINAL
#SANCTIONS.
#--------------------------------------------------#
#THIS FILE IS PROVIDED "AS-IS" AND ALL WARRANTIES ARE EXPRESSLY DISCLAIMED, WHETHER
#EXPRESS, ORAL, IMPLIED, STATUTORY OR OTHERWISE, INCLUDING ANY IMPLIED WARRANTY OF FITNESS
#FOR A PARTICULAR PURPOSE, MERCHANTABILITY, TITLE OR NON-INFRINGEMENT, AND ANY WARRANTIES
#ARISING BY VIRTUE OF CUSTOM OF TRADE OR COURSE OF DEALING.  FURTHER, ENVERUS, INC.
#AND ITS LICENSORS DO NOT REPRESENT OR WARRANT THAT THIS FILE WILL MEET USER'S
#REQUIREMENTS OR ARE SUITABLE FOR USER'S NEEDS OR THAT THE DATA OR RESULTS PROVIDED IN
#CONJUNCTION THEREWITH ARE CORRECT, ACCURATE, TIMELY OR RELIABLE. THESE DISCLAIMERS SHALL
#APPLY REGARDLESS OF ANY FAILURE OF ESSENTIAL PURPOSE OF ANY LIMITED REMEDY.  SOME
#JURISDICTIONS DO NOT ALLOW THE EXCLUSION OF CERTAIN WARRANTIES SO SOME OF THE ABOVE
#EXCLUSIONS MAY NOT APPLY. IN NO EVENT SHALL ENVERUS, INC. OR ANY OF ITS AFFILIATES
#BE LIABLE UNDER ANY LEGAL THEORY, WHETHER IN TORT (INCLUDING WITHOUT LIMITATION
#NEGLIGENCE), CONTRACT, STRICT LIABILITY, STATUTORY OR OTHERWISE, FOR ANY SPECIAL,
#INCIDENTAL, CONSEQUENTIAL, EXEMPLARY, PUNITIVE OR INDIRECT DAMAGE OF ANY KIND, INCLUDING
#WITHOUT LIMITATION LOSS OF REVENUE, PROFITS, GOODWILL, USE, AND/OR DATA OR THE COST OF
#PROCUREMENT OF SUBSTITUTE GOODS OR SERVICES, EVEN IF APPRISED OF THE POSSIBILITY OF SUCH
#DAMAGES IN ADVANCE.
#--------------------------------------------------#

# EXPORTED FROM DI TRANSFORM
# DI TRANSFORM - A PRODUCT OF DRILLINGINFO, INC. - WWW.DRILLINGINFO.COM
#
~VERSION INFORMATION
 VERS.        2.0 : LAS ASCII STANDARD - VERSION 2.0
 WRAP.         NO : ONE LINE PER DEPTH STEP

~WELL INFORMATION
#MNEM.UNIT       DATA TYPE       INFORMATION
#---------       ---------       -----------
 STRT.FT           190 : START DEPTH
 STOP.FT         12010 : STOP DEPTH
 STEP.FT           0.5 : STEP LENGTH
 NULL.         -999.25 : NULL VALUE
 UWI.   42389335580000 : UNIQUE WELL ID
 API.   42389335580000 : WELL IDENTIFIER
 COMP.                 : COMPANY
 WELL.          DRD_55 : WELL NAME
 FLD.                  : FIELD NAME
 LOC.                  : WELL LOCATION
 CNTY.                 : COUNTY
 STAT.                 : STATE OR PROVINCE
 CTRY.                 : COUNTRY
 SRVC.                 : SERVICE COMPANY
 DATE.                 : DATE

~CURVE INFORMATION
#MNEM.UNIT       API CODE       CURVE DESCRIPTION
#---------       --------       -----------------
 DEPT.FT          : <MEASURED DEPTH>
 CAL.IN           : CALIPER
 DPHI.%           : DENSITY POROSITY
 DT.US/FT         : SONIC
 GR.GAPI          : GAMMA RAY
 NPHI.%           : NEUTRON POROSITY
 RHOB.G/CM3       : DENSITY

~PARAMETER INFORMATION
#MNEM.UNIT       VALUE       DESCRIPTION
#---------       -----       -----------
 EKB.FT      2793 : ELEVATION ABOVE MSL

~A      DEPT         CAL        DPHI          DT          GR        NPHI        RHOB
# ...
     10877.5      9.1984     11.3615     82.1019     88.3106     22.9846      2.5124
       10878      9.1984     12.2203     81.6701     86.8598     20.9865      2.5249
     10878.5      9.1984     12.0237      81.958     87.0456     22.4296      2.5559
       10879      9.1984      8.4758     82.9963     76.6772     21.4429      2.5677
     10879.5      9.1984      10.301     84.7468     77.8773      19.824      2.5198
       10880      9.1984     10.8711     87.1874     90.7751     20.7183      2.5096
     10880.5      9.1984     11.2154     89.0266    116.5086     21.2141      2.4963
       10881      9.1984      13.369     90.3398    147.4793     22.3446      2.4876
     10881.5      9.1984     13.0056     90.8824    116.2734     22.5514       2.476
       10882      9.1984     14.4749     91.5236      98.353     22.9989      2.4612
     10882.5      9.1984     15.1532     91.6445     98.9874     25.3777      2.4589
       10883      9.1984     15.7368     90.4016      97.303     24.4361      2.4748
     10883.5      9.1984     14.1531     88.4894     97.9653     25.2886      2.4838
       10884      9.1984      14.439     86.1427     95.6302     24.8585      2.4924
     10884.5      9.1984     13.0003     83.6004      100.88     21.5404      2.5025
       10885      9.2245     13.2217     81.0662    105.4351     22.4255      2.5165
     10885.5      9.2389      11.981     79.4355      72.505     23.0941      2.5343
       10886      9.2389     11.0047     78.8651     66.1284     20.2601      2.5519
     10886.5      9.2389      8.5508     80.2238     64.3725      23.003      2.5645
       10887      9.2261      9.1305     82.5071      65.904     18.7234       2.549
     10887.5      9.1984     10.6319      84.694     72.4525     20.0798      2.5002
       10888      9.1984      12.708       85.86     80.8821      20.489      2.4767
     10888.5      9.1984      14.843     86.0538     83.8326     21.3492      2.4741
       10889      9.1984     14.6109     85.5237     90.7574     24.8645      2.4963
     10889.5      9.1984     14.0453     85.2138     92.6132     26.8571      2.5342
       10890      9.1984     10.9107     85.4291     82.2197     27.9549      2.5479
     10890.5      9.1984     10.2261     86.3064     79.5547     21.8069      2.5348
       10891      9.1984     10.6716     87.8283     81.3684     23.0216      2.5229
     10891.5      9.1984     10.1606     89.0596     85.9992     21.7739      2.5069
       10892      9.1984     14.2678     89.7349     87.4182     22.8112      2.4909
     10892.5      9.1984     12.3381     89.9796     85.5677     25.7502      2.4787
       10893      9.1984     13.8251     89.9656     87.4451     23.6016      2.4794
     10893.5      9.1984      14.156     89.8333      93.193      22.062      2.4862
       10894      9.1984     13.3801     89.8574     97.6847      24.997      2.4888
     10894.5      9.1984     13.6364     89.7607     85.7844     26.3635      2.4912
       10895      9.1984     13.4425     89.2218     83.6262     25.8336      2.4764
     10895.5      9.1984     14.5939     88.1405     85.6349     22.8803      2.4589
       10896      9.1984     15.4629     87.0296     82.4142     22.6642      2.4538
     10896.5      9.1984     15.6698     86.1812     86.5407     25.8958      2.4785
       10897      9.1984     14.8209     85.4118     83.1906     24.6086      2.5096
     10897.5      9.1984     12.8828      84.837     80.6864     24.7173      2.5191
       10898      9.1984      11.317     83.4139     84.8423     23.0073      2.5216
     10898.5      9.1984     11.5017     80.8231     80.4992     25.2067      2.5281
       10899      9.1984     11.7848     76.1183     85.5522     21.3915      2.6167
     10899.5      9.1984     11.3534     71.0974      82.307      21.463      2.7506
       10900      9.1984      5.1698     67.0654     69.7398     21.7239      2.7941
     10900.5      9.1984     -1.5181     68.4113     51.3035      23.233      2.7497
       10901      9.1984      -4.984     73.8961     39.1249      20.301      2.6519
     10901.5      9.1984      2.4304     81.1191     43.4312     15.3191      2.5769
       10902      9.1984      8.3502     88.9808     49.0966     16.4862      2.5521
     10902.5      9.1984     10.0153     91.6927     82.2683     16.8818      2.5339
       10903      9.1984      8.7386     93.9769     92.8137     20.7245      2.5154
     10903.5      9.1984     12.8146     95.0942      96.692     24.4905      2.5266
       10904      9.1984     11.0024     94.3962     97.8479     25.9878      2.5357
     10904.5      9.1984     10.8953     92.8703     97.3518     22.0814      2.5383
       10905      9.1984      9.8139      90.028     91.5041     21.3901      2.5396
     10905.5      9.1984     10.8729     88.2915     89.6747      23.129      2.5076
       10906      9.1984     11.5917     87.7008      88.049     20.2597      2.4768
     10906.5      9.1984     13.1343     87.6832      91.691     27.5788      2.4729
       10907      9.1984     14.5996     87.8737     96.9551     22.6142      2.4751
     10907.5      9.1984     15.0992     87.4972    100.7292     23.2991       2.478
       10908      9.1984     13.7185     86.6073     96.5819     25.4748      2.4895
     10908.5      9.1984      13.964     84.6239     95.0344     25.0073      2.5064
       10909      9.1984     12.7525     82.0956      94.094     21.4208      2.5248
     10909.5      9.1984      11.333      80.166     91.9627      22.005      2.5469
       10910      9.1984      9.9075     79.3335     83.5785     23.0449      2.5592
     10910.5      9.1984      9.1367     79.3507     74.1628     18.7059      2.5341
       10911      9.2389     10.2644     80.3057     72.8748     18.3464      2.5178
     10911.5      9.2389     10.8697      81.705     76.3265     16.6408      2.5034
       10912      9.2389     12.7779     82.9181     75.1741     18.8996      2.4608
     10912.5      9.2389     13.7789     83.6606     72.1293     18.2351      2.4235
       10913      9.2389     16.7828     84.0789     73.3385     20.6731      2.4896
     10913.5      9.2389     14.8828     84.4848     83.3908     24.1438      2.5253
       10914      9.2389     12.7085     84.5304       72.87      26.641      2.5088
     10914.5      9.2389     12.0256     83.6974     79.6924      25.254      2.4902
       10915      9.2389     12.9392     81.3774     90.2434     21.5214      2.4737
     10915.5      9.2389     14.1786     78.6358      89.208     19.9256      2.4918
       10916      9.2389     14.6813     75.2912     72.4947     23.4515      2.5185
     10916.5      9.2389     12.7641      73.029     58.0308     21.2578      2.5325
       10917      9.2389     10.1509     71.2579      60.279     17.7388      2.5153
     10917.5      9.2389     12.2647     69.6911     62.4666     18.5658      2.5551
       10918      9.2389      9.6378     68.5868     51.6773     16.5967      2.5779
     10918.5      9.1984      8.4198     68.7852     50.3496     17.6817      2.5827
       10919      9.1984      7.6868     70.8006     49.1903     14.0605      2.5666
     10919.5      9.1984      8.2083     73.8842     53.7128     13.9525      2.5447
       10920      9.1984      9.6257     76.4832     58.7321     15.2685      2.5343
     10920.5      9.1984     10.5124     78.6782     69.7387     16.6316      2.5486
       10921      9.1984      9.9205     80.9183     68.5602     19.1309      2.5626
     10921.5      9.2046     10.4309     84.2574     65.0225     20.7632      2.5675
       10922      9.2305      8.0632     87.8768     68.3111     21.0511      2.5281
     10922.5      9.2389      9.5894     90.0757     70.1326      17.958      2.4789
       10923      9.2389     14.7696     91.0119     92.5194     19.0347       2.455
     10923.5      9.2389     15.8645      89.296    106.5197     22.1788       2.464
       10924      9.2389     15.2089     85.1338     97.8232     25.8344      2.4818
     10924.5      9.2389     15.4978     80.5745     98.4373     25.7105      2.5076
