###############################################
##         ENVERUS                           ##
##         ESS - Open Hole                   ##
##         PERMIAN / DELAWARE                ##
##         Nov 04 2023  V4.0                 ##
##         42-389-30075-00-00                ##
###############################################
## Copyright 2017-2023  ENVERUS.  All Rights Reserved. 
## Confidential - Property of ENVERUS, use governed by terms and 
## conditions found within the existing Information Services Subscription Agreement 
## (as may be amended, the “ISSA”) between Customer and ENVERUS. 
## 
~VERSION INFORMATION
# MNEM.UNIT                               DATA : DESCRIPTION OF MNEMONIC
#-----.-----     ----------------------------- : -----------------------------
VERS.                                     2.00 : CWLS LOG ASCII STANDARD - VERSION 2.00
WRAP.                                       NO : MULTIPLE LINES PER DEPTH STEP
VEND.                                  ENVERUS : VENDOR
TYPE.                          ESS - OPEN HOLE : ENVERUS ESSENTIAL CURVES – ACCESSIBLE THROUGH ENVERUS PRISM(TM)
DOC.                                  32306518 : ENVERUS HEADER RAW DOCUMENT ID
#___________________________________________________________________________________________________ 
~WELL INFORMATION 
# kPY+8M9YT4rQMtoZY4hkcKqQFbcx8dAfbukAxGfLCr0mY2TilAra5+x7Ygngqds2nYZXTdz9AGmqNniTAH+qTQ== 
# MNEM.UNIT                                              DATA : DESCRIPTION OF MNEMONIC 
#-----.-----                    ----------------------------- : ----------------------------- 
CNTY.                                                  REEVES : COUNTY 
STATE.                                                  TEXAS : STATE 
CNTRY.                                                    USA : COUNTRY 
API.                                             42-389-30075 : API (10 Digit) 
API_14.                                    42-389-30075-00-00 : API (14 Digits) 
API_14_std.                                 42-389-30075-0000 : API (14 Digits Standard) 
UWI.                                           42389300750000 : UNIQUE WELL ID 
WELL.                                        CAMPBELL STATE 1 : WELL NAME
STRT.FT                                                   5.0 : START DEPTH
STOP.FT                                               20980.0 : STOP DEPTH
STEP.FT                                                   0.5 : STEP BETWEEN DEPTHS
NULL.                                                 -999.25 : NULL VALUE
#___________________________________________________________________________________________________ 
~CURVE INFORMATION 
# MNEM.UNIT           : CURVE DESCRIPTION 
#-----.-----          : ----------------------------- 
 DEPT.FT               : MEASURED DEPTH 
 CALI.IN               : CALIPER (CAL - CAL) 
 GR.API                : GAMMA RAY (GR) 
 DT.US/FT              : SONIC DELTA TRANSIT TIME (DT) 
 NPHI.V/V              : NEUTRON POROSITY (NPHI) 
 #___________________________________________________________________________________________________ 
~A         DEPT           CALI             GR             DT           NPHI
# ...
         1595.0       -999.250          6.621         56.380     -999.25000
         1595.5       -999.250          5.647         51.641     -999.25000
         1596.0       -999.250          5.732         51.539     -999.25000
         1596.5       -999.250          5.818         51.438     -999.25000
         1597.0       -999.250          5.903         51.336     -999.25000
         1597.5       -999.250          5.989         51.235     -999.25000
         1598.0       -999.250          6.074         51.133     -999.25000
         1598.5       -999.250          6.160         51.032     -999.25000
         1599.0       -999.250          6.245         50.930     -999.25000
         1599.5       -999.250          6.331         50.829     -999.25000
         1600.0       -999.250          6.416         51.004     -999.25000
         1600.5       -999.250          6.502         51.496     -999.25000
         1601.0       -999.250          6.587         51.987     -999.25000
         1601.5       -999.250          6.673         52.479     -999.25000
         1602.0       -999.250          6.758         52.971     -999.25000
         1602.5       -999.250          6.843         54.698     -999.25000
         1603.0       -999.250          6.929         56.814     -999.25000
         1603.5       -999.250          7.014         59.869     -999.25000
         1604.0       -999.250          6.915         63.743     -999.25000
         1604.5       -999.250          6.769         66.230     -999.25000
         1605.0       -999.250          6.622         61.695     -999.25000
         1605.5       -999.250          6.476         57.160     -999.25000
         1606.0       -999.250          6.330         52.625     -999.25000
         1606.5       -999.250          6.184         51.194     -999.25000
         1607.0       -999.250          6.037         50.933     -999.25000
         1607.5       -999.250          5.891         50.672     -999.25000
         1608.0       -999.250          5.809         50.410     -999.25000
         1608.5       -999.250          5.780         50.265     -999.25000
         1609.0       -999.250          5.751         51.801     -999.25000
         1609.5       -999.250          5.723         53.336     -999.25000
         1610.0       -999.250          5.694         54.872     -999.25000
         1610.5       -999.250          5.665         55.274     -999.25000
         1611.0       -999.250          5.637         53.683     -999.25000
         1611.5       -999.250          5.608         52.897     -999.25000
         1612.0       -999.250          5.579         53.819     -999.25000
         1612.5       -999.250          5.550         54.741     -999.25000
         1613.0       -999.250          5.522         55.663     -999.25000
         1613.5       -999.250          5.493         56.585     -999.25000
         1614.0       -999.250          5.464         57.507     -999.25000
         1614.5       -999.250          5.435         55.917     -999.25000
         1615.0       -999.250          5.407         54.302     -999.25000
         1615.5       -999.250          5.378         52.687     -999.25000
         1616.0       -999.250          5.349         55.661     -999.25000
         1616.5       -999.250          5.321         63.315     -999.25000
         1617.0       -999.250          5.292         70.704     -999.25000
         1617.5       -999.250          5.263         77.745     -999.25000
         1618.0       -999.250          5.234         62.670     -999.25000
         1618.5       -999.250          5.206         53.299     -999.25000
         1619.0       -999.250          5.177         48.276     -999.25000
         1619.5       -999.250          5.148         50.941     -999.25000
         1620.0       -999.250          5.119         53.606     -999.25000
         1620.5       -999.250          5.091         56.270     -999.25000
         1621.0       -999.250          5.062         58.935     -999.25000
         1621.5       -999.250          5.033         61.600     -999.25000
         1622.0       -999.250          5.005         59.680     -999.25000
         1622.5       -999.250          4.976         52.750     -999.25000
         1623.0       -999.250          4.947         54.508     -999.25000
         1623.5       -999.250          4.918         56.265     -999.25000
         1624.0       -999.250          4.890         55.202     -999.25000
         1624.5       -999.250          4.861         53.944     -999.25000
         1625.0       -999.250          4.832         52.685     -999.25000
         1625.5       -999.250          4.804         52.249     -999.25000
         1626.0       -999.250          4.775         53.547     -999.25000
         1626.5       -999.250          4.746         54.845     -999.25000
         1627.0       -999.250          4.731         56.143     -999.25000
         1627.5       -999.250          4.883         57.441     -999.25000
         1628.0       -999.250          5.035         58.739     -999.25000
         1628.5       -999.250          5.187         60.037     -999.25000
         1629.0       -999.250          5.339         61.335     -999.25000
         1629.5       -999.250          5.490         60.619     -999.25000
         1630.0       -999.250          5.642         56.056     -999.25000
         1630.5       -999.250          5.794         52.355     -999.25000
         1631.0       -999.250          5.946         63.047     -999.25000
         1631.5       -999.250          6.098         73.739     -999.25000
         1632.0       -999.250          6.250         94.880     -999.25000
         1632.5       -999.250          6.401         89.568     -999.25000
         1633.0       -999.250          6.553         82.345     -999.25000
         1633.5       -999.250          6.705         73.968     -999.25000
         1634.0       -999.250          6.734         55.564     -999.25000
         1634.5       -999.250          6.703         50.063     -999.25000
         1635.0       -999.250          6.672         52.147     -999.25000
         1635.5       -999.250          6.642         54.232     -999.25000
         1636.0       -999.250          6.611         56.317     -999.25000
         1636.5       -999.250          6.580         58.402     -999.25000
         1637.0       -999.250          6.549         60.487     -999.25000
         1637.5       -999.250          6.518         59.523     -999.25000
         1638.0       -999.250          6.487         57.317     -999.25000
         1638.5       -999.250          6.456         55.111     -999.25000
         1639.0       -999.250          6.425         56.033     -999.25000
         1639.5       -999.250          6.394         61.701     -999.25000
         1640.0       -999.250          6.363         67.368     -999.25000
         1640.5       -999.250          6.332         73.036     -999.25000
         1641.0       -999.250          6.301         70.802     -999.25000
         1641.5       -999.250          6.270         66.769     -999.25000
         1642.0       -999.250          5.614         66.751     -999.25000
         1642.5       -999.250          4.797         67.125     -999.25000
         1643.0       -999.250          3.980         67.498     -999.25000
         1643.5       -999.250          3.509         67.871     -999.25000
         1644.0       -999.250          3.543         68.245     -999.25000
         1644.5       -999.250          3.576         68.618     -999.25000
         1645.0       -999.250          3.609         68.992     -999.25000
         1645.5       -999.250          3.642         69.365     -999.25000
         1646.0       -999.250          3.675         69.738     -999.25000
         1646.5       -999.250          3.708         70.112     -999.25000
         1647.0       -999.250          3.741         70.485     -999.25000
         1647.5       -999.250          3.774         70.456     -999.25000
