#--------------------------------------------------#
#-------------------ENVERUS, INC.------------------#
#------------------WWW.ENVERUS.COM-----------------#
#------------------COPYRIGHT 2020------------------#
#--------------------------------------------------#
#THIS FILE MAY BE USED ONLY IN ACCORDANCE WITH A CURRENT SUBSCRIPTION AGREEMENT BETWEEN
#THE USER AND ENVERUS, INC. NO PART OF THIS FILE MAY BE REPRODUCED, USED, COPIED,
#MODIFIED, PROPAGATED, OR DISTRIBUTED EXCEPT IN ACCORDANCE WITH THE SUBSCRIPTION
#AGREEMENT. UNAUTHORIZED USE OR DISTRIBUTION OF ALL OR ANY PART OF THIS FILE MAY VIOLATE
#COPYRIGHT, TRADEMARK, AND/OR OTHER LAWS AND IS SUBJECT TO CIVIL AS WELL AS CRIMINAL
#SANCTIONS.
#--------------------------------------------------#
#THIS FILE IS PROVIDED "AS-IS" AND ALL WARRANTIES ARE EXPRESSLY DISCLAIMED, WHETHER
#EXPRESS, ORAL, IMPLIED, STATUTORY OR OTHERWISE, INCLUDING ANY IMPLIED WARRANTY OF FITNESS
#FOR A PARTICULAR PURPOSE, MERCHANTABILITY, TITLE OR NON-INFRINGEMENT, AND ANY WARRANTIES
#ARISING BY VIRTUE OF CUSTOM OF TRADE OR COURSE OF DEALING.  FURTHER, ENVERUS, INC.
#AND ITS LICENSORS DO NOT REPRESENT OR WARRANT THAT THIS FILE WILL MEET USER'S
#REQUIREMENTS OR ARE SUITABLE FOR USER'S NEEDS OR THAT THE DATA OR RESULTS PROVIDED IN
#CONJUNCTION THEREWITH ARE CORRECT, ACCURATE, TIMELY OR RELIABLE. THESE DISCLAIMERS SHALL
#APPLY REGARDLESS OF ANY FAILURE OF ESSENTIAL PURPOSE OF ANY LIMITED REMEDY.  SOME
#JURISDICTIONS DO NOT ALLOW THE EXCLUSION OF CERTAIN WARRANTIES SO SOME OF THE ABOVE
#EXCLUSIONS MAY NOT APPLY. IN NO EVENT SHALL ENVERUS, INC. OR ANY OF ITS AFFILIATES
#BE LIABLE UNDER ANY LEGAL THEORY, WHETHER IN TORT (INCLUDING WITHOUT LIMITATION
#NEGLIGENCE), CONTRACT, STRICT LIABILITY, STATUTORY OR OTHERWISE, FOR ANY SPECIAL,
#INCIDENTAL, CONSEQUENTIAL, EXEMPLARY, PUNITIVE OR INDIRECT DAMAGE OF ANY KIND, INCLUDING
#WITHOUT LIMITATION LOSS OF REVENUE, PROFITS, GOODWILL, USE, AND/OR DATA OR THE COST OF
#PROCUREMENT OF SUBSTITUTE GOODS OR SERVICES, EVEN IF APPRISED OF THE POSSIBILITY OF SUCH
#DAMAGES IN ADVANCE.
#--------------------------------------------------#

# EXPORTED FROM DI TRANSFORM
# DI TRANSFORM - A PRODUCT OF DRILLINGINFO, INC. - WWW.DRILLINGINFO.COM
#
~VERSION INFORMATION
 VERS.        2.0 : LAS ASCII STANDARD - VERSION 2.0
 WRAP.         NO : ONE LINE PER DEPTH STEP

~WELL INFORMATION
#MNEM.UNIT       DATA TYPE       INFORMATION
#---------       ---------       -----------
 STRT.FT           190 : START DEPTH
 STOP.FT         12010 : STOP DEPTH
 STEP.FT           0.5 : STEP LENGTH
 NULL.         -999.25 : NULL VALUE
 UWI.   42389335580000 : UNIQUE WELL ID
 API.   42389335580000 : WELL IDENTIFIER
 COMP.                 : COMPANY
 WELL.          DRD_55 : WELL NAME
 FLD.                  : FIELD NAME
 LOC.                  : WELL LOCATION
 CNTY.                 : COUNTY
 STAT.                 : STATE OR PROVINCE
 CTRY.                 : COUNTRY
 SRVC.                 : SERVICE COMPANY
 DATE.                 : DATE

~CURVE INFORMATION
#MNEM.UNIT       API CODE       CURVE DESCRIPTION
#---------       --------       -----------------
 DEPT.FT          : <MEASURED DEPTH>
 CAL.IN           : CALIPER
 DPHI.%           : DENSITY POROSITY
 DT.US/FT         : SONIC
 GR.GAPI          : GAMMA RAY
 NPHI.%           : NEUTRON POROSITY
 RHOB.G/CM3       : DENSITY

~PARAMETER INFORMATION
#MNEM.UNIT       VALUE       DESCRIPTION
#---------       -----       -----------
 EKB.FT      2793 : ELEVATION ABOVE MSL

~A      DEPT         CAL        DPHI          DT          GR        NPHI        RHOB
# ...
     11257.5      9.3603     14.4863     89.7152     91.0381     27.5843      2.4615
       11258      9.3603     15.7845     88.2811     95.2256     21.9091      2.5179
     11258.5      9.3603     14.3326     89.0889     86.5582     25.4319      2.5204
       11259      9.3603     11.9338     90.1311     92.2917     27.2327      2.4994
     11259.5      9.3603     10.5032     90.6251      92.915     23.4891      2.4732
       11260      9.3603     14.5306     90.7128     90.7441     24.2044       2.455
     11260.5      9.3603     16.1555     90.4718      89.236     24.5979      2.4961
       11261      9.3603     13.4373     90.6556     92.5821     23.5598      2.5219
     11261.5      9.3603     11.7572     91.1182     98.7218     23.7146      2.5134
       11262      9.3603     11.9559     92.3532     99.0977     27.3415      2.5067
     11262.5      9.3603     12.4192     93.1823      95.854     23.1012      2.4976
       11263      9.3603     13.2268     93.3074     96.3815     23.4074      2.4874
     11263.5      9.3603     14.2046     92.7914      99.701     26.4735      2.4827
       11264      9.3603     13.2144     92.3224     94.2442     24.2475      2.4856
     11264.5      9.3603     13.9722     92.1792     93.8034     26.8527      2.4936
       11265      9.4008     13.6793     92.3019      91.263     24.2265      2.5013
     11265.5      9.4008     12.9656     92.4236      91.182     19.8701      2.4792
       11266      9.4008     13.6327     92.1644     87.2199     22.1665      2.5021
     11266.5      9.4008     13.7441      92.057     89.9483     24.5193       2.514
       11267      9.4008     11.5936      92.101     93.2741     23.8293      2.4956
     11267.5      9.4008      12.804     92.6311     95.5661     24.3192      2.4847
       11268      9.4008      13.866     92.9561      97.102     29.5866      2.4995
     11268.5      9.4008     13.1313     93.0448    101.3538     31.0679      2.5105
       11269      9.4008     12.3909     92.6129      95.459      26.859      2.5143
     11269.5      9.4008     12.3737     91.9264       98.05     24.2316      2.4986
       11270      9.4008     12.2508     90.3407      95.958     25.1862      2.4824
     11270.5      9.4008     13.0338     87.9415     98.4573     26.2383      2.4688
       11271      9.4008     14.5969     83.9789     92.0985     23.8715      2.4538
     11271.5      9.4008     13.8583     79.9571      85.086     27.1981      2.4393
       11272      9.4015      17.321     76.0037     81.0472     31.1004      2.3999
     11272.5      9.8777      15.811     73.9038     83.1887     35.7587      2.3371
       11273     10.2495     22.8044     74.1162      69.251     16.6719      2.2979
     11273.5     10.4419     24.5194     75.1791     69.0572     19.8159       2.297
       11274     10.6701     24.9077     78.3947     71.8076     18.2066      2.3543
     11274.5     10.8401     23.8971     79.1572     71.7983     16.3074      2.4189
       11275     10.7388      18.066     78.6476     75.0594     18.3092       2.465
     11275.5     10.6223     15.3018     77.2449     77.0225     22.9599      2.4841
       11276     10.4414     15.3285     75.6387     77.2153     20.7527      2.5302
     11276.5     10.0936     13.7726     74.8618     65.1505     21.6564      2.5909
       11277      9.9912      6.7209     75.6074     58.6799     22.4042      2.6179
     11277.5      9.8888      5.2585     77.3773     61.8783     14.5032      2.6238
       11278      9.6158       4.103     79.0544       62.09     18.5037      2.6324
     11278.5      9.4818      5.5036     78.5385     60.7385     18.5505      2.6495
       11279      9.4818      5.2062     75.5345     61.8949     20.3097      2.6553
     11279.5      9.4818      4.3609     71.8983     52.9854     23.2405      2.6422
       11280      9.4818      4.0688     68.7356     51.5204     10.9441      2.6395
     11280.5      9.4818       3.985     67.5765     53.4413     13.8898      2.6203
       11281      9.5223      4.8875     68.0661     53.4413     12.8978       2.569
     11281.5      9.5223      7.8772     68.9431     52.3109      12.977      2.5296
       11282      9.5509     10.6951     70.3101     57.6134     12.3743      2.5194
     11282.5      9.5628      10.578     72.0915     53.2413     12.7748      2.5116
       11283      9.5628     12.8813     75.2125     50.1304     18.2715      2.5007
     11283.5      9.5628     12.6121     79.0297     58.1601     23.1873      2.4847
       11284      9.5628     15.0798     82.3569     69.3405     17.3642      2.5207
     11284.5      9.5628     11.7846     81.4589     79.5152     20.7086      2.6073
       11285      9.5628      6.5526     77.1603     73.7379     24.0885      2.6313
     11285.5      9.5628      4.0537     72.2578      72.338     27.3689      2.6132
       11286      9.5628      6.3233     66.6761     45.5693     11.1538      2.5951
     11286.5      9.5628      7.6507     63.3692      44.332       9.525      2.6148
       11287      9.5628      2.4383     61.9351     46.7592     10.3682      2.6761
     11287.5      9.7707      -0.002     61.4878      43.615     10.5365      2.7243
       11288     10.2006      2.0139     61.1751     46.2567      9.4966      2.4036
     11288.5     10.6613     27.4214     60.8645     53.2495     12.7747      2.0415
       11289     11.0365     42.8902      62.476     55.8704     21.8609      2.0058
     11289.5     11.3746     49.3704     66.2623     58.0622      9.8386      2.0014
       11290     11.8817      52.899     71.3052      62.153     11.2444      2.0009
     11290.5     12.1051     51.0927     76.0355     64.1913     22.2983      2.0015
       11291     11.6992     36.2122     78.3226     74.7664     33.7974      2.0058
     11291.5     11.5352     18.1496     78.1011     73.6458     37.8656      2.2722
       11292     10.5974     19.4887     75.9482     66.0189      33.007      2.4993
     11292.5     10.1075     13.2916     73.8203      62.993     11.7561      2.5556
       11293      9.9941       7.536     72.8644     62.0735     12.6577        2.59
     11293.5      9.9271      6.5232      75.372     71.2457     13.5022      2.6091
       11294      9.9271      9.0636      81.044     73.6124     14.6305      2.4703
     11294.5      9.9271     17.4466     86.2826     84.5199     16.8316      2.4625
       11295      9.9271     14.6592     89.5224     94.5543     28.0549      2.5241
     11295.5      9.9271     10.9057     90.3712     90.4906     27.7946      2.5116
       11296      9.9271     14.9362     90.8316     93.5929     29.9321      2.4929
     11296.5      9.9271     12.8813     89.2611     96.5507     31.7265      2.5027
       11297      9.9271     12.0638     87.7317      91.292     22.3966      2.5096
     11297.5      9.9271     12.5999      86.719     94.7011     24.1991      2.5139
       11298      9.9271      12.227     86.0818     90.6108     24.2037      2.5251
     11298.5      9.9271      10.675     85.7691     92.7268     23.7132      2.5423
       11299      9.9271      9.2085     85.7026      91.278     25.5774      2.5545
     11299.5      9.9271     10.7738     85.7026     89.3141     20.9986      2.5217
       11300      9.9271     11.5649      85.947     90.9435     19.7614      2.5063
     11300.5      9.9271     11.8636     86.1538     86.6889     21.1879      2.5148
       11301      9.9271      12.642     86.6041     90.4464     22.5759      2.5217
     11301.5      9.9814     11.3585     87.2827     93.3356     22.2496      2.5092
       11302     10.0115     12.2674     88.2819     95.0117     19.6866      2.5014
     11302.5      9.9576       12.92     89.2767     92.8553     25.2672      2.3852
       11303      10.102     12.9477     90.3117     90.8552     23.9384      2.3988
     11303.5     10.4238     20.7087     90.7184     91.9779      21.621      2.4552
       11304      10.413      21.104     90.4541     92.9065     22.7936      2.4838
     11304.5      10.413      13.873     88.8819     96.3042     31.1696      2.4985
