#--------------------------------------------------#
#-------------------ENVERUS, INC.------------------#
#------------------WWW.ENVERUS.COM-----------------#
#------------------COPYRIGHT 2020------------------#
#--------------------------------------------------#
#THIS FILE MAY BE USED ONLY IN ACCORDANCE WITH A CURRENT SUBSCRIPTION AGREEMENT BETWEEN
#THE USER AND ENVERUS, INC. NO PART OF THIS FILE MAY BE REPRODUCED, USED, COPIED,
#MODIFIED, PROPAGATED, OR DISTRIBUTED EXCEPT IN ACCORDANCE WITH THE SUBSCRIPTION
#AGREEMENT. UNAUTHORIZED USE OR DISTRIBUTION OF ALL OR ANY PART OF THIS FILE MAY VIOLATE
#COPYRIGHT, TRADEMARK, AND/OR OTHER LAWS AND IS SUBJECT TO CIVIL AS WELL AS CRIMINAL
#SANCTIONS.
#--------------------------------------------------#
#THIS FILE IS PROVIDED "AS-IS" AND ALL WARRANTIES ARE EXPRESSLY DISCLAIMED, WHETHER
#EXPRESS, ORAL, IMPLIED, STATUTORY OR OTHERWISE, INCLUDING ANY IMPLIED WARRANTY OF FITNESS
#FOR A PARTICULAR PURPOSE, MERCHANTABILITY, TITLE OR NON-INFRINGEMENT, AND ANY WARRANTIES
#ARISING BY VIRTUE OF CUSTOM OF TRADE OR COURSE OF DEALING.  FURTHER, ENVERUS, INC.
#AND ITS LICENSORS DO NOT REPRESENT OR WARRANT THAT THIS FILE WILL MEET USER'S
#REQUIREMENTS OR ARE SUITABLE FOR USER'S NEEDS OR THAT THE DATA OR RESULTS PROVIDED IN
#CONJUNCTION THEREWITH ARE CORRECT, ACCURATE, TIMELY OR RELIABLE. THESE DISCLAIMERS SHALL
#APPLY REGARDLESS OF ANY FAILURE OF ESSENTIAL PURPOSE OF ANY LIMITED REMEDY.  SOME
#JURISDICTIONS DO NOT ALLOW THE EXCLUSION OF CERTAIN WARRANTIES SO SOME OF THE ABOVE
#EXCLUSIONS MAY NOT APPLY. IN NO EVENT SHALL ENVERUS, INC. OR ANY OF ITS AFFILIATES
#BE LIABLE UNDER ANY LEGAL THEORY, WHETHER IN TORT (INCLUDING WITHOUT LIMITATION
#NEGLIGENCE), CONTRACT, STRICT LIABILITY, STATUTORY OR OTHERWISE, FOR ANY SPECIAL,
#INCIDENTAL, CONSEQUENTIAL, EXEMPLARY, PUNITIVE OR INDIRECT DAMAGE OF ANY KIND, INCLUDING
#WITHOUT LIMITATION LOSS OF REVENUE, PROFITS, GOODWILL, USE, AND/OR DATA OR THE COST OF
#PROCUREMENT OF SUBSTITUTE GOODS OR SERVICES, EVEN IF APPRISED OF THE POSSIBILITY OF SUCH
#DAMAGES IN ADVANCE.
#--------------------------------------------------#

~VERSION INFORMATION
VERS. 2.0 : CWLS LOG ASCII STANDARD - VERSION 2.0
WRAP. NO : ONE LINE PER DEPTH STEP
~WELL INFORMATION
#MNEMONIC     .UNIT              VALUE :DESCRIPTION
STRT       .FT                7.00000 :START DEPTH
STOP       .FT                16581.00000 :STOP DEPTH
STEP       .FT                0.50000 :STEP
NULL       .                -999.25000 :NULL VALUE
UWI       .                42389300260000 :UNIQUE WELL ID
API       .                42389300260000 :API NUMBER
COMP       .                 :COMPANY
WELL       .                 :WELL
FLD       .                 :FIELD
LOC       .                 :LOCATION
CNTY       .                 :COUNTY
STAT       .                 :STATE
CTRY       .                 :COUNTRY
SRVC       .                 :SERVICE COMPANY
DATE       .                 :DATE
~CURVE INFORMATION
#MNEMONIC     .UNIT      API CODE :CURVE DESCRIPTION
DEPTH       .FT                      :MEASURED DEPTH
CAL       .IN        UNKNOWN   :CAL
DT       .US/FT        UNKNOWN   :DT
GR       .GAPI        UNKNOWN   :GR
~A    DEPTH    CAL    DT    GR
# ...
8140.50000    -999.25000    77.48365    169.30074
8141.00000    -999.25000    76.19986    150.49419
8141.50000    -999.25000    74.91608    152.65038
8142.00000    -999.25000    75.19409    154.80657
8142.50000    -999.25000    75.81002    156.96276
8143.00000    -999.25000    76.42594    151.10731
8143.50000    -999.25000    77.04187    151.49690
8144.00000    -999.25000    77.65780    158.28048
8144.50000    -999.25000    78.27373    165.06406
8145.00000    -999.25000    78.30216    171.84764
8145.50000    -999.25000    77.91956    178.63122
8146.00000    -999.25000    77.53697    185.41480
8146.50000    -999.25000    77.15437    192.19838
8147.00000    -999.25000    77.43656    198.98197
8147.50000    -999.25000    78.07582    205.76555
8148.00000    -999.25000    78.71509    209.41204
8148.50000    -999.25000    78.67100    200.78100
8149.00000    -999.25000    78.60717    192.14997
8149.50000    -999.25000    78.20276    187.87497
8150.00000    -999.25000    77.48340    191.14497
8150.50000    -999.25000    76.76403    194.41496
8151.00000    -999.25000    76.04467    197.68496
8151.50000    -999.25000    75.32530    200.95495
8152.00000    -999.25000    75.81991    194.76667
8152.50000    -999.25000    76.35005    193.10853
8153.00000    -999.25000    76.88019    194.99189
8153.50000    -999.25000    77.41033    193.72314
8154.00000    -999.25000    77.94047    180.32349
8154.50000    -999.25000    77.49173    183.49912
8155.00000    -999.25000    76.59723    176.13076
8155.50000    -999.25000    74.85501    146.89643
8156.00000    -999.25000    72.93868    117.66210
8156.50000    -999.25000    71.02235    88.42777
8157.00000    -999.25000    66.90065    84.09402
8157.50000    -999.25000    62.30175    90.38307
8158.00000    -999.25000    61.43152    96.67213
8158.50000    -999.25000    60.67421    102.96118
8159.00000    -999.25000    62.79602    109.25024
8159.50000    -999.25000    66.10991    116.35564
8160.00000    -999.25000    69.42379    126.81841
8160.50000    -999.25000    72.73768    137.28118
8161.00000    -999.25000    75.22878    147.74395
8161.50000    -999.25000    74.54653    158.20672
8162.00000    -999.25000    73.86428    168.66950
8162.50000    -999.25000    74.29984    179.13227
8163.00000    -999.25000    75.12176    189.59504
8163.50000    -999.25000    75.94368    200.05781
8164.00000    -999.25000    76.71540    186.26443
8164.50000    -999.25000    76.91990    171.14640
8165.00000    -999.25000    77.12439    156.02838
8165.50000    -999.25000    77.32889    144.43073
8166.00000    -999.25000    77.90452    153.67671
8166.50000    -999.25000    79.44058    162.92269
8167.00000    -999.25000    80.97664    172.16867
8167.50000    -999.25000    85.55157    178.56918
8168.00000    -999.25000    91.16799    182.84450
8168.50000    -999.25000    94.91951    178.85853
8169.00000    -999.25000    91.76950    171.37863
8169.50000    -999.25000    88.61948    163.89873
8170.00000    -999.25000    85.46946    156.41883
8170.50000    -999.25000    82.51762    156.03166
8171.00000    -999.25000    85.44984    162.63274
8171.50000    -999.25000    88.38205    169.23383
8172.00000    -999.25000    91.31427    175.83491
8172.50000    -999.25000    90.25719    182.43600
8173.00000    -999.25000    88.41127    188.89531
8173.50000    -999.25000    84.88068    186.49265
8174.00000    -999.25000    80.95538    184.08999
8174.50000    -999.25000    78.10006    181.68733
8175.00000    -999.25000    77.77215    185.69759
8175.50000    -999.25000    77.44425    192.52755
8176.00000    -999.25000    77.16368    199.35752
8176.50000    -999.25000    77.20516    201.52123
8177.00000    -999.25000    77.24665    201.19681
8177.50000    -999.25000    77.28813    200.87240
8178.00000    -999.25000    76.64971    195.59693
8178.50000    -999.25000    74.99656    182.78864
8179.00000    -999.25000    73.34342    169.98035
8179.50000    -999.25000    71.69027    157.17206
8180.00000    -999.25000    70.76847    144.36377
8180.50000    -999.25000    71.66633    156.18374
8181.00000    -999.25000    72.69304    169.33584
8181.50000    -999.25000    73.88568    180.85316
8182.00000    -999.25000    75.07833    171.69732
8182.50000    -999.25000    76.27098    162.54148
8183.00000    -999.25000    77.46362    155.03602
8183.50000    -999.25000    78.65627    153.24702
8184.00000    -999.25000    78.81630    151.45802
8184.50000    -999.25000    78.41981    149.66902
8185.00000    -999.25000    78.02333    147.88002
8185.50000    -999.25000    77.62685    146.09102
8186.00000    -999.25000    77.23036    147.25931
8186.50000    -999.25000    76.83388    156.02031
8187.00000    -999.25000    76.86721    164.78131
8187.50000    -999.25000    77.66391    173.54231
8188.00000    -999.25000    77.07994    171.67345
8188.50000    -999.25000    77.28432    165.09229
8189.00000    -999.25000    77.48870    158.51112
8189.50000    -999.25000    77.69308    151.92996
8190.00000    -999.25000    77.89746    145.34879
8190.50000    -999.25000    77.32516    147.41123
8191.00000    -999.25000    76.22951    151.12423
8191.50000    -999.25000    75.13386    154.83723
8192.00000    -999.25000    74.38982    158.55024
8192.50000    -999.25000    74.36842    162.26324
8193.00000    -999.25000    74.34703    165.97624
8193.50000    -999.25000    74.32563    169.68924
8194.00000    -999.25000    74.30423    167.59207
8194.50000    -999.25000    74.55640    170.39623
8195.00000    -999.25000    75.22683    176.37089
8195.50000    -999.25000    75.89725    182.34555
8196.00000    -999.25000    76.56767    188.32021
8196.50000    -999.25000    77.23809    194.29487
8197.00000    -999.25000    77.17745    184.55701
8197.50000    -999.25000    76.37790    168.60535
8198.00000    -999.25000    75.57835    160.11463
8198.50000    -999.25000    74.77880    162.21027
8199.00000    -999.25000    74.67358    164.30591
8199.50000    -999.25000    74.85045    166.40155
8200.00000    -999.25000    75.02732    159.91704
8200.50000    -999.25000    75.20420    147.62435
8201.00000    -999.25000    75.38107    140.33515
8201.50000    -999.25000    75.55795    140.95758
8202.00000    -999.25000    75.73482    141.58001
8202.50000    -999.25000    76.42739    155.18739
8203.00000    -999.25000    77.13411    171.88404
8203.50000    -999.25000    77.84084    177.06759
8204.00000    -999.25000    77.58077    173.73565
8204.50000    -999.25000    77.10311    170.40371
8205.00000    -999.25000    76.62545    167.07177
8205.50000    -999.25000    76.14779    163.73983
8206.00000    -999.25000    75.67013    160.40788
8206.50000    -999.25000    75.19247    157.07594
8207.00000    -999.25000    74.71481    145.51424
8207.50000    -999.25000    74.44668    132.69727
8208.00000    -999.25000    74.46728    119.88030
8208.50000    -999.25000    74.48788    107.06333
8209.00000    -999.25000    72.45591    94.24636
8209.50000    -999.25000    70.29471    81.42939
8210.00000    -999.25000    68.13581    68.61243
8210.50000    -999.25000    66.20751    55.79546
8211.00000    -999.25000    64.27920    65.90020
8211.50000    -999.25000    63.11192    84.62977
8212.00000    -999.25000    63.70476    103.35933
8212.50000    -999.25000    68.89530    122.08889
8213.00000    -999.25000    74.08584    140.81845
8213.50000    -999.25000    75.47756    148.98820
8214.00000    -999.25000    75.33045    154.16196
8214.50000    -999.25000    74.62460    159.33573
8215.00000    -999.25000    73.91876    150.89882
8215.50000    -999.25000    73.21292    136.32493
8216.00000    -999.25000    72.50708    130.85848
8216.50000    -999.25000    72.91965    137.75776
8217.00000    -999.25000    74.19454    144.65704
8217.50000    -999.25000    75.46943    151.55631
8218.00000    -999.25000    76.49319    158.45559
8218.50000    -999.25000    76.04098    153.57932
8219.00000    -999.25000    75.42207    139.42438
8219.50000    -999.25000    74.10411    130.15953
8220.00000    -999.25000    72.78615    132.17003
8220.50000    -999.25000    71.47042    134.18053
