#--------------------------------------------------#
#-------------------ENVERUS, INC.------------------#
#------------------WWW.ENVERUS.COM-----------------#
#------------------COPYRIGHT 2020------------------#
#--------------------------------------------------#
#THIS FILE MAY BE USED ONLY IN ACCORDANCE WITH A CURRENT SUBSCRIPTION AGREEMENT BETWEEN
#THE USER AND ENVERUS, INC. NO PART OF THIS FILE MAY BE REPRODUCED, USED, COPIED,
#MODIFIED, PROPAGATED, OR DISTRIBUTED EXCEPT IN ACCORDANCE WITH THE SUBSCRIPTION
#AGREEMENT. UNAUTHORIZED USE OR DISTRIBUTION OF ALL OR ANY PART OF THIS FILE MAY VIOLATE
#COPYRIGHT, TRADEMARK, AND/OR OTHER LAWS AND IS SUBJECT TO CIVIL AS WELL AS CRIMINAL
#SANCTIONS.
#--------------------------------------------------#
#THIS FILE IS PROVIDED "AS-IS" AND ALL WARRANTIES ARE EXPRESSLY DISCLAIMED, WHETHER
#EXPRESS, ORAL, IMPLIED, STATUTORY OR OTHERWISE, INCLUDING ANY IMPLIED WARRANTY OF FITNESS
#FOR A PARTICULAR PURPOSE, MERCHANTABILITY, TITLE OR NON-INFRINGEMENT, AND ANY WARRANTIES
#ARISING BY VIRTUE OF CUSTOM OF TRADE OR COURSE OF DEALING.  FURTHER, ENVERUS, INC.
#AND ITS LICENSORS DO NOT REPRESENT OR WARRANT THAT THIS FILE WILL MEET USER'S
#REQUIREMENTS OR ARE SUITABLE FOR USER'S NEEDS OR THAT THE DATA OR RESULTS PROVIDED IN
#CONJUNCTION THEREWITH ARE CORRECT, ACCURATE, TIMELY OR RELIABLE. THESE DISCLAIMERS SHALL
#APPLY REGARDLESS OF ANY FAILURE OF ESSENTIAL PURPOSE OF ANY LIMITED REMEDY.  SOME
#JURISDICTIONS DO NOT ALLOW THE EXCLUSION OF CERTAIN WARRANTIES SO SOME OF THE ABOVE
#EXCLUSIONS MAY NOT APPLY. IN NO EVENT SHALL ENVERUS, INC. OR ANY OF ITS AFFILIATES
#BE LIABLE UNDER ANY LEGAL THEORY, WHETHER IN TORT (INCLUDING WITHOUT LIMITATION
#NEGLIGENCE), CONTRACT, STRICT LIABILITY, STATUTORY OR OTHERWISE, FOR ANY SPECIAL,
#INCIDENTAL, CONSEQUENTIAL, EXEMPLARY, PUNITIVE OR INDIRECT DAMAGE OF ANY KIND, INCLUDING
#WITHOUT LIMITATION LOSS OF REVENUE, PROFITS, GOODWILL, USE, AND/OR DATA OR THE COST OF
#PROCUREMENT OF SUBSTITUTE GOODS OR SERVICES, EVEN IF APPRISED OF THE POSSIBILITY OF SUCH
#DAMAGES IN ADVANCE.
#--------------------------------------------------#

~VERSION INFORMATION
VERS. 2.0 : CWLS LOG ASCII STANDARD - VERSION 2.0
WRAP.  NO : ONE LINE PER DEPTH STEP
~WELL INFORMATION
#MNEMONIC     .UNIT              VALUE :DESCRIPTION
STRT       .FT                51 :START DEPTH
STOP       .FT                6194 :STOP DEPTH
STEP       .FT                   0.500 :STEP
NULL       .                  -999.990 :NULL
UWI        .              42389004340000 :UNIQUE WELL ID
API        .              42389004340000 :API NUMBER
COMP       .         :COMPANY
WELL       .         1, :WELL
DATE       .                            :LOG DATE
~CURVE INFORMATION
#MNEMONIC     .UNIT      API CODE :CURVE DESCRIPTION
DEPTH       .FT                      :MEASURED DEPTH
GR.API        UNKNOWN   :GR
DT.US/FT        UNKNOWN   :DT
~A    DEPTH    GR    DT
# ...
 4378.5     9.966   49.339
 4379     9.844   49.47
 4379.5     9.721   49.619
 4380     9.599   49.768
 4380.5     9.476   49.917
 4381     9.354   50.066
 4381.5     9.231   50.216
 4382     9.109   50.264
 4382.5     8.986   50.231
 4383     8.864   50.198
 4383.5     8.741   50.165
 4384     9.451   50.131
 4384.5     10.323   50.098
 4385     11.194   50.065
 4385.5     12.066   50.032
 4386     12.938   49.999
 4386.5     13.809   49.966
 4387     13.871   50.011
 4387.5     12.765   50.116
 4388     11.658   50.22
 4388.5     10.551   50.325
 4389     9.444   50.43
 4389.5     8.338   50.534
 4390     7.231   50.639
 4390.5     7.611   53.315
 4391     8.219   58.645
 4391.5     8.827   60.704
 4392     9.435   59.298
 4392.5     10.043   57.893
 4393     10.651   56.488
 4393.5     11.259   55.083
 4394     11.867   50.266
 4394.5     12.475   45.989
 4395     12.149   49.471
 4395.5     11.28   49.627
 4396     10.411   49.783
 4396.5     9.542   49.939
 4397     8.673   50.095
 4397.5     7.804   50.251
 4398     7.827   50.407
 4398.5     8.613   50.5
 4399     9.4   50.432
 4399.5     10.187   50.364
 4400     9.853   50.296
 4400.5     9.384   50.228
 4401     8.916   50.16
 4401.5     8.448   50.091
 4402     8.73   50.023
 4402.5     9.233   49.955
 4403     9.736   49.887
 4403.5     10.239   49.819
 4404     10.743   49.792
 4404.5     11.246   49.898
 4405     11.358   50.005
 4405.5     11.135   50.22
 4406     10.912   50.536
 4406.5     10.689   50.852
 4407     10.466   51.168
 4407.5     10.244   51.484
 4408     10.021   51.8
 4408.5     9.798   51.984
 4409     9.391   51.533
 4409.5     8.824   51.082
 4410     8.256   50.631
 4410.5     7.688   50.18
 4411     7.121   49.729
 4411.5     6.998   49.278
 4412     7.255   49.166
 4412.5     7.513   49.727
 4413     7.77   50.079
 4413.5     8.027   50.078
 4414     8.285   50.077
 4414.5     8.542   50.077
 4415     8.8   50.076
 4415.5     10.014   50.075
 4416     12.985   50.117
 4416.5     15.956   50.391
 4417     18.926   50.665
 4417.5     21.897   50.939
 4418     24.868   51.213
 4418.5     27.839   51.409
 4419     30.81   51.292
 4419.5     28.63   51.175
 4420     25.066   51.058
 4420.5     21.503   50.941
 4421     17.939   50.824
 4421.5     14.632   50.706
 4422     13.71   50.589
 4422.5     12.787   50.542
 4423     11.865   50.526
 4423.5     10.942   50.51
 4424     10.02   50.495
 4424.5     9.098   50.479
 4425     8.175   50.463
 4425.5     7.679   50.448
 4426     8.427   50.432
 4426.5     9.175   50.416
 4427     9.924   50.4
 4427.5     10.672   50.385
 4428     11.42   50.438
 4428.5     11.609   50.5
 4429     11.532   50.562
 4429.5     11.455   50.624
 4430     11.378   50.686
 4430.5     11.301   50.956
 4431     11.224   51.307
 4431.5     11.148   51.658
 4432     11.071   51.85
 4432.5     10.994   50.917
 4433     10.917   49.985
 4433.5     10.84   52.96
 4434     10.649   56.75
 4434.5     10.312   60.54
 4435     9.975   64.33
 4435.5     9.639   68.121
 4436     9.302   71.001
 4436.5     8.965   66.972
 4437     8.629   62.943
 4437.5     8.292   58.914
 4438     7.955   54.885
 4438.5     7.619   50.857
 4439     7.282   46.828
 4439.5     6.945   47.823
 4440     6.609   49.499
 4440.5     7.186   50.933
 4441     7.895   51.04
 4441.5     8.605   51.146
 4442     9.314   51.253
 4442.5     10.023   51.36
 4443     10.733   51.467
 4443.5     10.973   51.574
 4444     10.613   51.68
 4444.5     10.252   51.787
 4445     9.892   51.807
 4445.5     9.532   51.793
 4446     9.434   51.778
 4446.5     9.65   51.764
 4447     9.866   51.749
 4447.5     10.083   51.735
 4448     10.299   51.72
 4448.5     10.516   51.812
 4449     10.732   51.951
 4449.5     10.837   52.09
 4450     10.174   52.229
 4450.5     9.51   52.355
 4451     8.847   52.229
 4451.5     8.184   52.104
 4452     7.521   51.979
 4452.5     6.858   51.853
 4453     6.195   51.728
 4453.5     6.197   51.603
 4454     6.436   51.477
 4454.5     6.676   51.352
 4455     6.915   51.287
 4455.5     7.155   51.292
 4456     7.014   51.297
 4456.5     6.766   51.302
 4457     6.518   51.306
 4457.5     6.269   51.311
 4458     6.433   51.404
 4458.5     6.804   51.581
 4459     7.175   51.758
 4459.5     7.546   51.733
 4460     7.917   51.651
 4460.5     7.74   51.568
 4461     7.345   51.485
 4461.5     6.95   51.403
 4462     6.555   51.32
 4462.5     6.989   51.246
 4463     7.614   51.317
 4463.5     8.238   51.389
 4464     8.863   51.461
 4464.5     9.488   51.532
 4465     10.112   51.604
 4465.5     10.737   51.675
 4466     11.361   51.747
 4466.5     10.999   51.818
 4467     10.491   51.879
 4467.5     9.983   51.829
 4468     9.475   51.779
 4468.5     8.967   51.729
 4469     8.458   51.679
 4469.5     7.95   51.576
 4470     7.442   51.421
 4470.5     6.934   51.267
 4471     6.426   51.113
 4471.5     5.918   50.958
 4472     5.41   50.804
 4472.5     4.902   50.649
 4473     4.393   50.664
 4473.5     3.885   50.82
 4474     4.202   50.976
 4474.5     4.916   51.132
 4475     5.63   51.288
 4475.5     6.344   51.443
 4476     7.058   51.599
 4476.5     7.282   51.381
 4477     7.336   51.012
 4477.5     7.477   50.88
 4478     8.102   50.907
 4478.5     8.727   50.934
 4479     9.352   50.96
 4479.5     9.978   50.987
 4480     10.603   51.014
 4480.5     11.228   51.04
 4481     11.853   51.067
 4481.5     12.01   51.094
 4482     11.536   51.109
 4482.5     11.062   51.038
 4483     10.731   50.968
 4483.5     11.101   50.898
 4484     11.471   50.828
 4484.5     11.841   50.758
 4485     12.211   50.687
 4485.5     12.581   50.63
 4486     12.653   50.663
 4486.5     10.966   50.677
 4487     9.278   50.624
 4487.5     7.59   50.571
 4488     7.532   50.517
 4488.5     7.765   50.464
 4489     7.998   50.582
 4489.5     8.232   50.716
 4490     8.465   50.85
 4490.5     8.698   50.984
 4491     8.932   51.119
 4491.5     9.165   51.253
 4492     9.398   51.287
 4492.5     9.271   51.311
 4493     9.054   51.335
 4493.5     8.836   51.358
 4494     8.618   51.382
 4494.5     8.4   51.406
 4495     8.182   51.43
 4495.5     8.687   51.454
 4496     9.228   51.477
 4496.5     9.769   51.501
 4497     10.31   51.494
 4497.5     10.851   51.426
 4498     11.258   51.358
 4498.5     10.93   51.291
 4499     10.601   51.223
 4499.5     10.273   51.21
 4500     9.944   51.253
 4500.5     9.616   51.296
 4501     9.688   51.292
 4501.5     10.689   51.245
 4502     11.691   51.198
 4502.5     12.27   51.152
 4503     11.908   51.105
 4503.5     11.547   51.058
 4504     11.185   51.011
 4504.5     10.824   51.051
 4505     10.462   51.178
 4505.5     10.101   51.305
 4506     9.739   51.431
 4506.5     9.378   51.47
 4507     9.016   51.47
 4507.5     8.655   51.469
 4508     8.293   51.468
 4508.5     9.093   51.467
 4509     10.667   51.467
 4509.5     12.241   51.466
 4510     13.816   51.465
 4510.5     15.061   51.464
 4511     14.276   51.464
 4511.5     13.491   51.463
 4512     12.706   50.506
 4512.5     11.92   47.597
 4513     11.135   44.689
 4513.5     10.35   41.781
 4514     9.565   41.593
 4514.5     8.78   44.2
 4515     7.994   46.806
 4515.5     8.277   49.413
 4516     8.873   51.455
 4516.5     9.469   51.449
 4517     10.066   51.443
 4517.5     10.662   51.437
 4518     11.258   51.43
 4518.5     11.855   51.424
 4519     12.451   51.435
 4519.5     13.047   51.489
 4520     13.643   51.544
 4520.5     14.203   51.599
 4521     13.918   51.654
 4521.5     13.634   51.709
 4522     13.349   51.764
 4522.5     13.064   51.818
 4523     12.779   51.873
 4523.5     12.495   51.928
 4524     12.21   51.983
 4524.5     11.925   52.038
 4525     11.641   52.093
 4525.5     11.356   52.148
 4526     11.071   52.202
 4526.5     10.787   52.257
 4527     10.502   52.206
 4527.5     10.217   52.059
 4528     9.932   51.912
 4528.5     9.648   51.765
 4529     9.363   51.618
 4529.5     9.078   51.471
 4530     8.794   51.339
 4530.5     8.509   51.341
 4531     8.224   51.344
