###############################################
##         ENVERUS                           ##
##         ESS - Open Hole                   ##
##         PERMIAN / DELAWARE                ##
##         Nov 04 2023  V4.0                 ##
##         42-389-30075-00-00                ##
###############################################
## Copyright 2017-2023  ENVERUS.  All Rights Reserved. 
## Confidential - Property of ENVERUS, use governed by terms and 
## conditions found within the existing Information Services Subscription Agreement 
## (as may be amended, the “ISSA”) between Customer and ENVERUS. 
## 
~VERSION INFORMATION
# MNEM.UNIT                               DATA : DESCRIPTION OF MNEMONIC
#-----.-----     ----------------------------- : -----------------------------
VERS.                                     2.00 : CWLS LOG ASCII STANDARD - VERSION 2.00
WRAP.                                       NO : MULTIPLE LINES PER DEPTH STEP
VEND.                                  ENVERUS : VENDOR
TYPE.                          ESS - OPEN HOLE : ENVERUS ESSENTIAL CURVES – ACCESSIBLE THROUGH ENVERUS PRISM(TM)
DOC.                                  32306518 : ENVERUS HEADER RAW DOCUMENT ID
#___________________________________________________________________________________________________ 
~WELL INFORMATION 
# kPY+8M9YT4rQMtoZY4hkcKqQFbcx8dAfbukAxGfLCr0mY2TilAra5+x7Ygngqds2nYZXTdz9AGmqNniTAH+qTQ== 
# MNEM.UNIT                                              DATA : DESCRIPTION OF MNEMONIC 
#-----.-----                    ----------------------------- : ----------------------------- 
CNTY.                                                  REEVES : COUNTY 
STATE.                                                  TEXAS : STATE 
CNTRY.                                                    USA : COUNTRY 
API.                                             42-389-30075 : API (10 Digit) 
API_14.                                    42-389-30075-00-00 : API (14 Digits) 
API_14_std.                                 42-389-30075-0000 : API (14 Digits Standard) 
UWI.                                           42389300750000 : UNIQUE WELL ID 
WELL.                                        CAMPBELL STATE 1 : WELL NAME
STRT.FT                                                   5.0 : START DEPTH
STOP.FT                                               20980.0 : STOP DEPTH
STEP.FT                                                   0.5 : STEP BETWEEN DEPTHS
NULL.                                                 -999.25 : NULL VALUE
#___________________________________________________________________________________________________ 
~CURVE INFORMATION 
# MNEM.UNIT           : CURVE DESCRIPTION 
#-----.-----          : ----------------------------- 
 DEPT.FT               : MEASURED DEPTH 
 CALI.IN               : CALIPER (CAL - CAL) 
 GR.API                : GAMMA RAY (GR) 
 DT.US/FT              : SONIC DELTA TRANSIT TIME (DT) 
 NPHI.V/V              : NEUTRON POROSITY (NPHI) 
 #___________________________________________________________________________________________________ 
~A         DEPT           CALI             GR             DT           NPHI
# ...
         2337.0       -999.250          2.883         57.503     -999.25000
         2337.5       -999.250          2.917         60.353     -999.25000
         2338.0       -999.250          2.951         65.656     -999.25000
         2338.5       -999.250          2.985         67.537     -999.25000
         2339.0       -999.250          3.019         68.078     -999.25000
         2339.5       -999.250          3.053         68.619     -999.25000
         2340.0       -999.250          3.087         68.665     -999.25000
         2340.5       -999.250          3.121         68.317     -999.25000
         2341.0       -999.250          3.155         67.970     -999.25000
         2341.5       -999.250          3.188         67.622     -999.25000
         2342.0       -999.250          3.222         67.275     -999.25000
         2342.5       -999.250          3.256         66.928     -999.25000
         2343.0       -999.250          3.290         66.580     -999.25000
         2343.5       -999.250          3.324         66.335     -999.25000
         2344.0       -999.250          3.358         66.468     -999.25000
         2344.5       -999.250          3.392         66.601     -999.25000
         2345.0       -999.250          3.426         66.734     -999.25000
         2345.5       -999.250          3.460         66.867     -999.25000
         2346.0       -999.250          3.494         67.001     -999.25000
         2346.5       -999.250          3.528         67.134     -999.25000
         2347.0       -999.250          3.562         67.267     -999.25000
         2347.5       -999.250          3.595         66.648     -999.25000
         2348.0       -999.250          3.629         57.820     -999.25000
         2348.5       -999.250          3.663         53.086     -999.25000
         2349.0       -999.250          3.697         52.162     -999.25000
         2349.5       -999.250          3.731         51.916     -999.25000
         2350.0       -999.250          3.776         52.000     -999.25000
         2350.5       -999.250          3.957         52.083     -999.25000
         2351.0       -999.250          4.139         52.166     -999.25000
         2351.5       -999.250          4.320         52.249     -999.25000
         2352.0       -999.250          4.501         52.332     -999.25000
         2352.5       -999.250          4.682         52.415     -999.25000
         2353.0       -999.250          4.863         52.498     -999.25000
         2353.5       -999.250          5.045         52.581     -999.25000
         2354.0       -999.250          5.226         52.664     -999.25000
         2354.5       -999.250          5.407         52.716     -999.25000
         2355.0       -999.250          5.358         52.696     -999.25000
         2355.5       -999.250          5.298         52.676     -999.25000
         2356.0       -999.250          5.238         52.656     -999.25000
         2356.5       -999.250          5.177         52.635     -999.25000
         2357.0       -999.250          5.117         52.615     -999.25000
         2357.5       -999.250          5.056         52.595     -999.25000
         2358.0       -999.250          4.996         52.575     -999.25000
         2358.5       -999.250          4.936         52.554     -999.25000
         2359.0       -999.250          4.875         52.534     -999.25000
         2359.5       -999.250          4.815         52.661     -999.25000
         2360.0       -999.250          4.754         52.854     -999.25000
         2360.5       -999.250          4.694         53.046     -999.25000
         2361.0       -999.250          4.634         53.239     -999.25000
         2361.5       -999.250          4.573         53.431     -999.25000
         2362.0       -999.250          4.944         53.624     -999.25000
         2362.5       -999.250          6.314         54.425     -999.25000
         2363.0       -999.250          7.683         55.417     -999.25000
         2363.5       -999.250          9.053         56.410     -999.25000
         2364.0       -999.250          8.885         57.403     -999.25000
         2364.5       -999.250          8.103         58.396     -999.25000
         2365.0       -999.250          7.322         59.389     -999.25000
         2365.5       -999.250          6.540         60.251     -999.25000
         2366.0       -999.250          5.759         58.413     -999.25000
         2366.5       -999.250          4.977         56.575     -999.25000
         2367.0       -999.250          4.196         54.737     -999.25000
         2367.5       -999.250          3.835         53.636     -999.25000
         2368.0       -999.250          3.734         53.449     -999.25000
         2368.5       -999.250          3.633         53.261     -999.25000
         2369.0       -999.250          3.531         53.074     -999.25000
         2369.5       -999.250          3.430         52.886     -999.25000
         2370.0       -999.250          3.329         52.790     -999.25000
         2370.5       -999.250          3.227         52.731     -999.25000
         2371.0       -999.250          3.126         52.673     -999.25000
         2371.5       -999.250          3.025         52.614     -999.25000
         2372.0       -999.250          2.923         52.556     -999.25000
         2372.5       -999.250          2.822         52.497     -999.25000
         2373.0       -999.250          2.721         52.439     -999.25000
         2373.5       -999.250          2.620         52.381     -999.25000
         2374.0       -999.250          2.518         52.322     -999.25000
         2374.5       -999.250          2.417         52.264     -999.25000
         2375.0       -999.250          2.316         52.205     -999.25000
         2375.5       -999.250          2.214         52.160     -999.25000
         2376.0       -999.250          2.113         52.278     -999.25000
         2376.5       -999.250          2.012         52.396     -999.25000
         2377.0       -999.250          1.910         52.514     -999.25000
         2377.5       -999.250          1.809         52.632     -999.25000
         2378.0       -999.250          1.708         52.750     -999.25000
         2378.5       -999.250          2.183         52.868     -999.25000
         2379.0       -999.250          2.998         52.986     -999.25000
         2379.5       -999.250          3.814         53.409     -999.25000
         2380.0       -999.250          4.630         53.915     -999.25000
         2380.5       -999.250          5.446         54.421     -999.25000
         2381.0       -999.250          5.918         56.975     -999.25000
         2381.5       -999.250          5.041         61.072     -999.25000
         2382.0       -999.250          4.164         65.169     -999.25000
         2382.5       -999.250          3.286         67.192     -999.25000
         2383.0       -999.250          2.409         67.425     -999.25000
         2383.5       -999.250          1.791         67.658     -999.25000
         2384.0       -999.250          1.912         67.536     -999.25000
         2384.5       -999.250          2.034         67.287     -999.25000
         2385.0       -999.250          2.156         67.038     -999.25000
         2385.5       -999.250          2.278         66.789     -999.25000
         2386.0       -999.250          2.400         66.540     -999.25000
         2386.5       -999.250          2.522         66.292     -999.25000
         2387.0       -999.250          2.644         66.043     -999.25000
         2387.5       -999.250          2.765         65.794     -999.25000
         2388.0       -999.250          2.887         65.545     -999.25000
         2388.5       -999.250          3.009         64.358     -999.25000
         2389.0       -999.250          3.131         61.018     -999.25000
         2389.5       -999.250          3.253         57.677     -999.25000
