#--------------------------------------------------#
#-------------------ENVERUS, INC.------------------#
#------------------WWW.ENVERUS.COM-----------------#
#------------------COPYRIGHT 2020------------------#
#--------------------------------------------------#
#THIS FILE MAY BE USED ONLY IN ACCORDANCE WITH A CURRENT SUBSCRIPTION AGREEMENT BETWEEN
#THE USER AND ENVERUS, INC. NO PART OF THIS FILE MAY BE REPRODUCED, USED, COPIED,
#MODIFIED, PROPAGATED, OR DISTRIBUTED EXCEPT IN ACCORDANCE WITH THE SUBSCRIPTION
#AGREEMENT. UNAUTHORIZED USE OR DISTRIBUTION OF ALL OR ANY PART OF THIS FILE MAY VIOLATE
#COPYRIGHT, TRADEMARK, AND/OR OTHER LAWS AND IS SUBJECT TO CIVIL AS WELL AS CRIMINAL
#SANCTIONS.
#--------------------------------------------------#
#THIS FILE IS PROVIDED "AS-IS" AND ALL WARRANTIES ARE EXPRESSLY DISCLAIMED, WHETHER
#EXPRESS, ORAL, IMPLIED, STATUTORY OR OTHERWISE, INCLUDING ANY IMPLIED WARRANTY OF FITNESS
#FOR A PARTICULAR PURPOSE, MERCHANTABILITY, TITLE OR NON-INFRINGEMENT, AND ANY WARRANTIES
#ARISING BY VIRTUE OF CUSTOM OF TRADE OR COURSE OF DEALING.  FURTHER, ENVERUS, INC.
#AND ITS LICENSORS DO NOT REPRESENT OR WARRANT THAT THIS FILE WILL MEET USER'S
#REQUIREMENTS OR ARE SUITABLE FOR USER'S NEEDS OR THAT THE DATA OR RESULTS PROVIDED IN
#CONJUNCTION THEREWITH ARE CORRECT, ACCURATE, TIMELY OR RELIABLE. THESE DISCLAIMERS SHALL
#APPLY REGARDLESS OF ANY FAILURE OF ESSENTIAL PURPOSE OF ANY LIMITED REMEDY.  SOME
#JURISDICTIONS DO NOT ALLOW THE EXCLUSION OF CERTAIN WARRANTIES SO SOME OF THE ABOVE
#EXCLUSIONS MAY NOT APPLY. IN NO EVENT SHALL ENVERUS, INC. OR ANY OF ITS AFFILIATES
#BE LIABLE UNDER ANY LEGAL THEORY, WHETHER IN TORT (INCLUDING WITHOUT LIMITATION
#NEGLIGENCE), CONTRACT, STRICT LIABILITY, STATUTORY OR OTHERWISE, FOR ANY SPECIAL,
#INCIDENTAL, CONSEQUENTIAL, EXEMPLARY, PUNITIVE OR INDIRECT DAMAGE OF ANY KIND, INCLUDING
#WITHOUT LIMITATION LOSS OF REVENUE, PROFITS, GOODWILL, USE, AND/OR DATA OR THE COST OF
#PROCUREMENT OF SUBSTITUTE GOODS OR SERVICES, EVEN IF APPRISED OF THE POSSIBILITY OF SUCH
#DAMAGES IN ADVANCE.
#--------------------------------------------------#

~VERSION INFORMATION
VERS. 2.0 : CWLS LOG ASCII STANDARD - VERSION 2.0
WRAP.  NO : ONE LINE PER DEPTH STEP
~WELL INFORMATION
#MNEMONIC     .UNIT              VALUE :DESCRIPTION
STRT       .FT                2 :START DEPTH
STOP       .FT                6341 :STOP DEPTH
STEP       .FT                   0.500 :STEP
NULL       .                  -999.990 :NULL
UWI        .              42389104050000 :UNIQUE WELL ID
API        .              42389104050000 :API NUMBER
COMP       .         ENDEAVOR ENERGY RESOURCES L.P. :COMPANY
WELL       .        TXL REEVES STATE UNIT  2 :WELL
DATE       .                            :LOG DATE
~CURVE INFORMATION
#MNEMONIC     .UNIT      API CODE :CURVE DESCRIPTION
DEPTH       .FT                      :MEASURED DEPTH
GR.API        UNKNOWN   :GR
DT.US/FT        UNKNOWN   :DT
~A    DEPTH    GR    DT
 2     19.989   -999.990
 2.5     23.714   -999.990
 3     27.44   -999.990
 3.5     31.165   -999.990
 4     34.89   -999.990
 4.5     37.618   -999.990
 5     39.291   -999.990
 5.5     40.963   -999.990
 6     42.635   -999.990
 6.5     44.308   -999.990
 7     45.98   -999.990
 7.5     47.652   -999.990
 8     49.325   -999.990
 8.5     50.997   -999.990
 9     52.669   -999.990
 9.5     54.342   -999.990
 10     56.014   -999.990
 10.5     57.686   -999.990
 11     59.196   -999.990
 11.5     58.313   -999.990
 12     55.677   -999.990
 12.5     53.04   -999.990
 13     50.403   -999.990
 13.5     47.766   -999.990
 14     45.13   -999.990
 14.5     42.572   -999.990
 15     44.152   -999.990
 15.5     45.732   -999.990
 16     47.312   -999.990
 16.5     48.891   -999.990
 17     50.471   -999.990
 17.5     52.051   -999.990
 18     53.631   -999.990
 18.5     54.311   -999.990
 19     54.313   -999.990
 19.5     54.316   -999.990
 20     59.195   -999.990
 20.5     68.463   -999.990
 21     77.731   -999.990
 21.5     78.521   -999.990
 22     77.541   -999.990
 22.5     76.561   -999.990
 23     75.581   -999.990
 23.5     74.999   -999.990
 24     76.012   -999.990
 24.5     77.024   -999.990
 25     78.036   -999.990
 25.5     79.048   -999.990
 26     80.06   -999.990
 26.5     80.073   -999.990
 27     75.966   -999.990
 27.5     71.859   -999.990
 28     67.753   -999.990
 28.5     63.646   -999.990
 29     59.539   -999.990
 29.5     55.433   -999.990
 30     55.987   -999.990
 30.5     58.17   -999.990
 31     60.353   -999.990
 31.5     62.535   -999.990
 32     64.718   -999.990
 32.5     66.901   -999.990
 33     65.266   -999.990
 33.5     62.862   -999.990
 34     60.458   -999.990
 34.5     58.054   -999.990
 35     55.65   -999.990
 35.5     53.245   -999.990
 36     48.946   -999.990
 36.5     46.58   -999.990
 37     45.697   -999.990
 37.5     44.814   -999.990
 38     43.932   -999.990
 38.5     43.049   -999.990
 39     42.166   -999.990
 39.5     41.284   -999.990
 40     40.404   -999.990
 40.5     40.707   -999.990
 41     41.01   -999.990
 41.5     41.312   -999.990
 42     41.615   -999.990
 42.5     41.917   -999.990
 43     42.22   -999.990
 43.5     42.522   -999.990
 44     42.075   -999.990
 44.5     41.998   -999.990
 45     42.67   -999.990
 45.5     43.343   -999.990
 46     44.016   -999.990
 46.5     44.449   -999.990
 47     43.179   -999.990
 47.5     41.909   -999.990
 48     40.64   -999.990
 48.5     39.936   -999.990
 49     40.917   -999.990
 49.5     41.897   -999.990
 50     42.877   -999.990
 50.5     43.858   -999.990
 51     44.838   -999.990
 51.5     45.819   -999.990
 52     46.799   -999.990
 52.5     47.779   -999.990
 53     48.76   -999.990
 53.5     49.74   -999.990
 54     50.721   -999.990
 54.5     50.894   -999.990
 55     48.491   -999.990
 55.5     46.087   -999.990
 56     46.158   -999.990
 56.5     46.578   -999.990
 57     46.998   -999.990
 57.5     47.418   -999.990
 58     46.946   -999.990
 58.5     44.729   -999.990
 59     42.512   -999.990
 59.5     40.295   -999.990
 60     39.241   -999.990
 60.5     39.846   -999.990
 61     40.451   -999.990
 61.5     41.056   -999.990
 62     41.661   -999.990
 62.5     42.266   -999.990
 63     42.872   -999.990
 63.5     43.477   -999.990
 64     43.56   -999.990
 64.5     43.562   -999.990
 65     43.565   -999.990
 65.5     41.974   -999.990
 66     40.038   -999.990
 66.5     38.102   -999.990
 67     37.92   -999.990
 67.5     38.508   -999.990
 68     39.096   -999.990
 68.5     39.685   -999.990
 69     40.273   -999.990
 69.5     40.861   -999.990
 70     41.45   -999.990
 70.5     42.038   -999.990
 71     42.626   -999.990
 71.5     43.215   -999.990
 72     43.803   -999.990
 72.5     44.391   -999.990
 73     44.98   -999.990
 73.5     46.654   -999.990
 74     57.361   -999.990
 74.5     68.068   -999.990
 75     73.677   -999.990
 75.5     73.115   -999.990
 76     72.553   -999.990
 76.5     71.991   -999.990
 77     71.429   -999.990
 77.5     70.602   -999.990
 78     66.902   -999.990
 78.5     63.202   -999.990
 79     59.502   -999.990
 79.5     55.802   -999.990
 80     53.929   -999.990
 80.5     56.888   -999.990
 81     59.846   -999.990
 81.5     62.805   -999.990
 82     65.764   -999.990
 82.5     68.723   -999.990
 83     71.469   -999.990
 83.5     70.709   -999.990
 84     69.95   -999.990
 84.5     69.191   -999.990
 85     68.432   -999.990
 85.5     65.96   -999.990
 86     63.134   -999.990
 86.5     60.308   -999.990
 87     57.483   -999.990
 87.5     55.94   -999.990
 88     55.818   -999.990
 88.5     55.697   -999.990
 89     55.997   -999.990
 89.5     56.863   -999.990
 90     57.729   -999.990
 90.5     58.595   -999.990
 91     59.461   -999.990
 91.5     59.946   -999.990
 92     58.44   -999.990
 92.5     56.935   -999.990
 93     55.429   -999.990
 93.5     53.924   -999.990
 94     47.432   -999.990
 94.5     40.317   -999.990
 95     35.684   -999.990
 95.5     35.466   -999.990
 96     35.248   -999.990
 96.5     35.03   -999.990
 97     35.28   -999.990
 97.5     35.569   -999.990
 98     35.857   -999.990
 98.5     36.146   -999.990
 99     36.434   -999.990
 99.5     36.722   -999.990
 100     37.011   -999.990
 100.5     37.299   -999.990
 101     36.037   -999.990
 101.5     34.725   -999.990
 102     33.413   -999.990
 102.5     32.101   -999.990
 103     30.789   -999.990
 103.5     29.477   -999.990
 104     29.37   -999.990
 104.5     29.622   -999.990
 105     29.875   -999.990
 105.5     30.127   -999.990
 106     29.921   -999.990
 106.5     28.088   -999.990
 107     26.255   -999.990
 107.5     24.422   -999.990
 108     24.192   -999.990
 108.5     24.619   -999.990
 109     25.045   -999.990
 109.5     25.472   -999.990
 110     25.898   -999.990
 110.5     26.532   -999.990
 111     27.22   -999.990
 111.5     27.908   -999.990
 112     28.596   -999.990
 112.5     32.126   -999.990
 113     37.215   -999.990
 113.5     42.303   -999.990
 114     45.247   -999.990
 114.5     45.477   -999.990
 115     45.706   -999.990
 115.5     45.936   -999.990
 116     46.677   -999.990
 116.5     48.816   -999.990
 117     50.842   -999.990
 117.5     50.734   -999.990
 118     50.626   -999.990
 118.5     50.518   -999.990
 119     50.41   -999.990
 119.5     50.302   -999.990
 120     50.194   -999.990
 120.5     49.431   -999.990
 121     45.897   -999.990
 121.5     42.364   -999.990
 122     38.83   -999.990
 122.5     35.297   -999.990
 123     34.099   -999.990
 123.5     33.498   -999.990
 124     32.897   -999.990
 124.5     32.994   -999.990
 125     34.418   -999.990
 125.5     35.842   -999.990
 126     37.266   -999.990
 126.5     37.545   -999.990
 127     37.098   -999.990
 127.5     36.65   -999.990
 128     36.203   -999.990
 128.5     35.396   -999.990
 129     34.053   -999.990
 129.5     32.71   -999.990
 130     31.366   -999.990
 130.5     30.023   -999.990
 131     30.103   -999.990
 131.5     30.649   -999.990
 132     31.196   -999.990
 132.5     31.742   -999.990
 133     33.001   -999.990
 133.5     36.778   -999.990
 134     40.556   -999.990
 134.5     44.333   -999.990
 135     48.111   -999.990
 135.5     51.304   -999.990
 136     51.182   -999.990
 136.5     51.06   -999.990
 137     50.939   -999.990
 137.5     50.817   -999.990
 138     50.695   -999.990
 138.5     50.632   -999.990
 139     51.644   -999.990
 139.5     52.656   -999.990
 140     53.573   -999.990
 140.5     52.593   -999.990
 141     51.612   -999.990
 141.5     50.631   -999.990
 142     51.051   -999.990
 142.5     52.492   -999.990
 143     53.933   -999.990
 143.5     55.374   -999.990
 144     56.611   -999.990
 144.5     55.965   -999.990
 145     55.319   -999.990
 145.5     54.673   -999.990
 146     54.028   -999.990
 146.5     53.382   -999.990
 147     52.736   -999.990
 147.5     53.193   -999.990
 148     53.697   -999.990
 148.5     54.201   -999.990
 149     54.705   -999.990
