###############################################
##         ENVERUS                           ##
##         ESS - Open Hole                   ##
##         PERMIAN / DELAWARE                ##
##         Nov 04 2023  V4.0                 ##
##         42-371-36358-00-00                ##
###############################################
## Copyright 2017-2023  ENVERUS.  All Rights Reserved. 
## Confidential - Property of ENVERUS, use governed by terms and 
## conditions found within the existing Information Services Subscription Agreement 
## (as may be amended, the “ISSA”) between Customer and ENVERUS. 
## 
~VERSION INFORMATION
# MNEM.UNIT                               DATA : DESCRIPTION OF MNEMONIC
#-----.-----     ----------------------------- : -----------------------------
VERS.                                     2.00 : CWLS LOG ASCII STANDARD - VERSION 2.00
WRAP.                                       NO : MULTIPLE LINES PER DEPTH STEP
VEND.                                  ENVERUS : VENDOR
TYPE.                          ESS - OPEN HOLE : ENVERUS ESSENTIAL CURVES – ACCESSIBLE THROUGH ENVERUS PRISM(TM)
DOC.                                  32044985 : ENVERUS HEADER RAW DOCUMENT ID
#___________________________________________________________________________________________________ 
~WELL INFORMATION 
# 9/F+NtSLBEAIaZM9LpLMxALTyCH3LMfPBQiNKTeSadJ6NAezaEZy+3+OEP8rVGNvVB4ifWNnxSKvs1BiqqZA9A== 
# MNEM.UNIT                                              DATA : DESCRIPTION OF MNEMONIC 
#-----.-----                    ----------------------------- : ----------------------------- 
CNTY.                                                   PECOS : COUNTY 
STATE.                                                  TEXAS : STATE 
CNTRY.                                                    USA : COUNTRY 
API.                                             42-371-36358 : API (10 Digit) 
API_14.                                    42-371-36358-00-00 : API (14 Digits) 
API_14_std.                                 42-371-36358-0000 : API (14 Digits Standard) 
UWI.                                           42371363580000 : UNIQUE WELL ID 
WELL.                           SCHLOSSER, FRED ESTATE -B-  9 : WELL NAME
STRT.FT                                                 151.0 : START DEPTH
STOP.FT                                                5707.0 : STOP DEPTH
STEP.FT                                                   0.5 : STEP BETWEEN DEPTHS
NULL.                                                 -999.25 : NULL VALUE
COMP.                                      APACHE CORPORATION : COMPANY 
DATE.                                             07-JUN-1992 : LOG DATE
#___________________________________________________________________________________________________ 
~CURVE INFORMATION 
# MNEM.UNIT           : CURVE DESCRIPTION 
#-----.-----          : ----------------------------- 
 DEPT.FT               : MEASURED DEPTH 
 GR.API                : GAMMA RAY (GR) 
 DT.US/FT              : SONIC DELTA TRANSIT TIME (DT) 
 #___________________________________________________________________________________________________ 
~A         DEPT             GR             DT
# ...
         4153.0         10.090         50.382
         4153.5          9.646         50.286
         4154.0          9.203         50.038
         4154.5          8.760         50.030
         4155.0          8.317         50.021
         4155.5          7.987         50.011
         4156.0          8.233         49.939
         4156.5          8.480         49.867
         4157.0          8.727         49.795
         4157.5          8.974         49.724
         4158.0          9.221         49.535
         4158.5          9.468         49.366
         4159.0          9.714         49.426
         4159.5          9.961         49.486
         4160.0         10.052         49.546
         4160.5          9.926         49.517
         4161.0          9.799         49.439
         4161.5          9.672         49.361
         4162.0          9.096         49.510
         4162.5          8.396         49.722
         4163.0          7.697         49.933
         4163.5          6.997         50.145
         4164.0          7.089         50.356
         4164.5          7.345         50.568
         4165.0          7.600         50.779
         4165.5          7.856         50.852
         4166.0          8.111         50.746
         4166.5          8.367         50.507
         4167.0          8.677         50.268
         4167.5          9.215         50.030
         4168.0          9.752         49.791
         4168.5         10.290         49.646
         4169.0         10.828         49.777
         4169.5         11.366         49.908
         4170.0         11.759         49.884
         4170.5         11.486         49.858
         4171.0         11.214         49.833
         4171.5         10.941         49.808
         4172.0         11.049         49.807
         4172.5         12.389         50.085
         4173.0         12.072         50.363
         4173.5         11.181         50.641
         4174.0         10.291         50.919
         4174.5          9.400         50.932
         4175.0          8.509         50.847
         4175.5          8.180         50.368
         4176.0          8.290         49.714
         4176.5          8.400         49.437
         4177.0          8.510         49.536
         4177.5          8.754         49.635
         4178.0          9.266         49.734
         4178.5          9.778         49.833
         4179.0          9.982         49.932
         4179.5          9.548         50.030
         4180.0          9.115         50.129
         4180.5          8.681         50.154
         4181.0          8.322         49.981
         4181.5          8.903         49.809
         4182.0          9.484         49.847
         4182.5         10.064         49.927
         4183.0         10.645         50.007
         4183.5         10.636         50.096
         4184.0         10.173         50.237
         4184.5          9.711         50.379
         4185.0          9.249         50.521
         4185.5          8.787         50.663
         4186.0          8.325         50.805
         4186.5          7.863         50.787
         4187.0          7.941         50.650
         4187.5          8.410         50.334
         4188.0          8.879         50.008
         4188.5          9.349         49.682
         4189.0          9.364         49.407
         4189.5          9.364         49.248
         4190.0          9.365         49.088
         4190.5          9.365         48.948
         4191.0          9.532         49.137
         4191.5          9.915         49.327
         4192.0         10.255         49.517
         4192.5          8.849         50.183
         4193.0          8.186         50.290
         4193.5          8.289         50.397
         4194.0          8.292         50.504
         4194.5          8.292         50.611
         4195.0          8.292         50.718
         4195.5          8.913         50.672
         4196.0          9.560         50.343
         4196.5         10.208         50.014
         4197.0         10.855         49.729
         4197.5         11.502         49.765
         4198.0         11.638         49.814
         4198.5         10.239         50.035
         4199.0          8.841         50.255
         4199.5          7.442         50.236
         4200.0          6.043         49.833
         4200.5          7.415         49.849
         4201.0          8.900         49.877
         4201.5          9.843         49.949
         4202.0         10.390         50.122
         4202.5         10.936         50.295
         4203.0         11.482         50.468
         4203.5         11.986         50.625
         4204.0         11.880         50.773
         4204.5         11.773         50.920
         4205.0         11.666         50.923
         4205.5         11.560         50.912
         4206.0         11.453         50.984
         4206.5         11.238         50.964
         4207.0         10.782         50.853
         4207.5         10.326         50.960
         4208.0          9.870         51.067
         4208.5          9.415         51.174
         4209.0          8.959         51.033
         4209.5          8.595         50.654
         4210.0          8.518         50.438
         4210.5          8.442         50.610
         4211.0          8.365         50.783
         4211.5          8.288         50.956
         4212.0          8.212         51.063
         4212.5          8.135         51.123
         4213.0          8.059         51.148
         4213.5          7.982         50.915
         4214.0          7.905         50.681
         4214.5          7.905         50.494
         4215.0          8.124         50.330
         4215.5          8.343         50.165
         4216.0          8.562         50.048
         4216.5          8.782         50.088
         4217.0          9.001         50.168
         4217.5          9.220         50.314
         4218.0          9.308         50.349
         4218.5          9.384         50.282
         4219.0          9.461         50.216
         4219.5          9.538         50.150
         4220.0          9.615         50.085
         4220.5          9.691         50.062
         4221.0          9.525         50.039
         4221.5          9.326         50.016
         4222.0          9.126         49.993
         4222.5          8.926         49.931
         4223.0          8.727         49.856
         4223.5          8.527         49.781
         4224.0          8.327         49.705
         4224.5          8.128         49.670
         4225.0          7.928         49.681
         4225.5          7.729         49.692
         4226.0          7.635         49.703
         4226.5          7.556         49.715
         4227.0          7.477         49.726
         4227.5          7.398         49.737
         4228.0          7.319         49.749
         4228.5          7.240         49.760
         4229.0          7.161         49.802
         4229.5          7.082         49.850
         4230.0          7.003         49.898
         4230.5          6.940         49.946
         4231.0          6.941         49.994
         4231.5          7.801         50.042
         4232.0          9.612         49.951
         4232.5         11.424         49.799
         4233.0         13.236         49.754
         4233.5         15.048         50.022
         4234.0         14.236         50.290
         4234.5         11.900         50.558
         4235.0          9.564         50.826
         4235.5          7.227         51.094
         4236.0          6.131         51.110
         4236.5          5.809         50.821
         4237.0          5.486         50.568
         4237.5          5.542         50.435
         4238.0          6.570         50.303
         4238.5          7.598         50.307
         4239.0          8.626         50.313
         4239.5          9.159         50.319
