#--------------------------------------------------#
#-------------------ENVERUS, INC.------------------#
#------------------WWW.ENVERUS.COM-----------------#
#------------------COPYRIGHT 2020------------------#
#--------------------------------------------------#
#THIS FILE MAY BE USED ONLY IN ACCORDANCE WITH A CURRENT SUBSCRIPTION AGREEMENT BETWEEN
#THE USER AND ENVERUS, INC. NO PART OF THIS FILE MAY BE REPRODUCED, USED, COPIED,
#MODIFIED, PROPAGATED, OR DISTRIBUTED EXCEPT IN ACCORDANCE WITH THE SUBSCRIPTION
#AGREEMENT. UNAUTHORIZED USE OR DISTRIBUTION OF ALL OR ANY PART OF THIS FILE MAY VIOLATE
#COPYRIGHT, TRADEMARK, AND/OR OTHER LAWS AND IS SUBJECT TO CIVIL AS WELL AS CRIMINAL
#SANCTIONS.
#--------------------------------------------------#
#THIS FILE IS PROVIDED "AS-IS" AND ALL WARRANTIES ARE EXPRESSLY DISCLAIMED, WHETHER
#EXPRESS, ORAL, IMPLIED, STATUTORY OR OTHERWISE, INCLUDING ANY IMPLIED WARRANTY OF FITNESS
#FOR A PARTICULAR PURPOSE, MERCHANTABILITY, TITLE OR NON-INFRINGEMENT, AND ANY WARRANTIES
#ARISING BY VIRTUE OF CUSTOM OF TRADE OR COURSE OF DEALING.  FURTHER, ENVERUS, INC.
#AND ITS LICENSORS DO NOT REPRESENT OR WARRANT THAT THIS FILE WILL MEET USER'S
#REQUIREMENTS OR ARE SUITABLE FOR USER'S NEEDS OR THAT THE DATA OR RESULTS PROVIDED IN
#CONJUNCTION THEREWITH ARE CORRECT, ACCURATE, TIMELY OR RELIABLE. THESE DISCLAIMERS SHALL
#APPLY REGARDLESS OF ANY FAILURE OF ESSENTIAL PURPOSE OF ANY LIMITED REMEDY.  SOME
#JURISDICTIONS DO NOT ALLOW THE EXCLUSION OF CERTAIN WARRANTIES SO SOME OF THE ABOVE
#EXCLUSIONS MAY NOT APPLY. IN NO EVENT SHALL ENVERUS, INC. OR ANY OF ITS AFFILIATES
#BE LIABLE UNDER ANY LEGAL THEORY, WHETHER IN TORT (INCLUDING WITHOUT LIMITATION
#NEGLIGENCE), CONTRACT, STRICT LIABILITY, STATUTORY OR OTHERWISE, FOR ANY SPECIAL,
#INCIDENTAL, CONSEQUENTIAL, EXEMPLARY, PUNITIVE OR INDIRECT DAMAGE OF ANY KIND, INCLUDING
#WITHOUT LIMITATION LOSS OF REVENUE, PROFITS, GOODWILL, USE, AND/OR DATA OR THE COST OF
#PROCUREMENT OF SUBSTITUTE GOODS OR SERVICES, EVEN IF APPRISED OF THE POSSIBILITY OF SUCH
#DAMAGES IN ADVANCE.
#--------------------------------------------------#

~VERSION INFORMATION
VERS. 2.0 : CWLS LOG ASCII STANDARD - VERSION 2.0
WRAP. NO : ONE LINE PER DEPTH STEP
~WELL INFORMATION
#MNEMONIC     .UNIT              VALUE :DESCRIPTION
STRT       .FT                101.00000 :START DEPTH
STOP       .FT                5802.00000 :STOP DEPTH
STEP       .FT                0.50000 :STEP
NULL       .                -999.25000 :NULL VALUE
UWI       .                42389010150000 :UNIQUE WELL ID
API       .                42389010150000 :API NUMBER
COMP       .                 :COMPANY
WELL       .                 :WELL
FLD       .                 :FIELD
LOC       .                 :LOCATION
CNTY       .                 :COUNTY
STAT       .                 :STATE
CTRY       .                 :COUNTRY
SRVC       .                 :SERVICE COMPANY
DATE       .                 :DATE
~CURVE INFORMATION
#MNEMONIC     .UNIT      API CODE :CURVE DESCRIPTION
DEPTH       .FT                      :MEASURED DEPTH
DT       .US/FT        UNKNOWN   :DT
GR       .GAPI        UNKNOWN   :GR
~A    DEPTH    DT    GR
# ...
3411.50000    -999.25000    4.91741
3412.00000    -999.25000    5.30774
3412.50000    -999.25000    5.69807
3413.00000    -999.25000    6.08840
3413.50000    -999.25000    6.47873
3414.00000    -999.25000    6.85155
3414.50000    -999.25000    6.66280
3415.00000    -999.25000    6.47405
3415.50000    -999.25000    6.28530
3416.00000    -999.25000    6.09655
3416.50000    -999.25000    5.90780
3417.00000    -999.25000    5.71905
3417.50000    -999.25000    5.53030
3418.00000    -999.25000    5.61051
3418.50000    -999.25000    5.74290
3419.00000    -999.25000    5.87528
3419.50000    -999.25000    6.00766
3420.00000    -999.25000    6.14005
3420.50000    -999.25000    6.11737
3421.00000    -999.25000    5.97091
3421.50000    -999.25000    5.82444
3422.00000    -999.25000    5.67798
3422.50000    -999.25000    5.53152
3423.00000    -999.25000    5.38505
3423.50000    -999.25000    5.28197
3424.00000    -999.25000    5.28651
3424.50000    -999.25000    5.42826
3425.00000    -999.25000    5.57001
3425.50000    -999.25000    5.71176
3426.00000    -999.25000    5.85352
3426.50000    -999.25000    5.99527
3427.00000    -999.25000    6.13702
3427.50000    -999.25000    6.27877
3428.00000    -999.25000    6.42053
3428.50000    -999.25000    6.56228
3429.00000    -999.25000    6.70403
3429.50000    -999.25000    6.41153
3430.00000    -999.25000    6.01917
3430.50000    -999.25000    5.62680
3431.00000    -999.25000    5.23443
3431.50000    -999.25000    4.84206
3432.00000    -999.25000    4.44970
3432.50000    -999.25000    4.79395
3433.00000    -999.25000    5.27359
3433.50000    -999.25000    5.75324
3434.00000    -999.25000    5.76691
3434.50000    -999.25000    5.63462
3435.00000    -999.25000    5.50232
3435.50000    -999.25000    5.37002
3436.00000    -999.25000    5.23773
3436.50000    -999.25000    5.10543
3437.00000    -999.25000    5.02968
3437.50000    -999.25000    5.17949
3438.00000    -999.25000    5.32931
3438.50000    -999.25000    5.47912
3439.00000    -999.25000    5.62893
3439.50000    -999.25000    5.77875
3440.00000    -999.25000    5.92856
3440.50000    -999.25000    6.07837
3441.00000    -999.25000    6.22819
3441.50000    -999.25000    6.37800
3442.00000    -999.25000    6.27535
3442.50000    -999.25000    6.14020
3443.00000    -999.25000    6.00506
3443.50000    -999.25000    5.86991
3444.00000    -999.25000    5.73476
3444.50000    -999.25000    5.59961
3445.00000    -999.25000    5.46447
3445.50000    -999.25000    5.32932
3446.00000    -999.25000    5.19417
3446.50000    -999.25000    5.05902
3447.00000    -999.25000    5.24468
3447.50000    -999.25000    5.47044
3448.00000    -999.25000    5.69619
3448.50000    -999.25000    5.92194
3449.00000    -999.25000    6.14769
3449.50000    -999.25000    6.20050
3450.00000    -999.25000    6.14728
3450.50000    -999.25000    6.09406
3451.00000    -999.25000    6.04083
3451.50000    -999.25000    5.98761
3452.00000    -999.25000    5.98344
3452.50000    -999.25000    6.08443
3453.00000    -999.25000    6.18541
3453.50000    -999.25000    6.28639
3454.00000    -999.25000    6.38737
3454.50000    -999.25000    6.48836
3455.00000    -999.25000    6.58934
3455.50000    -999.25000    6.69032
3456.00000    -999.25000    6.79130
3456.50000    -999.25000    6.89228
3457.00000    -999.25000    6.94328
3457.50000    -999.25000    6.91073
3458.00000    -999.25000    6.87818
3458.50000    -999.25000    6.68730
3459.00000    -999.25000    6.18215
3459.50000    -999.25000    5.79042
3460.00000    -999.25000    5.92920
3460.50000    -999.25000    6.24875
3461.00000    -999.25000    6.56830
3461.50000    -999.25000    6.88785
3462.00000    -999.25000    7.20740
3462.50000    -999.25000    6.66338
3463.00000    -999.25000    5.89175
3463.50000    -999.25000    5.31280
3464.00000    -999.25000    5.29549
3464.50000    -999.25000    5.27818
3465.00000    -999.25000    5.26087
3465.50000    -999.25000    5.24356
3466.00000    -999.25000    5.27287
3466.50000    -999.25000    5.42813
3467.00000    -999.25000    5.58338
3467.50000    -999.25000    5.73864
3468.00000    -999.25000    5.89389
3468.50000    -999.25000    6.04915
3469.00000    -999.25000    6.20440
3469.50000    -999.25000    6.35966
3470.00000    -999.25000    6.51491
3470.50000    -999.25000    6.67016
3471.00000    -999.25000    6.52308
3471.50000    -999.25000    6.21261
3472.00000    -999.25000    5.90215
3472.50000    -999.25000    5.59169
3473.00000    -999.25000    5.28123
3473.50000    -999.25000    5.90027
3474.00000    -999.25000    6.57480
3474.50000    -999.25000    7.24933
3475.00000    -999.25000    7.92386
3475.50000    -999.25000    8.59839
3476.00000    -999.25000    9.27292
3476.50000    -999.25000    8.28535
3477.00000    -999.25000    6.91591
3477.50000    -999.25000    6.65808
3478.00000    -999.25000    6.54948
3478.50000    -999.25000    6.44088
3479.00000    -999.25000    6.33227
3479.50000    -999.25000    6.22367
3480.00000    -999.25000    6.24904
3480.50000    -999.25000    6.37423
3481.00000    -999.25000    6.49943
3481.50000    -999.25000    6.62463
3482.00000    -999.25000    6.74983
3482.50000    -999.25000    6.87503
3483.00000    -999.25000    7.00023
3483.50000    -999.25000    7.12543
3484.00000    -999.25000    7.25062
3484.50000    -999.25000    7.37582
3485.00000    -999.25000    7.50102
3485.50000    -999.25000    8.06989
3486.00000    -999.25000    9.31705
3486.50000    -999.25000    10.33419
3487.00000    -999.25000    11.18650
3487.50000    -999.25000    12.03882
3488.00000    -999.25000    12.89113
3488.50000    -999.25000    12.87005
3489.00000    -999.25000    10.92296
3489.50000    -999.25000    8.97588
3490.00000    -999.25000    8.48043
3490.50000    -999.25000    8.62332
3491.00000    -999.25000    8.76620
3491.50000    -999.25000    8.90908
3492.00000    -999.25000    9.05197
3492.50000    -999.25000    9.06125
3493.00000    -999.25000    7.98971
3493.50000    -999.25000    7.07964
3494.00000    -999.25000    6.85405
3494.50000    -999.25000    6.62845
3495.00000    -999.25000    6.40286
3495.50000    -999.25000    6.17727
3496.00000    -999.25000    5.95167
3496.50000    -999.25000    5.72608
3497.00000    -999.25000    5.62487
3497.50000    -999.25000    5.81181
3498.00000    -999.25000    5.99876
3498.50000    -999.25000    6.18570
3499.00000    -999.25000    6.37264
3499.50000    -999.25000    6.55958
3500.00000    -999.25000    6.74652
3500.50000    -999.25000    6.93346
3501.00000    -999.25000    6.65365
3501.50000    -999.25000    6.29911
3502.00000    -999.25000    5.94457
3502.50000    -999.25000    5.59002
3503.00000    -999.25000    5.41869
3503.50000    -999.25000    5.46040
3504.00000    -999.25000    5.50211
3504.50000    -999.25000    5.54382
3505.00000    -999.25000    5.58554
3505.50000    -999.25000    5.62725
3506.00000    -999.25000    5.66896
3506.50000    -999.25000    5.71067
3507.00000    -999.25000    5.75238
3507.50000    -999.25000    5.79409
3508.00000    -999.25000    5.64251
3508.50000    -999.25000    5.30398
3509.00000    -999.25000    4.96546
3509.50000    -999.25000    4.64822
3510.00000    -999.25000    4.71696
3510.50000    -999.25000    4.78570
3511.00000    -999.25000    4.85444
3511.50000    -999.25000    4.92319
3512.00000    67.82757    4.99193
3512.50000    70.66776    5.07875
3513.00000    72.07757    5.27097
3513.50000    71.20934    5.46319
3514.00000    70.34112    5.64722
3514.50000    69.47290    5.66805
3515.00000    68.60468    5.68889
3515.50000    67.73646    5.70973
3516.00000    66.86824    5.73057
3516.50000    66.00002    5.75141
3517.00000    65.13179    5.77356
3517.50000    64.26357    5.79614
3518.00000    66.69958    5.81871
3518.50000    70.51806    5.84129
3519.00000    73.13863    5.86387
3519.50000    70.90329    5.88644
3520.00000    68.66796    5.90902
3520.50000    66.43263    5.93160
3521.00000    66.10944    5.95417
3521.50000    67.58538    5.96195
3522.00000    69.06132    5.85076
3522.50000    70.53725    5.73956
3523.00000    72.01319    5.62836
