###############################################
##         ENVERUS                           ##
##         ESS - Open Hole                   ##
##         PERMIAN / DELAWARE                ##
##         Nov 04 2023  V4.0                 ##
##         42-389-00802-00-00                ##
###############################################
## Copyright 2017-2023  ENVERUS.  All Rights Reserved. 
## Confidential - Property of ENVERUS, use governed by terms and 
## conditions found within the existing Information Services Subscription Agreement 
## (as may be amended, the “ISSA”) between Customer and ENVERUS. 
## 
~VERSION INFORMATION
# MNEM.UNIT                               DATA : DESCRIPTION OF MNEMONIC
#-----.-----     ----------------------------- : -----------------------------
VERS.                                     2.00 : CWLS LOG ASCII STANDARD - VERSION 2.00
WRAP.                                       NO : MULTIPLE LINES PER DEPTH STEP
VEND.                                  ENVERUS : VENDOR
TYPE.                          ESS - OPEN HOLE : ENVERUS ESSENTIAL CURVES – ACCESSIBLE THROUGH ENVERUS PRISM(TM)
DOC.                                  31817456 : ENVERUS HEADER RAW DOCUMENT ID
#___________________________________________________________________________________________________ 
~WELL INFORMATION 
# RyAIq6UWQPnCIzV1aSVljU5sZzU8mzXCuHzh8Tf3VVfaeSb2oya67RMqigcBPLsftsjdPp3J13KbDcbgGgUr7w== 
# MNEM.UNIT                                              DATA : DESCRIPTION OF MNEMONIC 
#-----.-----                    ----------------------------- : ----------------------------- 
CNTY.                                                  REEVES : COUNTY 
STATE.                                                  TEXAS : STATE 
CNTRY.                                                    USA : COUNTRY 
API.                                             42-389-00802 : API (10 Digit) 
API_14.                                    42-389-00802-00-00 : API (14 Digits) 
API_14_std.                                 42-389-00802-0000 : API (14 Digits Standard) 
UWI.                                           42389008020000 : UNIQUE WELL ID 
WELL.                                                      1, : WELL NAME
STRT.FT                                                 103.0 : START DEPTH
STOP.FT                                                5419.0 : STOP DEPTH
STEP.FT                                                   0.5 : STEP BETWEEN DEPTHS
NULL.                                                 -999.25 : NULL VALUE
#___________________________________________________________________________________________________ 
~CURVE INFORMATION 
# MNEM.UNIT           : CURVE DESCRIPTION 
#-----.-----          : ----------------------------- 
 DEPT.FT               : MEASURED DEPTH 
 GR.API                : GAMMA RAY (GR) 
 DT.US/FT              : SONIC DELTA TRANSIT TIME (DT) 
 #___________________________________________________________________________________________________ 
~A         DEPT             GR             DT
# ...
         3583.0          2.762         68.512
         3583.5          2.518         68.793
         3584.0          2.275         68.783
         3584.5          2.669         68.304
         3585.0          3.237         67.825
         3585.5          3.806         67.345
         3586.0          4.374         68.571
         3586.5          4.942         70.973
         3587.0          5.511         73.375
         3587.5          6.079         74.642
         3588.0          6.648         71.636
         3588.5          7.066         68.631
         3589.0          7.311         65.625
         3589.5          7.556         64.601
         3590.0          7.801         65.392
         3590.5          8.046         66.183
         3591.0          8.291         66.974
         3591.5          7.280         67.765
         3592.0          6.110         68.421
         3592.5          4.940         68.460
         3593.0          4.470         67.476
         3593.5          4.809         65.450
         3594.0          5.148         65.125
         3594.5          5.487         66.257
         3595.0          5.826         67.390
         3595.5          6.165         68.523
         3596.0          6.504         69.245
         3596.5          6.843         68.875
         3597.0          7.182         68.505
         3597.5          7.521         68.135
         3598.0          7.232         68.006
         3598.5          6.145         68.168
         3599.0          5.057         68.330
         3599.5          3.970         68.492
         3600.0          3.500         68.654
         3600.5          3.782         68.479
         3601.0          4.064         68.276
         3601.5          4.347         68.072
         3602.0          4.629         67.868
         3602.5          4.911         67.664
         3603.0          5.193         68.458
         3603.5          5.475         68.487
         3604.0          5.757         68.257
         3604.5          6.040         68.028
         3605.0          6.322         67.798
         3605.5          6.604         67.916
         3606.0          6.886         68.676
         3606.5          7.168         69.436
         3607.0          7.450         70.196
         3607.5          6.937         70.554
         3608.0          6.391         69.336
         3608.5          5.845         68.117
         3609.0          5.299         67.065
         3609.5          4.752         67.308
         3610.0          4.206         67.550
         3610.5          3.660         67.793
         3611.0          3.166         68.035
         3611.5          3.643         68.278
         3612.0          4.119         68.521
         3612.5          4.596         68.763
         3613.0          5.073         69.006
         3613.5          5.550         68.646
         3614.0          6.027         67.819
         3614.5          6.503         66.993
         3615.0          6.980         66.670
         3615.5          7.457         67.133
         3616.0          7.934         67.596
         3616.5          8.411         68.058
         3617.0          8.887         68.521
         3617.5          9.006         68.870
         3618.0          8.167         68.686
         3618.5          7.328         68.503
         3619.0          6.489         68.320
         3619.5          5.982         68.137
         3620.0          6.254         67.954
         3620.5          6.526         67.771
         3621.0          6.798         67.774
         3621.5          7.069         67.935
         3622.0          6.890         68.095
         3622.5          5.556         68.256
         3623.0          4.222         68.416
         3623.5          2.889         68.577
         3624.0          2.206         68.630
         3624.5          3.245         68.440
         3625.0          4.285         68.250
         3625.5          5.325         68.059
         3626.0          6.365         67.869
         3626.5          7.405         67.679
         3627.0          7.042         67.489
         3627.5          6.258         67.299
         3628.0          5.475         67.109
         3628.5          4.692         66.919
         3629.0          3.909         66.909
         3629.5          3.777         67.215
         3630.0          3.975         67.520
         3630.5          4.173         67.826
         3631.0          4.371         68.132
         3631.5          4.568         68.437
         3632.0          4.766         68.743
         3632.5          4.964         69.049
         3633.0          5.161         68.873
         3633.5          5.359         68.653
         3634.0          5.557         68.432
         3634.5          5.755         68.212
         3635.0          5.952         67.992
         3635.5          6.150         67.772
         3636.0          6.348         67.551
         3636.5          6.545         67.331
         3637.0          6.696         67.566
         3637.5          5.609         68.051
         3638.0          4.522         68.536
         3638.5          3.435         68.479
         3639.0          2.397         68.234
         3639.5          2.401         67.989
         3640.0          2.406         67.744
         3640.5          2.411         67.499
         3641.0          2.415         67.254
         3641.5          2.420         67.099
         3642.0          2.425         67.505
         3642.5          3.237         67.911
         3643.0          4.153         68.317
         3643.5          5.070         68.723
         3644.0          5.986         69.216
         3644.5          6.903         69.789
         3645.0          7.819         70.362
         3645.5          8.428         70.935
         3646.0          8.194         71.508
         3646.5          7.960         72.081
         3647.0          7.726         71.649
         3647.5          7.492         60.286
         3648.0          7.258         56.097
         3648.5          7.634         53.070
         3649.0          8.345         50.043
         3649.5          9.057         47.486
         3650.0          9.768         47.116
         3650.5         10.480         46.746
         3651.0         11.191         46.376
         3651.5         11.896         47.305
         3652.0         11.065         50.577
         3652.5         10.233         50.787
         3653.0          9.401         50.657
         3653.5          8.569         50.527
         3654.0          7.738         50.397
         3654.5          6.906         50.267
         3655.0          6.254         50.137
         3655.5          6.368         50.007
         3656.0          6.481         49.877
         3656.5          6.595         50.077
         3657.0          6.709         50.521
         3657.5          6.823         50.966
         3658.0          6.936         51.342
         3658.5          7.050         51.145
         3659.0          7.164         50.948
         3659.5          7.278         50.750
         3660.0          7.391         50.553
         3660.5          7.505         50.356
         3661.0          7.619         50.158
         3661.5          8.144         49.961
         3662.0          8.717         50.185
         3662.5          9.291         50.443
         3663.0          9.865         50.700
         3663.5         10.438         50.958
         3664.0         11.012         51.216
         3664.5         11.585         51.356
         3665.0         12.159         51.072
         3665.5         12.732         50.788
         3666.0         12.260         50.505
         3666.5         10.583         50.221
         3667.0          8.907         49.937
         3667.5          7.230         49.653
         3668.0          5.554         49.369
         3668.5          4.640         49.085
         3669.0          5.689         49.035
         3669.5          6.738         49.289
