#--------------------------------------------------#
#-------------------ENVERUS, INC.------------------#
#------------------WWW.ENVERUS.COM-----------------#
#------------------COPYRIGHT 2020------------------#
#--------------------------------------------------#
#THIS FILE MAY BE USED ONLY IN ACCORDANCE WITH A CURRENT SUBSCRIPTION AGREEMENT BETWEEN
#THE USER AND ENVERUS, INC. NO PART OF THIS FILE MAY BE REPRODUCED, USED, COPIED,
#MODIFIED, PROPAGATED, OR DISTRIBUTED EXCEPT IN ACCORDANCE WITH THE SUBSCRIPTION
#AGREEMENT. UNAUTHORIZED USE OR DISTRIBUTION OF ALL OR ANY PART OF THIS FILE MAY VIOLATE
#COPYRIGHT, TRADEMARK, AND/OR OTHER LAWS AND IS SUBJECT TO CIVIL AS WELL AS CRIMINAL
#SANCTIONS.
#--------------------------------------------------#
#THIS FILE IS PROVIDED "AS-IS" AND ALL WARRANTIES ARE EXPRESSLY DISCLAIMED, WHETHER
#EXPRESS, ORAL, IMPLIED, STATUTORY OR OTHERWISE, INCLUDING ANY IMPLIED WARRANTY OF FITNESS
#FOR A PARTICULAR PURPOSE, MERCHANTABILITY, TITLE OR NON-INFRINGEMENT, AND ANY WARRANTIES
#ARISING BY VIRTUE OF CUSTOM OF TRADE OR COURSE OF DEALING.  FURTHER, ENVERUS, INC.
#AND ITS LICENSORS DO NOT REPRESENT OR WARRANT THAT THIS FILE WILL MEET USER'S
#REQUIREMENTS OR ARE SUITABLE FOR USER'S NEEDS OR THAT THE DATA OR RESULTS PROVIDED IN
#CONJUNCTION THEREWITH ARE CORRECT, ACCURATE, TIMELY OR RELIABLE. THESE DISCLAIMERS SHALL
#APPLY REGARDLESS OF ANY FAILURE OF ESSENTIAL PURPOSE OF ANY LIMITED REMEDY.  SOME
#JURISDICTIONS DO NOT ALLOW THE EXCLUSION OF CERTAIN WARRANTIES SO SOME OF THE ABOVE
#EXCLUSIONS MAY NOT APPLY. IN NO EVENT SHALL ENVERUS, INC. OR ANY OF ITS AFFILIATES
#BE LIABLE UNDER ANY LEGAL THEORY, WHETHER IN TORT (INCLUDING WITHOUT LIMITATION
#NEGLIGENCE), CONTRACT, STRICT LIABILITY, STATUTORY OR OTHERWISE, FOR ANY SPECIAL,
#INCIDENTAL, CONSEQUENTIAL, EXEMPLARY, PUNITIVE OR INDIRECT DAMAGE OF ANY KIND, INCLUDING
#WITHOUT LIMITATION LOSS OF REVENUE, PROFITS, GOODWILL, USE, AND/OR DATA OR THE COST OF
#PROCUREMENT OF SUBSTITUTE GOODS OR SERVICES, EVEN IF APPRISED OF THE POSSIBILITY OF SUCH
#DAMAGES IN ADVANCE.
#--------------------------------------------------#

~VERSION INFORMATION
VERS. 2.0 : CWLS LOG ASCII STANDARD - VERSION 2.0
WRAP.  NO : ONE LINE PER DEPTH STEP
~WELL INFORMATION
#MNEMONIC     .UNIT              VALUE :DESCRIPTION
STRT       .FT                75 :START DEPTH
STOP       .FT                5648 :STOP DEPTH
STEP       .FT                   0.500 :STEP
NULL       .                  -999.990 :NULL
UWI        .              42371363570000 :UNIQUE WELL ID
API        .              42371363570000 :API NUMBER
COMP       .         APACHE CORPORATION :COMPANY
WELL       .        SCHLOSSER, FRED ESTATE -B-  13 :WELL
DATE       .                16-MAY-1992 :LOG DATE
~CURVE INFORMATION
#MNEMONIC     .UNIT      API CODE :CURVE DESCRIPTION
DEPTH       .FT                      :MEASURED DEPTH
DT.US/FT        UNKNOWN   :DT
GR.API        UNKNOWN   :GR
~A    DEPTH    DT    GR
# ...
 1849.5     69.456   10.557
 1850     68.893   5.413
 1850.5     68.553   4.551
 1851     68.746   7.575
 1851.5     68.473   8.419
 1852     68.002   8.354
 1852.5     67.531   8.289
 1853     67.232   8.223
 1853.5     67.635   8.158
 1854     67.922   8.809
 1854.5     67.922   9.799
 1855     67.847   10.79
 1855.5     66.554   11.78
 1856     65.26   16.699
 1856.5     63.967   17.162
 1857     60.215   16.374
 1857.5     54.129   13.46
 1858     54.706   10.232
 1858.5     55.637   7.126
 1859     56.567   6.756
 1859.5     54.288   6.386
 1860     51.5   6.015
 1860.5     52.08   5.645
 1861     52.25   5.245
 1861.5     52.129   4.783
 1862     52.009   4.321
 1862.5     51.368   3.858
 1863     50.525   3.396
 1863.5     50.235   3.321
 1864     50.079   3.499
 1864.5     49.922   3.677
 1865     51.518   3.854
 1865.5     53.233   4.682
 1866     53.197   5.529
 1866.5     53.162   6.101
 1867     53.301   6.281
 1867.5     54.319   6.46
 1868     55.337   7.482
 1868.5     59.935   9.672
 1869     64.844   11.735
 1869.5     71.429   12.045
 1870     71.409   10.908
 1870.5     58.958   9.771
 1871     55.294   8.634
 1871.5     52.718   7.743
 1872     51.604   6.915
 1872.5     52.018   6.088
 1873     52.361   5.26
 1873.5     51.69   4.433
 1874     51.018   3.606
 1874.5     53.663   3.113
 1875     63.955   3.252
 1875.5     66.824   3.391
 1876     69.692   3.531
 1876.5     67.831   3.504
 1877     63.948   3.311
 1877.5     60.065   3.117
 1878     51.685   2.924
 1878.5     50.511   2.73
 1879     50.612   2.536
 1879.5     51.161   2.343
 1880     52.635   2.149
 1880.5     53.215   2.261
 1881     53.473   2.605
 1881.5     53.731   2.95
 1882     53.988   3.294
 1882.5     54.246   3.638
 1883     53.382   3.889
 1883.5     52.469   3.826
 1884     52.358   3.764
 1884.5     52.546   3.702
 1885     52.734   3.64
 1885.5     51.868   3.578
 1886     50.835   3.515
 1886.5     50.562   3.453
 1887     50.733   3.391
 1887.5     50.903   3.441
 1888     51.074   3.852
 1888.5     51.245   4.264
 1889     51.212   4.675
 1889.5     51.719   5.911
 1890     55.781   7.329
 1890.5     63.715   7.756
 1891     69.375   8.081
 1891.5     68.484   8.406
 1892     67.594   6.885
 1892.5     62.194   5.193
 1893     59.06   3.501
 1893.5     59.797   3.558
 1894     62.366   3.82
 1894.5     62.053   4.083
 1895     66.414   4.345
 1895.5     67.069   4.608
 1896     67.724   4.547
 1896.5     67.905   4.223
 1897     65.401   3.898
 1897.5     60.548   3.573
 1898     58.553   3.249
 1898.5     62.227   3.619
 1899     64.907   4.126
 1899.5     64.517   4.633
 1900     63.536   4.393
 1900.5     67.475   3.716
 1901     67.282   3.039
 1901.5     67.089   2.787
 1902     66.756   3.141
 1902.5     65.247   3.495
 1903     64.221   3.849
 1903.5     65.169   4.203
 1904     66.117   4.558
 1904.5     67.257   4.911
 1905     68.404   4.692
 1905.5     68.856   4.472
 1906     68.341   4.253
 1906.5     67.825   4.034
 1907     67.31   3.815
 1907.5     68.233   3.596
 1908     68.625   3.377
 1908.5     68.646   3.225
 1909     68.666   3.138
 1909.5     68.686   3.052
 1910     68.196   2.965
 1910.5     67.592   2.879
 1911     67.572   2.792
 1911.5     67.957   2.706
 1912     68.341   2.62
 1912.5     68.411   3.055
 1913     65.15   3.624
 1913.5     60.896   4.192
 1914     51.896   4.761
 1914.5     51.474   5.329
 1915     52.125   5.204
 1915.5     52.988   4.269
 1916     53.835   3.334
 1916.5     54.499   2.945
 1917     54.106   2.829
 1917.5     53.463   2.713
 1918     53.171   2.597
 1918.5     52.92   2.481
 1919     52.669   2.365
 1919.5     52.416   2.249
 1920     52.145   2.133
 1920.5     51.874   2.189
 1921     51.603   3.759
 1921.5     51.186   5.329
 1922     51.742   6.82
 1922.5     53.183   7.782
 1923     55.205   8.744
 1923.5     55.017   9.705
 1924     54.25   11.096
 1924.5     54.272   13.513
 1925     54.293   14.491
 1925.5     54.315   15.138
 1926     54.336   14.644
 1926.5     54.358   12.836
 1927     53.619   11.028
 1927.5     52.619   9.22
 1928     52.271   8.545
 1928.5     52.535   8.163
 1929     52.798   7.59
 1929.5     53.069   6.358
 1930     53.884   5.127
 1930.5     55.228   3.895
 1931     56.758   4.093
 1931.5     63.728   4.696
 1932     63.769   5.299
 1932.5     66.869   5.669
 1933     66.791   5.633
 1933.5     68.288   5.598
 1934     69.251   5.486
 1934.5     69.452   4.956
 1935     69.379   4.427
 1935.5     69.032   3.898
 1936     68.686   3.368
 1936.5     67.414   2.842
 1937     68.183   2.815
 1937.5     68.953   2.787
 1938     68.743   2.76
 1938.5     68.322   2.733
 1939     68.305   3.153
 1939.5     68.288   3.74
 1940     66.279   4.328
 1940.5     66.493   4.915
 1941     66.708   4.536
 1941.5     63.314   3.68
 1942     63.496   2.825
 1942.5     58.365   2.302
 1943     56.26   2.865
 1943.5     54.825   3.429
 1944     53.908   3.993
 1944.5     53.279   4.557
 1945     53.063   5.121
 1945.5     53.224   5.222
 1946     53.396   4.806
 1946.5     53.577   4.389
 1947     53.759   3.973
 1947.5     53.999   3.557
 1948     54.352   4.892
 1948.5     54.704   6.801
 1949     55.056   8.089
 1949.5     62.587   8.522
 1950     64.397   7.54
 1950.5     66.206   6.443
 1951     64.481   5.692
 1951.5     62.654   5.596
 1952     60.381   5.501
 1952.5     57.528   5.405
 1953     56.662   5.309
 1953.5     57.579   5.214
 1954     58.497   5.516
 1954.5     59.92   6.125
 1955     62.409   6.734
 1955.5     65.665   7.344
 1956     68.229   7.677
 1956.5     66.683   7.359
 1957     66.234   7.04
 1957.5     66.671   6.722
 1958     67.107   6.161
 1958.5     67.544   5.564
 1959     67.582   4.967
 1959.5     67.051   4.563
 1960     59.48   4.847
 1960.5     55.923   5.132
 1961     54.421   5.416
 1961.5     56.08   4.852
 1962     57.739   4.076
 1962.5     60.866   3.299
 1963     64.545   2.618
 1963.5     65.886   2.464
 1964     64.265   2.33
 1964.5     67.386   4.603
 1965     70.508   5.791
 1965.5     68.234   6.007
 1966     67.23   6.223
 1966.5     67.768   5.882
 1967     68.306   5.052
 1967.5     69.039   4.223
 1968     70.487   3.393
 1968.5     69.753   2.563
 1969     68.878   2.433
 1969.5     68.507   2.471
 1970     68.917   2.522
 1970.5     67.606   3.103
 1971     68.014   3.683
 1971.5     68.421   4.264
 1972     68.225   4.845
 1972.5     68.009   5.076
 1973     68.48   5.018
 1973.5     68.951   4.749
 1974     69.37   4.349
 1974.5     69.508   3.949
 1975     69.647   3.548
 1975.5     69.785   3.148
 1976     69.923   2.748
 1976.5     70.061   2.515
 1977     70.199   2.387
 1977.5     69.837   3.295
 1978     68.906   4.314
 1978.5     67.791   5.334
 1979     66.101   5.649
 1979.5     64.411   5.677
 1980     62.721   5.705
 1980.5     63.153   5.798
 1981     67.559   6.714
 1981.5     67.232   7.631
 1982     67.429   7.103
 1982.5     68.05   6.487
 1983     68.671   5.871
 1983.5     69.292   3.57
 1984     69.851   3.068
 1984.5     69.811   2.888
 1985     69.771   2.709
 1985.5     69.731   2.529
 1986     69.624   2.538
 1986.5     69.334   2.687
 1987     69.045   2.836
 1987.5     70.208   2.985
 1988     70.269   3.134
 1988.5     70.329   3.282
 1989     70.627   3.337
 1989.5     71.127   3.367
 1990     71.728   3.397
 1990.5     72.552   3.427
 1991     72.741   3.457
 1991.5     71.962   3.487
 1992     71.182   3.517
 1992.5     70.403   3.253
 1993     70.97   2.975
 1993.5     71.302   2.696
 1994     70.729   2.418
 1994.5     70.156   2.32
 1995     70.066   2.794
 1995.5     70.133   3.267
 1996     70.199   3.707
 1996.5     70.266   3.314
 1997     70.333   2.921
 1997.5     70.4   2.529
 1998     70.364   2.136
 1998.5     70.167   1.743
 1999     69.97   1.351
 1999.5     69.773   0.958
 2000     70.885   1.156
 2000.5     73.217   1.868
 2001     73.209   2.58
 2001.5     73.129   3.125
 2002     72.983   3.341
 2002.5     72.277   3.557
 2003     71.57   3.524
 2003.5     70.954   3.015
