#--------------------------------------------------#
#-------------------ENVERUS, INC.------------------#
#------------------WWW.ENVERUS.COM-----------------#
#------------------COPYRIGHT 2020------------------#
#--------------------------------------------------#
#THIS FILE MAY BE USED ONLY IN ACCORDANCE WITH A CURRENT SUBSCRIPTION AGREEMENT BETWEEN
#THE USER AND ENVERUS, INC. NO PART OF THIS FILE MAY BE REPRODUCED, USED, COPIED,
#MODIFIED, PROPAGATED, OR DISTRIBUTED EXCEPT IN ACCORDANCE WITH THE SUBSCRIPTION
#AGREEMENT. UNAUTHORIZED USE OR DISTRIBUTION OF ALL OR ANY PART OF THIS FILE MAY VIOLATE
#COPYRIGHT, TRADEMARK, AND/OR OTHER LAWS AND IS SUBJECT TO CIVIL AS WELL AS CRIMINAL
#SANCTIONS.
#--------------------------------------------------#
#THIS FILE IS PROVIDED "AS-IS" AND ALL WARRANTIES ARE EXPRESSLY DISCLAIMED, WHETHER
#EXPRESS, ORAL, IMPLIED, STATUTORY OR OTHERWISE, INCLUDING ANY IMPLIED WARRANTY OF FITNESS
#FOR A PARTICULAR PURPOSE, MERCHANTABILITY, TITLE OR NON-INFRINGEMENT, AND ANY WARRANTIES
#ARISING BY VIRTUE OF CUSTOM OF TRADE OR COURSE OF DEALING.  FURTHER, ENVERUS, INC.
#AND ITS LICENSORS DO NOT REPRESENT OR WARRANT THAT THIS FILE WILL MEET USER'S
#REQUIREMENTS OR ARE SUITABLE FOR USER'S NEEDS OR THAT THE DATA OR RESULTS PROVIDED IN
#CONJUNCTION THEREWITH ARE CORRECT, ACCURATE, TIMELY OR RELIABLE. THESE DISCLAIMERS SHALL
#APPLY REGARDLESS OF ANY FAILURE OF ESSENTIAL PURPOSE OF ANY LIMITED REMEDY.  SOME
#JURISDICTIONS DO NOT ALLOW THE EXCLUSION OF CERTAIN WARRANTIES SO SOME OF THE ABOVE
#EXCLUSIONS MAY NOT APPLY. IN NO EVENT SHALL ENVERUS, INC. OR ANY OF ITS AFFILIATES
#BE LIABLE UNDER ANY LEGAL THEORY, WHETHER IN TORT (INCLUDING WITHOUT LIMITATION
#NEGLIGENCE), CONTRACT, STRICT LIABILITY, STATUTORY OR OTHERWISE, FOR ANY SPECIAL,
#INCIDENTAL, CONSEQUENTIAL, EXEMPLARY, PUNITIVE OR INDIRECT DAMAGE OF ANY KIND, INCLUDING
#WITHOUT LIMITATION LOSS OF REVENUE, PROFITS, GOODWILL, USE, AND/OR DATA OR THE COST OF
#PROCUREMENT OF SUBSTITUTE GOODS OR SERVICES, EVEN IF APPRISED OF THE POSSIBILITY OF SUCH
#DAMAGES IN ADVANCE.
#--------------------------------------------------#

~VERSION INFORMATION
VERS. 2.0 : CWLS LOG ASCII STANDARD - VERSION 2.0
WRAP.  NO : ONE LINE PER DEPTH STEP
~WELL INFORMATION
#MNEMONIC     .UNIT              VALUE :DESCRIPTION
STRT       .FT                102 :START DEPTH
STOP       .FT                5463 :STOP DEPTH
STEP       .FT                   0.500 :STEP
NULL       .                  -999.990 :NULL
UWI        .              42371363560000 :UNIQUE WELL ID
API        .              42371363560000 :API NUMBER
COMP       .         APACHE CORPORATION :COMPANY
WELL       .        SCHLOSSER, FRED ESTATE -B-  11 :WELL
DATE       .                22-JUN-1992 :LOG DATE
~CURVE INFORMATION
#MNEMONIC     .UNIT      API CODE :CURVE DESCRIPTION
DEPTH       .FT                      :MEASURED DEPTH
DT.US/FT        UNKNOWN   :DT
GR.API        UNKNOWN   :GR
~A    DEPTH    DT    GR
# ...
 2133.5     69.006   5.144
 2134     69.242   5.699
 2134.5     68.504   6.317
 2135     67.918   7.43
 2135.5     68.005   7.202
 2136     68.092   6.773
 2136.5     68.179   6.343
 2137     68.266   5.728
 2137.5     68.006   5.091
 2138     67.221   4.894
 2138.5     66.435   5.044
 2139     65.611   5.194
 2139.5     62.631   5.344
 2140     59.65   5.816
 2140.5     55.488   6.293
 2141     54.108   6.771
 2141.5     53.795   6.584
 2142     53.825   6.012
 2142.5     53.448   5.441
 2143     53.156   4.869
 2143.5     53.435   4.553
 2144     53.714   5.498
 2144.5     53.994   6.443
 2145     54.485   7.388
 2145.5     55.285   8.227
 2146     56.085   8.695
 2146.5     57.738   9.162
 2147     59.156   8.734
 2147.5     59.187   7.935
 2148     58.038   7.137
 2148.5     57.805   6.338
 2149     58.054   5.475
 2149.5     58.303   4.53
 2150     58.551   3.871
 2150.5     56.602   3.871
 2151     57.524   4.303
 2151.5     59.631   5.364
 2152     61.289   6.426
 2152.5     62.946   7.096
 2153     63.975   6.822
 2153.5     64.905   6.549
 2154     65.835   5.755
 2154.5     65.131   4.941
 2155     64.097   4.128
 2155.5     63.063   3.314
 2156     65.02   3.271
 2156.5     66.065   3.306
 2157     62.279   3.34
 2157.5     58.6   3.91
 2158     55.83   4.658
 2158.5     55.321   5.362
 2159     56.854   5.013
 2159.5     58.655   4.664
 2160     64.775   4.315
 2160.5     64.78   3.966
 2161     61.288   3.918
 2161.5     63.286   5.39
 2162     66.847   6.862
 2162.5     70.408   7.375
 2163     70.346   6.874
 2163.5     69.836   6.073
 2164     69.327   4.742
 2164.5     69.038   3.411
 2165     69.058   2.829
 2165.5     69.078   2.83
 2166     69.068   2.831
 2166.5     69.044   2.832
 2167     69.029   2.239
 2167.5     69.029   1.468
 2168     68.53   1.32
 2168.5     68.519   2.023
 2169     68.509   2.726
 2169.5     68.499   3.371
 2170     68.489   3.413
 2170.5     68.478   3.454
 2171     69.211   3.496
 2171.5     70.134   3.537
 2172     70.134   3.578
 2172.5     70.134   2.867
 2173     70.134   3.213
 2173.5     70.128   3.559
 2174     69.952   3.906
 2174.5     69.775   4.252
 2175     69.599   4.512
 2175.5     69.423   4.261
 2176     69.247   4.01
 2176.5     69.07   3.76
 2177     63.844   3.757
 2177.5     62.342   4.248
 2178     62.131   4.739
 2178.5     62.378   5.23
 2179     62.626   5.721
 2179.5     62.874   6.212
 2180     62.994   6.873
 2180.5     60.727   7.612
 2181     60.824   8.351
 2181.5     68.104   9.09
 2182     69.045   8.093
 2182.5     69.696   6.977
 2183     69.578   5.861
 2183.5     69.578   4.466
 2184     69.577   3.371
 2184.5     69.577   3.07
 2185     69.456   2.769
 2185.5     69.283   2.468
 2186     69.453   2.167
 2186.5     70.022   1.976
 2187     70.592   2.563
 2187.5     71.222   3.151
 2188     71.085   3.738
 2188.5     70.949   4.326
 2189     70.812   4.357
 2189.5     70.737   4.357
 2190     70.566   4.358
 2190.5     70.246   4.359
 2191     69.927   4.36
 2191.5     69.607   3.936
 2192     69.609   2.277
 2192.5     69.868   1.906
 2193     70.186   2.708
 2193.5     70.729   3.509
 2194     71.149   4.311
 2194.5     71.245   5.112
 2195     71.341   5.2
 2195.5     70.72   4.761
 2196     70.102   4.013
 2196.5     69.566   3.266
 2197     69.095   2.518
 2197.5     69.305   2.359
 2198     69.516   2.549
 2198.5     69.726   2.74
 2199     69.937   2.931
 2199.5     70.35   3.122
 2200     70.789   3.064
 2200.5     70.703   2.83
 2201     70.908   2.596
 2201.5     71.113   2.899
 2202     71.317   3.975
 2202.5     71.29   4.891
 2203     70.807   4.754
 2203.5     70.173   4.617
 2204     68.75   4.15
 2204.5     68.427   3.604
 2205     68.943   3.372
 2205.5     69.572   3.493
 2206     69.572   3.614
 2206.5     69.572   3.735
 2207     69.572   3.82
 2207.5     69.491   3.205
 2208     66.143   2.591
 2208.5     64.503   2.279
 2209     66.443   2.741
 2209.5     68.382   3.202
 2210     70.321   3.664
 2210.5     71.982   4.125
 2211     73.083   4.561
 2211.5     73.661   4.995
 2212     72.848   5.428
 2212.5     71.134   5.861
 2213     70.997   5.623
 2213.5     71.117   5.105
 2214     71.236   4.586
 2214.5     71.333   4.068
 2215     71.293   3.55
 2215.5     70.692   3.031
 2216     69.927   3.165
 2216.5     69.162   3.324
 2217     69.1   3.483
 2217.5     69.202   3.373
 2218     69.305   3.082
 2218.5     69.63   2.792
 2219     70.118   2.502
 2219.5     70.125   2.568
 2220     69.877   2.899
 2220.5     69.629   3.23
 2221     69.655   3.561
 2221.5     69.686   3.734
 2222     69.718   3.65
 2222.5     69.75   3.567
 2223     69.781   3.483
 2223.5     69.813   3.4
 2224     69.844   3.293
 2224.5     69.876   3.137
 2225     69.952   2.98
 2225.5     70.146   2.824
 2226     70.34   2.667
 2226.5     70.534   2.51
 2227     70.728   2.354
 2227.5     70.904   2.578
 2228     70.976   3.113
 2228.5     71.048   3.648
 2229     70.436   4.183
 2229.5     70.444   4.601
 2230     71.014   4.434
 2230.5     71.412   4.267
 2231     70.804   4.099
 2231.5     70.197   3.932
 2232     69.589   3.765
 2232.5     68.982   3.598
 2233     68.69   3.485
 2233.5     68.845   3.609
 2234     69   3.733
 2234.5     69.154   3.857
 2235     69.309   3.981
 2235.5     67.939   4.105
 2236     66.122   4.229
 2236.5     61.763   4.353
 2237     60.241   5.568
 2237.5     63.017   8.377
 2238     66.522   11.186
 2238.5     69.565   13.995
 2239     70.908   12.183
 2239.5     69.034   10.341
 2240     67.161   10.795
 2240.5     63.344   23.137
 2241     59.683   35.478
 2241.5     62.293   55.251
 2242     64.904   76.095
 2242.5     63.232   76.547
 2243     56.617   70.199
 2243.5     57.567   36.455
 2244     60.102   30.033
 2244.5     65.287   11.367
 2245     69.841   6.668
 2245.5     69.988   5.677
 2246     69.061   5.002
 2246.5     68.721   5.103
 2247     68.457   5.205
 2247.5     68.193   5.307
 2248     68.173   5.367
 2248.5     68.656   4.95
 2249     69.139   4.533
 2249.5     69.551   4.116
 2250     69.936   3.836
 2250.5     69.232   3.949
 2251     68.528   4.314
 2251.5     67.792   5.115
 2252     66.171   5.916
 2252.5     64.55   6.674
 2253     62.929   6.402
 2253.5     61.167   6.131
 2254     58.307   5.859
 2254.5     55.447   5.587
 2255     54.396   5.316
 2255.5     55.09   5.467
 2256     55.783   6.229
 2256.5     56.193   15.277
 2257     56.501   24.325
 2257.5     56.808   42.875
 2258     57.116   55.908
 2258.5     58.845   62.379
 2259     62.127   54.045
 2259.5     66.631   42.095
 2260     66.631   26.278
 2260.5     67.959   8.991
 2261     68.952   7.321
 2261.5     68.952   5.651
 2262     66.595   3.981
 2262.5     66.31   3.239
 2263     66.832   3.149
 2263.5     67.354   3.06
 2264     67.876   2.971
 2264.5     68.402   2.881
 2265     68.936   2.792
 2265.5     68.862   3.379
 2266     62.782   4.288
 2266.5     63.426   5.198
 2267     65.251   5.105
 2267.5     67.075   4.952
 2268     68.798   4.317
 2268.5     69.524   3.682
 2269     69.348   3.36
 2269.5     69.172   3.151
 2270     69.216   3.078
 2270.5     69.641   3.56
 2271     68.994   4.041
 2271.5     69.455   4.523
 2272     69.916   4.501
 2272.5     70.344   3.825
 2273     70.657   3.149
 2273.5     70.969   2.748
 2274     71.093   2.688
 2274.5     70.92   2.628
 2275     70.807   2.568
 2275.5     71.043   2.509
 2276     71.279   2.61
 2276.5     71.515   3.499
 2277     70.841   4.387
 2277.5     70.029   4.305
 2278     68.872   4.104
 2278.5     69.092   3.904
 2279     69.312   3.704
 2279.5     69.847   3.411
 2280     70.753   3.071
 2280.5     70.191   2.731
 2281     69.684   2.391
 2281.5     69.274   2.052
 2282     69.114   1.712
 2282.5     69.114   1.906
 2283     69.114   2.308
 2283.5     69.293   2.711
 2284     69.501   3.113
 2284.5     69.708   2.982
 2285     69.87   2.669
 2285.5     69.797   2.356
 2286     69.887   2.043
 2286.5     69.977   1.73
 2287     70.067   1.859
 2287.5     69.945   2.22
 2288     69.645   2.581
