~Version Information Block
 VERS.                2.00:     CWLS LOG ASCII STANDARD - VERSION 2.000000
 WRAP.                  NO:     One Line Per Depth Step
#
~Well Information Block
#MNEM.UNIT                     Data                         Information
#----------   ------------------------------------------   ----------------
 STRT.FT                                     1000.0000:     START DEPTH
 STOP.FT                                    15733.0000:     STOP DEPTH
 STEP.FT                                        0.5000:     STEP
 NULL.                                       -999.0000:     NULL VALUE
 COMP.                                 MOBIL PRODUCING:     COMPANY
 WELL.                                    IB-WEATHERBY:     WELL
 FLD .                                   ROJO CABALLOS:     FIELD
 LOC .                                         UNKNOWN:     LOCATION
 LONG.                                 -103.1458890000:     LONGITUDE
 LATI.                                   31.1330510000:     LATITUDE
 CNTY.                                           PECOS:     COUNTY
 STAT.                                           TEXAS:     STATE
 CTRY.                                           U.S.A:     COUNTRY
 SRVC.                                         UNKNOWN:     SERVICE COMPANY
 DATE.                                         UNKNOWN:     DATE
 API .                                  42371057360000:     API NUMBER
 UWI .                                  42371057360000:     UWI NUMBER
 SLAT.                                       31.133051:     Surface latitude
 SLON.                                     -103.145889:     surface longitude
 TVD .                                              NO:     TVD flag
 WSTA.                                             LOC:     Well status
#
~Curve Information Block
#MNEM.UNIT       API CODE      Curve Description
#----------    -------------   -------------------
 DEPT.FT                   :   Depth in Feet
 DT  .UNKNOWN          UNKNOWN:   DT-Load
 DTedit.ft/s          UNKNOWN:   DT-Load
 GR  .UNKNOWN          UNKNOWN:   GR-Load
 GR_org.UNKNOWN          UNKNOWN:   GR_org-Load
#
~Parameter Information Block
#MNEM.UNIT            Value               Description
#----------    --------------------    -------------------
 RUN .                         ONE:    Run Number
 PDAT.                          GL:    Permanent Datum
 EPD .FT                          :    Elevation Of Perm. Datum
 LMF .               KELLY BUSHING:    Log Measured From
 EKB .FT                          :    Elevation Of Kelly Bushing
 DF .FT                           :    Elevation Of Derrick Floor
 GL .FT                           :    Elevation Of Ground Level
 TD  .FT                          :    Total Depth
 CSGD.FT                          :    Casing Bottom (Driller) 1
 CSGL.FT                          :    Casing Bottom (Logger) 1
 MUD .                            :    Drilling Fluid Type
 MUDV .CP                         :    Drilling Fluid Viscosity
 MUDD .LB/USG                     :    Drilling Fluid Density
 FL .ML/30MIN                     :    Drilling Fluid Loss
 PH.                              :    Drilling Fluid Ph
 MUDS .                           :    Mud Sample Source
 RM .OHMM                         :    Resistivity Of Mud Sample
 RMT .DEGF                        :    Mud Sample Temperature
 RMF .OHMM                        :    Mud Filtrate Resistivity
 RMFT.DEGF                        :    Mud Filtrate Sample Temperature
 RMC .OHMM                        :    Mud Cake Resistivity
 RMCT.DEGF                        :    Mud Cake Sample Temperature
 RMB .OHMM                        :    Mud Resistivity At Bht
 TMAX .DEGF                       :    Bottom Hole Temperature
#
~Other Information Block
<DescLogPlotStart>   NEURALOG PLOT DEFINITION
PLOTDEFVERSION: 3
LASFILE: E:\Nair Innovations\42_TEXAS\371_Pecos\Mobil_IB-Weatherby 1 Pecos_1.la
DEPTHSCALE: 239.999996
RESOLUTION: 200
DEPTHLABELFREQ: 100.000000
HEAVYGRIDFREQ: 50.000000
MEDIUMGRIDFREQ: 50.000000
LIGHTGRIDFREQ: 10.000000
#
#   TRACK 1
#
STARTTRACK: 
 LEFTX: 0.500000 inch
 RIGHTX: 3.000000 inch
 SCALETYPE: Linear
 NUMCHARTDIVISIONS: 10
CURVE: GR    0.000000   150.000000 (255,0,0)      Short_Dash        4     N    
CURVE: DTedit 6637.927700 24453.046900 (0,131,131)    Solid             2     N
CURVE: GR_org -999.990000 109.000000 (255,0,255)    Solid             2     N  
ENDTRACK: 
#
#   TRACK 2
#
STARTTRACK: 
 LEFTX: 3.750000 inch
 RIGHTX: 6.250000 inch
 SCALETYPE: Linear
 NUMCHARTDIVISIONS: 10
ENDTRACK: 
#
#   TRACK 3
#
STARTTRACK: 
 LEFTX: 6.250000 inch
 RIGHTX: 8.750000 inch
 SCALETYPE: Linear
 NUMCHARTDIVISIONS: 10
CURVE: DT    190.000000 50.000000  (255,0,131)    Solid             2     N    
ENDTRACK: 
<DescLogPlotEnd>
<DepthTrack type='Reference' track='1' Label='0' color='0' hor='0' />
<Reference font='144,0,-900,0,500,0,16777216,Arial' />
~A DEPTH     DT               DTedit             GR               GR_org            
# ...
    7880.500 68.79790000      14535.32810000   31.57680000      31.57680000     
    7881.000 65.35820000      15300.29880000   31.33210000      31.33210000     
    7881.500 65.35820000      15300.29880000   31.35510000      31.35510000     
    7882.000 77.03700000      12980.77540000   32.35520000      32.35520000     
    7882.500 77.03700000      12980.77540000   33.66090000      33.66090000     
    7883.000 75.08140000      13318.87790000   34.53640000      34.53640000     
    7883.500 75.08140000      13318.87790000   34.95700000      34.95700000     
    7884.000 73.16500000      13667.73730000   34.74310000      34.74310000     
    7884.500 73.16500000      13667.73730000   35.01510000      35.01510000     
    7885.000 78.15650000      12794.84080000   35.81220000      35.81220000     
    7885.500 78.15650000      12794.84080000   36.72500000      36.72500000     
    7886.000 85.29410000      11724.14060000   36.52570000      36.52570000     
    7886.500 85.29410000      11724.14060000   36.16350000      36.16350000     
    7887.000 72.09350000      13870.87600000   35.50880000      35.50880000     
    7887.500 72.09350000      13870.87600000   35.60210000      35.60210000     
    7888.000 79.65120000      12554.73830000   36.18400000      36.18400000     
    7888.500 79.65120000      12554.73830000   36.71500000      36.71500000     
    7889.000 83.90140000      11918.75290000   37.03860000      37.03860000     
    7889.500 83.90140000      11918.75290000   35.79610000      35.79610000     
    7890.000 74.81290000      13366.67970000   33.63230000      33.63230000     
    7890.500 74.81290000      13366.67970000   32.14760000      32.14760000     
    7891.000 65.73930000      15211.60060000   31.38900000      31.38900000     
    7891.500 65.73930000      15211.60060000   31.07220000      31.07220000     
    7892.000 68.13750000      14676.20700000   31.82680000      31.82680000     
    7892.500 68.13750000      14676.20700000   33.14860000      33.14860000     
    7893.000 71.02490000      14079.56840000   32.39380000      32.39380000     
    7893.500 71.02490000      14079.56840000   30.63540000      30.63540000     
    7894.000 57.73430000      17320.72660000   28.33740000      28.33740000     
    7894.500 57.73430000      17320.72660000   26.96460000      26.96460000     
    7895.000 59.66730000      16759.59770000   28.85720000      28.85720000     
    7895.500 59.66730000      16759.59770000   30.73490000      30.73490000     
    7896.000 72.53470000      13786.50490000   31.57830000      31.57830000     
    7896.500 72.53470000      13786.50490000   31.30450000      31.30450000     
    7897.000 71.93140000      13902.13480000   30.41910000      30.41910000     
    7897.500 71.93140000      13902.13480000   29.47270000      29.47270000     
    7898.000 71.19410000      14046.10740000   28.94990000      28.94990000     
    7898.500 71.19410000      14046.10740000   29.15910000      29.15910000     
    7899.000 70.52150000      14180.07320000   29.67540000      29.67540000     
    7899.500 70.52150000      14180.07320000   30.33200000      30.33200000     
    7900.000 69.99690000      14286.34670000   30.85680000      30.85680000     
    7900.500 69.99690000      14286.34670000   31.43130000      31.43130000     
    7901.000 75.48070000      13248.41990000   31.87840000      31.87840000     
    7901.500 75.48070000      13248.41990000   31.83980000      31.83980000     
    7902.000 73.95740000      13521.29790000   31.44930000      31.44930000     
    7902.500 73.95740000      13521.29790000   30.90160000      30.90160000     
    7903.000 71.86460000      13915.05660000   30.32640000      30.32640000     
    7903.500 71.86460000      13915.05660000   30.42900000      30.42900000     
    7904.000 69.86490000      14313.33890000   30.96030000      30.96030000     
    7904.500 69.86490000      14313.33890000   30.77780000      30.77780000     
    7905.000 76.58370000      13057.60840000   30.04730000      30.04730000     
    7905.500 76.58370000      13057.60840000   28.57620000      28.57620000     
    7906.000 79.02990000      12653.43850000   27.13120000      27.13120000     
    7906.500 79.02990000      12653.43850000   27.46690000      27.46690000     
    7907.000 62.60880000      15972.19630000   29.25270000      29.25270000     
    7907.500 62.60880000      15972.19630000   31.35670000      31.35670000     
    7908.000 74.61470000      13402.18460000   33.20890000      33.20890000     
    7908.500 74.61470000      13402.18460000   33.75480000      33.75480000     
    7909.000 71.93440000      13901.55470000   33.92400000      33.92400000     
    7909.500 71.93440000      13901.55470000   33.38980000      33.38980000     
    7910.000 79.50870000      12577.24020000   32.60890000      32.60890000     
    7910.500 79.50870000      12577.24020000   31.48600000      31.48600000     
    7911.000 80.10140000      12484.17580000   29.88190000      29.88190000     
    7911.500 80.10140000      12484.17580000   27.70070000      27.70070000     
    7912.000 57.56620000      17371.30470000   25.25350000      25.25350000     
    7912.500 57.56620000      17371.30470000   24.04970000      24.04970000     
    7913.000 73.88230000      13535.04100000   25.33310000      25.33310000     
    7913.500 73.88230000      13535.04100000   29.73510000      29.73510000     
    7914.000 77.04300000      12979.76460000   30.86670000      30.86670000     
    7914.500 77.04300000      12979.76460000   28.69060000      28.69060000     
    7915.000 70.88840000      14106.68070000   26.65370000      26.65370000     
    7915.500 70.88840000      14106.68070000   24.43030000      24.43030000     
    7916.000 68.44210000      14610.88960000   22.77390000      22.77390000     
    7916.500 68.44210000      14610.88960000   21.73310000      21.73310000     
    7917.000 54.98490000      18186.81050000   20.98200000      20.98200000     
    7917.500 54.98490000      18186.81050000   19.47110000      19.47110000     
    7918.000 68.30100000      14641.07320000   20.76560000      20.76560000     
    7918.500 68.30100000      14641.07320000   22.19190000      22.19190000     
    7919.000 65.64620000      15233.17380000   22.14780000      22.14780000     
    7919.500 65.64620000      15233.17380000   21.63360000      21.63360000     
    7920.000 65.56820000      15251.29590000   22.39830000      22.39830000     
    7920.500 65.56820000      15251.29590000   23.92790000      23.92790000     
    7921.000 76.01940000      13154.53610000   25.03830000      25.03830000     
    7921.500 76.01940000      13154.53610000   24.33200000      24.33200000     
    7922.000 81.95340000      12202.05660000   23.20040000      23.20040000     
    7922.500 81.95340000      12202.05660000   23.21410000      23.21410000     
    7923.000 92.90590000      10763.57910000   24.83810000      24.83810000     
    7923.500 92.90590000      10763.57910000   27.26050000      27.26050000     
    7924.000 99.71480000      10028.60160000   28.94670000      28.94670000     
    7924.500 99.71480000      10028.60160000   29.40500000      29.40500000     
    7925.000 80.95390000      12352.70900000   28.81120000      28.81120000     
    7925.500 80.95390000      12352.70900000   29.47900000      29.47900000     
    7926.000 84.72380000      11803.05860000   30.42650000      30.42650000     
    7926.500 84.72380000      11803.05860000   31.48350000      31.48350000     
    7927.000 69.73430000      14340.14550000   32.23330000      32.23330000     
    7927.500 69.73430000      14340.14550000   31.41640000      31.41640000     
    7928.000 67.00000000      14925.37300000   29.83710000      29.83710000     
    7928.500 67.00000000      14925.37300000   28.64210000      28.64210000     
    7929.000 67.00000000      14925.37300000   27.37740000      27.37740000     
    7929.500 67.00000000      14925.37300000   26.34530000      26.34530000     
