#--------------------------------------------------#
#-------------------ENVERUS, INC.------------------#
#------------------WWW.ENVERUS.COM-----------------#
#------------------COPYRIGHT 2020------------------#
#--------------------------------------------------#
#THIS FILE MAY BE USED ONLY IN ACCORDANCE WITH A CURRENT SUBSCRIPTION AGREEMENT BETWEEN
#THE USER AND ENVERUS, INC. NO PART OF THIS FILE MAY BE REPRODUCED, USED, COPIED,
#MODIFIED, PROPAGATED, OR DISTRIBUTED EXCEPT IN ACCORDANCE WITH THE SUBSCRIPTION
#AGREEMENT. UNAUTHORIZED USE OR DISTRIBUTION OF ALL OR ANY PART OF THIS FILE MAY VIOLATE
#COPYRIGHT, TRADEMARK, AND/OR OTHER LAWS AND IS SUBJECT TO CIVIL AS WELL AS CRIMINAL
#SANCTIONS.
#--------------------------------------------------#
#THIS FILE IS PROVIDED "AS-IS" AND ALL WARRANTIES ARE EXPRESSLY DISCLAIMED, WHETHER
#EXPRESS, ORAL, IMPLIED, STATUTORY OR OTHERWISE, INCLUDING ANY IMPLIED WARRANTY OF FITNESS
#FOR A PARTICULAR PURPOSE, MERCHANTABILITY, TITLE OR NON-INFRINGEMENT, AND ANY WARRANTIES
#ARISING BY VIRTUE OF CUSTOM OF TRADE OR COURSE OF DEALING.  FURTHER, ENVERUS, INC.
#AND ITS LICENSORS DO NOT REPRESENT OR WARRANT THAT THIS FILE WILL MEET USER'S
#REQUIREMENTS OR ARE SUITABLE FOR USER'S NEEDS OR THAT THE DATA OR RESULTS PROVIDED IN
#CONJUNCTION THEREWITH ARE CORRECT, ACCURATE, TIMELY OR RELIABLE. THESE DISCLAIMERS SHALL
#APPLY REGARDLESS OF ANY FAILURE OF ESSENTIAL PURPOSE OF ANY LIMITED REMEDY.  SOME
#JURISDICTIONS DO NOT ALLOW THE EXCLUSION OF CERTAIN WARRANTIES SO SOME OF THE ABOVE
#EXCLUSIONS MAY NOT APPLY. IN NO EVENT SHALL ENVERUS, INC. OR ANY OF ITS AFFILIATES
#BE LIABLE UNDER ANY LEGAL THEORY, WHETHER IN TORT (INCLUDING WITHOUT LIMITATION
#NEGLIGENCE), CONTRACT, STRICT LIABILITY, STATUTORY OR OTHERWISE, FOR ANY SPECIAL,
#INCIDENTAL, CONSEQUENTIAL, EXEMPLARY, PUNITIVE OR INDIRECT DAMAGE OF ANY KIND, INCLUDING
#WITHOUT LIMITATION LOSS OF REVENUE, PROFITS, GOODWILL, USE, AND/OR DATA OR THE COST OF
#PROCUREMENT OF SUBSTITUTE GOODS OR SERVICES, EVEN IF APPRISED OF THE POSSIBILITY OF SUCH
#DAMAGES IN ADVANCE.
#--------------------------------------------------#

~VERSION INFORMATION
VERS. 2.0 : CWLS LOG ASCII STANDARD - VERSION 2.0
WRAP.  NO : ONE LINE PER DEPTH STEP
~WELL INFORMATION
#MNEMONIC     .UNIT              VALUE :DESCRIPTION
STRT       .FT                51 :START DEPTH
STOP       .FT                6194 :STOP DEPTH
STEP       .FT                   0.500 :STEP
NULL       .                  -999.990 :NULL
UWI        .              42389004340000 :UNIQUE WELL ID
API        .              42389004340000 :API NUMBER
COMP       .         :COMPANY
WELL       .         1, :WELL
DATE       .                            :LOG DATE
~CURVE INFORMATION
#MNEMONIC     .UNIT      API CODE :CURVE DESCRIPTION
DEPTH       .FT                      :MEASURED DEPTH
GR.API        UNKNOWN   :GR
DT.US/FT        UNKNOWN   :DT
~A    DEPTH    GR    DT
# ...
 1194.5     30.291   -999.990
 1195     30.802   -999.990
 1195.5     31.313   -999.990
 1196     31.824   -999.990
 1196.5     32.335   -999.990
 1197     33.668   -999.990
 1197.5     37.07   -999.990
 1198     40.471   -999.990
 1198.5     43.872   -999.990
 1199     47.274   -999.990
 1199.5     50.675   -999.990
 1200     54.077   -999.990
 1200.5     57.478   -999.990
 1201     56.848   -999.990
 1201.5     55.22   -999.990
 1202     53.592   -999.990
 1202.5     51.965   -999.990
 1203     50.337   -999.990
 1203.5     48.709   -999.990
 1204     47.082   -999.990
 1204.5     45.454   -999.990
 1205     43.827   -999.990
 1205.5     42.199   -999.990
 1206     42.719   -999.990
 1206.5     43.393   -999.990
 1207     44.067   -999.990
 1207.5     44.741   -999.990
 1208     45.415   -999.990
 1208.5     45.313   -999.990
 1209     44.66   -999.990
 1209.5     43.691   -999.990
 1210     41.439   -999.990
 1210.5     39.186   -999.990
 1211     36.933   -999.990
 1211.5     34.681   -999.990
 1212     32.428   -999.990
 1212.5     32.377   -999.990
 1213     33.364   -999.990
 1213.5     34.352   -999.990
 1214     35.34   -999.990
 1214.5     36.327   -999.990
 1215     37.315   -999.990
 1215.5     37.841   -999.990
 1216     37.2   -999.990
 1216.5     36.558   -999.990
 1217     36.088   -999.990
 1217.5     36.146   -999.990
 1218     36.203   -999.990
 1218.5     36.26   -999.990
 1219     36.317   -999.990
 1219.5     34.867   -999.990
 1220     33.32   -999.990
 1220.5     31.774   -999.990
 1221     30.227   -999.990
 1221.5     28.681   -999.990
 1222     27.134   -999.990
 1222.5     25.736   -999.990
 1223     25.154   -999.990
 1223.5     24.571   -999.990
 1224     23.989   -999.990
 1224.5     23.407   -999.990
 1225     22.825   -999.990
 1225.5     22.243   -999.990
 1226     21.661   -999.990
 1226.5     23.106   -999.990
 1227     25.106   -999.990
 1227.5     27.105   -999.990
 1228     29.104   -999.990
 1228.5     31.103   -999.990
 1229     32.055   -999.990
 1229.5     30.512   -999.990
 1230     28.97   -999.990
 1230.5     27.427   -999.990
 1231     25.884   -999.990
 1231.5     24.342   -999.990
 1232     22.799   -999.990
 1232.5     21.257   -999.990
 1233     19.714   -999.990
 1233.5     21.007   -999.990
 1234     22.356   -999.990
 1234.5     23.705   -999.990
 1235     25.054   -999.990
 1235.5     26.403   -999.990
 1236     27.752   -999.990
 1236.5     29.101   -999.990
 1237     30.45   -999.990
 1237.5     31.799   -999.990
 1238     33.148   -999.990
 1238.5     34.497   -999.990
 1239     34.538   -999.990
 1239.5     33.292   -999.990
 1240     32.046   -999.990
 1240.5     30.8   -999.990
 1241     29.554   -999.990
 1241.5     28.308   -999.990
 1242     27.062   -999.990
 1242.5     27.115   -999.990
 1243     27.62   -999.990
 1243.5     28.125   -999.990
 1244     28.63   -999.990
 1244.5     28.538   -999.990
 1245     28.152   -999.990
 1245.5     27.766   -999.990
 1246     27.381   -999.990
 1246.5     26.995   -999.990
 1247     27.644   -999.990
 1247.5     31.184   -999.990
 1248     34.724   -999.990
 1248.5     38.264   -999.990
 1249     41.804   -999.990
 1249.5     45.343   -999.990
 1250     48.883   -999.990
 1250.5     52.423   -999.990
 1251     53.144   -999.990
 1251.5     51.675   -999.990
 1252     50.206   -999.990
 1252.5     48.737   -999.990
 1253     47.268   -999.990
 1253.5     45.695   -999.990
 1254     44.032   -999.990
 1254.5     42.369   -999.990
 1255     40.706   -999.990
 1255.5     39.043   -999.990
 1256     37.38   -999.990
 1256.5     35.717   -999.990
 1257     34.054   -999.990
 1257.5     32.484   -999.990
 1258     31.034   -999.990
 1258.5     29.584   -999.990
 1259     28.134   -999.990
 1259.5     28.475   -999.990
 1260     30.603   -999.990
 1260.5     32.732   -999.990
 1261     34.86   -999.990
 1261.5     36.989   -999.990
 1262     39.118   -999.990
 1262.5     41.246   -999.990
 1263     43.375   -999.990
 1263.5     45.504   -999.990
 1264     47.632   -999.990
 1264.5     49.761   -999.990
 1265     47.651   -999.990
 1265.5     45.301   -999.990
 1266     42.951   -999.990
 1266.5     40.602   -999.990
 1267     38.252   -999.990
 1267.5     38.972   -999.990
 1268     40.122   -999.990
 1268.5     41.272   -999.990
 1269     42.422   -999.990
 1269.5     42.243   -999.990
 1270     41.236   -999.990
 1270.5     40.23   -999.990
 1271     39.409   -999.990
 1271.5     39.76   -999.990
 1272     40.111   -999.990
 1272.5     40.462   -999.990
 1273     40.32   -999.990
 1273.5     39.657   -999.990
 1274     38.995   -999.990
 1274.5     38.333   -999.990
 1275     37.67   -999.990
 1275.5     37.008   -999.990
 1276     36.345   -999.990
 1276.5     35.683   -999.990
 1277     34.723   -999.990
 1277.5     32.864   -999.990
 1278     33.73   -999.990
 1278.5     35.678   -999.990
 1279     37.625   -999.990
 1279.5     39.573   -999.990
 1280     41.521   -999.990
 1280.5     42.932   -999.990
 1281     42.379   -999.990
 1281.5     41.827   -999.990
 1282     41.274   -999.990
 1282.5     40.721   -999.990
 1283     40.168   -999.990
 1283.5     38.429   -999.990
 1284     36.398   -999.990
 1284.5     36.083   -999.990
 1285     36.129   -999.990
 1285.5     36.352   -999.990
 1286     37.12   -999.990
 1286.5     37.889   -999.990
 1287     38.657   -999.990
 1287.5     39.426   -999.990
 1288     40.194   -999.990
 1288.5     40.963   -999.990
 1289     41.731   -999.990
 1289.5     42.5   -999.990
 1290     43.268   -999.990
 1290.5     43.661   -999.990
 1291     42.451   -999.990
 1291.5     41.241   -999.990
 1292     40.031   -999.990
 1292.5     38.821   -999.990
 1293     37.612   -999.990
 1293.5     36.402   -999.990
 1294     36.851   -999.990
 1294.5     39.419   -999.990
 1295     41.988   -999.990
 1295.5     44.556   -999.990
 1296     47.125   -999.990
 1296.5     49.693   -999.990
 1297     52.262   -999.990
 1297.5     53.852   -999.990
 1298     55.026   -999.990
 1298.5     56.201   -999.990
 1299     57.375   -999.990
 1299.5     58.55   -999.990
 1300     59.724   -999.990
 1300.5     60.898   -999.990
 1301     60.772   -999.990
 1301.5     59.09   -999.990
 1302     57.408   -999.990
 1302.5     55.726   -999.990
 1303     54.044   -999.990
 1303.5     52.362   -999.990
 1304     50.679   -999.990
 1304.5     48.997   -999.990
 1305     47.315   -999.990
 1305.5     45.633   -999.990
 1306     43.951   -999.990
 1306.5     42.269   -999.990
 1307     41.161   -999.990
 1307.5     42.226   -999.990
 1308     43.291   -999.990
 1308.5     44.356   -999.990
 1309     45.42   -999.990
 1309.5     46.485   -999.990
 1310     47.55   -999.990
 1310.5     48.615   -999.990
 1311     49.518   -999.990
 1311.5     48.941   -999.990
 1312     48.365   -999.990
 1312.5     47.788   -999.990
 1313     47.211   -999.990
 1313.5     46.635   -999.990
 1314     49.314   -999.990
 1314.5     53.476   -999.990
 1315     57.637   -999.990
 1315.5     61.798   -999.990
 1316     65.96   -999.990
 1316.5     65.527   -999.990
 1317     64.619   -999.990
 1317.5     63.71   -999.990
 1318     62.802   -999.990
 1318.5     61.893   -999.990
 1319     58.98   -999.990
 1319.5     53.88   -999.990
 1320     48.781   -999.990
 1320.5     43.681   -999.990
 1321     38.581   -999.990
 1321.5     33.482   -999.990
 1322     31.439   -999.990
 1322.5     31.255   -999.990
 1323     32.193   -999.990
 1323.5     33.131   -999.990
 1324     34.069   -999.990
 1324.5     37.309   -999.990
 1325     41.579   -999.990
 1325.5     45.85   -999.990
 1326     50.12   -999.990
 1326.5     54.39   -999.990
 1327     51.667   -999.990
 1327.5     48.254   -999.990
 1328     44.912   -999.990
 1328.5     44.033   -999.990
 1329     43.153   -999.990
 1329.5     42.273   -999.990
 1330     42.453   -999.990
 1330.5     44.698   -999.990
 1331     46.943   -999.990
 1331.5     49.188   -999.990
 1332     51.434   -999.990
 1332.5     53.679   -999.990
 1333     55.924   -999.990
