#--------------------------------------------------#
#-------------------ENVERUS, INC.------------------#
#------------------WWW.ENVERUS.COM-----------------#
#------------------COPYRIGHT 2020------------------#
#--------------------------------------------------#
#THIS FILE MAY BE USED ONLY IN ACCORDANCE WITH A CURRENT SUBSCRIPTION AGREEMENT BETWEEN
#THE USER AND ENVERUS, INC. NO PART OF THIS FILE MAY BE REPRODUCED, USED, COPIED,
#MODIFIED, PROPAGATED, OR DISTRIBUTED EXCEPT IN ACCORDANCE WITH THE SUBSCRIPTION
#AGREEMENT. UNAUTHORIZED USE OR DISTRIBUTION OF ALL OR ANY PART OF THIS FILE MAY VIOLATE
#COPYRIGHT, TRADEMARK, AND/OR OTHER LAWS AND IS SUBJECT TO CIVIL AS WELL AS CRIMINAL
#SANCTIONS.
#--------------------------------------------------#
#THIS FILE IS PROVIDED "AS-IS" AND ALL WARRANTIES ARE EXPRESSLY DISCLAIMED, WHETHER
#EXPRESS, ORAL, IMPLIED, STATUTORY OR OTHERWISE, INCLUDING ANY IMPLIED WARRANTY OF FITNESS
#FOR A PARTICULAR PURPOSE, MERCHANTABILITY, TITLE OR NON-INFRINGEMENT, AND ANY WARRANTIES
#ARISING BY VIRTUE OF CUSTOM OF TRADE OR COURSE OF DEALING.  FURTHER, ENVERUS, INC.
#AND ITS LICENSORS DO NOT REPRESENT OR WARRANT THAT THIS FILE WILL MEET USER'S
#REQUIREMENTS OR ARE SUITABLE FOR USER'S NEEDS OR THAT THE DATA OR RESULTS PROVIDED IN
#CONJUNCTION THEREWITH ARE CORRECT, ACCURATE, TIMELY OR RELIABLE. THESE DISCLAIMERS SHALL
#APPLY REGARDLESS OF ANY FAILURE OF ESSENTIAL PURPOSE OF ANY LIMITED REMEDY.  SOME
#JURISDICTIONS DO NOT ALLOW THE EXCLUSION OF CERTAIN WARRANTIES SO SOME OF THE ABOVE
#EXCLUSIONS MAY NOT APPLY. IN NO EVENT SHALL ENVERUS, INC. OR ANY OF ITS AFFILIATES
#BE LIABLE UNDER ANY LEGAL THEORY, WHETHER IN TORT (INCLUDING WITHOUT LIMITATION
#NEGLIGENCE), CONTRACT, STRICT LIABILITY, STATUTORY OR OTHERWISE, FOR ANY SPECIAL,
#INCIDENTAL, CONSEQUENTIAL, EXEMPLARY, PUNITIVE OR INDIRECT DAMAGE OF ANY KIND, INCLUDING
#WITHOUT LIMITATION LOSS OF REVENUE, PROFITS, GOODWILL, USE, AND/OR DATA OR THE COST OF
#PROCUREMENT OF SUBSTITUTE GOODS OR SERVICES, EVEN IF APPRISED OF THE POSSIBILITY OF SUCH
#DAMAGES IN ADVANCE.
#--------------------------------------------------#

~VERSION INFORMATION
VERS. 2.0 : CWLS LOG ASCII STANDARD - VERSION 2.0
WRAP.  NO : ONE LINE PER DEPTH STEP
~WELL INFORMATION
#MNEMONIC     .UNIT              VALUE :DESCRIPTION
STRT       .FT                86 :START DEPTH
STOP       .FT                5215 :STOP DEPTH
STEP       .FT                   0.500 :STEP
NULL       .                  -999.990 :NULL
UWI        .              42389101440000 :UNIQUE WELL ID
API        .              42389101440000 :API NUMBER
COMP       .         :COMPANY
WELL       .         1, :WELL
DATE       .                            :LOG DATE
~CURVE INFORMATION
#MNEMONIC     .UNIT      API CODE :CURVE DESCRIPTION
DEPTH       .FT                      :MEASURED DEPTH
DT.US/FT        UNKNOWN   :DT
GR.API        UNKNOWN   :GR
~A    DEPTH    DT    GR
# ...
 374     -999.990   22.987
 374.5     -999.990   24.547
 375     -999.990   26.106
 375.5     -999.990   27.665
 376     -999.990   29.225
 376.5     -999.990   28.131
 377     -999.990   26.888
 377.5     -999.990   25.645
 378     -999.990   24.402
 378.5     -999.990   23.159
 379     -999.990   22.957
 379.5     -999.990   25.643
 380     -999.990   28.329
 380.5     -999.990   29.652
 381     -999.990   30.829
 381.5     -999.990   31.231
 382     -999.990   31.633
 382.5     -999.990   32.035
 383     -999.990   32.437
 383.5     -999.990   31.586
 384     -999.990   30.433
 384.5     -999.990   29.281
 385     -999.990   29.52
 385.5     -999.990   31.187
 386     -999.990   32.853
 386.5     -999.990   34.52
 387     -999.990   35.334
 387.5     -999.990   33.838
 388     -999.990   32.342
 388.5     -999.990   30.846
 389     -999.990   31.933
 389.5     -999.990   33.147
 390     -999.990   33.161
 390.5     -999.990   32.387
 391     -999.990   31.612
 391.5     -999.990   30.837
 392     -999.990   30.062
 392.5     -999.990   29.288
 393     -999.990   30.174
 393.5     -999.990   31.059
 394     -999.990   29.515
 394.5     -999.990   27.972
 395     -999.990   27.155
 395.5     -999.990   29.132
 396     -999.990   31.11
 396.5     -999.990   33.088
 397     -999.990   32.715
 397.5     -999.990   29.591
 398     -999.990   29.522
 398.5     -999.990   29.452
 399     -999.990   29.943
 399.5     -999.990   32.731
 400     -999.990   35.518
 400.5     -999.990   38.305
 401     -999.990   37.564
 401.5     -999.990   36.509
 402     -999.990   35.453
 402.5     -999.990   34.397
 403     -999.990   33.341
 403.5     -999.990   32.285
 404     -999.990   30.186
 404.5     -999.990   27.776
 405     -999.990   29.41
 405.5     -999.990   31.641
 406     -999.990   33.707
 406.5     -999.990   33.014
 407     -999.990   32.32
 407.5     -999.990   31.627
 408     -999.990   32.484
 408.5     -999.990   33.859
 409     -999.990   33.038
 409.5     -999.990   28.905
 410     -999.990   31.534
 410.5     -999.990   34.378
 411     -999.990   37.222
 411.5     -999.990   36.662
 412     -999.990   34.57
 412.5     -999.990   33.275
 413     -999.990   33.677
 413.5     -999.990   35.058
 414     -999.990   36.543
 414.5     -999.990   37.715
 415     -999.990   35.543
 415.5     -999.990   33.371
 416     -999.990   36.744
 416.5     -999.990   40.853
 417     -999.990   41.782
 417.5     -999.990   42.71
 418     -999.990   43.639
 418.5     -999.990   44.567
 419     -999.990   35.655
 419.5     -999.990   40.8
 420     -999.990   40.015
 420.5     -999.990   36.884
 421     -999.990   35.322
 421.5     -999.990   36.778
 422     -999.990   38.234
 422.5     -999.990   39.69
 423     -999.990   41.146
 423.5     -999.990   40.436
 424     -999.990   38.504
 424.5     -999.990   36.919
 425     -999.990   36.272
 425.5     -999.990   35.624
 426     -999.990   30.727
 426.5     -999.990   28.951
 427     -999.990   31.067
 427.5     -999.990   33.183
 428     -999.990   35.299
 428.5     -999.990   37.223
 429     -999.990   38.571
 429.5     -999.990   39.918
 430     -999.990   39.897
 430.5     -999.990   38.044
 431     -999.990   36.425
 431.5     -999.990   38.052
 432     -999.990   36.785
 432.5     -999.990   35.517
 433     -999.990   34.249
 433.5     -999.990   36.528
 434     -999.990   39.641
 434.5     -999.990   42.754
 435     -999.990   41.494
 435.5     -999.990   40.22
 436     -999.990   38.946
 436.5     -999.990   37.672
 437     -999.990   36.397
 437.5     -999.990   35.123
 438     -999.990   33.849
 438.5     -999.990   32.575
 439     -999.990   31.326
 439.5     -999.990   32.335
 440     -999.990   33.345
 440.5     -999.990   33.978
 441     -999.990   32.968
 441.5     -999.990   31.958
 442     -999.990   30.949
 442.5     -999.990   29.939
 443     -999.990   31.49
 443.5     -999.990   36.049
 444     -999.990   40.251
 444.5     -999.990   41.869
 445     -999.990   42.786
 445.5     -999.990   41.474
 446     -999.990   40.163
 446.5     -999.990   38.851
 447     -999.990   37.54
 447.5     -999.990   36.228
 448     -999.990   36.916
 448.5     -999.990   39.143
 449     -999.990   26.603
 449.5     -999.990   21.509
 450     -999.990   22.249
 450.5     -999.990   22.988
 451     -999.990   26.361
 451.5     -999.990   30.082
 452     -999.990   33.614
 452.5     -999.990   34.623
 453     -999.990   35.632
 453.5     -999.990   36.329
 454     -999.990   36.058
 454.5     -999.990   35.787
 455     -999.990   35.516
 455.5     -999.990   35.244
 456     -999.990   36.495
 456.5     -999.990   37.751
 457     -999.990   39.007
 457.5     -999.990   40.263
 458     -999.990   40.872
 458.5     -999.990   41.274
 459     -999.990   29.429
 459.5     -999.990   30.695
 460     -999.990   33.462
 460.5     -999.990   36.23
 461     -999.990   38.997
 461.5     -999.990   41.765
 462     -999.990   42.347
 462.5     -999.990   37
 463     -999.990   35.959
 463.5     -999.990   35.715
 464     -999.990   36.528
 464.5     -999.990   38.469
 465     -999.990   39.847
 465.5     -999.990   37.511
 466     -999.990   35.174
 466.5     -999.990   35.192
 467     -999.990   35.93
 467.5     -999.990   36.669
 468     -999.990   34.075
 468.5     -999.990   33.039
 469     -999.990   33.672
 469.5     -999.990   34.305
 470     -999.990   34.401
 470.5     -999.990   32.564
 471     -999.990   30.727
 471.5     -999.990   28.89
 472     -999.990   27.053
 472.5     -999.990   27.679
 473     -999.990   28.405
 473.5     -999.990   27.527
 474     -999.990   25.6
 474.5     -999.990   23.674
 475     -999.990   21.748
 475.5     -999.990   21.184
 476     -999.990   23.165
 476.5     -999.990   25.145
 477     -999.990   27.126
 477.5     -999.990   29.107
 478     -999.990   36.497
 478.5     -999.990   39.144
 479     -999.990   38.603
 479.5     -999.990   38.063
 480     -999.990   39.112
 480.5     -999.990   40.385
 481     -999.990   41.657
 481.5     -999.990   42.93
 482     -999.990   44.202
 482.5     -999.990   45.475
 483     -999.990   43.376
 483.5     -999.990   40.155
 484     -999.990   36.934
 484.5     -999.990   37.452
 485     -999.990   38.339
 485.5     -999.990   37.573
 486     -999.990   35.476
 486.5     -999.990   33.756
 487     -999.990   33.638
 487.5     -999.990   33.521
 488     -999.990   33.403
 488.5     -999.990   40.778
 489     -999.990   38.325
 489.5     -999.990   35.504
 490     -999.990   32.683
 490.5     -999.990   32.367
 491     -999.990   33.462
 491.5     -999.990   34.556
 492     -999.990   34.939
 492.5     -999.990   33.94
 493     -999.990   32.942
 493.5     -999.990   31.943
 494     -999.990   30.945
 494.5     -999.990   29.946
 495     -999.990   28.947
 495.5     -999.990   27.949
 496     -999.990   28.88
 496.5     -999.990   34.043
 497     -999.990   37.32
 497.5     -999.990   38.125
 498     -999.990   38.931
 498.5     -999.990   38.986
 499     -999.990   34.055
 499.5     -999.990   30.835
 500     -999.990   33.106
 500.5     -999.990   35.378
 501     -999.990   37.649
 501.5     -999.990   38.195
 502     -999.990   36.781
 502.5     -999.990   35.367
 503     -999.990   35.98
 503.5     -999.990   37.755
 504     -999.990   39.53
 504.5     -999.990   41.305
 505     -999.990   43.08
 505.5     -999.990   40.769
 506     -999.990   38.106
 506.5     -999.990   37.834
 507     -999.990   39.447
 507.5     -999.990   41.06
 508     -999.990   29.337
 508.5     -999.990   21.03
 509     -999.990   24.847
 509.5     -999.990   28.664
 510     -999.990   32.48
 510.5     -999.990   33.579
 511     -999.990   32.33
 511.5     -999.990   31.082
 512     -999.990   29.833
 512.5     -999.990   28.584
 513     -999.990   28.56
 513.5     -999.990   30.881
 514     -999.990   31.286
 514.5     -999.990   29.418
 515     -999.990   27.551
 515.5     -999.990   25.683
 516     -999.990   26.826
 516.5     -999.990   29.382
 517     -999.990   31.939
