###############################################
##         ENVERUS                           ##
##         ESS - Open Hole                   ##
##         PERMIAN / DELAWARE                ##
##         Nov 04 2023  V4.0                 ##
##         42-389-30075-00-00                ##
###############################################
## Copyright 2017-2023  ENVERUS.  All Rights Reserved. 
## Confidential - Property of ENVERUS, use governed by terms and 
## conditions found within the existing Information Services Subscription Agreement 
## (as may be amended, the “ISSA”) between Customer and ENVERUS. 
## 
~VERSION INFORMATION
# MNEM.UNIT                               DATA : DESCRIPTION OF MNEMONIC
#-----.-----     ----------------------------- : -----------------------------
VERS.                                     2.00 : CWLS LOG ASCII STANDARD - VERSION 2.00
WRAP.                                       NO : MULTIPLE LINES PER DEPTH STEP
VEND.                                  ENVERUS : VENDOR
TYPE.                          ESS - OPEN HOLE : ENVERUS ESSENTIAL CURVES – ACCESSIBLE THROUGH ENVERUS PRISM(TM)
DOC.                                  32306518 : ENVERUS HEADER RAW DOCUMENT ID
#___________________________________________________________________________________________________ 
~WELL INFORMATION 
# kPY+8M9YT4rQMtoZY4hkcKqQFbcx8dAfbukAxGfLCr0mY2TilAra5+x7Ygngqds2nYZXTdz9AGmqNniTAH+qTQ== 
# MNEM.UNIT                                              DATA : DESCRIPTION OF MNEMONIC 
#-----.-----                    ----------------------------- : ----------------------------- 
CNTY.                                                  REEVES : COUNTY 
STATE.                                                  TEXAS : STATE 
CNTRY.                                                    USA : COUNTRY 
API.                                             42-389-30075 : API (10 Digit) 
API_14.                                    42-389-30075-00-00 : API (14 Digits) 
API_14_std.                                 42-389-30075-0000 : API (14 Digits Standard) 
UWI.                                           42389300750000 : UNIQUE WELL ID 
WELL.                                        CAMPBELL STATE 1 : WELL NAME
STRT.FT                                                   5.0 : START DEPTH
STOP.FT                                               20980.0 : STOP DEPTH
STEP.FT                                                   0.5 : STEP BETWEEN DEPTHS
NULL.                                                 -999.25 : NULL VALUE
#___________________________________________________________________________________________________ 
~CURVE INFORMATION 
# MNEM.UNIT           : CURVE DESCRIPTION 
#-----.-----          : ----------------------------- 
 DEPT.FT               : MEASURED DEPTH 
 CALI.IN               : CALIPER (CAL - CAL) 
 GR.API                : GAMMA RAY (GR) 
 DT.US/FT              : SONIC DELTA TRANSIT TIME (DT) 
 NPHI.V/V              : NEUTRON POROSITY (NPHI) 
 #___________________________________________________________________________________________________ 
~A         DEPT           CALI             GR             DT           NPHI
# ...
         3132.0       -999.250         11.161         67.475     -999.25000
         3132.5       -999.250         10.921         67.484     -999.25000
         3133.0       -999.250         10.707         67.494     -999.25000
         3133.5       -999.250         10.493         67.504     -999.25000
         3134.0       -999.250         10.279         67.514     -999.25000
         3134.5       -999.250         10.064         67.524     -999.25000
         3135.0       -999.250          9.850         67.534     -999.25000
         3135.5       -999.250          9.636         67.544     -999.25000
         3136.0       -999.250          9.422         67.554     -999.25000
         3136.5       -999.250          9.208         67.564     -999.25000
         3137.0       -999.250          8.993         67.574     -999.25000
         3137.5       -999.250          8.779         67.584     -999.25000
         3138.0       -999.250          8.565         67.594     -999.25000
         3138.5       -999.250          8.351         67.604     -999.25000
         3139.0       -999.250          8.137         67.614     -999.25000
         3139.5       -999.250          7.923         67.624     -999.25000
         3140.0       -999.250          7.708         67.633     -999.25000
         3140.5       -999.250          7.494         67.643     -999.25000
         3141.0       -999.250          7.280         67.653     -999.25000
         3141.5       -999.250          7.066         67.663     -999.25000
         3142.0       -999.250          6.852         67.663     -999.25000
         3142.5       -999.250          6.638         67.662     -999.25000
         3143.0       -999.250          6.423         67.661     -999.25000
         3143.5       -999.250          6.209         67.660     -999.25000
         3144.0       -999.250          6.405         67.660     -999.25000
         3144.5       -999.250          6.881         67.659     -999.25000
         3145.0       -999.250          7.357         67.658     -999.25000
         3145.5       -999.250          7.833         67.657     -999.25000
         3146.0       -999.250          8.309         67.657     -999.25000
         3146.5       -999.250          8.785         67.656     -999.25000
         3147.0       -999.250          9.261         67.655     -999.25000
         3147.5       -999.250          9.269         67.654     -999.25000
         3148.0       -999.250          8.860         67.654     -999.25000
         3148.5       -999.250          8.451         67.653     -999.25000
         3149.0       -999.250          8.043         67.652     -999.25000
         3149.5       -999.250          7.699         67.651     -999.25000
         3150.0       -999.250          7.742         67.651     -999.25000
         3150.5       -999.250          7.785         67.650     -999.25000
         3151.0       -999.250          7.827         67.649     -999.25000
         3151.5       -999.250          7.870         67.648     -999.25000
         3152.0       -999.250          7.912         67.648     -999.25000
         3152.5       -999.250          7.955         67.647     -999.25000
         3153.0       -999.250          7.998         67.646     -999.25000
         3153.5       -999.250          8.040         67.645     -999.25000
         3154.0       -999.250          8.506         67.645     -999.25000
         3154.5       -999.250          9.462         67.644     -999.25000
         3155.0       -999.250         10.418         67.643     -999.25000
         3155.5       -999.250         11.375         67.642     -999.25000
         3156.0       -999.250         12.331         67.642     -999.25000
         3156.5       -999.250         13.287         67.641     -999.25000
         3157.0       -999.250         14.244         67.640     -999.25000
         3157.5       -999.250         15.200         67.639     -999.25000
         3158.0       -999.250         15.314         67.639     -999.25000
         3158.5       -999.250         14.764         67.638     -999.25000
         3159.0       -999.250         14.214         67.637     -999.25000
         3159.5       -999.250         13.665         67.636     -999.25000
         3160.0       -999.250         13.115         67.636     -999.25000
         3160.5       -999.250         12.566         67.635     -999.25000
         3161.0       -999.250         12.931         67.634     -999.25000
         3161.5       -999.250         13.393         67.633     -999.25000
         3162.0       -999.250         13.855         67.633     -999.25000
         3162.5       -999.250         13.937         67.632     -999.25000
         3163.0       -999.250         13.675         67.631     -999.25000
         3163.5       -999.250         13.412         67.630     -999.25000
         3164.0       -999.250         13.150         67.630     -999.25000
         3164.5       -999.250         12.887         67.629     -999.25000
         3165.0       -999.250         12.625         67.628     -999.25000
         3165.5       -999.250         12.362         67.627     -999.25000
         3166.0       -999.250         12.100         67.627     -999.25000
         3166.5       -999.250         11.837         67.626     -999.25000
         3167.0       -999.250         11.575         67.625     -999.25000
         3167.5       -999.250         11.312         67.624     -999.25000
         3168.0       -999.250         11.050         67.624     -999.25000
         3168.5       -999.250         10.787         67.623     -999.25000
         3169.0       -999.250         10.525         67.622     -999.25000
         3169.5       -999.250         10.262         67.621     -999.25000
         3170.0       -999.250         10.000         67.621     -999.25000
         3170.5       -999.250          9.737         67.620     -999.25000
         3171.0       -999.250          9.475         67.619     -999.25000
         3171.5       -999.250          9.212         67.618     -999.25000
         3172.0       -999.250          8.950         67.618     -999.25000
         3172.5       -999.250          8.848         67.617     -999.25000
         3173.0       -999.250          8.884         67.616     -999.25000
         3173.5       -999.250          8.921         67.615     -999.25000
         3174.0       -999.250          8.957         67.615     -999.25000
         3174.5       -999.250          8.993         67.614     -999.25000
         3175.0       -999.250          9.029         67.613     -999.25000
         3175.5       -999.250          9.065         67.612     -999.25000
         3176.0       -999.250          9.102         67.612     -999.25000
         3176.5       -999.250          9.138         67.611     -999.25000
         3177.0       -999.250          9.174         67.610     -999.25000
         3177.5       -999.250          9.210         67.609     -999.25000
         3178.0       -999.250          9.246         67.609     -999.25000
         3178.5       -999.250          9.282         67.608     -999.25000
         3179.0       -999.250          9.319         67.607     -999.25000
         3179.5       -999.250          9.355         67.606     -999.25000
         3180.0       -999.250          9.391         67.606     -999.25000
         3180.5       -999.250          9.427         67.605     -999.25000
         3181.0       -999.250          9.463         67.604     -999.25000
         3181.5       -999.250          9.500         67.603     -999.25000
         3182.0       -999.250          9.536         67.603     -999.25000
         3182.5       -999.250          9.572         67.602     -999.25000
         3183.0       -999.250          9.608         67.601     -999.25000
         3183.5       -999.250          9.644         67.600     -999.25000
         3184.0       -999.250          9.680         67.600     -999.25000
         3184.5       -999.250          9.717         67.599     -999.25000
