#--------------------------------------------------#
#-------------------ENVERUS, INC.------------------#
#------------------WWW.ENVERUS.COM-----------------#
#------------------COPYRIGHT 2020------------------#
#--------------------------------------------------#
#THIS FILE MAY BE USED ONLY IN ACCORDANCE WITH A CURRENT SUBSCRIPTION AGREEMENT BETWEEN
#THE USER AND ENVERUS, INC. NO PART OF THIS FILE MAY BE REPRODUCED, USED, COPIED,
#MODIFIED, PROPAGATED, OR DISTRIBUTED EXCEPT IN ACCORDANCE WITH THE SUBSCRIPTION
#AGREEMENT. UNAUTHORIZED USE OR DISTRIBUTION OF ALL OR ANY PART OF THIS FILE MAY VIOLATE
#COPYRIGHT, TRADEMARK, AND/OR OTHER LAWS AND IS SUBJECT TO CIVIL AS WELL AS CRIMINAL
#SANCTIONS.
#--------------------------------------------------#
#THIS FILE IS PROVIDED "AS-IS" AND ALL WARRANTIES ARE EXPRESSLY DISCLAIMED, WHETHER
#EXPRESS, ORAL, IMPLIED, STATUTORY OR OTHERWISE, INCLUDING ANY IMPLIED WARRANTY OF FITNESS
#FOR A PARTICULAR PURPOSE, MERCHANTABILITY, TITLE OR NON-INFRINGEMENT, AND ANY WARRANTIES
#ARISING BY VIRTUE OF CUSTOM OF TRADE OR COURSE OF DEALING.  FURTHER, ENVERUS, INC.
#AND ITS LICENSORS DO NOT REPRESENT OR WARRANT THAT THIS FILE WILL MEET USER'S
#REQUIREMENTS OR ARE SUITABLE FOR USER'S NEEDS OR THAT THE DATA OR RESULTS PROVIDED IN
#CONJUNCTION THEREWITH ARE CORRECT, ACCURATE, TIMELY OR RELIABLE. THESE DISCLAIMERS SHALL
#APPLY REGARDLESS OF ANY FAILURE OF ESSENTIAL PURPOSE OF ANY LIMITED REMEDY.  SOME
#JURISDICTIONS DO NOT ALLOW THE EXCLUSION OF CERTAIN WARRANTIES SO SOME OF THE ABOVE
#EXCLUSIONS MAY NOT APPLY. IN NO EVENT SHALL ENVERUS, INC. OR ANY OF ITS AFFILIATES
#BE LIABLE UNDER ANY LEGAL THEORY, WHETHER IN TORT (INCLUDING WITHOUT LIMITATION
#NEGLIGENCE), CONTRACT, STRICT LIABILITY, STATUTORY OR OTHERWISE, FOR ANY SPECIAL,
#INCIDENTAL, CONSEQUENTIAL, EXEMPLARY, PUNITIVE OR INDIRECT DAMAGE OF ANY KIND, INCLUDING
#WITHOUT LIMITATION LOSS OF REVENUE, PROFITS, GOODWILL, USE, AND/OR DATA OR THE COST OF
#PROCUREMENT OF SUBSTITUTE GOODS OR SERVICES, EVEN IF APPRISED OF THE POSSIBILITY OF SUCH
#DAMAGES IN ADVANCE.
#--------------------------------------------------#

~VERSION INFORMATION
VERS. 2.0 : CWLS LOG ASCII STANDARD - VERSION 2.0
WRAP.  NO : ONE LINE PER DEPTH STEP
~WELL INFORMATION
#MNEMONIC     .UNIT              VALUE :DESCRIPTION
STRT       .FT                10841 :START DEPTH
STOP       .FT                18209 :STOP DEPTH
STEP       .FT                   0.500 :STEP
NULL       .                  -999.99 :NULL
UWI        .                42371326180000 :UNIQUE WELL ID
API        .                42371326180000 :API NUMBER
COMP       .         :COMPANY
WELL       .        :WELL
DATE       .                 :LOG DATE
FLD       .                 :FIELD NAME
LOC       .                  UNK :LOCATION
CNTY       .                 UNK :COUNTY
STAT       .                 UNK :STATE
CTRY       .                 UNK :COUNTY
SRVC       .                 UNK :SERVICE COMPANY
~CURVE INFORMATION
#MNEMONIC     .UNIT      API CODE :CURVE DESCRIPTION
DEPTH       .FT                      :MEASURED DEPTH
CAL.IN        UNKNOWN   :CAL
DT.MSEC/FT        UNKNOWN   :DT
GR.API        UNKNOWN   :GR
ILD.OHM        UNKNOWN   :ILD
ILS.OHM        UNKNOWN   :ILS
SP.MV        UNKNOWN   :SP
~A    DEPTH    CAL    DT    GR    ILD    ILS    SP
# ...
 14721     10.74233   84.53165   65.69465   4.81804   6.33592   -9.65018
 14721.5     10.73297   87.77013   59.38997   4.62128   5.95658   -9.53132
 14722     10.72953   89.9839   55.23002   4.42451   5.57724   -9.65564
 14722.5     10.7294   89.6758   56.43596   4.22775   5.10909   -10.00581
 14723     10.72926   87.24258   58.76994   4.03099   4.56611   -10.35598
 14723.5     10.73089   85.06091   57.98319   3.84392   4.04666   -10.49873
 14724     10.74695   86.96901   56.25692   3.88666   3.94393   -10.36292
 14724.5     10.76302   91.45546   54.94826   3.92939   4.11552   -10.22711
 14725     10.77909   94.53932   54.44853   3.97213   4.51499   -10.0913
 14725.5     10.79515   95.12034   55.26788   4.01487   4.86931   -9.95549
 14726     10.81122   94.90388   56.28166   4.0576   5.01154   -9.91244
 14726.5     10.80814   94.90432   57.50081   4.10034   4.91208   -10.24992
 14727     10.80318   94.82607   58.85783   4.14308   4.76286   -10.5874
 14727.5     10.79822   94.4702   60.21485   4.18582   4.61364   -10.92488
 14728     10.79326   94.11434   64.5526   4.19962   4.65932   -11.26235
 14728.5     10.74386   93.67208   69.36415   4.12005   4.74886   -11.09479
 14729     10.65783   93.20163   72.46417   4.04047   4.83841   -10.88084
 14729.5     10.5718   92.87532   70.96616   3.9609   4.89797   -10.66689
 14730     10.97018   92.89476   68.58105   3.88132   4.7317   -10.45294
 14730.5     11.193   92.83776   67.97146   3.90024   4.56544   -10.239
 14731     11.15658   92.46871   67.96971   3.93705   4.39917   -10.22386
 14731.5     10.90098   91.70419   67.96796   3.97386   4.2329   -10.22558
 14732     11.10362   90.81642   69.02787   4.01066   4.1337   -10.22731
 14732.5     11.35742   90.49478   70.62117   4.04747   4.21935   -10.43765
 14733     11.31119   90.18963   70.9307   4.08428   4.4075   -10.69076
 14733.5     11.26496   89.94902   70.06231   4.12108   4.62913   -10.94387
 14734     11.26237   89.74094   70.48814   4.14945   4.77663   -10.74091
 14734.5     11.27625   89.65995   71.66411   4.14917   4.66683   -10.52692
 14735     11.29013   89.55413   71.05702   4.1489   4.55702   -10.31293
 14735.5     11.30401   87.74193   67.13188   4.14863   4.44722   -10.09894
 14736     11.31788   84.87453   62.99941   4.14835   4.33741   -9.88495
 14736.5     11.33176   82.74948   63.18782   4.14808   4.35952   -10.23213
 14737     11.34564   82.41416   65.81945   4.14781   4.43742   -10.58934
 14737.5     11.35952   82.43538   66.20708   4.14753   4.51532   -10.94656
 14738     11.37339   82.45661   63.45873   4.14726   4.56993   -11.30378
 14738.5     11.38727   82.47784   62.25953   4.14699   4.5118   -11.1628
 14739     11.40115   82.49906   64.57009   4.14671   4.45367   -10.99028
 14739.5     11.41503   82.52029   66.88064   4.14644   4.39554   -10.81777
 14740     11.4289   82.49477   68.25979   4.14617   4.33741   -10.64526
 14740.5     11.457   82.416   68.34983   4.14589   4.39154   -10.47274
 14741     11.5376   82.33724   65.28432   4.14562   4.44792   -10.30023
 14741.5     11.61043   82.25847   60.17446   4.14535   4.50429   -10.25949
 14742     11.63054   82.24335   55.56441   4.14507   4.56067   -10.26116
 14742.5     11.65065   82.23247   54.07988   4.14783   4.61705   -10.26282
 14743     11.6693   82.2216   54.19277   4.15124   4.54327   -10.22723
 14743.5     11.5237   82.21072   55.49289   4.15466   4.30045   -10.17283
 14744     10.99727   82.19985   57.91807   4.15807   4.05764   -10.11844
 14744.5     9.75761   82.18897   60.34326   4.16148   4.08148   -10.06405
 14745     7.71854   82.1781   60.56617   4.1649   4.12486   -10.00965
 14745.5     6.89655   82.36088   59.2245   4.16831   4.39001   -9.95526
 14746     6.98045   82.45741   58.76442   4.17173   4.73047   -9.97959
 14746.5     7.06435   82.45785   60.60199   4.17514   5.07093   -10.24773
 14747     7.1511   82.47743   62.41767   4.17856   5.29648   -10.51587
 14747.5     7.24061   82.57915   62.66687   4.18197   5.05604   -10.78401
 14748     7.31724   82.68088   63.1965   4.18539   4.69901   -10.99831
 14748.5     7.38634   82.6823   63.78399   4.1888   4.29046   -10.99994
 14749     7.45543   82.66245   62.93967   4.19221   4.16616   -10.9851
 14749.5     7.52452   82.6426   61.81138   4.19563   4.16589   -10.72021
 14750     7.59362   82.62275   62.1873   4.19904   4.16888   -10.45532
 14750.5     7.66271   82.87159   66.14492   4.20246   4.46257   -10.19043
 14751     7.7318   83.1081   68.34762   4.20263   4.75626   -9.93677
 14751.5     7.77269   83.14922   66.18578   4.15219   5.04994   -10.24039
 14752     7.75874   83.19035   60.54186   4.10176   4.97175   -10.544
 14752.5     7.74478   83.23147   54.53277   4.05132   4.88283   -10.84761
 14753     7.73082   83.26255   51.57369   4.00088   4.61527   -10.96195
 14753.5     7.71686   83.26299   51.00198   3.95044   4.30099   -10.84753
 14754     8.91425   83.26343   52.76307   3.90001   3.98671   -10.73311
 14754.5     9.37876   83.33291   58.35643   3.84957   4.04112   -10.61869
 14755     9.7859   83.52296   64.09651   3.79913   4.11141   -10.50426
 14755.5     9.99536   83.71301   66.66319   3.86998   4.21752   -10.38984
 14756     10.05132   83.8832   65.73513   3.94719   4.42091   -10.3937
 14756.5     10.10729   83.9762   63.564   4.02441   4.6243   -10.71891
 14757     10.16325   84.06921   61.46942   4.10162   4.82769   -11.04412
 14757.5     10.21922   84.13111   59.38972   4.17883   5.03108   -11.36932
 14758     10.27519   84.05516   56.74735   4.2093   5.00807   -11.53248
 14758.5     10.29572   84.09809   56.74403   4.21957   4.91906   -11.68535
 14759     10.31398   84.21555   60.10968   4.22984   4.76944   -11.56862
 14759.5     10.33225   84.17157   64.20699   4.24011   4.63399   -11.24157
 14760     10.35051   84.11088   66.76469   4.25038   4.52273   -10.91453
 14760.5     10.36878   83.69122   65.64783   4.26066   4.41147   -10.58749
 14761     10.38704   83.41478   63.49625   4.27093   4.54737   -10.26044
 14761.5     10.40531   82.85862   61.51004   4.2812   4.90908   -9.9904
 14762     10.42357   82.59003   59.86677   4.29147   5.2708   -10.27504
 14762.5     10.44184   83.87881   58.52401   4.30175   5.63252   -10.55968
 14763     10.4601   84.88809   57.94143   4.31202   5.64511   -10.84433
 14763.5     10.47837   85.9278   57.77247   4.32229   5.33602   -10.93894
 14764     10.49663   85.86104   59.4415   4.33226   4.88763   -10.56322
 14764.5     10.5149   83.55946   64.0527   4.30757   4.43924   -10.1875
 14765     10.52841   82.27412   68.19035   4.28289   4.44432   -9.81178
 14765.5     10.52468   82.27455   67.97281   4.2582   4.55408   -9.86253
 14766     10.52094   83.00119   64.08784   4.23351   4.88398   -10.36738
 14766.5     10.51721   85.80464   60.60424   4.20883   5.19788   -10.87224
 14767     10.51348   87.49505   62.65069   4.18414   5.46646   -11.37709
 14767.5     10.50975   88.2797   64.33616   4.15945   5.68274   -11.74874
 14768     10.50746   88.6099   64.80765   4.13477   5.19412   -11.59926
 14768.5     10.50733   88.23463   60.778   4.11008   4.7055   -11.44978
 14769     10.50721   86.38834   56.31465   4.08539   4.2507   -11.30031
 14769.5     10.50708   85.88823   53.82088   4.06071   4.20867   -11.15083
 14770     10.50696   86.41029   55.83696   4.03602   4.16665   -11.00135
 14770.5     10.50393   86.15145   58.71904   4.01133   4.3543   -10.85187
 14771     10.5003   85.60566   59.81006   4.01617   4.62771   -10.73339
 14771.5     10.49668   85.99141   60.52673   4.03664   4.90112   -11.03689
 14772     10.49305   86.2806   62.5873   4.05711   5.12424   -11.3404
 14772.5     10.48943   86.21995   65.45306   4.07757   5.12393   -11.6439
 14773     10.4858   86.08717   66.54289   4.09804   5.1235   -11.65828
 14773.5     10.46169   85.90738   67.30363   4.11851   4.96269   -11.38496
 14774     10.43261   85.5217   67.71388   4.13898   4.80188   -11.11164
 14774.5     10.40353   83.59514   65.39455   4.15945   4.66243   -10.83832
 14775     10.26285   80.39293   63.30645   4.17992   4.63695   -10.565
