#--------------------------------------------------#
#-------------------ENVERUS, INC.------------------#
#------------------WWW.ENVERUS.COM-----------------#
#------------------COPYRIGHT 2020------------------#
#--------------------------------------------------#
#THIS FILE MAY BE USED ONLY IN ACCORDANCE WITH A CURRENT SUBSCRIPTION AGREEMENT BETWEEN
#THE USER AND ENVERUS, INC. NO PART OF THIS FILE MAY BE REPRODUCED, USED, COPIED,
#MODIFIED, PROPAGATED, OR DISTRIBUTED EXCEPT IN ACCORDANCE WITH THE SUBSCRIPTION
#AGREEMENT. UNAUTHORIZED USE OR DISTRIBUTION OF ALL OR ANY PART OF THIS FILE MAY VIOLATE
#COPYRIGHT, TRADEMARK, AND/OR OTHER LAWS AND IS SUBJECT TO CIVIL AS WELL AS CRIMINAL
#SANCTIONS.
#--------------------------------------------------#
#THIS FILE IS PROVIDED "AS-IS" AND ALL WARRANTIES ARE EXPRESSLY DISCLAIMED, WHETHER
#EXPRESS, ORAL, IMPLIED, STATUTORY OR OTHERWISE, INCLUDING ANY IMPLIED WARRANTY OF FITNESS
#FOR A PARTICULAR PURPOSE, MERCHANTABILITY, TITLE OR NON-INFRINGEMENT, AND ANY WARRANTIES
#ARISING BY VIRTUE OF CUSTOM OF TRADE OR COURSE OF DEALING.  FURTHER, ENVERUS, INC.
#AND ITS LICENSORS DO NOT REPRESENT OR WARRANT THAT THIS FILE WILL MEET USER'S
#REQUIREMENTS OR ARE SUITABLE FOR USER'S NEEDS OR THAT THE DATA OR RESULTS PROVIDED IN
#CONJUNCTION THEREWITH ARE CORRECT, ACCURATE, TIMELY OR RELIABLE. THESE DISCLAIMERS SHALL
#APPLY REGARDLESS OF ANY FAILURE OF ESSENTIAL PURPOSE OF ANY LIMITED REMEDY.  SOME
#JURISDICTIONS DO NOT ALLOW THE EXCLUSION OF CERTAIN WARRANTIES SO SOME OF THE ABOVE
#EXCLUSIONS MAY NOT APPLY. IN NO EVENT SHALL ENVERUS, INC. OR ANY OF ITS AFFILIATES
#BE LIABLE UNDER ANY LEGAL THEORY, WHETHER IN TORT (INCLUDING WITHOUT LIMITATION
#NEGLIGENCE), CONTRACT, STRICT LIABILITY, STATUTORY OR OTHERWISE, FOR ANY SPECIAL,
#INCIDENTAL, CONSEQUENTIAL, EXEMPLARY, PUNITIVE OR INDIRECT DAMAGE OF ANY KIND, INCLUDING
#WITHOUT LIMITATION LOSS OF REVENUE, PROFITS, GOODWILL, USE, AND/OR DATA OR THE COST OF
#PROCUREMENT OF SUBSTITUTE GOODS OR SERVICES, EVEN IF APPRISED OF THE POSSIBILITY OF SUCH
#DAMAGES IN ADVANCE.
#--------------------------------------------------#

~VERSION INFORMATION
VERS. 2.0 : CWLS LOG ASCII STANDARD - VERSION 2.0
WRAP.  NO : ONE LINE PER DEPTH STEP
~WELL INFORMATION
#MNEMONIC     .UNIT              VALUE :DESCRIPTION
STRT       .FT                2 :START DEPTH
STOP       .FT                6341 :STOP DEPTH
STEP       .FT                   0.500 :STEP
NULL       .                  -999.990 :NULL
UWI        .              42389104050000 :UNIQUE WELL ID
API        .              42389104050000 :API NUMBER
COMP       .         ENDEAVOR ENERGY RESOURCES L.P. :COMPANY
WELL       .        TXL REEVES STATE UNIT  2 :WELL
DATE       .                            :LOG DATE
~CURVE INFORMATION
#MNEMONIC     .UNIT      API CODE :CURVE DESCRIPTION
DEPTH       .FT                      :MEASURED DEPTH
GR.API        UNKNOWN   :GR
DT.US/FT        UNKNOWN   :DT
~A    DEPTH    GR    DT
# ...
 5048     13.311   49.183
 5048.5     14.278   49.194
 5049     15.245   49.205
 5049.5     16.212   49.216
 5050     16.842   49.226
 5050.5     15.596   49.237
 5051     14.349   49.248
 5051.5     13.102   49.258
 5052     11.855   49.269
 5052.5     12.295   49.28
 5053     13.872   49.291
 5053.5     15.45   49.284
 5054     16.644   49.234
 5054.5     15.333   49.184
 5055     14.023   49.134
 5055.5     12.712   49.084
 5056     11.402   49.034
 5056.5     11.603   48.984
 5057     12.902   48.934
 5057.5     14.2   48.884
 5058     15.499   48.834
 5058.5     16.798   48.811
 5059     18.097   48.845
 5059.5     19.396   48.88
 5060     20.695   48.914
 5060.5     20.946   48.948
 5061     18.937   48.983
 5061.5     16.928   49.017
 5062     14.919   49.051
 5062.5     13.437   49.086
 5063     12.963   49.12
 5063.5     12.488   49.075
 5064     12.014   49.005
 5064.5     11.539   48.935
 5065     11.065   48.864
 5065.5     11.16   48.794
 5066     11.987   48.723
 5066.5     12.814   48.653
 5067     13.641   48.583
 5067.5     14.468   48.512
 5068     15.295   48.442
 5068.5     15.567   48.371
 5069     14.568   48.301
 5069.5     13.569   48.231
 5070     12.571   48.16
 5070.5     11.572   48.263
 5071     10.573   48.505
 5071.5     9.575   48.748
 5072     10.083   48.99
 5072.5     10.875   49.232
 5073     11.666   49.475
 5073.5     12.458   49.624
 5074     13.249   49.671
 5074.5     14.04   49.718
 5075     14.832   49.765
 5075.5     15.623   49.812
 5076     15.34   49.61
 5076.5     15.039   49.162
 5077     14.738   48.925
 5077.5     14.437   48.854
 5078     14.136   48.783
 5078.5     14.545   48.712
 5079     15.095   48.606
 5079.5     15.645   48.488
 5080     16.196   48.369
 5080.5     16.746   48.25
 5081     16.907   48.132
 5081.5     16.071   48.013
 5082     15.235   47.894
 5082.5     14.399   47.776
 5083     14.617   47.944
 5083.5     15.988   48.267
 5084     16.994   48.591
 5084.5     16.234   48.915
 5085     15.474   49.238
 5085.5     14.714   49.562
 5086     13.954   49.156
 5086.5     14.35   48.72
 5087     15.501   48.284
 5087.5     16.362   47.849
 5088     14.84   47.413
 5088.5     13.377   47.759
 5089     14.49   48.18
 5089.5     15.603   48.601
 5090     16.012   49.023
 5090.5     15.787   49.444
 5091     15.563   49.466
 5091.5     15.338   49.489
 5092     15.114   49.512
 5092.5     14.693   49.534
 5093     14.21   49.432
 5093.5     13.728   49.296
 5094     13.245   49.16
 5094.5     12.762   49.025
 5095     12.279   48.889
 5095.5     11.796   48.822
 5096     11.313   48.854
 5096.5     11.671   48.887
 5097     12.299   48.92
 5097.5     12.928   48.953
 5098     13.556   48.985
 5098.5     14.185   49.055
 5099     15.588   49.142
 5099.5     17.541   49.23
 5100     19.494   49.317
 5100.5     18.917   49.405
 5101     18.012   49.493
 5101.5     17.108   49.58
 5102     16.203   49.554
 5102.5     15.298   49.499
 5103     16.176   49.444
 5103.5     17.815   49.389
 5104     17.072   49.334
 5104.5     16.329   49.281
 5105     15.891   49.282
 5105.5     16.008   49.283
 5106     16.124   49.283
 5106.5     16.241   49.284
 5107     17.04   49.285
 5107.5     19.152   49.286
 5108     18.977   49.286
 5108.5     18.223   49.287
 5109     17.47   49.288
 5109.5     16.717   49.289
 5110     15.963   49.289
 5110.5     15.21   49.131
 5111     14.457   48.962
 5111.5     15.25   48.792
 5112     16.531   48.623
 5112.5     17.813   48.453
 5113     19.094   48.489
 5113.5     18.37   48.699
 5114     16.879   48.909
 5114.5     15.389   49.119
 5115     16.115   49.329
 5115.5     17.838   49.539
 5116     19.12   49.527
 5116.5     18.474   49.472
 5117     17.828   49.417
 5117.5     17.183   49.362
 5118     16.537   49.308
 5118.5     15.891   49.253
 5119     15.245   49.198
 5119.5     14.599   49.143
 5120     15.315   49.088
 5120.5     17.057   49.033
 5121     18.186   48.978
 5121.5     17.566   48.923
 5122     16.947   48.868
 5122.5     16.328   48.813
 5123     17.755   48.759
 5123.5     19.593   48.704
 5124     21.431   48.66
 5124.5     23.269   48.636
 5125     23.654   48.613
 5125.5     21.856   48.59
 5126     20.058   48.567
 5126.5     19.67   48.544
 5127     19.373   48.52
 5127.5     20.285   48.497
 5128     21.844   48.351
 5128.5     23.403   48.147
 5129     23.409   47.942
 5129.5     22.932   47.737
 5130     22.455   47.661
 5130.5     22.531   47.754
 5131     23.11   47.847
 5131.5     23.688   47.94
 5132     24.266   48.033
 5132.5     24.845   48.125
 5133     23.588   48.218
 5133.5     21.676   48.311
 5134     19.763   48.404
 5134.5     17.851   48.497
 5135     17.607   48.59
 5135.5     17.878   48.683
 5136     18.149   48.775
 5136.5     18.419   48.868
 5137     18.021   48.961
 5137.5     17.09   49.054
 5138     16.158   49.147
 5138.5     15.226   49.24
 5139     14.294   49.284
 5139.5     13.363   49.278
 5140     13.516   49.273
 5140.5     14.219   49.267
 5141     14.922   49.262
 5141.5     15.625   49.256
 5142     15.422   49.25
 5142.5     14.104   49.245
 5143     12.785   49.239
 5143.5     11.467   49.233
 5144     11.116   49.228
 5144.5     11.281   49.222
 5145     13.564   49.216
 5145.5     15.997   49.211
 5146     16.204   49.205
 5146.5     15.873   49.199
 5147     15.543   49.194
 5147.5     15.212   49.188
 5148     14.882   49.182
 5148.5     14.552   49.177
 5149     14.221   49.171
 5149.5     14.28   49.172
 5150     16.101   49.337
 5150.5     17.923   49.501
 5151     17.826   49.666
 5151.5     17.431   49.83
 5152     17.036   49.995
 5152.5     16.641   50.395
 5153     16.246   50.892
 5153.5     19.847   51.389
 5154     24.994   51.886
 5154.5     30.141   52.383
 5155     33.821   52.818
 5155.5     35.15   52.399
 5156     36.478   51.98
 5156.5     37.806   51.561
 5157     42.363   55.687
 5157.5     53.044   63.252
 5158     63.726   70.817
 5158.5     66.383   73.027
 5159     68.333   70.911
 5159.5     68.464   68.794
 5160     62.007   66.678
 5160.5     55.551   65.822
 5161     58.706   66.77
 5161.5     61.861   67.717
 5162     65.017   68.665
 5162.5     68.172   69.06
 5163     71.328   68.375
 5163.5     74.484   67.691
 5164     77.639   67.007
 5164.5     80.572   66.322
 5165     77.701   65.638
 5165.5     74.831   65.685
 5166     71.96   65.867
 5166.5     69.09   66.049
 5167     66.219   66.192
 5167.5     65.446   65.453
 5168     66.194   64.715
 5168.5     66.941   63.976
 5169     65.277   63.902
 5169.5     63.327   64.486
 5170     61.377   65.07
 5170.5     60.593   65.654
 5171     61.017   66.238
 5171.5     61.441   66.822
 5172     61.865   67.406
 5172.5     62.29   67.99
 5173     63.219   67.848
 5173.5     65.205   67.281
 5174     67.191   66.714
 5174.5     69.177   66.147
 5175     67.723   65.581
 5175.5     65.656   65.821
 5176     63.59   66.029
 5176.5     63.217   64.543
 5177     63.202   63.057
 5177.5     63.187   61.571
 5178     63.173   61.043
 5178.5     63.158   61.929
 5179     63.143   62.815
 5179.5     63.129   63.702
 5180     63.114   64.588
 5180.5     61.459   65.223
 5181     57.552   63.536
 5181.5     53.646   61.85
 5182     49.739   60.962
 5182.5     45.833   61.448
 5183     43.513   61.934
 5183.5     48.273   62.42
 5184     53.033   62.906
 5184.5     57.792   63.392
 5185     62.552   63.878
 5185.5     53.532   64.364
 5186     39.47   64.142
 5186.5     29.118   63.686
 5187     34.26   63.23
 5187.5     39.402   62.774
 5188     44.544   62.318
 5188.5     49.687   61.862
 5189     54.829   61.406
 5189.5     59.971   60.949
 5190     60.891   60.493
 5190.5     57.822   62.703
 5191     62.145   65.153
 5191.5     70.707   64.862
 5192     79.27   63.85
 5192.5     85.293   62.837
 5193     87.956   62.498
 5193.5     90.619   64.665
 5194     93.282   66.831
 5194.5     95.945   68.998
 5195     95.865   68.797
 5195.5     91.506   67.442
 5196     87.147   66.086
 5196.5     82.787   64.731
 5197     78.428   63.376
