~Version Information Block
 VERS.                2.00:     CWLS LOG ASCII STANDARD - VERSION 2.000000
 WRAP.                  NO:     One Line Per Depth Step
#
~Well Information Block
#MNEM.UNIT                     Data                         Information
#----------   ------------------------------------------   ----------------
 STRT.FT                                     1000.0000:     START DEPTH
 STOP.FT                                    15733.0000:     STOP DEPTH
 STEP.FT                                        0.5000:     STEP
 NULL.                                       -999.0000:     NULL VALUE
 COMP.                                 MOBIL PRODUCING:     COMPANY
 WELL.                                    IB-WEATHERBY:     WELL
 FLD .                                   ROJO CABALLOS:     FIELD
 LOC .                                         UNKNOWN:     LOCATION
 LONG.                                 -103.1458890000:     LONGITUDE
 LATI.                                   31.1330510000:     LATITUDE
 CNTY.                                           PECOS:     COUNTY
 STAT.                                           TEXAS:     STATE
 CTRY.                                           U.S.A:     COUNTRY
 SRVC.                                         UNKNOWN:     SERVICE COMPANY
 DATE.                                         UNKNOWN:     DATE
 API .                                  42371057360000:     API NUMBER
 UWI .                                  42371057360000:     UWI NUMBER
 SLAT.                                       31.133051:     Surface latitude
 SLON.                                     -103.145889:     surface longitude
 TVD .                                              NO:     TVD flag
 WSTA.                                             LOC:     Well status
#
~Curve Information Block
#MNEM.UNIT       API CODE      Curve Description
#----------    -------------   -------------------
 DEPT.FT                   :   Depth in Feet
 DT  .UNKNOWN          UNKNOWN:   DT-Load
 DTedit.ft/s          UNKNOWN:   DT-Load
 GR  .UNKNOWN          UNKNOWN:   GR-Load
 GR_org.UNKNOWN          UNKNOWN:   GR_org-Load
#
~Parameter Information Block
#MNEM.UNIT            Value               Description
#----------    --------------------    -------------------
 RUN .                         ONE:    Run Number
 PDAT.                          GL:    Permanent Datum
 EPD .FT                          :    Elevation Of Perm. Datum
 LMF .               KELLY BUSHING:    Log Measured From
 EKB .FT                          :    Elevation Of Kelly Bushing
 DF .FT                           :    Elevation Of Derrick Floor
 GL .FT                           :    Elevation Of Ground Level
 TD  .FT                          :    Total Depth
 CSGD.FT                          :    Casing Bottom (Driller) 1
 CSGL.FT                          :    Casing Bottom (Logger) 1
 MUD .                            :    Drilling Fluid Type
 MUDV .CP                         :    Drilling Fluid Viscosity
 MUDD .LB/USG                     :    Drilling Fluid Density
 FL .ML/30MIN                     :    Drilling Fluid Loss
 PH.                              :    Drilling Fluid Ph
 MUDS .                           :    Mud Sample Source
 RM .OHMM                         :    Resistivity Of Mud Sample
 RMT .DEGF                        :    Mud Sample Temperature
 RMF .OHMM                        :    Mud Filtrate Resistivity
 RMFT.DEGF                        :    Mud Filtrate Sample Temperature
 RMC .OHMM                        :    Mud Cake Resistivity
 RMCT.DEGF                        :    Mud Cake Sample Temperature
 RMB .OHMM                        :    Mud Resistivity At Bht
 TMAX .DEGF                       :    Bottom Hole Temperature
#
~Other Information Block
<DescLogPlotStart>   NEURALOG PLOT DEFINITION
PLOTDEFVERSION: 3
LASFILE: E:\Nair Innovations\42_TEXAS\371_Pecos\Mobil_IB-Weatherby 1 Pecos_1.la
DEPTHSCALE: 239.999996
RESOLUTION: 200
DEPTHLABELFREQ: 100.000000
HEAVYGRIDFREQ: 50.000000
MEDIUMGRIDFREQ: 50.000000
LIGHTGRIDFREQ: 10.000000
#
#   TRACK 1
#
STARTTRACK: 
 LEFTX: 0.500000 inch
 RIGHTX: 3.000000 inch
 SCALETYPE: Linear
 NUMCHARTDIVISIONS: 10
CURVE: GR    0.000000   150.000000 (255,0,0)      Short_Dash        4     N    
CURVE: DTedit 6637.927700 24453.046900 (0,131,131)    Solid             2     N
CURVE: GR_org -999.990000 109.000000 (255,0,255)    Solid             2     N  
ENDTRACK: 
#
#   TRACK 2
#
STARTTRACK: 
 LEFTX: 3.750000 inch
 RIGHTX: 6.250000 inch
 SCALETYPE: Linear
 NUMCHARTDIVISIONS: 10
ENDTRACK: 
#
#   TRACK 3
#
STARTTRACK: 
 LEFTX: 6.250000 inch
 RIGHTX: 8.750000 inch
 SCALETYPE: Linear
 NUMCHARTDIVISIONS: 10
CURVE: DT    190.000000 50.000000  (255,0,131)    Solid             2     N    
ENDTRACK: 
<DescLogPlotEnd>
<DepthTrack type='Reference' track='1' Label='0' color='0' hor='0' />
<Reference font='144,0,-900,0,500,0,16777216,Arial' />
~A DEPTH     DT               DTedit             GR               GR_org            
# ...
   12632.500 -999.99000000    10203.99900000   22.58780000      22.58780000     
   12633.000 -999.99000000    10204.26170000   23.53310000      23.53310000     
   12633.500 -999.99000000    10204.52440000   21.94230000      21.94230000     
   12634.000 -999.99000000    10204.78710000   19.81040000      19.81040000     
   12634.500 -999.99000000    10205.04980000   18.02960000      18.02960000     
   12635.000 -999.99000000    10205.31250000   16.37260000      16.37260000     
   12635.500 -999.99000000    10205.57420000   15.70980000      15.70980000     
   12636.000 -999.99000000    10205.83790000   16.52040000      16.52040000     
   12636.500 -999.99000000    10206.10060000   16.80660000      16.80660000     
   12637.000 -999.99000000    10206.36230000   16.74730000      16.74730000     
   12637.500 -999.99000000    10206.62500000   16.27120000      16.27120000     
   12638.000 -999.99000000    10206.88770000   16.11800000      16.11800000     
   12638.500 -999.99000000    10207.15140000   16.33550000      16.33550000     
   12639.000 -999.99000000    10207.41310000   17.02060000      17.02060000     
   12639.500 -999.99000000    10207.67580000   17.68650000      17.68650000     
   12640.000 -999.99000000    10207.93850000   17.31610000      17.31610000     
   12640.500 -999.99000000    10208.20120000   16.79800000      16.79800000     
   12641.000 -999.99000000    10208.46390000   15.63310000      15.63310000     
   12641.500 -999.99000000    10208.72660000   15.61090000      15.61090000     
   12642.000 -999.99000000    10208.98930000   15.60340000      15.60340000     
   12642.500 -999.99000000    10209.25200000   15.25220000      15.25220000     
   12643.000 -999.99000000    10209.51460000   14.29560000      14.29560000     
   12643.500 -999.99000000    10209.77730000   14.24100000      14.24100000     
   12644.000 -999.99000000    10210.04000000   13.92780000      13.92780000     
   12644.500 -999.99000000    10210.30270000   13.40970000      13.40970000     
   12645.000 -999.99000000    10210.56540000   13.08490000      13.08490000     
   12645.500 -999.99000000    10210.82810000   13.15980000      13.15980000     
   12646.000 -999.99000000    10211.09080000   13.43440000      13.43440000     
   12646.500 -999.99000000    10211.35350000   14.14420000      14.14420000     
   12647.000 -999.99000000    10211.61620000   14.29700000      14.29700000     
   12647.500 -999.99000000    10211.87890000   14.15200000      14.15200000     
   12648.000 -999.99000000    10212.14160000   14.03450000      14.03450000     
   12648.500 -999.99000000    10212.40430000   13.95750000      13.95750000     
   12649.000 -999.99000000    10212.66700000   14.03170000      14.03170000     
   12649.500 -999.99000000    10212.92970000   14.58320000      14.58320000     
   12650.000 -999.99000000    10213.19240000   14.84420000      14.84420000     
   12650.500 -999.99000000    10213.45510000   14.76330000      14.76330000     
   12651.000 -999.99000000    10213.71780000   14.50840000      14.50840000     
   12651.500 -999.99000000    10213.98050000   14.69700000      14.69700000     
   12652.000 -999.99000000    10214.24320000   15.04570000      15.04570000     
   12652.500 -999.99000000    10214.50590000   14.67850000      14.67850000     
   12653.000 -999.99000000    10214.76860000   14.26420000      14.26420000     
   12653.500 -999.99000000    10215.03120000   13.82150000      13.82150000     
   12654.000 -999.99000000    10215.29390000   13.36270000      13.36270000     
   12654.500 -999.99000000    10215.55660000   14.40390000      14.40390000     
   12655.000 -999.99000000    10215.81930000   15.60100000      15.60100000     
   12655.500 -999.99000000    10216.08200000   16.48390000      16.48390000     
   12656.000 -999.99000000    10216.34470000   16.94510000      16.94510000     
   12656.500 -999.99000000    10216.60740000   17.40760000      17.40760000     
   12657.000 -999.99000000    10216.87010000   17.91460000      17.91460000     
   12657.500 -999.99000000    10217.13280000   18.42290000      18.42290000     
   12658.000 -999.99000000    10217.39450000   18.12860000      18.12860000     
   12658.500 -999.99000000    10217.65820000   17.62900000      17.62900000     
   12659.000 -999.99000000    10217.92090000   16.72130000      16.72130000     
   12659.500 -999.99000000    10218.18360000   15.82430000      15.82430000     
   12660.000 -999.99000000    10218.44530000   15.91860000      15.91860000     
   12660.500 -999.99000000    10218.70900000   16.38000000      16.38000000     
   12661.000 -999.99000000    10218.97170000   17.45830000      17.45830000     
   12661.500 -999.99000000    10219.23440000   18.31650000      18.31650000     
   12662.000 -999.99000000    10219.49610000   17.93570000      17.93570000     
   12662.500 -999.99000000    10219.75980000   17.23700000      17.23700000     
   12663.000 -999.99000000    10220.02250000   16.74610000      16.74610000     
   12663.500 -999.99000000    10220.28520000   16.33430000      16.33430000     
   12664.000 -999.99000000    10220.54690000   15.36110000      15.36110000     
   12664.500 -999.99000000    10220.81050000   14.36680000      14.36680000     
   12665.000 -999.99000000    10221.07230000   13.48880000      13.48880000     
   12665.500 -999.99000000    10221.33590000   14.51650000      14.51650000     
   12666.000 -999.99000000    10221.59770000   14.99010000      14.99010000     
   12666.500 -999.99000000    10221.86040000   14.60920000      14.60920000     
   12667.000 -999.99000000    10222.12300000   14.02310000      14.02310000     
   12667.500 -999.99000000    10222.38570000   12.64800000      12.64800000     
   12668.000 -999.99000000    10222.64840000   12.23740000      12.23740000     
   12668.500 -999.99000000    10222.91110000   13.52590000      13.52590000     
   12669.000 -999.99000000    10223.17380000   14.84660000      14.84660000     
   12669.500 -999.99000000    10223.43650000   16.05360000      16.05360000     
   12670.000 -999.99000000    10223.69920000   17.07750000      17.07750000     
   12670.500 -999.99000000    10223.96190000   17.95790000      17.95790000     
   12671.000 -999.99000000    10224.22460000   18.75680000      18.75680000     
   12671.500 -999.99000000    10224.48730000   19.46040000      19.46040000     
   12672.000 -999.99000000    10224.75000000   19.88080000      19.88080000     
   12672.500 -999.99000000    10225.01270000   19.96370000      19.96370000     
   12673.000 -999.99000000    10225.27540000   17.76250000      17.76250000     
   12673.500 -999.99000000    10225.53810000   15.84830000      15.84830000     
   12674.000 -999.99000000    10225.80080000   17.23330000      17.23330000     
   12674.500 -999.99000000    10226.06350000   18.34870000      18.34870000     
   12675.000 -999.99000000    10226.32620000   19.66440000      19.66440000     
   12675.500 -999.99000000    10226.58890000   21.41300000      21.41300000     
   12676.000 -999.99000000    10226.85160000   23.30340000      23.30340000     
   12676.500 -999.99000000    10227.11430000   23.22580000      23.22580000     
   12677.000 -999.99000000    10227.37700000   22.39480000      22.39480000     
   12677.500 -999.99000000    10227.63960000   21.11370000      21.11370000     
   12678.000 -999.99000000    10227.90230000   20.32970000      20.32970000     
   12678.500 -999.99000000    10228.16500000   21.57560000      21.57560000     
   12679.000 -999.99000000    10228.42770000   21.80310000      21.80310000     
   12679.500 -999.99000000    10228.69040000   21.58120000      21.58120000     
   12680.000 -999.99000000    10228.95310000   21.01110000      21.01110000     
   12680.500 -999.99000000    10229.21580000   20.35850000      20.35850000     
   12681.000 -999.99000000    10229.47850000   20.51370000      20.51370000     
   12681.500 -999.99000000    10229.74120000   20.45710000      20.45710000     
