###############################################
##         ENVERUS                           ##
##         EPlus - Open Hole                 ##
##         PERMIAN / DELAWARE                ##
##         Copyright ©                       ##
##         Enverus Version - V4.0            ##
##         Nov 19 2023                       ##
##         42-371-10615-00-00                ##
###############################################
## Copyright 2017-2023  ENVERUS.  All Rights Reserved. 
## Confidential - Property of ENVERUS, use governed by terms and 
## conditions found within the existing Information Services Subscription Agreement 
## (as may be amended, the “ISSA”) between Customer and ENVERUS. 
## 
#___________________________________________________________________________________________________
~VERSION INFORMATION
# MNEM.UNIT                               DATA : DESCRIPTION OF MNEMONIC
#-----.-----     ----------------------------- : -----------------------------
VERS.                                     2.00 : CWLS LOG ASCII STANDARD - VERSION 2.00
WRAP.                                       NO : MULTIPLE LINES PER DEPTH STEP
VEND.                                  ENVERUS : VENDOR
ENV_TYPE.                    EPLUS - OPEN HOLE : Enverus Essential Plus Curves – Accessible through Enverus Core(TM)
ENV_VERS.                                 V4.0 : EPlus - Open Hole Version number 
ENV_DOC.                              32912129 : ENVERUS Header Document id
ENV_REF.                               PERMIAN : ENVERUS BASIN OR PLAY APPLIED REFERENCE LIMITS 
#___________________________________________________________________________________________________ 
~WELL INFORMATION 
# uyaQ8P8kQDJ9DXFS5hR1PxmExEOYaAUkY5f3/tnOS+scoPAUWgXA1zCIHGRbWCuSuUcwDzaESCjqjWQ81XhadA== 
# MNEM.UNIT                                              DATA : DESCRIPTION OF MNEMONIC 
#-----.-----                    ----------------------------- : ----------------------------- 
CNTY.                                                   PECOS : COUNTY 
STATE.                                                  TEXAS : STATE 
CNTRY.                                                    USA : COUNTRY 
API.                                             42-371-10615 : API (10 Digit) 
API_14.                                    42-371-10615-00-00 : API (14 Digits) 
API_14_std.                                 42-371-10615-0000 : API (14 Digits Standard) 
UWI.                                           42371106150000 : UNIQUE WELL ID
STRT.FT                                                    88 : START DEPTH
STOP.FT                                                  6434 : STOP DEPTH
STEP.FT                                                   0.5 : STEP DEPTH
NULL.                                               -999.2500 : NULL VALUE
WELL.                                               MCCARTY 1 : WELL NAME 
GR_ELEV.                                                 2761 : GROUND ELEVATION 
SLAT.                                                 31.1448 : SURFACE LATITUDE 
SLONG.                                              -103.1919 : SURFACE LONGITUDE
#___________________________________________________________________________________________________ 
~CURVE INFORMATION 
# MNEM.UNIT           : CURVE DESCRIPTION 
#-----.-----          : ----------------------------- 
DEPT.FT               : MEASURED DEPTH 
GR_E.API              : ENVERUS GAMMA RAY - CLEANED BLENDED AND LUMPED 
GR_F.                 : ENVERUS GAMMA RAY - OUTLIER INDICATOR - 0=(IN BOUNDS) 1=(OUT OF BOUNDS) 2=(REPEATING) 
GR_S.                 : ENVERUS GAMMA RAY - SOURCE INDICATOR 
GR_U.                 : ENVERUS GAMMA RAY - OPTION INDICATOR - 0=(NO OPTION) 1=(OTHER OPTIONS) 
DT_E.US/FT            : ENVERUS SONIC TRAVEL TIME - CLEANED BLENDED AND LUMPED 
DT_F.                 : ENVERUS SONIC TRAVEL TIME - OUTLIER INDICATOR - 0=(IN BOUNDS) 1=(OUT OF BOUNDS) 2=(REPEATING) 
DT_S.                 : ENVERUS SONIC TRAVEL TIME - SOURCE INDICATOR 
DT_U.                 : ENVERUS SONIC TRAVEL TIME - OPTION INDICATOR - 0=(NO OPTION) 1=(OTHER OPTIONS)
#___________________________________________________________________________________________________ 
~A         DEPT           GR_E           GR_F           GR_S           GR_U           DT_E           DT_F           DT_S           DT_U
# ...
        1356.50         24.203           0.00           0.00           0.00     -999.25000        -999.25        -999.25        -999.25
        1357.00         24.965           0.00           0.00           0.00     -999.25000        -999.25        -999.25        -999.25
        1357.50         25.727           0.00           0.00           0.00     -999.25000        -999.25        -999.25        -999.25
        1358.00         26.488           0.00           0.00           0.00     -999.25000        -999.25        -999.25        -999.25
        1358.50         27.347           0.00           0.00           0.00     -999.25000        -999.25        -999.25        -999.25
        1359.00         28.235           0.00           0.00           0.00     -999.25000        -999.25        -999.25        -999.25
        1359.50         29.123           0.00           0.00           0.00     -999.25000        -999.25        -999.25        -999.25
        1360.00         29.002           0.00           0.00           0.00     -999.25000        -999.25        -999.25        -999.25
        1360.50         18.930           0.00           0.00           0.00     -999.25000        -999.25        -999.25        -999.25
        1361.00         19.186           0.00           0.00           0.00     -999.25000        -999.25        -999.25        -999.25
        1361.50         19.441           0.00           0.00           0.00     -999.25000        -999.25        -999.25        -999.25
        1362.00         19.697           0.00           0.00           0.00     -999.25000        -999.25        -999.25        -999.25
        1362.50         19.952           0.00           0.00           0.00     -999.25000        -999.25        -999.25        -999.25
        1363.00         20.898           0.00           0.00           0.00     -999.25000        -999.25        -999.25        -999.25
        1363.50         23.739           0.00           0.00           0.00     -999.25000        -999.25        -999.25        -999.25
        1364.00         26.580           0.00           0.00           0.00     -999.25000        -999.25        -999.25        -999.25
        1364.50         29.421           0.00           0.00           0.00     -999.25000        -999.25        -999.25        -999.25
        1365.00         29.755           0.00           0.00           0.00     -999.25000        -999.25        -999.25        -999.25
        1365.50         30.043           0.00           0.00           0.00     -999.25000        -999.25        -999.25        -999.25
        1366.00         30.331           0.00           0.00           0.00     -999.25000        -999.25        -999.25        -999.25
        1366.50         30.619           0.00           0.00           0.00     -999.25000        -999.25        -999.25        -999.25
        1367.00         30.907           0.00           0.00           0.00     -999.25000        -999.25        -999.25        -999.25
        1367.50         30.411           0.00           0.00           0.00     -999.25000        -999.25        -999.25        -999.25
        1368.00         29.555           0.00           0.00           0.00     -999.25000        -999.25        -999.25        -999.25
        1368.50         28.699           0.00           0.00           0.00     -999.25000        -999.25        -999.25        -999.25
        1369.00         27.842           0.00           0.00           0.00     -999.25000        -999.25        -999.25        -999.25
        1369.50         26.986           0.00           0.00           0.00     -999.25000        -999.25        -999.25        -999.25
        1370.00         26.130           0.00           0.00           0.00     -999.25000        -999.25        -999.25        -999.25
        1370.50         29.965           0.00           0.00           0.00     -999.25000        -999.25        -999.25        -999.25
        1371.00         33.959           0.00           0.00           0.00     -999.25000        -999.25        -999.25        -999.25
        1371.50         34.795           0.00           0.00           0.00     -999.25000        -999.25        -999.25        -999.25
        1372.00         35.339           0.00           0.00           0.00     -999.25000        -999.25        -999.25        -999.25
        1372.50         35.883           0.00           0.00           0.00     -999.25000        -999.25        -999.25        -999.25
        1373.00         36.428           0.00           0.00           0.00     -999.25000        -999.25        -999.25        -999.25
        1373.50         36.574           0.00           0.00           0.00     -999.25000        -999.25        -999.25        -999.25
        1374.00         35.607           0.00           0.00           0.00     -999.25000        -999.25        -999.25        -999.25
        1374.50         34.641           0.00           0.00           0.00     -999.25000        -999.25        -999.25        -999.25
        1375.00         33.674           0.00           0.00           0.00     -999.25000        -999.25        -999.25        -999.25
        1375.50         32.708           0.00           0.00           0.00     -999.25000        -999.25        -999.25        -999.25
        1376.00         31.741           0.00           0.00           0.00     -999.25000        -999.25        -999.25        -999.25
        1376.50         30.774           0.00           0.00           0.00     -999.25000        -999.25        -999.25        -999.25
        1377.00         27.501           0.00           0.00           0.00     -999.25000        -999.25        -999.25        -999.25
        1377.50         23.960           0.00           0.00           0.00     -999.25000        -999.25        -999.25        -999.25
        1378.00         20.930           0.00           0.00           0.00     -999.25000        -999.25        -999.25        -999.25
        1378.50         19.610           0.00           0.00           0.00     -999.25000        -999.25        -999.25        -999.25
        1379.00         18.290           0.00           0.00           0.00     -999.25000        -999.25        -999.25        -999.25
        1379.50         16.970           0.00           0.00           0.00     -999.25000        -999.25        -999.25        -999.25
        1380.00         16.829           0.00           0.00           0.00     -999.25000        -999.25        -999.25        -999.25
        1380.50         17.179           0.00           0.00           0.00     -999.25000        -999.25        -999.25        -999.25
        1381.00         17.529           0.00           0.00           0.00     -999.25000        -999.25        -999.25        -999.25
        1381.50         17.879           0.00           0.00           0.00     -999.25000        -999.25        -999.25        -999.25
        1382.00         18.229           0.00           0.00           0.00     -999.25000        -999.25        -999.25        -999.25
        1382.50         18.579           0.00           0.00           0.00     -999.25000        -999.25        -999.25        -999.25
        1383.00         18.929           0.00           0.00           0.00     -999.25000        -999.25        -999.25        -999.25
        1383.50         19.279           0.00           0.00           0.00     -999.25000        -999.25        -999.25        -999.25
        1384.00         19.628           0.00           0.00           0.00     -999.25000        -999.25        -999.25        -999.25
        1384.50         21.277           0.00           0.00           0.00     -999.25000        -999.25        -999.25        -999.25
        1385.00         22.936           0.00           0.00           0.00     -999.25000        -999.25        -999.25        -999.25
        1385.50         24.594           0.00           0.00           0.00     -999.25000        -999.25        -999.25        -999.25
