#--------------------------------------------------#
#-------------------ENVERUS, INC.------------------#
#------------------WWW.ENVERUS.COM-----------------#
#------------------COPYRIGHT 2020------------------#
#--------------------------------------------------#
#THIS FILE MAY BE USED ONLY IN ACCORDANCE WITH A CURRENT SUBSCRIPTION AGREEMENT BETWEEN
#THE USER AND ENVERUS, INC. NO PART OF THIS FILE MAY BE REPRODUCED, USED, COPIED,
#MODIFIED, PROPAGATED, OR DISTRIBUTED EXCEPT IN ACCORDANCE WITH THE SUBSCRIPTION
#AGREEMENT. UNAUTHORIZED USE OR DISTRIBUTION OF ALL OR ANY PART OF THIS FILE MAY VIOLATE
#COPYRIGHT, TRADEMARK, AND/OR OTHER LAWS AND IS SUBJECT TO CIVIL AS WELL AS CRIMINAL
#SANCTIONS.
#--------------------------------------------------#
#THIS FILE IS PROVIDED "AS-IS" AND ALL WARRANTIES ARE EXPRESSLY DISCLAIMED, WHETHER
#EXPRESS, ORAL, IMPLIED, STATUTORY OR OTHERWISE, INCLUDING ANY IMPLIED WARRANTY OF FITNESS
#FOR A PARTICULAR PURPOSE, MERCHANTABILITY, TITLE OR NON-INFRINGEMENT, AND ANY WARRANTIES
#ARISING BY VIRTUE OF CUSTOM OF TRADE OR COURSE OF DEALING.  FURTHER, ENVERUS, INC.
#AND ITS LICENSORS DO NOT REPRESENT OR WARRANT THAT THIS FILE WILL MEET USER'S
#REQUIREMENTS OR ARE SUITABLE FOR USER'S NEEDS OR THAT THE DATA OR RESULTS PROVIDED IN
#CONJUNCTION THEREWITH ARE CORRECT, ACCURATE, TIMELY OR RELIABLE. THESE DISCLAIMERS SHALL
#APPLY REGARDLESS OF ANY FAILURE OF ESSENTIAL PURPOSE OF ANY LIMITED REMEDY.  SOME
#JURISDICTIONS DO NOT ALLOW THE EXCLUSION OF CERTAIN WARRANTIES SO SOME OF THE ABOVE
#EXCLUSIONS MAY NOT APPLY. IN NO EVENT SHALL ENVERUS, INC. OR ANY OF ITS AFFILIATES
#BE LIABLE UNDER ANY LEGAL THEORY, WHETHER IN TORT (INCLUDING WITHOUT LIMITATION
#NEGLIGENCE), CONTRACT, STRICT LIABILITY, STATUTORY OR OTHERWISE, FOR ANY SPECIAL,
#INCIDENTAL, CONSEQUENTIAL, EXEMPLARY, PUNITIVE OR INDIRECT DAMAGE OF ANY KIND, INCLUDING
#WITHOUT LIMITATION LOSS OF REVENUE, PROFITS, GOODWILL, USE, AND/OR DATA OR THE COST OF
#PROCUREMENT OF SUBSTITUTE GOODS OR SERVICES, EVEN IF APPRISED OF THE POSSIBILITY OF SUCH
#DAMAGES IN ADVANCE.
#--------------------------------------------------#

~VERSION INFORMATION
VERS. 2.0 : CWLS LOG ASCII STANDARD - VERSION 2.0
WRAP. NO : ONE LINE PER DEPTH STEP
~WELL INFORMATION
#MNEMONIC     .UNIT              VALUE :DESCRIPTION
STRT       .FT                7.00000 :START DEPTH
STOP       .FT                16581.00000 :STOP DEPTH
STEP       .FT                0.50000 :STEP
NULL       .                -999.25000 :NULL VALUE
UWI       .                42389300260000 :UNIQUE WELL ID
API       .                42389300260000 :API NUMBER
COMP       .                 :COMPANY
WELL       .                 :WELL
FLD       .                 :FIELD
LOC       .                 :LOCATION
CNTY       .                 :COUNTY
STAT       .                 :STATE
CTRY       .                 :COUNTRY
SRVC       .                 :SERVICE COMPANY
DATE       .                 :DATE
~CURVE INFORMATION
#MNEMONIC     .UNIT      API CODE :CURVE DESCRIPTION
DEPTH       .FT                      :MEASURED DEPTH
CAL       .IN        UNKNOWN   :CAL
DT       .US/FT        UNKNOWN   :DT
GR       .GAPI        UNKNOWN   :GR
~A    DEPTH    CAL    DT    GR
# ...
10393.00000    -999.25000    57.99197    33.41515
10393.50000    -999.25000    58.58615    41.15840
10394.00000    -999.25000    59.18032    48.90165
10394.50000    -999.25000    60.67245    56.64490
10395.00000    -999.25000    65.07282    64.38815
10395.50000    -999.25000    69.47320    72.13140
10396.00000    -999.25000    74.22514    79.87465
10396.50000    -999.25000    78.99232    87.61790
10397.00000    -999.25000    82.77429    91.89308
10397.50000    -999.25000    82.92291    95.27054
10398.00000    -999.25000    82.49511    98.64801
10398.50000    -999.25000    80.26579    89.88077
10399.00000    -999.25000    78.03647    74.22393
10399.50000    -999.25000    75.80715    58.56709
10400.00000    -999.25000    69.56277    56.19083
10400.50000    -999.25000    66.69073    61.33241
10401.00000    -999.25000    69.72747    66.47400
10401.50000    -999.25000    72.76420    71.61559
10402.00000    -999.25000    72.81217    76.75717
10402.50000    -999.25000    71.32001    81.33545
10403.00000    -999.25000    69.82785    72.00185
10403.50000    -999.25000    68.33569    62.66825
10404.00000    -999.25000    66.84353    65.33636
10404.50000    -999.25000    68.22712    69.00444
10405.00000    -999.25000    70.46192    72.67252
10405.50000    -999.25000    72.10589    74.45777
10406.00000    -999.25000    71.94047    65.15911
10406.50000    -999.25000    71.77505    55.86044
10407.00000    -999.25000    67.38503    46.56177
10407.50000    -999.25000    63.25779    37.26311
10408.00000    -999.25000    62.27902    30.56424
10408.50000    -999.25000    61.30026    33.72447
10409.00000    -999.25000    61.85432    36.88469
10409.50000    -999.25000    64.11574    40.04492
10410.00000    -999.25000    66.37716    43.20514
10410.50000    -999.25000    64.53455    45.65109
10411.00000    -999.25000    62.60707    44.02675
10411.50000    -999.25000    60.67959    42.40242
10412.00000    -999.25000    62.06174    40.77809
10412.50000    -999.25000    63.78482    39.15376
10413.00000    -999.25000    65.50789    37.52943
10413.50000    -999.25000    64.72126    35.90510
10414.00000    -999.25000    62.95575    34.28077
10414.50000    -999.25000    58.63867    33.20268
10415.00000    -999.25000    58.16176    32.18115
10415.50000    -999.25000    57.68484    43.95410
10416.00000    -999.25000    57.20792    51.84101
10416.50000    -999.25000    56.93225    59.72792
10417.00000    -999.25000    57.09123    67.61484
10417.50000    -999.25000    57.25021    75.50175
10418.00000    -999.25000    61.03662    83.38866
10418.50000    -999.25000    67.74185    74.62191
10419.00000    -999.25000    73.23571    63.80136
10419.50000    -999.25000    70.09253    53.39377
10420.00000    -999.25000    66.94935    56.69926
10420.50000    -999.25000    63.80616    60.00475
10421.00000    -999.25000    67.01810    63.31024
10421.50000    -999.25000    72.70882    66.61573
10422.00000    -999.25000    78.39953    69.92122
10422.50000    -999.25000    79.93943    73.22671
10423.00000    -999.25000    75.07702    76.53221
10423.50000    -999.25000    61.35619    65.22701
10424.00000    -999.25000    59.78162    36.12861
10424.50000    -999.25000    58.20706    28.28427
10425.00000    -999.25000    58.91170    28.41754
10425.50000    -999.25000    59.69710    28.55080
10426.00000    -999.25000    60.48249    28.68406
10426.50000    -999.25000    62.17286    58.04900
10427.00000    -999.25000    66.85466    93.15365
10427.50000    -999.25000    77.18941    128.25830
10428.00000    -999.25000    77.80127    106.93539
10428.50000    -999.25000    75.70444    116.09401
10429.00000    -999.25000    78.92318    125.25263
10429.50000    -999.25000    82.88901    134.41125
10430.00000    -999.25000    83.03352    143.56987
10430.50000    -999.25000    83.02796    150.10817
10431.00000    -999.25000    81.13940    141.33024
10431.50000    -999.25000    79.25083    132.55231
10432.00000    -999.25000    77.56273    123.77438
10432.50000    -999.25000    77.99791    114.99645
10433.00000    -999.25000    78.43310    106.21851
10433.50000    -999.25000    78.86829    97.44058
10434.00000    -999.25000    77.33044    91.21564
10434.50000    -999.25000    75.04989    85.54303
10435.00000    -999.25000    73.33902    80.59822
10435.50000    -999.25000    76.55382    82.77109
10436.00000    -999.25000    79.76861    84.94397
10436.50000    -999.25000    79.72760    87.11684
10437.00000    -999.25000    77.15087    89.28972
10437.50000    -999.25000    74.57414    91.46259
10438.00000    -999.25000    71.99741    93.63547
10438.50000    -999.25000    77.63892    88.50863
10439.00000    -999.25000    83.51535    95.84488
10439.50000    -999.25000    83.01552    103.18113
10440.00000    -999.25000    82.51569    110.51739
10440.50000    -999.25000    82.01586    98.09644
10441.00000    -999.25000    79.17797    84.96305
10441.50000    -999.25000    75.32412    71.82965
10442.00000    -999.25000    71.47028    52.03928
10442.50000    -999.25000    67.61643    59.74275
10443.00000    -999.25000    67.39978    67.44622
10443.50000    -999.25000    70.54779    73.06656
10444.00000    -999.25000    72.84235    67.58070
10444.50000    -999.25000    72.74959    63.60806
10445.00000    -999.25000    70.22693    71.38174
10445.50000    -999.25000    66.65393    79.15542
10446.00000    -999.25000    69.69873    86.92911
10446.50000    -999.25000    73.66955    94.70279
10447.00000    -999.25000    77.64037    99.96515
10447.50000    -999.25000    81.61119    97.41565
10448.00000    -999.25000    81.34037    94.86615
10448.50000    -999.25000    79.92682    92.31665
10449.00000    -999.25000    81.92317    92.11522
10449.50000    -999.25000    83.92742    98.55260
10450.00000    -999.25000    85.93168    104.98997
10450.50000    -999.25000    87.93594    111.42734
10451.00000    -999.25000    89.50524    117.86472
10451.50000    -999.25000    86.71946    112.68562
10452.00000    -999.25000    83.93368    116.16135
10452.50000    -999.25000    81.14790    119.63709
10453.00000    -999.25000    83.73347    123.11283
10453.50000    -999.25000    87.35613    126.58856
10454.00000    -999.25000    82.41025    124.41016
10454.50000    -999.25000    77.46436    100.52339
10455.00000    -999.25000    72.51848    76.63662
10455.50000    -999.25000    68.78563    52.74985
10456.00000    -999.25000    66.00152    50.53313
10456.50000    -999.25000    63.21740    49.57813
10457.00000    -999.25000    61.83925    48.62312
10457.50000    -999.25000    64.14864    48.19364
10458.00000    -999.25000    66.45803    75.53926
10458.50000    -999.25000    68.76741    102.88488
10459.00000    -999.25000    71.07680    94.85348
10459.50000    -999.25000    73.38618    83.38992
10460.00000    -999.25000    72.02131    71.92636
10460.50000    -999.25000    68.28521    60.46279
10461.00000    -999.25000    61.09694    48.99923
10461.50000    -999.25000    59.13684    37.53567
10462.00000    -999.25000    57.17674    33.77267
10462.50000    -999.25000    60.38522    39.81507
10463.00000    -999.25000    64.91229    45.85748
10463.50000    -999.25000    68.87971    51.89988
10464.00000    -999.25000    68.28208    50.87709
10464.50000    -999.25000    67.68445    47.28619
10465.00000    -999.25000    66.84663    43.69529
10465.50000    -999.25000    58.56684    40.10439
10466.00000    -999.25000    57.44832    47.42865
10466.50000    -999.25000    58.28682    59.04888
10467.00000    -999.25000    60.78849    70.66912
10467.50000    -999.25000    66.64333    82.28935
10468.00000    -999.25000    72.49818    93.90959
10468.50000    -999.25000    72.05366    75.67692
10469.00000    -999.25000    68.79708    57.13216
10469.50000    -999.25000    65.54051    38.58740
10470.00000    -999.25000    62.28393    45.35087
10470.50000    -999.25000    61.11326    54.60190
10471.00000    -999.25000    62.46814    63.85293
10471.50000    -999.25000    65.40650    73.10396
10472.00000    -999.25000    68.34485    82.35499
10472.50000    -999.25000    71.28321    80.92065
