~VERSION INFORMATION
 VERS.                2.0:   CWLS LOG ASCII STANDARD - VERSION 2.0
 WRAP.                 NO:   ONE LINE PER DEPTH STEP
~WELL INFORMATION
#MNEM.UNIT      DATA TYPE    INFORMATION
#----------   ------------   ------------------------------
 STRT.FT          50.0000:   START DEPTH
 STOP.FT        5375.0000:   STOP DEPTH
 STEP.FT           0.5000:   STEP LENGTH
 NULL.          -999.2500:   NULL VALUE
 COMP.  A.N. NORWOOD, INC:   COMPANY
 WELL.        MCINTYRE #1:   WELL
 FLD .  ROJO CABALLOS, S.:   FIELD
 LOC .                   :   LOCATION
 CNTY.              PECOS:   COUNTY
 STAT.              TEXAS:   STATE
 CTRY. UNITED STATES OF AMERICA:   COUNTRY
 SRVC.              Welex:   SERVICE COMPANY
 DATE.        06-May-1983:   LOGDATE
 API .     42371342980000:   API NUMBER
~CURVE INFORMATION
#MNEM.UNIT       API CODE    CURVE DESCRIPTION
#----------   ------------   ------------------------------
 DEPT.F      0   1   0  0:   1 MEASURED DEPTH
 GRD .GAPI   45 310 01 00:   GAMMA RAY FROM DENSITY LOG
 NPOR_LS.DEC 42 890 01 00:   NEUTRON POROSITY LIMESTONE
 CALD.IN     45 280 60 00:   CALIPER FROM DENSITY LOG
 CORR.G/C3   45 356 01 00:   DENSITY CORRECTION
 RHOB.G/C3   45 350 01 00:   BULK DENSITY
 DPOR_LS.DEC 45 890 10 00:   DENSITY POROSITY LIMESTONE
 DT  .US/F   60 500 00 00:   DELTA-T (INTERVAL TRANSIT TIME)
 SPR .MV     07 010 01 00:   SPONTANEOUS POTENTIAL FROM RESISTIVITY LOG
 ILD .OHMM   07 120 46 00:   INDUCTION DEEP RESISTIVITY
 ILM .OHMM   07 120 44 00:   INDUCTION MEDIUM RESISTIVITY
~PARAMETER INFORMATION
#MNEM.UNIT          VALUE    DESCRIPTION
#----------   ------------   ------------------------------
 PD  .                 GL:   PERMANENT DATUM
 EPD .FT             2768:   ELEVATION PERMANENT DATUM
 LMF .                 KB:   LOG MEASURED FROM
 DAPD.FT               10:   FEET ABOVE PERMANENT DATUM
 DMF .                 KB:   DRILLING MEASURED FROM
 EKB .FT             2778:   KELLY BUSHING
 EDF .FT             2777:   DRILLING FLOOR
 EGL .FT             2768:   GROUND LEVEL
 DATE.           05/06/83:   RUN DATE
 RUN .                  1:   RUN NUMBER
 DD  .FT             5380:   DEPTH DRILLER
 DL  .FT             5377:   DEPTH LOGGER
 BLI .FT             5375:   BOTTOM LOG INTERVAL
 TLI .FT               50:   TOP LOG INTERVAL
 CS  .IN            8.625:   CASING SIZE
 CBD .FT             1596:   CASING BOTTOM DRILLER
 CBL .FT             1613:   CASING BOTTOM LOGGER
 BS  .IN             7.75:   BIT SIZE
 BSD .FT             5380:   BIT SIZE AT DEPTH
 DFT .           SALT GEL:   DRILLING FLUID TYPE
 DFD .               10.2:   DRILLING FLUID DENSITY
 DFV .                 33:   DRILLING FLUID VISCOSITY
 DFPH.                9.5:   DRILLING FLUID PH
 DFL .                 18:   DRILLING FLUID LOSS
 MSS .               CIRC:   MUD SAMPLE SOURCE
 RMS .OHMM           0.09:   RESISTIVITY MUD SAMPLE
 MST .DEGF             72:   MUD SAMPLE TEMPERATURE
 RMF .OHMM           0.08:   RESISTIVITY MUD FILTRATE SAMPLE
 MFST.DEGF             72:   MUD FILTRATE SAMPLE TEMPERATURE
 MFSS.               MEAS:   MUD FILTRATE SAMPLE SOURCE
 MCSS.               MEAS:   MUD CAKE SAMPLE SOURCE
 RMB .OHMM          0.059:   RESISTIVITY MUD AT BHT
 BHT .DEGF            112:   BOTTOM HOLE TEMPERATURE
 TCS .HRS               4:   TIME CIRCULATED STOPPED
 MRT .DEGF            112:   MAXIMUM RECORDED TEMPERATURE
 LUN .               3415:   LOGGING UNIT NUMBER
 LUL .             ODESSA:   LOGGING UNIT LOCATION
 ENGI.             LAWSON:   RECORDING ENGINEER
 WITN.            NORWOOD:   WITNESSED BY
 ORIG.      1" 2.5" PRINT:   ORIGIN OF DATA
 UWI .     42371342980000:   UNIQUE WELL ID
~OTHER INFORMATION
~A    DEPT        GRD      NPOR_LS      CALD        CORR        RHOB       DPOR_LS        DT         SPR         ILD         ILM    
# ...
  3252.5000      5.7460     -0.0198     15.0051     -0.0497      1.9340   -999.2500   -999.2500   -999.2500   -999.2500   -999.2500 
  3253.0000      5.6454     -0.0198     14.9799     -0.0497      1.9267   -999.2500   -999.2500   -999.2500   -999.2500   -999.2500 
  3253.5000      5.5448     -0.0198     14.8971     -0.0425      1.9253   -999.2500   -999.2500   -999.2500   -999.2500   -999.2500 
  3254.0000      5.4442     -0.0198     14.4508     -0.0332      1.9345   -999.2500   -999.2500   -999.2500   -999.2500   -999.2500 
  3254.5000      5.2342     -0.0198     14.2142     -0.0238      1.9476   -999.2500   -999.2500   -999.2500   -999.2500   -999.2500 
  3255.0000      4.7926     -0.0197     14.2316     -0.0240      1.9483   -999.2500   -999.2500   -999.2500   -999.2500   -999.2500 
  3255.5000      4.3509     -0.0197     14.3692     -0.0297      1.9463   -999.2500   -999.2500   -999.2500   -999.2500   -999.2500 
  3256.0000      3.6040     -0.0197     14.8128     -0.0306      1.9448   -999.2500   -999.2500   -999.2500   -999.2500   -999.2500 
  3256.5000      3.6070     -0.0197     15.1894     -0.0287      1.9459   -999.2500   -999.2500   -999.2500   -999.2500   -999.2500 
  3257.0000      3.9023     -0.0197     15.2734     -0.0252      1.9574   -999.2500   -999.2500   -999.2500   -999.2500   -999.2500 
  3257.5000      5.2500     -0.0197     15.3092     -0.0195      1.9768   -999.2500   -999.2500   -999.2500   -999.2500   -999.2500 
  3258.0000      6.2152     -0.0197     15.3277     -0.0059      1.9928   -999.2500   -999.2500   -999.2500   -999.2500   -999.2500 
  3258.5000      5.8587     -0.0197     15.2867     -0.0018      1.9972   -999.2500   -999.2500   -999.2500   -999.2500   -999.2500 
  3259.0000      4.8905     -0.0197     15.2457     -0.0093      1.9948   -999.2500   -999.2500   -999.2500   -999.2500   -999.2500 
  3259.5000      4.3034     -0.0197     15.1533     -0.0279      1.9746   -999.2500   -999.2500   -999.2500   -999.2500   -999.2500 
  3260.0000      3.8124     -0.0197     14.9456     -0.0346      1.9455   -999.2500   -999.2500   -999.2500   -999.2500   -999.2500 
  3260.5000      3.7870     -0.0197     14.6329     -0.0413      1.9363   -999.2500   -999.2500   -999.2500   -999.2500   -999.2500 
  3261.0000      3.9921     -0.0196     14.3201     -0.0454      1.9346   -999.2500   -999.2500   -999.2500   -999.2500   -999.2500 
  3261.5000      4.4209     -0.0196     14.0074     -0.0474      1.9346   -999.2500   -999.2500   -999.2500   -999.2500   -999.2500 
  3262.0000      4.7552     -0.0196     13.8032     -0.0495      1.9352   -999.2500   -999.2500   -999.2500   -999.2500   -999.2500 
  3262.5000      4.8433     -0.0196     13.6452     -0.0430      1.9407   -999.2500   -999.2500   -999.2500   -999.2500   -999.2500 
  3263.0000      4.7804     -0.0196     13.5400     -0.0355      1.9518   -999.2500   -999.2500   -999.2500   -999.2500   -999.2500 
  3263.5000      4.5290     -0.0196     13.5309     -0.0281      1.9589   -999.2500   -999.2500   -999.2500   -999.2500   -999.2500 
  3264.0000      4.1187     -0.0196     14.2131     -0.0269      1.9595   -999.2500   -999.2500   -999.2500   -999.2500   -999.2500 
  3264.5000      3.6050     -0.0196     14.6334     -0.0318      1.9579   -999.2500   -999.2500   -999.2500   -999.2500   -999.2500 
  3265.0000      3.0913     -0.0196     15.0564     -0.0633      1.9484   -999.2500   -999.2500   -999.2500   -999.2500   -999.2500 
  3265.5000      2.6168     -0.0196     15.2721     -0.0682      1.9277   -999.2500   -999.2500   -999.2500   -999.2500   -999.2500 
  3266.0000      2.1569     -0.0196     15.4322     -0.0606      1.9115   -999.2500   -999.2500   -999.2500   -999.2500   -999.2500 
  3266.5000      1.8660     -0.0197     15.0528     -0.0481      1.9098   -999.2500   -999.2500   -999.2500   -999.2500   -999.2500 
  3267.0000      1.7259     -0.0197     15.0122     -0.0429      1.9161   -999.2500   -999.2500   -999.2500   -999.2500   -999.2500 
  3267.5000      1.5858     -0.0197     15.1853     -0.0378      1.9280   -999.2500   -999.2500   -999.2500   -999.2500   -999.2500 
  3268.0000      1.4951     -0.0197     15.4936     -0.0327      1.9400   -999.2500   -999.2500   -999.2500   -999.2500   -999.2500 
  3268.5000      1.4766     -0.0197     15.4938     -0.0279      1.9457   -999.2500   -999.2500   -999.2500   -999.2500   -999.2500 
  3269.0000      1.4581     -0.0197     15.4941     -0.0301      1.9412   -999.2500   -999.2500   -999.2500   -999.2500   -999.2500 
  3269.5000      1.4396     -0.0197     15.5361     -0.0331      1.9228   -999.2500   -999.2500   -999.2500   -999.2500   -999.2500 
  3270.0000      1.4734     -0.0197     15.7676     -0.0342      1.9163   -999.2500   -999.2500   -999.2500   -999.2500   -999.2500 
  3270.5000      1.7814     -0.0197     15.7678     -0.0351      1.9176   -999.2500   -999.2500   -999.2500   -999.2500   -999.2500 
  3271.0000      2.0894     -0.0197     15.7681     -0.0361      1.9239   -999.2500   -999.2500   -999.2500   -999.2500   -999.2500 
  3271.5000      2.3973     -0.0197     15.6638     -0.0370      1.9318   -999.2500   -999.2500   -999.2500   -999.2500   -999.2500 
  3272.0000      2.7053     -0.0198     15.5098     -0.0357      1.9397   -999.2500   -999.2500   -999.2500   -999.2500   -999.2500 
  3272.5000      2.9078     -0.0198     15.4154     -0.0310      1.9463   -999.2500   -999.2500   -999.2500   -999.2500   -999.2500 
  3273.0000      3.0715     -0.0198     15.3565     -0.0271      1.9484   -999.2500   -999.2500   -999.2500   -999.2500   -999.2500 
  3273.5000      3.1241     -0.0198     15.3707     -0.0251      1.9484   -999.2500   -999.2500   -999.2500   -999.2500   -999.2500 
  3274.0000      3.1766     -0.0198     15.6061     -0.0251      1.9459   -999.2500   -999.2500   -999.2500   -999.2500   -999.2500 
  3274.5000      3.2292     -0.0198     15.6895     -0.0251      1.9399   -999.2500   -999.2500   -999.2500   -999.2500   -999.2500 
  3275.0000      3.2818     -0.0198     15.6898     -0.0286      1.9288   -999.2500   -999.2500   -999.2500   -999.2500   -999.2500 
  3275.5000      3.3365     -0.0198     15.4412     -0.0324      1.9241   -999.2500   -999.2500   -999.2500   -999.2500   -999.2500 
  3276.0000      3.3914     -0.0198     15.0917     -0.0352      1.9253   -999.2500   -999.2500   -999.2500   -999.2500   -999.2500 
  3276.5000      3.4463     -0.0198     14.9513     -0.0376      1.9311   -999.2500   -999.2500   -999.2500   -999.2500   -999.2500 
  3277.0000      3.5012     -0.0198     14.6321     -0.0388      1.9366   -999.2500   -999.2500   -999.2500   -999.2500   -999.2500 
  3277.5000      3.5561     -0.0199     14.3797     -0.0400      1.9383   -999.2500   -999.2500   -999.2500   -999.2500   -999.2500 
  3278.0000      3.6110     -0.0199     14.4023     -0.0437      1.9323   -999.2500   -999.2500   -999.2500   -999.2500   -999.2500 
  3278.5000      3.4676     -0.0199     15.6066     -0.0478      1.9204   -999.2500   -999.2500   -999.2500   -999.2500   -999.2500 
  3279.0000      3.2861     -0.0199     15.6154     -0.0502      1.9104   -999.2500   -999.2500   -999.2500   -999.2500   -999.2500 
  3279.5000      3.1045     -0.0201     15.4873     -0.0504      1.9003   -999.2500   -999.2500   -999.2500   -999.2500   -999.2500 
  3280.0000      2.9229     -0.0203     15.3930     -0.0475      1.8953   -999.2500   -999.2500   -999.2500   -999.2500   -999.2500 
  3280.5000      2.7743     -0.0205     15.4006     -0.0445      1.8974   -999.2500   -999.2500   -999.2500   -999.2500   -999.2500 
  3281.0000      2.6671     -0.0205     15.4302     -0.0239      1.9562   -999.2500   -999.2500   -999.2500   -999.2500   -999.2500 
  3281.5000      2.5599     -0.0205     15.5164     -0.0019      1.9642   -999.2500   -999.2500   -999.2500   -999.2500   -999.2500 
  3282.0000      2.4528     -0.0205     15.6027     -0.0019      1.9828   -999.2500   -999.2500   -999.2500   -999.2500   -999.2500 
  3282.5000      2.3688     -0.0205     15.6889     -0.0020      1.9816   -999.2500   -999.2500   -999.2500   -999.2500   -999.2500 
