#--------------------------------------------------#
#-------------------ENVERUS, INC.------------------#
#------------------WWW.ENVERUS.COM-----------------#
#------------------COPYRIGHT 2020------------------#
#--------------------------------------------------#
#THIS FILE MAY BE USED ONLY IN ACCORDANCE WITH A CURRENT SUBSCRIPTION AGREEMENT BETWEEN
#THE USER AND ENVERUS, INC. NO PART OF THIS FILE MAY BE REPRODUCED, USED, COPIED,
#MODIFIED, PROPAGATED, OR DISTRIBUTED EXCEPT IN ACCORDANCE WITH THE SUBSCRIPTION
#AGREEMENT. UNAUTHORIZED USE OR DISTRIBUTION OF ALL OR ANY PART OF THIS FILE MAY VIOLATE
#COPYRIGHT, TRADEMARK, AND/OR OTHER LAWS AND IS SUBJECT TO CIVIL AS WELL AS CRIMINAL
#SANCTIONS.
#--------------------------------------------------#
#THIS FILE IS PROVIDED "AS-IS" AND ALL WARRANTIES ARE EXPRESSLY DISCLAIMED, WHETHER
#EXPRESS, ORAL, IMPLIED, STATUTORY OR OTHERWISE, INCLUDING ANY IMPLIED WARRANTY OF FITNESS
#FOR A PARTICULAR PURPOSE, MERCHANTABILITY, TITLE OR NON-INFRINGEMENT, AND ANY WARRANTIES
#ARISING BY VIRTUE OF CUSTOM OF TRADE OR COURSE OF DEALING.  FURTHER, ENVERUS, INC.
#AND ITS LICENSORS DO NOT REPRESENT OR WARRANT THAT THIS FILE WILL MEET USER'S
#REQUIREMENTS OR ARE SUITABLE FOR USER'S NEEDS OR THAT THE DATA OR RESULTS PROVIDED IN
#CONJUNCTION THEREWITH ARE CORRECT, ACCURATE, TIMELY OR RELIABLE. THESE DISCLAIMERS SHALL
#APPLY REGARDLESS OF ANY FAILURE OF ESSENTIAL PURPOSE OF ANY LIMITED REMEDY.  SOME
#JURISDICTIONS DO NOT ALLOW THE EXCLUSION OF CERTAIN WARRANTIES SO SOME OF THE ABOVE
#EXCLUSIONS MAY NOT APPLY. IN NO EVENT SHALL ENVERUS, INC. OR ANY OF ITS AFFILIATES
#BE LIABLE UNDER ANY LEGAL THEORY, WHETHER IN TORT (INCLUDING WITHOUT LIMITATION
#NEGLIGENCE), CONTRACT, STRICT LIABILITY, STATUTORY OR OTHERWISE, FOR ANY SPECIAL,
#INCIDENTAL, CONSEQUENTIAL, EXEMPLARY, PUNITIVE OR INDIRECT DAMAGE OF ANY KIND, INCLUDING
#WITHOUT LIMITATION LOSS OF REVENUE, PROFITS, GOODWILL, USE, AND/OR DATA OR THE COST OF
#PROCUREMENT OF SUBSTITUTE GOODS OR SERVICES, EVEN IF APPRISED OF THE POSSIBILITY OF SUCH
#DAMAGES IN ADVANCE.
#--------------------------------------------------#

# EXPORTED FROM DI TRANSFORM
# DI TRANSFORM - A PRODUCT OF DRILLINGINFO, INC. - WWW.DRILLINGINFO.COM
#
~VERSION INFORMATION
 VERS.        2.0 : LAS ASCII STANDARD - VERSION 2.0
 WRAP.         NO : ONE LINE PER DEPTH STEP

~WELL INFORMATION
#MNEM.UNIT       DATA TYPE       INFORMATION
#---------       ---------       -----------
 STRT.FT           100 : START DEPTH
 STOP.FT         18040 : STOP DEPTH
 STEP.FT           0.5 : STEP LENGTH
 NULL.         -999.25 : NULL VALUE
 UWI.   42371302980000 : UNIQUE WELL ID
 API.   42371302980000 : WELL IDENTIFIER
 COMP.                 : COMPANY
 WELL.          DRD_55 : WELL NAME
 FLD.                  : FIELD NAME
 LOC.                  : WELL LOCATION
 CNTY.                 : COUNTY
 STAT.                 : STATE OR PROVINCE
 CTRY.                 : COUNTRY
 SRVC.                 : SERVICE COMPANY
 DATE.                 : DATE

~CURVE INFORMATION
#MNEM.UNIT       API CODE       CURVE DESCRIPTION
#---------       --------       -----------------
 DEPT.FT        : <MEASURED DEPTH>
 CAL.IN         : CALIPER
 DT.US/FT       : SONIC
 GR.GAPI        : GAMMA RAY

~PARAMETER INFORMATION
#MNEM.UNIT       VALUE       DESCRIPTION
#---------       -----       -----------

~A       DEPT         CAL          DT          GR
# ...
        17940      6.7736     48.6628      1.2146
      17940.5      6.7742     48.6719      0.4049
        17941      6.7748      48.681      0.8097
      17941.5      6.7754     48.6901      0.9728
        17942       6.776     48.6992      1.2146
      17942.5      6.7766     48.7083      1.2146
        17943      6.7772     48.7174      1.2146
      17943.5      6.7778     48.7265      1.2146
        17944      6.7784     48.7356      0.8097
      17944.5       6.779     48.7286      0.8097
        17945      6.7796     48.7159      0.9771
      17945.5      6.7802     48.7032      1.2146
        17946      6.7808     48.6904      1.2146
      17946.5      6.7814     48.6777      1.6194
        17947       6.782      48.665      1.3789
      17947.5      6.7826     48.6522      1.2146
        17948      6.7832     48.6395      1.0869
      17948.5      6.7838     48.6268      1.6194
        17949      6.7844      48.614      1.6194
      17949.5       6.785     48.6013       1.483
        17950      6.7856     48.5886      1.2962
      17950.5      6.7862     48.5758      0.4921
        17951      6.7868     48.5631      0.2955
      17951.5      6.7874     48.5504      0.2955
        17952       6.788     48.5408      0.2955
      17952.5      6.7886     48.6999      0.4928
        17953      6.7893     48.8591      0.6537
      17953.5      6.7899     49.0183      0.8097
        17954      6.7899     48.9904      0.8097
      17954.5      6.7894     48.9358      0.8097
        17955      6.7888     48.8813      0.8097
      17955.5      6.7883     48.8267      0.8097
        17956      6.7878     48.7721      0.8097
      17956.5      6.7872     48.7155      0.8097
        17957      6.7867     48.6556      1.0114
      17957.5      6.7861     48.5957      1.2146
        17958      6.7856     48.5358       1.048
      17958.5      6.7851     48.4759      1.6194
        17959      6.7845     48.4159      1.6194
      17959.5       6.784      48.356      1.5287
        17960      6.7834     48.4361      0.8097
      17960.5      6.7829     48.5776      0.8097
        17961      6.7824     48.7191      0.8097
      17961.5      6.7818      48.835      0.6458
        17962      6.7813     48.8162      0.4049
      17962.5      6.7808     48.7973      0.4049
        17963      6.7802     48.7784      0.4049
      17963.5      6.7797     48.7596      0.8097
        17964      6.7791     48.7407      1.2675
      17964.5      6.7786     48.7219      1.6194
        17965      6.7781      48.703      1.6194
      17965.5      6.7775     48.6841      1.6194
        17966       6.777     48.6653      1.6194
      17966.5      6.7764     48.6464      1.6194
        17967      6.7759     48.6379      1.6194
      17967.5      6.7754     48.6379      1.6194
        17968      6.7748     48.6379      1.0153
      17968.5      6.7743     48.6379      1.2146
        17969      6.7738     48.6379      1.4505
      17969.5      6.7732     48.6379      1.5677
        17970      6.7727     48.6379      1.8919
      17970.5      6.7721     48.6379      2.0243
        17971      6.7716       48.65      1.7152
      17971.5      6.7711     48.6902      1.3395
        17972      6.7705     48.7304      1.5603
      17972.5        6.77     48.7706      1.6194
        17973      6.7694     48.8108      1.6194
      17973.5      6.7689      48.851      1.6194
        17974      6.7684     48.8912      2.0383
      17974.5      6.7678     48.9315      3.1861
        17975      6.7673     48.9506      4.4534
      17975.5      6.7668     48.9656      4.8583
        17976      6.7662     48.9806      4.8583
      17976.5      6.7657     48.9955      5.1662
        17977      6.7651     49.0105       5.668
      17977.5      6.7646     49.0255      5.3235
        17978      6.7641     49.0199      4.8583
      17978.5      6.7635     48.9023      4.8583
        17979       6.763     48.7848      5.2632
      17979.5      6.7624     48.6672      6.0729
        17980      6.7619     48.5497      6.3064
      17980.5      6.7614     48.4378      6.8332
        17981      6.7608     48.4378      5.8027
      17981.5      6.7603     48.4378      5.1771
        17982      6.7598     48.4378      4.1467
      17982.5      6.7592     48.4378      2.7114
        17983      6.7587     48.3954      1.6809
      17983.5      6.7654     48.2681      1.7787
        17984      6.8119     48.1407      2.4042
      17984.5      6.8583     48.0578      2.4291
        17985       6.875     48.1639      2.4175
      17985.5       6.854       48.27      2.0243
        17986      6.7864     48.3761      1.6194
      17986.5       6.737     48.4822      2.0243
        17987      6.6691      48.548      2.0243
      17987.5      6.6943     48.5692      2.0243
        17988      6.6943     48.5904      2.4291
      17988.5      6.6943     48.6116      2.4291
        17989      6.6943     48.6328      2.9921
      17989.5      6.6943     48.6767      3.2389
        17990      6.6943     48.7276      2.2345
      17990.5      6.6943     48.7785      2.0243
        17991      6.6943     48.8295      2.0243
      17991.5      6.6943     48.8804      1.6665
        17992      6.7049     48.9313      2.0243
      17992.5      6.7329     48.8553      2.0243
        17993      6.7582     48.7598      1.7199
      17993.5      6.7582     48.6643      1.4991
        17994      6.7582     48.6584      1.6194
      17994.5      6.7582     48.6867      1.7763
        17995      6.7582      48.715      2.0243
      17995.5       6.774      48.738      1.8308
        17996      6.7894      48.738      1.6288
      17996.5      6.7582      48.738      2.1393
        17997      6.7263      48.738      2.0243
      17997.5      6.7053      48.738      2.0243
        17998      6.6943      48.738      2.0243
      17998.5      6.6943      48.738      2.0243
        17999      6.6943      48.738      2.0243
      17999.5      6.6943       48.78      2.4291
        18000      6.6943     48.9073      2.4291
      18000.5      6.6943     49.0346      2.4291
        18001      6.6943      49.162      2.0243
      18001.5      6.6943     49.3522      2.0243
        18002      6.6943     49.3522      2.0243
      18002.5      6.6943     49.3388      2.4291
        18003      6.6943     49.2308      2.4291
      18003.5      6.6943      48.939      2.3478
        18004      6.6943     48.5329      2.3264
      18004.5      6.6943     48.6259      2.4291
        18005      6.6943     49.3522      2.0905
      18005.5      6.6943     49.4737      1.4649
        18006      6.7559     49.4826      1.6194
      18006.5      6.7582     49.4737      2.2154
        18007      6.7902     49.4737      3.0505
      18007.5      6.7902     49.3522      4.9975
        18008      6.7902     48.4394      7.3528
      18008.5      6.7902     49.9731     11.7777
        18009      6.7902      51.197     26.3785
      18009.5      6.7902     52.3887      34.309
        18010      6.7902     52.4237      36.554
      18010.5      6.7902     52.4595     27.1913
        18011      6.7902     51.2642     20.9207
      18011.5      6.7902     50.3047     16.3173
        18012      6.7582     48.3362     15.7895
      18012.5      6.7263     48.0197     15.3788
        18013      6.6943       48.57     14.9798
      18013.5      6.6658     49.2401     14.5325
        18014      6.6943     50.6397     14.5749
      18014.5      6.6943     50.3016     15.0588
        18015      6.6943     49.6267     15.3846
      18015.5      6.6943     50.5321     14.8641
        18016      6.6943      50.223     14.9798
      18016.5      6.6943      49.876       14.17
        18017      6.6943     49.7917     13.7652
      18017.5      6.6943     49.2308      13.954
        18018      6.6943      49.718     14.5796
      18018.5      6.6943     50.1486     15.3846
        18019      6.6943     49.1813     15.3434
      18019.5      6.6943     49.5916     14.3129
