#--------------------------------------------------#
#-------------------ENVERUS, INC.------------------#
#------------------WWW.ENVERUS.COM-----------------#
#------------------COPYRIGHT 2020------------------#
#--------------------------------------------------#
#THIS FILE MAY BE USED ONLY IN ACCORDANCE WITH A CURRENT SUBSCRIPTION AGREEMENT BETWEEN
#THE USER AND ENVERUS, INC. NO PART OF THIS FILE MAY BE REPRODUCED, USED, COPIED,
#MODIFIED, PROPAGATED, OR DISTRIBUTED EXCEPT IN ACCORDANCE WITH THE SUBSCRIPTION
#AGREEMENT. UNAUTHORIZED USE OR DISTRIBUTION OF ALL OR ANY PART OF THIS FILE MAY VIOLATE
#COPYRIGHT, TRADEMARK, AND/OR OTHER LAWS AND IS SUBJECT TO CIVIL AS WELL AS CRIMINAL
#SANCTIONS.
#--------------------------------------------------#
#THIS FILE IS PROVIDED "AS-IS" AND ALL WARRANTIES ARE EXPRESSLY DISCLAIMED, WHETHER
#EXPRESS, ORAL, IMPLIED, STATUTORY OR OTHERWISE, INCLUDING ANY IMPLIED WARRANTY OF FITNESS
#FOR A PARTICULAR PURPOSE, MERCHANTABILITY, TITLE OR NON-INFRINGEMENT, AND ANY WARRANTIES
#ARISING BY VIRTUE OF CUSTOM OF TRADE OR COURSE OF DEALING.  FURTHER, ENVERUS, INC.
#AND ITS LICENSORS DO NOT REPRESENT OR WARRANT THAT THIS FILE WILL MEET USER'S
#REQUIREMENTS OR ARE SUITABLE FOR USER'S NEEDS OR THAT THE DATA OR RESULTS PROVIDED IN
#CONJUNCTION THEREWITH ARE CORRECT, ACCURATE, TIMELY OR RELIABLE. THESE DISCLAIMERS SHALL
#APPLY REGARDLESS OF ANY FAILURE OF ESSENTIAL PURPOSE OF ANY LIMITED REMEDY.  SOME
#JURISDICTIONS DO NOT ALLOW THE EXCLUSION OF CERTAIN WARRANTIES SO SOME OF THE ABOVE
#EXCLUSIONS MAY NOT APPLY. IN NO EVENT SHALL ENVERUS, INC. OR ANY OF ITS AFFILIATES
#BE LIABLE UNDER ANY LEGAL THEORY, WHETHER IN TORT (INCLUDING WITHOUT LIMITATION
#NEGLIGENCE), CONTRACT, STRICT LIABILITY, STATUTORY OR OTHERWISE, FOR ANY SPECIAL,
#INCIDENTAL, CONSEQUENTIAL, EXEMPLARY, PUNITIVE OR INDIRECT DAMAGE OF ANY KIND, INCLUDING
#WITHOUT LIMITATION LOSS OF REVENUE, PROFITS, GOODWILL, USE, AND/OR DATA OR THE COST OF
#PROCUREMENT OF SUBSTITUTE GOODS OR SERVICES, EVEN IF APPRISED OF THE POSSIBILITY OF SUCH
#DAMAGES IN ADVANCE.
#--------------------------------------------------#

~VERSION INFORMATION
VERS. 2.0 : CWLS LOG ASCII STANDARD - VERSION 2.0
WRAP.  NO : ONE LINE PER DEPTH STEP
~WELL INFORMATION
#MNEMONIC     .UNIT              VALUE :DESCRIPTION
STRT       .FT                51 :START DEPTH
STOP       .FT                6194 :STOP DEPTH
STEP       .FT                   0.500 :STEP
NULL       .                  -999.990 :NULL
UWI        .              42389004340000 :UNIQUE WELL ID
API        .              42389004340000 :API NUMBER
COMP       .         :COMPANY
WELL       .         1, :WELL
DATE       .                            :LOG DATE
~CURVE INFORMATION
#MNEMONIC     .UNIT      API CODE :CURVE DESCRIPTION
DEPTH       .FT                      :MEASURED DEPTH
GR.API        UNKNOWN   :GR
DT.US/FT        UNKNOWN   :DT
~A    DEPTH    GR    DT
# ...
 1621     8.138   55.884
 1621.5     7.428   55.665
 1622     7.235   55.295
 1622.5     7.042   54.925
 1623     6.849   54.555
 1623.5     6.656   54.28
 1624     8.803   60.665
 1624.5     10.965   67.05
 1625     12.489   73.435
 1625.5     13.154   87.988
 1626     13.819   86.966
 1626.5     14.484   85.944
 1627     14.426   84.922
 1627.5     13.796   84.735
 1628     13.165   84.94
 1628.5     12.535   85.146
 1629     11.905   85.351
 1629.5     12.311   85.557
 1630     12.955   85.762
 1630.5     13.6   85.968
 1631     14.244   86.173
 1631.5     14.888   86.379
 1632     15.533   86.584
 1632.5     16.177   86.789
 1633     16.821   86.995
 1633.5     18.54   87.2
 1634     21.675   87.406
 1634.5     24.81   87.611
 1635     27.945   87.817
 1635.5     31.079   88.022
 1636     30.794   88.228
 1636.5     29.276   83.779
 1637     27.758   75.25
 1637.5     25.016   66.72
 1638     21.012   58.191
 1638.5     17.007   58.023
 1639     13.003   59.989
 1639.5     10.497   61.954
 1640     10.707   63.919
 1640.5     10.916   62.388
 1641     11.125   60.323
 1641.5     11.335   60.544
 1642     11.544   60.766
 1642.5     11.753   61.204
 1643     11.962   63.543
 1643.5     12.172   65.882
 1644     12.381   68.221
 1644.5     12.585   67.823
 1645     12.613   66.664
 1645.5     12.641   65.505
 1646     12.669   64.346
 1646.5     12.697   60.941
 1647     13.753   55.342
 1647.5     14.879   57.721
 1648     16.004   60.365
 1648.5     17.067   63.008
 1649     18.067   65.651
 1649.5     19.067   68.294
 1650     20.066   70.937
 1650.5     21.066   69.72
 1651     22.066   65.778
 1651.5     22.151   61.837
 1652     21.847   57.896
 1652.5     20.637   57.09
 1653     18.678   57.757
 1653.5     17.005   58.423
 1654     16.757   59.09
 1654.5     16.509   59.757
 1655     16.26   62.994
 1655.5     16.012   63.961
 1656     15.763   63.389
 1656.5     15.515   62.816
 1657     15.267   62.244
 1657.5     15.018   61.672
 1658     14.77   61.1
 1658.5     14.522   60.528
 1659     15.453   67.879
 1659.5     17.137   75.752
 1660     18.821   83.624
 1660.5     20.505   91.497
 1661     21.202   93.385
 1661.5     19.802   90.134
 1662     18.402   86.884
 1662.5     17.002   83.633
 1663     15.457   80.382
 1663.5     13.722   77.131
 1664     11.987   73.88
 1664.5     10.252   71.038
 1665     9.374   68.197
 1665.5     10.273   65.356
 1666     11.172   63.821
 1666.5     12.071   65.154
 1667     12.97   66.488
 1667.5     13.869   67.821
 1668     14.768   69.155
 1668.5     15.667   67.747
 1669     16.566   66.14
 1669.5     17.465   64.534
 1670     18.364   62.927
 1670.5     17.911   62.252
 1671     16.48   62.94
 1671.5     15.05   63.627
 1672     13.619   63.775
 1672.5     12.188   63.158
 1673     10.758   62.541
 1673.5     11.241   61.556
 1674     11.796   60.132
 1674.5     12.351   58.708
 1675     11.381   57.284
 1675.5     10.337   55.86
 1676     9.293   55.519
 1676.5     8.249   55.271
 1677     8.092   55.022
 1677.5     8.089   54.774
 1678     8.066   54.471
 1678.5     7.715   54.063
 1679     7.363   53.733
 1679.5     7.011   53.754
 1680     6.66   53.877
 1680.5     6.308   54.08
 1681     5.956   54.284
 1681.5     5.975   54.487
 1682     6.613   54.691
 1682.5     7.251   54.894
 1683     8.084   55.097
 1683.5     10.03   55.301
 1684     11.976   55.504
 1684.5     13.923   55.707
 1685     14.739   56.367
 1685.5     14.436   58.277
 1686     14.132   60.188
 1686.5     13.829   62.098
 1687     13.525   64.008
 1687.5     13.222   64.946
 1688     12.919   63.757
 1688.5     12.928   62.274
 1689     14.396   59.395
 1689.5     13.156   56.517
 1690     8.496   53.638
 1690.5     7.346   52.84
 1691     6.196   52.726
 1691.5     5.047   52.612
 1692     3.897   52.497
 1692.5     4.146   52.383
 1693     5.24   52.954
 1693.5     6.333   54.788
 1694     7.427   56.622
 1694.5     12.863   58.456
 1695     18.428   59.067
 1695.5     23.993   59.325
 1696     29.558   59.582
 1696.5     35.123   59.839
 1697     40.688   66.291
 1697.5     42.289   75.266
 1698     36.654   84.241
 1698.5     31.019   85.465
 1699     25.385   77.639
 1699.5     19.75   69.814
 1700     14.115   61.988
 1700.5     9.959   54.163
 1701     9.802   46.337
 1701.5     9.644   42.221
 1702     9.486   55.983
 1702.5     9.328   69.744
 1703     9.17   83.505
 1703.5     9.013   92.475
 1704     8.855   94.981
 1704.5     9.264   90.543
 1705     9.882   86.106
 1705.5     10.499   81.668
 1706     11.117   77.23
 1706.5     11.735   72.793
 1707     12.353   68.717
 1707.5     12.759   68.538
 1708     12.615   68.359
 1708.5     12.471   68.181
 1709     12.328   68.002
 1709.5     12.184   67.823
 1710     12.04   67.644
 1710.5     11.897   67.465
 1711     11.753   67.286
 1711.5     11.609   67.639
 1712     11.465   71.898
 1712.5     11.322   72.489
 1713     11.178   71.901
 1713.5     11.034   73.102
 1714     10.89   74.52
 1714.5     10.747   75.558
 1715     10.603   74.5
 1715.5     10.459   73.443
 1716     10.315   72.385
 1716.5     10.172   71.327
 1717     10.028   70.269
 1717.5     9.884   69.211
 1718     9.74   68.154
 1718.5     9.597   67.096
 1719     9.453   67.663
 1719.5     9.309   69.382
 1720     9.165   71.101
 1720.5     9.022   72.821
 1721     10.046   72.251
 1721.5     11.954   69.067
 1722     13.862   65.883
 1722.5     15.769   62.698
 1723     15.34   59.514
 1723.5     14.698   61.412
 1724     14.055   65.144
 1724.5     13.413   68.876
 1725     12.771   72.608
 1725.5     12.128   76.34
 1726     11.486   80.072
 1726.5     10.844   77.277
 1727     10.202   69.773
 1727.5     9.571   62.268
 1728     13.542   54.764
 1728.5     17.513   49.318
 1729     21.485   45.696
 1729.5     25.456   42.075
 1730     29.427   44.668
 1730.5     33.399   47.816
 1731     37.37   50.964
 1731.5     41.341   54.113
 1732     45.313   57.261
 1732.5     40.716   60.409
 1733     36.055   63.215
 1733.5     31.393   64.898
 1734     26.732   65.579
 1734.5     22.071   64.065
 1735     17.41   62.551
 1735.5     12.748   61.037
 1736     10.713   59.522
 1736.5     10.172   58.337
 1737     9.63   57.465
 1737.5     9.089   56.995
 1738     8.548   56.567
 1738.5     8.007   56.14
 1739     7.624   55.713
 1739.5     7.493   56.724
 1740     7.361   60.746
 1740.5     7.453   63.204
 1741     7.919   62.881
 1741.5     8.386   62.559
 1742     8.853   62.639
 1742.5     9.319   65.522
 1743     9.274   66.237
 1743.5     8.528   64.425
 1744     7.782   62.614
 1744.5     7.035   60.802
 1745     6.289   63.22
 1745.5     7.048   67.158
 1746     7.979   71.095
 1746.5     8.91   75.033
 1747     9.841   78.971
 1747.5     10.772   82.909
 1748     11.704   84.982
 1748.5     12.635   82.503
 1749     13.566   80.023
 1749.5     14.497   77.544
 1750     15.133   75.065
 1750.5     14.673   72.596
 1751     14.212   73.167
 1751.5     13.752   73.738
 1752     13.291   74.308
 1752.5     12.831   72.734
 1753     12.371   70.421
 1753.5     11.91   68.108
 1754     11.45   65.795
 1754.5     11.108   63.482
 1755     11.376   66.258
 1755.5     11.644   66.435
 1756     11.912   65.104
 1756.5     12.179   63.772
 1757     12.447   65.187
 1757.5     12.715   68.094
 1758     12.452   71
 1758.5     11.63   68.984
 1759     10.809   68.218
 1759.5     9.988   72.213
 1760     9.167   76.208
 1760.5     9.209   76.261
 1761     9.543   72.208
 1761.5     9.878   68.154
 1762     10.098   67.237
 1762.5     10.055   68.263
 1763     10.011   68.605
 1763.5     10.008   68.665
 1764     10.537   69.067
 1764.5     11.066   69.753
 1765     11.595   70.094
 1765.5     12.124   70.243
 1766     12.653   70.392
 1766.5     13.182   70.405
 1767     13.711   69.44
 1767.5     14.24   68.475
 1768     14.768   67.51
 1768.5     14.725   66.545
 1769     14.294   67.438
 1769.5     13.862   68.708
 1770     13.43   69.978
 1770.5     13.059   70.051
 1771     13.472   69.87
 1771.5     13.886   69.689
