#--------------------------------------------------#
#-------------------ENVERUS, INC.------------------#
#------------------WWW.ENVERUS.COM-----------------#
#------------------COPYRIGHT 2020------------------#
#--------------------------------------------------#
#THIS FILE MAY BE USED ONLY IN ACCORDANCE WITH A CURRENT SUBSCRIPTION AGREEMENT BETWEEN
#THE USER AND ENVERUS, INC. NO PART OF THIS FILE MAY BE REPRODUCED, USED, COPIED,
#MODIFIED, PROPAGATED, OR DISTRIBUTED EXCEPT IN ACCORDANCE WITH THE SUBSCRIPTION
#AGREEMENT. UNAUTHORIZED USE OR DISTRIBUTION OF ALL OR ANY PART OF THIS FILE MAY VIOLATE
#COPYRIGHT, TRADEMARK, AND/OR OTHER LAWS AND IS SUBJECT TO CIVIL AS WELL AS CRIMINAL
#SANCTIONS.
#--------------------------------------------------#
#THIS FILE IS PROVIDED "AS-IS" AND ALL WARRANTIES ARE EXPRESSLY DISCLAIMED, WHETHER
#EXPRESS, ORAL, IMPLIED, STATUTORY OR OTHERWISE, INCLUDING ANY IMPLIED WARRANTY OF FITNESS
#FOR A PARTICULAR PURPOSE, MERCHANTABILITY, TITLE OR NON-INFRINGEMENT, AND ANY WARRANTIES
#ARISING BY VIRTUE OF CUSTOM OF TRADE OR COURSE OF DEALING.  FURTHER, ENVERUS, INC.
#AND ITS LICENSORS DO NOT REPRESENT OR WARRANT THAT THIS FILE WILL MEET USER'S
#REQUIREMENTS OR ARE SUITABLE FOR USER'S NEEDS OR THAT THE DATA OR RESULTS PROVIDED IN
#CONJUNCTION THEREWITH ARE CORRECT, ACCURATE, TIMELY OR RELIABLE. THESE DISCLAIMERS SHALL
#APPLY REGARDLESS OF ANY FAILURE OF ESSENTIAL PURPOSE OF ANY LIMITED REMEDY.  SOME
#JURISDICTIONS DO NOT ALLOW THE EXCLUSION OF CERTAIN WARRANTIES SO SOME OF THE ABOVE
#EXCLUSIONS MAY NOT APPLY. IN NO EVENT SHALL ENVERUS, INC. OR ANY OF ITS AFFILIATES
#BE LIABLE UNDER ANY LEGAL THEORY, WHETHER IN TORT (INCLUDING WITHOUT LIMITATION
#NEGLIGENCE), CONTRACT, STRICT LIABILITY, STATUTORY OR OTHERWISE, FOR ANY SPECIAL,
#INCIDENTAL, CONSEQUENTIAL, EXEMPLARY, PUNITIVE OR INDIRECT DAMAGE OF ANY KIND, INCLUDING
#WITHOUT LIMITATION LOSS OF REVENUE, PROFITS, GOODWILL, USE, AND/OR DATA OR THE COST OF
#PROCUREMENT OF SUBSTITUTE GOODS OR SERVICES, EVEN IF APPRISED OF THE POSSIBILITY OF SUCH
#DAMAGES IN ADVANCE.
#--------------------------------------------------#

~VERSION INFORMATION
VERS. 2.0 : CWLS LOG ASCII STANDARD - VERSION 2.0
WRAP.  NO : ONE LINE PER DEPTH STEP
~WELL INFORMATION
#MNEMONIC     .UNIT              VALUE :DESCRIPTION
STRT       .FT                101 :START DEPTH
STOP       .FT                5444 :STOP DEPTH
STEP       .FT                   0.500 :STEP
NULL       .                  -999.99 :NULL
UWI        .                42389004350000 :UNIQUE WELL ID
API        .                42389004350000 :API NUMBER
COMP       .         :COMPANY
WELL       .        :WELL
DATE       .                 :LOG DATE
FLD       .                 :FIELD NAME
LOC       .                  UNK :LOCATION
CNTY       .                 UNK :COUNTY
STAT       .                 UNK :STATE
CTRY       .                 UNK :COUNTY
SRVC       .                 UNK :SERVICE COMPANY
~CURVE INFORMATION
#MNEMONIC     .UNIT      API CODE :CURVE DESCRIPTION
DEPTH       .FT                      :MEASURED DEPTH
DT.MSEC/FT        UNKNOWN   :DT
GR.API        UNKNOWN   :GR
~A    DEPTH    DT    GR
# ...
 5349.5     71.81065   41.76835
 5350     70.13384   39.9116
 5350.5     66.22156   38.05485
 5351     62.96125   36.19811
 5351.5     64.31593   35.66382
 5352     65.67061   35.90398
 5352.5     67.02528   36.16356
 5353     68.37996   39.21043
 5353.5     69.73464   42.2573
 5354     70.67557   45.30417
 5354.5     68.80404   48.35104
 5355     66.93252   51.39791
 5355.5     65.06099   54.44477
 5356     63.18946   49.64193
 5356.5     66.51403   43.24927
 5357     70.0463   41.16469
 5357.5     68.10867   41.61669
 5358     66.17104   42.0687
 5358.5     64.2334   40.69604
 5359     62.29577   37.39024
 5359.5     60.35814   36.16371
 5360     63.77225   39.12436
 5360.5     67.81762   42.08501
 5361     67.90134   45.04566
 5361.5     67.98506   48.0063
 5362     68.06879   50.96695
 5362.5     68.15251   51.34316
 5363     68.23623   50.44541
 5363.5     68.31996   49.54767
 5364     68.20271   48.64992
 5364.5     67.38071   47.75217
 5365     66.55872   49.69343
 5365.5     65.95391   51.92041
 5366     66.72697   54.14738
 5366.5     67.50004   55.78932
 5367     68.27311   55.97704
 5367.5     69.04618   56.16477
 5368     69.81925   56.3525
 5368.5     70.59231   55.81332
 5369     71.99623   47.73823
 5369.5     76.7605   39.66314
 5370     81.52477   31.58805
 5370.5     73.83584   29.21258
 5371     73.8685   28.86842
 5371.5     81.22858   28.52427
 5372     73.19376   28.22703
 5372.5     70.32835   28.84973
 5373     75.14473   29.47243
 5373.5     79.96111   30.09513
 5374     84.77748   30.71782
 5374.5     84.27813   31.34052
 5375     82.27918   31.96322
 5375.5     80.28023   32.58592
 5376     78.28128   33.20861
 5376.5     76.28232   33.08936
 5377     75.34524   32.61351
 5377.5     76.99804   32.13765
 5378     76.90977   31.66179
 5378.5     75.84221   31.18594
 5379     75.48619   30.71008
 5379.5     82.72443   32.03365
 5380     80.48043   36.77763
 5380.5     75.55813   41.52161
 5381     70.63583   46.26559
 5381.5     71.51671   51.00956
 5382     72.41953   49.14976
 5382.5     73.32235   45.37478
 5383     66.014   41.59981
 5383.5     67.18278   37.82483
 5384     68.35156   34.04986
 5384.5     69.52033   32.7369
 5385     70.54681   35.696
 5385.5     70.46076   38.65509
 5386     70.37471   41.61419
 5386.5     70.28867   44.57329
 5387     69.81897   47.53238
 5387.5     68.86572   50.49148
 5388     67.91247   50.80267
 5388.5     66.95922   49.87498
 5389     66.00596   48.94729
 5389.5     65.97261   48.0196
 5390     67.89366   47.09191
 5390.5     69.81471   46.95029
 5391     70.16731   48.05031
 5391.5     69.21395   49.15034
 5392     68.26059   50.25036
 5392.5     67.30723   50.56515
 5393     66.35387   48.4852
 5393.5     66.23236   48.93774
 5394     67.24186   49.39028
 5394.5     68.25136   49.83963
 5395     67.84364   48.89904
 5395.5     66.88662   47.95844
 5396     65.92961   47.01785
 5396.5     64.9726   47.26338
 5397     64.01559   50.31968
 5397.5     63.30919   53.37597
 5398     65.18896   56.43226
 5398.5     67.06874   59.48855
 5399     68.94851   62.54484
 5399.5     70.16641   65.60114
 5400     68.84385   66.38199
 5400.5     67.52128   65.75193
 5401     66.19872   65.12187
 5401.5     66.72158   64.49181
 5402     68.20288   63.86174
 5402.5     69.68418   62.40289
 5403     69.35923   59.31389
 5403.5     68.87019   56.22489
 5404     68.38115   53.6732
 5404.5     68.36811   55.56657
 5405     69.53592   57.45994
 5405.5     70.50506   59.35332
 5406     69.9273   61.24669
 5406.5     69.34954   63.14007
 5407     68.77179   60.23152
 5407.5     69.31231   56.93839
 5408     71.0048   53.64525
 5408.5     72.69728   50.35211
 5409     74.38977   47.05897
 5409.5     71.69471   43.76584
 5410     66.4353   40.4727
 5410.5     65.27306   38.51099
 5411     72.08006   38.76172
 5411.5     75.75978   39.01245
 5412     74.58278   38.81889
 5412.5     73.40579   37.11956
 5413     72.22879   35.42023
 5413.5     71.0518   33.7209
 5414     71.23451   33.25133
 5414.5     71.7325   34.01977
 5415     72.2305   34.78821
 5415.5     72.72849   35.55665
 5416     73.22648   36.32509
 5416.5     73.72448   37.09353
 5417     75.27992   37.86198
 5417.5     76.01329   37.28147
 5418     74.65638   36.65102
 5418.5     73.29948   36.02057
 5419     72.59441   35.39601
 5419.5     73.76183   36.00057
 5420     74.53736   36.60513
 5420.5     71.03664   37.20969
 5421     67.53593   37.81425
 5421.5     67.58321   38.41881
 5422     69.20846   39.02337
 5422.5     70.8337   39.62793
 5423     72.45894   40.23249
 5423.5     74.08418   39.59489
 5424     72.73396   38.23914
 5424.5     70.30524   -999.99
 5425     67.87652   -999.99
 5425.5     68.16175   -999.99
 5426     69.19978   -999.99
 5426.5     70.23781   -999.99
 5427     71.27584   -999.99
 5427.5     71.37684   -999.99
 5428     71.47081   -999.99
 5428.5     71.56478   -999.99
 5429     71.65875   -999.99
 5429.5     71.2034   -999.99
 5430     69.09325   -999.99
 5430.5     66.9831   -999.99
 5431     64.87295   -999.99
 5431.5     64.00795   -999.99
 5432     66.32008   -999.99
 5432.5     68.6322   -999.99
 5433     70.94433   -999.99
 5433.5     73.25646   -999.99
 5434     75.56859   -999.99
 5434.5     73.84133   -999.99
 5435     69.99721   -999.99
 5435.5     66.15309   -999.99
 5436     64.86886   -999.99
 5436.5     68.56677   -999.99
 5437     72.26468   -999.99
 5437.5     71.69863   -999.99
 5438     71.08494   -999.99
 5438.5     70.47125   -999.99
 5439     69.85756   -999.99
 5439.5     71.9731   -999.99
 5440     74.54579   -999.99
 5440.5     76.98618   -999.99
 5441     73.09826   -999.99
 5441.5     69.21033   -999.99
 5442     65.3224   -999.99
 5442.5     70.57908   -999.99
 5443     71.03315   -999.99
 5443.5     69.69049   -999.99
 5444     68.34783   -999.99
