~Version Information Block
 VERS.                2.00:     CWLS LOG ASCII STANDARD - VERSION 2.000000
 WRAP.                  NO:     One Line Per Depth Step
#
~Well Information Block
#MNEM.UNIT                     Data                         Information
#----------   ------------------------------------------   ----------------
 STRT.FT                                     5200.0000:     START DEPTH
 STOP.FT                                    11550.0000:     STOP DEPTH
 STEP.FT                                        0.5000:     STEP
 NULL.                                       -999.2500:     NULL VALUE
 COMP.               AMERICAN QUASAR PETROLEUM COMPANY:     COMPANY
 WELL.                               MCCARTER # 1 - 31:     WELL
 FLD .                                         WILDCAT:     FIELD
 LOC .                                                :     LOCATION
 CNTY.                                          REEVES:     COUNTY
 STAT.                                           TEXAS:     STATE
 CTRY.                                             USA:     COUNTRY
 SRVC.                                                :     SERVICE COMPANY
 DATE.                                      08/07/2015:     DATE
 API .                                  42389311800000:     API NUMBER
 UWI .                                  42389311800000:     UWI NUMBER
 TVD .                                              NO:     TVD flag
 WSTA.                                             LOC:     Well status
#
~Curve Information Block
#MNEM.UNIT       API CODE      Curve Description
#----------    -------------   -------------------
 DEPT.FT                   :   Depth in Feet
 GR  .GAPI                 :   Gamma Ray
 LLD .OHMM                 :   Latero-Log Deep (Resistivity)
 CALI.IN                   :   Caliper
 DT  .US/F                 :   Delta-T
#
~Parameter Information Block
#MNEM.UNIT            Value               Description
#----------    --------------------    -------------------
 RUN .                         ONE:    Run Number
 PDAT.                          GL:    Permanent Datum
 EPD .FT                          :    Elevation Of Perm. Datum
 LMF .               KELLY BUSHING:    Log Measured From
 EKB .FT                          :    Elevation Of Kelly Bushing
 DF .FT                           :    Elevation Of Derrick Floor
 GL .FT                           :    Elevation Of Ground Level
 TD  .FT                          :    Total Depth
 CSGD.FT                          :    Casing Bottom (Driller) 1
 CSGL.FT                          :    Casing Bottom (Logger) 1
 MUD .                            :    Drilling Fluid Type
 MUDV .CP                         :    Drilling Fluid Viscosity
 MUDD .LB/USG                     :    Drilling Fluid Density
 FL .ML/30MIN                     :    Drilling Fluid Loss
 PH.                              :    Drilling Fluid Ph
 MUDS .                           :    Mud Sample Source
 RM .OHMM                         :    Resistivity Of Mud Sample
 RMT .DEGF                        :    Mud Sample Temperature
 RMF .OHMM                        :    Mud Filtrate Resistivity
 RMFT.DEGF                        :    Mud Filtrate Sample Temperature
 RMC .OHMM                        :    Mud Cake Resistivity
 RMCT.DEGF                        :    Mud Cake Sample Temperature
 RMB .OHMM                        :    Mud Resistivity At Bht
 TMAX .DEGF                       :    Bottom Hole Temperature    
#
~Other Information Block
<DescLogPlotStart>   NEURALOG PLOT DEFINITION
PLOTDEFVERSION: 3
LASFILE: E:\Nair Innovations\Texas - NII\Shivam\42389311800000\42389311800000_G
DEPTHSCALE: 239.999996
RESOLUTION: 200
DEPTHLABELFREQ: 100.000000
HEAVYGRIDFREQ: 100.000000
MEDIUMGRIDFREQ: 50.000000
LIGHTGRIDFREQ: 10.000000
#
#   TRACK 1
#
STARTTRACK: 
 LEFTX: 0.500000 inch
 RIGHTX: 3.000000 inch
 SCALETYPE: Linear
 NUMCHARTDIVISIONS: 10
CURVE: GR    0.000000   125.000000 (0,0,255)      Solid             2     Y    
BACKUP: 125.000000 250.000000 (0,0,255)      Solid             2    
CURVE: CALI  6.000000   16.000000  (0,0,255)      Solid             2     N    
ENDTRACK: 
#
#   TRACK 2
#
STARTTRACK: 
 LEFTX: 3.500000 inch
 RIGHTX: 8.500000 inch
 SCALETYPE: Log
 NUMCYCLES: 4
 STARTCYCLE: 2
CURVE: LLD   0.200000   2000.000000 (0,131,131)    Solid             2     Y   
BACKUP: 2000.000000 20000000.000000 (0,131,131)    Solid             2    
ENDTRACK: 
#
#   TRACK 3
#
STARTTRACK: 
 LEFTX: 3.500000 inch
 RIGHTX: 8.500000 inch
 SCALETYPE: Linear
 NUMCHARTDIVISIONS: 10
CURVE: DT    100.000000 40.000000  (0,131,131)    Solid             2     Y    
BACKUP: 160.000000 100.000000 (0,131,131)    Solid             2    
BACKUP: 40.000000  -20.000000 (0,131,131)    Solid             2    
ENDTRACK: 
<DescLogPlotEnd>
<DepthTrack type='Reference' track='1' Label='0' color='0' hor='0' />
<Reference font='144,0,-900,0,500,0,16777216,Arial' />
~A DEPTH     GR               LLD              CALI             DT              
# ...
    8962.000 100.81259130     55.96593751      12.74588192      77.55377955     
    8962.500 101.08006583     58.45701147      12.74531576      77.72144522     
    8963.000 102.29768019     60.25428142      12.74474960      77.97202797     
    8963.500 100.69386700     60.81292987      12.74418344      78.57456314     
    8964.000 98.19230248      57.15485839      12.74361728      78.77948665     
    8964.500 95.56699104      50.24030444      12.74305112      78.85977445     
    8965.000 95.36914606      43.62217848      12.74248495      78.59690310     
    8965.500 97.12005117      38.43415793      12.74191879      78.15184815     
    8966.000 98.74552120      35.93676782      12.74135263      76.88191808     
    8966.500 90.80833799      34.53579634      12.74078647      75.56442854     
    8967.000 81.54107640      34.00093950      12.74022031      73.05858438     
    8967.500 67.21994508      36.60623351      12.73965415      69.80132313     
    8968.000 67.51828392      38.39657800      12.73908799      67.57042957     
    8968.500 55.94920673      38.93503926      12.73852183      66.56443556     
    8969.000 54.07053567      39.41115603      12.73795567      65.80419580     
    8969.500 58.10598566      35.73680486      12.73738951      65.92692308     
    8970.000 66.05223435      32.97991136      12.73682335      66.29570430     
    8970.500 74.14665159      31.76500880      12.73625718      66.65237490     
    8971.000 82.22700109      30.97600513      12.73569102      66.99940060     
    8971.500 90.31303867      32.11044553      12.73512486      69.16083916     
    8972.000 98.40021484      33.85631747      12.73455870      71.40067932     
    8972.500 106.46125008     36.83613481      12.73399254      74.17722278     
    8973.000 114.04421113     40.10949970      12.73342638      75.15484515     
    8973.500 115.64598192     39.73659145      12.73286022      78.93106893     
    8974.000 111.38846975     40.92203949      12.73229406      79.23076923     
    8974.500 99.75939519      40.89321333      12.73172790      79.23076923     
    8975.000 90.17097218      40.89321333      12.73116174      78.57142857     
    8975.500 83.08842731      40.89321333      12.73059558      76.67072927     
    8976.000 76.37142324      40.76008420      12.73002941      74.76835165     
    8976.500 74.58483717      39.26629957      12.72946325      72.83684316     
    8977.000 73.92255435      37.31157852      12.72889709      71.85814186     
    8977.500 76.25375096      35.36919587      12.72833093      72.14258658     
    8978.000 78.30604681      33.37912020      12.72776477      72.42600505     
    8978.500 80.33282519      31.81215735      12.72719861      72.48662553     
    8979.000 82.07798292      31.00350235      12.72663245      72.37937341     
    8979.500 82.82038461      31.82879835      12.72606629      71.85074226     
    8980.000 81.41357838      34.37957762      12.72550013      71.79088982     
    8980.500 79.47686850      38.54126291      12.72493397      71.70880937     
    8981.000 77.78279234      45.68224415      12.72436781      71.61838162     
    8981.500 78.20792662      44.81907214      12.72380164      71.49850150     
    8982.000 79.39986246      51.50526654      12.72323548      71.92047952     
    8982.500 79.89091512      68.85791105      12.72266932      72.59952547     
    8983.000 81.24202651      77.30442325      12.72210316      74.19580420     
    8983.500 87.21299214      90.64892559      12.72153700      73.89610390     
    8984.000 91.51235625      97.36542080      12.72097084      75.81418581     
    8984.500 95.72038479      97.82276330      12.72040468      77.32773893     
    8985.000 95.34497409      98.26814573      12.71983852      78.03196803     
    8985.500 91.88616062      83.17002206      12.71927236      78.40009990     
    8986.000 89.07615945      71.65418765      12.71870620      78.63616384     
    8986.500 90.24369456      61.73285134      12.71814004      79.00502831     
    8987.000 92.02795975      52.37171908      12.71757387      79.77022977     
    8987.500 91.82757825      45.93173098      12.71700771      80.25974026     
    8988.000 88.15348593      40.79117650      12.71644155      79.85734266     
    8988.500 83.92883797      35.63893835      12.71587539      79.45494505     
    8989.000 81.82802861      31.00347935      12.71530923      78.98189810     
    8989.500 80.09215248      29.33834924      12.71474307      78.27172827     
    8990.000 79.47019526      27.92543427      12.71417691      77.75240467     
    8990.500 80.56286821      27.03259333      12.71361075      77.14865764     
    8991.000 84.87078306      26.50174584      12.71304459      76.77616064     
    8991.500 87.61975120      27.50195059      12.71247843      76.77322677     
    8992.000 84.49579711      30.68787155      12.71191227      76.41145521     
    8992.500 78.96252191      32.77477729      12.71134610      75.47252747     
    8993.000 75.39437009      34.63434267      12.71077994      74.13131679     
    8993.500 77.00747596      34.00093950      12.71021378      74.07856017     
    8994.000 82.59039339      31.29095177      12.70964762      74.54921034     
    8994.500 84.71879978      28.44303184      12.70908146      75.08650426     
    8995.000 83.22763166      26.50174584      12.70851530      74.51164585     
    8995.500 80.62331526      26.74745716      12.70794914      71.84425545     
    8996.000 80.64391674      27.81996946      12.70738298      70.73566434     
    8996.500 82.56490740      29.60538253      12.70681682      70.50093240     
    8997.000 85.77476579      28.53242031      12.70625066      70.84305694     
    8997.500 89.57835641      28.27031170      12.70568450      76.17382617     
    8998.000 97.32263894      28.63265754      12.70511833      75.51448551     
    8998.500 104.63465587     29.99314310      12.70455217      76.70208541     
    8999.000 108.14174533     31.94858985      12.70398601      77.07152114     
    8999.500 112.01566754     31.27835115      12.70341985      77.05746836     
    9000.000 109.29298423     36.41342469      12.70285369      77.17219473     
    9000.500 105.24357054     39.24066570      12.70228753      77.28026193     
    9001.000 101.13860506     42.43100343      12.70172137      77.24946326     
    9001.500 97.03487767      45.26259137      12.70115521      75.94947344     
    9002.000 92.90533339      46.53325823      12.70058905      74.79895518     
    9002.500 88.72591661      44.31894694      12.70002289      73.50433102     
    9003.000 88.90953873      42.41990642      12.69945673      73.00235612     
    9003.500 89.50770487      41.66741873      12.69889056      73.69964761     
    9004.000 90.86142751      42.34337851      12.69832444      75.02863769     
    9004.500 93.41259822      42.86974539      12.69775779      76.57778395     
    9005.000 98.56811642      45.68224415      12.69718903      78.14278787     
    9005.500 102.60791968     46.53325823      12.69663861      78.75124875     
    9006.000 105.11319380     45.85965648      12.69615965      78.21178821     
    9006.500 103.96106591     45.09165006      12.69558745      75.32259169     
    9007.000 103.17827034     44.42519605      12.69501021      73.59640360     
    9007.500 105.11076894     44.41928588      12.69443297      72.69730270     
    9008.000 107.83463122     48.19000628      12.69385597      73.68783943     
    9008.500 108.18334709     50.18726941      12.69327896      75.35978567     
    9009.000 105.03551736     51.50526654      12.69270195      77.14965035     
    9009.500 99.83160876      58.07053770      12.69212495      78.57142857     
    9010.000 94.63285860      59.03829948      12.69154794      78.67081217     
    9010.500 89.40587404      59.78898463      12.69097093      78.53220227     
    9011.000 86.59406242      60.25428142      12.69039392      78.38985355     
