~Version Information Block
 VERS.                2.00:     CWLS LOG ASCII STANDARD - VERSION 2.000000
 WRAP.                  NO:     One Line Per Depth Step
#
~Well Information Block
#MNEM.UNIT                     Data                         Information
#----------   ------------------------------------------   ----------------
 STRT.FT                                     1000.0000:     START DEPTH
 STOP.FT                                    15733.0000:     STOP DEPTH
 STEP.FT                                        0.5000:     STEP
 NULL.                                       -999.0000:     NULL VALUE
 COMP.                                 MOBIL PRODUCING:     COMPANY
 WELL.                                    IB-WEATHERBY:     WELL
 FLD .                                   ROJO CABALLOS:     FIELD
 LOC .                                         UNKNOWN:     LOCATION
 LONG.                                 -103.1458890000:     LONGITUDE
 LATI.                                   31.1330510000:     LATITUDE
 CNTY.                                           PECOS:     COUNTY
 STAT.                                           TEXAS:     STATE
 CTRY.                                           U.S.A:     COUNTRY
 SRVC.                                         UNKNOWN:     SERVICE COMPANY
 DATE.                                         UNKNOWN:     DATE
 API .                                  42371057360000:     API NUMBER
 UWI .                                  42371057360000:     UWI NUMBER
 SLAT.                                       31.133051:     Surface latitude
 SLON.                                     -103.145889:     surface longitude
 TVD .                                              NO:     TVD flag
 WSTA.                                             LOC:     Well status
#
~Curve Information Block
#MNEM.UNIT       API CODE      Curve Description
#----------    -------------   -------------------
 DEPT.FT                   :   Depth in Feet
 DT  .UNKNOWN          UNKNOWN:   DT-Load
 DTedit.ft/s          UNKNOWN:   DT-Load
 GR  .UNKNOWN          UNKNOWN:   GR-Load
 GR_org.UNKNOWN          UNKNOWN:   GR_org-Load
#
~Parameter Information Block
#MNEM.UNIT            Value               Description
#----------    --------------------    -------------------
 RUN .                         ONE:    Run Number
 PDAT.                          GL:    Permanent Datum
 EPD .FT                          :    Elevation Of Perm. Datum
 LMF .               KELLY BUSHING:    Log Measured From
 EKB .FT                          :    Elevation Of Kelly Bushing
 DF .FT                           :    Elevation Of Derrick Floor
 GL .FT                           :    Elevation Of Ground Level
 TD  .FT                          :    Total Depth
 CSGD.FT                          :    Casing Bottom (Driller) 1
 CSGL.FT                          :    Casing Bottom (Logger) 1
 MUD .                            :    Drilling Fluid Type
 MUDV .CP                         :    Drilling Fluid Viscosity
 MUDD .LB/USG                     :    Drilling Fluid Density
 FL .ML/30MIN                     :    Drilling Fluid Loss
 PH.                              :    Drilling Fluid Ph
 MUDS .                           :    Mud Sample Source
 RM .OHMM                         :    Resistivity Of Mud Sample
 RMT .DEGF                        :    Mud Sample Temperature
 RMF .OHMM                        :    Mud Filtrate Resistivity
 RMFT.DEGF                        :    Mud Filtrate Sample Temperature
 RMC .OHMM                        :    Mud Cake Resistivity
 RMCT.DEGF                        :    Mud Cake Sample Temperature
 RMB .OHMM                        :    Mud Resistivity At Bht
 TMAX .DEGF                       :    Bottom Hole Temperature
#
~Other Information Block
<DescLogPlotStart>   NEURALOG PLOT DEFINITION
PLOTDEFVERSION: 3
LASFILE: E:\Nair Innovations\42_TEXAS\371_Pecos\Mobil_IB-Weatherby 1 Pecos_1.la
DEPTHSCALE: 239.999996
RESOLUTION: 200
DEPTHLABELFREQ: 100.000000
HEAVYGRIDFREQ: 50.000000
MEDIUMGRIDFREQ: 50.000000
LIGHTGRIDFREQ: 10.000000
#
#   TRACK 1
#
STARTTRACK: 
 LEFTX: 0.500000 inch
 RIGHTX: 3.000000 inch
 SCALETYPE: Linear
 NUMCHARTDIVISIONS: 10
CURVE: GR    0.000000   150.000000 (255,0,0)      Short_Dash        4     N    
CURVE: DTedit 6637.927700 24453.046900 (0,131,131)    Solid             2     N
CURVE: GR_org -999.990000 109.000000 (255,0,255)    Solid             2     N  
ENDTRACK: 
#
#   TRACK 2
#
STARTTRACK: 
 LEFTX: 3.750000 inch
 RIGHTX: 6.250000 inch
 SCALETYPE: Linear
 NUMCHARTDIVISIONS: 10
ENDTRACK: 
#
#   TRACK 3
#
STARTTRACK: 
 LEFTX: 6.250000 inch
 RIGHTX: 8.750000 inch
 SCALETYPE: Linear
 NUMCHARTDIVISIONS: 10
CURVE: DT    190.000000 50.000000  (255,0,131)    Solid             2     N    
ENDTRACK: 
<DescLogPlotEnd>
<DepthTrack type='Reference' track='1' Label='0' color='0' hor='0' />
<Reference font='144,0,-900,0,500,0,16777216,Arial' />
~A DEPTH     DT               DTedit             GR               GR_org            
# ...
    5009.500 61.21360000      16336.23930000   -999.00000000    -999.00000000   
    5010.000 61.85780000      16166.11040000   -999.00000000    -999.00000000   
    5010.500 61.85780000      16166.11040000   -999.00000000    -999.00000000   
    5011.000 63.96980000      15632.37700000   -999.00000000    -999.00000000   
    5011.500 63.96980000      15632.37700000   -999.00000000    -999.00000000   
    5012.000 65.63170000      15236.54000000   -999.00000000    -999.00000000   
    5012.500 65.63170000      15236.54000000   -999.00000000    -999.00000000   
    5013.000 66.30970000      15080.75000000   -999.00000000    -999.00000000   
    5013.500 66.30970000      15080.75000000   -999.00000000    -999.00000000   
    5014.000 66.75130000      14980.98240000   -999.00000000    -999.00000000   
    5014.500 66.75130000      14980.98240000   -999.00000000    -999.00000000   
    5015.000 66.91560000      14944.19730000   -999.00000000    -999.00000000   
    5015.500 66.91560000      14944.19730000   -999.00000000    -999.00000000   
    5016.000 66.92990000      14941.00490000   -999.00000000    -999.00000000   
    5016.500 66.92990000      14941.00490000   -999.00000000    -999.00000000   
    5017.000 66.75730000      14979.63480000   -999.00000000    -999.00000000   
    5017.500 66.75730000      14979.63480000   -999.00000000    -999.00000000   
    5018.000 66.53610000      15029.43460000   -999.00000000    -999.00000000   
    5018.500 66.53610000      15029.43460000   -999.00000000    -999.00000000   
    5019.000 66.40050000      15060.12790000   -999.00000000    -999.00000000   
    5019.500 66.40050000      15060.12790000   -999.00000000    -999.00000000   
    5020.000 66.40820000      15058.38090000   -999.00000000    -999.00000000   
    5020.500 66.40820000      15058.38090000   -999.00000000    -999.00000000   
    5021.000 66.57190000      15021.35250000   -999.00000000    -999.00000000   
    5021.500 66.57190000      15021.35250000   -999.00000000    -999.00000000   
    5022.000 66.74320000      14982.79880000   -999.00000000    -999.00000000   
    5022.500 66.74320000      14982.79880000   -999.00000000    -999.00000000   
    5023.000 66.91630000      14944.04300000   -999.00000000    -999.00000000   
    5023.500 66.91630000      14944.04300000   -999.00000000    -999.00000000   
    5024.000 65.02540000      15378.60640000   -999.00000000    -999.00000000   
    5024.500 65.02540000      15378.60640000   -999.00000000    -999.00000000   
    5025.000 52.51040000      19043.84770000   -999.00000000    -999.00000000   
    5025.500 52.51040000      19043.84770000   -999.00000000    -999.00000000   
    5026.000 51.08660000      19574.60350000   -999.00000000    -999.00000000   
    5026.500 51.08660000      19574.60350000   -999.00000000    -999.00000000   
    5027.000 50.87490000      19656.05860000   -999.00000000    -999.00000000   
    5027.500 50.87490000      19656.05860000   -999.00000000    -999.00000000   
    5028.000 51.11280000      19564.57030000   -999.00000000    -999.00000000   
    5028.500 51.11280000      19564.57030000   -999.00000000    -999.00000000   
    5029.000 51.07120000      19580.50590000   -999.00000000    -999.00000000   
    5029.500 51.07120000      19580.50590000   -999.00000000    -999.00000000   
    5030.000 50.91620000      19640.11520000   -999.00000000    -999.00000000   
    5030.500 50.91620000      19640.11520000   -999.00000000    -999.00000000   
    5031.000 50.74240000      19707.38480000   -999.00000000    -999.00000000   
    5031.500 50.74240000      19707.38480000   -999.00000000    -999.00000000   
    5032.000 50.55440000      19780.67190000   -999.00000000    -999.00000000   
    5032.500 50.55440000      19780.67190000   -999.00000000    -999.00000000   
    5033.000 50.36640000      19854.50590000   -999.00000000    -999.00000000   
    5033.500 50.36640000      13362.83200000   -999.00000000    -999.00000000   
    5034.000 50.17740000      13358.14450000   -999.00000000    -999.00000000   
    5034.500 50.17740000      13353.45410000   -999.00000000    -999.00000000   
    5035.000 49.99660000      13348.76660000   -999.00000000    -999.00000000   
    5035.500 49.99660000      13344.07620000   -999.00000000    -999.00000000   
    5036.000 49.83750000      13339.38870000   -999.00000000    -999.00000000   
    5036.500 49.83750000      13334.69820000   -999.00000000    -999.00000000   
    5037.000 49.82730000      13330.01070000   -999.00000000    -999.00000000   
    5037.500 49.82730000      13325.31930000   -999.00000000    -999.00000000   
    5038.000 50.10740000      13320.63280000   -999.00000000    -999.00000000   
    5038.500 50.10740000      13315.94530000   -999.00000000    -999.00000000   
    5039.000 50.30960000      13311.25490000   -999.00000000    -999.00000000   
    5039.500 50.30960000      13306.56740000   -999.00000000    -999.00000000   
    5040.000 50.46480000      13301.87700000   -999.00000000    -999.00000000   
    5040.500 50.46480000      13297.18950000   -999.00000000    -999.00000000   
    5041.000 50.61360000      13292.49800000   -999.00000000    -999.00000000   
    5041.500 50.61360000      13287.81150000   -999.00000000    -999.00000000   
    5042.000 50.74710000      13283.12400000   -999.00000000    -999.00000000   
    5042.500 50.74710000      13278.43360000   -999.00000000    -999.00000000   
    5043.000 50.88050000      13273.74610000   -999.00000000    -999.00000000   
    5043.500 50.88050000      13269.05570000   -999.00000000    -999.00000000   
    5044.000 50.95810000      13264.36820000   -999.00000000    -999.00000000   
    5044.500 50.95810000      13259.67680000   -999.00000000    -999.00000000   
    5045.000 51.01820000      13254.99020000   -999.00000000    -999.00000000   
    5045.500 51.01820000      13250.29880000   -999.00000000    -999.00000000   
    5046.000 51.07840000      13245.61230000   -999.00000000    -999.00000000   
    5046.500 51.07840000      13240.92480000   -999.00000000    -999.00000000   
    5047.000 51.08040000      13236.23440000   -999.00000000    -999.00000000   
    5047.500 51.08040000      13231.54690000   -999.00000000    -999.00000000   
    5048.000 51.07140000      13226.85550000   -999.00000000    -999.00000000   
    5048.500 51.07140000      13222.16890000   -999.00000000    -999.00000000   
    5049.000 51.24990000      13217.47750000   -999.00000000    -999.00000000   
    5049.500 51.24990000      13212.79100000   -999.00000000    -999.00000000   
    5050.000 51.39110000      13208.10350000   -999.00000000    -999.00000000   
    5050.500 51.39110000      13203.41310000   -999.00000000    -999.00000000   
    5051.000 51.29350000      13198.72560000   -999.00000000    -999.00000000   
    5051.500 51.29350000      13194.03420000   -999.00000000    -999.00000000   
    5052.000 50.89860000      13189.34770000   -999.00000000    -999.00000000   
    5052.500 50.89860000      13184.65620000   -999.00000000    -999.00000000   
    5053.000 50.55680000      13179.96970000   -999.00000000    -999.00000000   
    5053.500 50.55680000      13175.27830000   -999.00000000    -999.00000000   
    5054.000 50.72040000      13170.59180000   -999.00000000    -999.00000000   
    5054.500 50.72040000      13165.90430000   -999.00000000    -999.00000000   
    5055.000 50.54240000      13161.21390000   -999.00000000    -999.00000000   
    5055.500 50.54240000      13156.52640000   -999.00000000    -999.00000000   
    5056.000 49.98650000      13151.83500000   -999.00000000    -999.00000000   
    5056.500 49.98650000      13147.14840000   -999.00000000    -999.00000000   
    5057.000 49.75840000      13142.45700000   -999.00000000    -999.00000000   
    5057.500 49.75840000      13137.77050000   -999.00000000    -999.00000000   
    5058.000 49.95060000      13133.08300000   -999.00000000    -999.00000000   
    5058.500 49.95060000      13128.39260000   -999.00000000    -999.00000000   
