###############################################
##         ENVERUS                           ##
##         ESS - Open Hole                   ##
##         PERMIAN / DELAWARE                ##
##         Nov 04 2023  V4.0                 ##
##         42-389-00802-00-00                ##
###############################################
## Copyright 2017-2023  ENVERUS.  All Rights Reserved. 
## Confidential - Property of ENVERUS, use governed by terms and 
## conditions found within the existing Information Services Subscription Agreement 
## (as may be amended, the “ISSA”) between Customer and ENVERUS. 
## 
~VERSION INFORMATION
# MNEM.UNIT                               DATA : DESCRIPTION OF MNEMONIC
#-----.-----     ----------------------------- : -----------------------------
VERS.                                     2.00 : CWLS LOG ASCII STANDARD - VERSION 2.00
WRAP.                                       NO : MULTIPLE LINES PER DEPTH STEP
VEND.                                  ENVERUS : VENDOR
TYPE.                          ESS - OPEN HOLE : ENVERUS ESSENTIAL CURVES – ACCESSIBLE THROUGH ENVERUS PRISM(TM)
DOC.                                  31817456 : ENVERUS HEADER RAW DOCUMENT ID
#___________________________________________________________________________________________________ 
~WELL INFORMATION 
# RyAIq6UWQPnCIzV1aSVljU5sZzU8mzXCuHzh8Tf3VVfaeSb2oya67RMqigcBPLsftsjdPp3J13KbDcbgGgUr7w== 
# MNEM.UNIT                                              DATA : DESCRIPTION OF MNEMONIC 
#-----.-----                    ----------------------------- : ----------------------------- 
CNTY.                                                  REEVES : COUNTY 
STATE.                                                  TEXAS : STATE 
CNTRY.                                                    USA : COUNTRY 
API.                                             42-389-00802 : API (10 Digit) 
API_14.                                    42-389-00802-00-00 : API (14 Digits) 
API_14_std.                                 42-389-00802-0000 : API (14 Digits Standard) 
UWI.                                           42389008020000 : UNIQUE WELL ID 
WELL.                                                      1, : WELL NAME
STRT.FT                                                 103.0 : START DEPTH
STOP.FT                                                5419.0 : STOP DEPTH
STEP.FT                                                   0.5 : STEP BETWEEN DEPTHS
NULL.                                                 -999.25 : NULL VALUE
#___________________________________________________________________________________________________ 
~CURVE INFORMATION 
# MNEM.UNIT           : CURVE DESCRIPTION 
#-----.-----          : ----------------------------- 
 DEPT.FT               : MEASURED DEPTH 
 GR.API                : GAMMA RAY (GR) 
 DT.US/FT              : SONIC DELTA TRANSIT TIME (DT) 
 #___________________________________________________________________________________________________ 
~A         DEPT             GR             DT
# ...
         1843.0          7.241         69.597
         1843.5          5.861         64.572
         1844.0          4.481         59.548
         1844.5          3.859         61.939
         1845.0          4.504         69.418
         1845.5          5.149         67.677
         1846.0          5.794         65.134
         1846.5          6.439         66.810
         1847.0          7.083         74.983
         1847.5          7.728         72.392
         1848.0          8.193         63.768
         1848.5          6.892         66.257
         1849.0          5.590         68.745
         1849.5          5.074         71.233
         1850.0          6.711         67.028
         1850.5          8.349         56.177
         1851.0          9.987         59.777
         1851.5         11.625         59.895
         1852.0         13.262         60.014
         1852.5         14.501         61.383
         1853.0         13.121         68.142
         1853.5         11.741         74.901
         1854.0         10.361         81.819
         1854.5          8.981         78.113
         1855.0          7.601         73.917
         1855.5          6.221         69.714
         1856.0          5.637         65.460
         1856.5          6.536         61.206
         1857.0          7.434         56.951
         1857.5          8.332         61.143
         1858.0          9.231         67.269
         1858.5         10.129         73.394
         1859.0         11.028         68.014
         1859.5         11.926         75.721
         1860.0         12.824         75.252
         1860.5         12.898         71.254
         1861.0         11.715         67.255
         1861.5         10.531         66.220
         1862.0          9.348         67.082
         1862.5          8.164         66.520
         1863.0          7.422         65.958
         1863.5          7.647         66.812
         1864.0          7.871         67.923
         1864.5          8.096         67.706
         1865.0          8.321         67.490
         1865.5          7.387         68.458
         1866.0          6.203         70.297
         1866.5          5.019         72.136
         1867.0          3.835         73.975
         1867.5          4.487         75.815
         1868.0          5.413         65.677
         1868.5          6.339         53.707
         1869.0          7.264         48.772
         1869.5          8.190         39.145
         1870.0          9.116         39.352
         1870.5          9.291         39.703
         1871.0          9.169         47.208
         1871.5          9.046         52.240
         1872.0          8.923         52.723
         1872.5          8.801         53.205
         1873.0          8.678         53.688
         1873.5          8.556         53.892
         1874.0          8.433         53.539
         1874.5          8.310         53.186
         1875.0          8.188         52.832
         1875.5          8.065         52.479
         1876.0          7.943         52.126
         1876.5          7.820         51.772
         1877.0          7.703         52.798
         1877.5          7.605         54.417
         1878.0          7.508         55.049
         1878.5          7.410         55.548
         1879.0         18.378         56.047
         1879.5         22.251         56.546
         1880.0         26.125         55.622
         1880.5         27.143         54.461
         1881.0         25.959         54.311
         1881.5         24.775         54.546
         1882.0         23.591         52.981
         1882.5         22.407         53.068
         1883.0         21.223         53.155
         1883.5         18.027         53.242
         1884.0         14.653         53.328
         1884.5         11.278         53.415
         1885.0          7.904         53.502
         1885.5          5.992         53.589
         1886.0          6.690         53.699
         1886.5          7.388         54.108
         1887.0          8.087         54.517
         1887.5          8.785         54.926
         1888.0          9.483         54.934
         1888.5         10.181         54.715
         1889.0         11.967         54.496
         1889.5         14.375         54.277
         1890.0         13.827         54.057
         1890.5         13.181         53.838
         1891.0         12.534         53.666
         1891.5         11.888         53.537
         1892.0         11.242         53.408
         1892.5         10.595         53.278
         1893.0         10.999         53.149
         1893.5         11.717         53.020
         1894.0         12.435         52.890
         1894.5         12.217         52.761
         1895.0         11.968         52.632
         1895.5         11.719         52.502
         1896.0         11.470         52.373
         1896.5         11.221         52.244
         1897.0         10.972         52.114
         1897.5         10.723         51.985
         1898.0         10.474         51.868
         1898.5         10.225         53.700
         1899.0          9.976         55.531
         1899.5         12.541         57.362
         1900.0         22.319         58.269
         1900.5         32.098         57.177
         1901.0         33.843         56.085
         1901.5         29.700         54.992
         1902.0         25.558         53.053
         1902.5         21.416         52.987
         1903.0         17.273         52.920
         1903.5         13.131         52.853
         1904.0          8.989         52.787
         1904.5          5.530         52.806
         1905.0          5.990         54.529
         1905.5          6.450         55.826
         1906.0          6.911         56.861
         1906.5          7.371         56.589
         1907.0          7.831         56.317
         1907.5          8.292         59.502
         1908.0          8.752         63.430
         1908.5          9.973         67.358
         1909.0         11.322         71.537
         1909.5         12.670         76.189
         1910.0         14.018         78.640
         1910.5         14.213         69.650
         1911.0         12.572         70.735
         1911.5         10.931         71.346
         1912.0          9.290         69.808
         1912.5          7.648         68.270
         1913.0          6.929         66.813
         1913.5          8.428         66.436
         1914.0          9.927         66.058
         1914.5         11.426         65.680
         1915.0          9.955         65.303
         1915.5          8.300         65.018
         1916.0          6.928         65.520
         1916.5          7.766         65.388
         1917.0          8.604         64.203
         1917.5          9.441         63.017
         1918.0         10.279         63.258
         1918.5         11.117         64.047
         1919.0         11.135         64.837
         1919.5         10.373         65.626
         1920.0          9.612         66.415
         1920.5          8.850         67.204
         1921.0          8.676         66.829
         1921.5          8.953         66.283
         1922.0          9.229         65.738
         1922.5          9.506         65.193
         1923.0          9.782         64.648
         1923.5         10.059         64.103
         1924.0         10.335         64.373
         1924.5         10.472         64.781
         1925.0         10.229         65.189
         1925.5          9.985         65.597
         1926.0          9.742         66.005
         1926.5          9.498         66.413
         1927.0          9.255         66.821
         1927.5          9.011         67.229
         1928.0          8.768         67.182
         1928.5          8.525         67.038
         1929.0          8.281         66.913
         1929.5          8.947         67.336
