###############################################
##         ENVERUS                           ##
##         ESS - Open Hole                   ##
##         PERMIAN / DELAWARE                ##
##         Nov 04 2023  V4.0                 ##
##         42-389-00931-00-00                ##
###############################################
## Copyright 2017-2023  ENVERUS.  All Rights Reserved. 
## Confidential - Property of ENVERUS, use governed by terms and 
## conditions found within the existing Information Services Subscription Agreement 
## (as may be amended, the “ISSA”) between Customer and ENVERUS. 
## 
~VERSION INFORMATION
# MNEM.UNIT                               DATA : DESCRIPTION OF MNEMONIC
#-----.-----     ----------------------------- : -----------------------------
VERS.                                     2.00 : CWLS LOG ASCII STANDARD - VERSION 2.00
WRAP.                                       NO : MULTIPLE LINES PER DEPTH STEP
VEND.                                  ENVERUS : VENDOR
TYPE.                          ESS - OPEN HOLE : ENVERUS ESSENTIAL CURVES – ACCESSIBLE THROUGH ENVERUS PRISM(TM)
DOC.                                  31935239 : ENVERUS HEADER RAW DOCUMENT ID
#___________________________________________________________________________________________________ 
~WELL INFORMATION 
# S9zL0tdqvH3y2XIpNbXcuKF0SeIoK+7NE6VaQ02nn2+shQHF2oZWL/5TS96hefD+9qjP/MIJWV/WOidK809eGw== 
# MNEM.UNIT                                              DATA : DESCRIPTION OF MNEMONIC 
#-----.-----                    ----------------------------- : ----------------------------- 
CNTY.                                                  REEVES : COUNTY 
STATE.                                                  TEXAS : STATE 
CNTRY.                                                    USA : COUNTRY 
API.                                             42-389-00931 : API (10 Digit) 
API_14.                                    42-389-00931-00-00 : API (14 Digits) 
API_14_std.                                 42-389-00931-0000 : API (14 Digits Standard) 
UWI.                                           42389009310000 : UNIQUE WELL ID 
WELL.                                                      1, : WELL NAME
STRT.FT                                                 101.0 : START DEPTH
STOP.FT                                                5373.0 : STOP DEPTH
STEP.FT                                                   0.5 : STEP BETWEEN DEPTHS
NULL.                                                 -999.25 : NULL VALUE
#___________________________________________________________________________________________________ 
~CURVE INFORMATION 
# MNEM.UNIT           : CURVE DESCRIPTION 
#-----.-----          : ----------------------------- 
 DEPT.FT               : MEASURED DEPTH 
 GR.API                : GAMMA RAY (GR) 
 DT.US/FT              : SONIC DELTA TRANSIT TIME (DT) 
 #___________________________________________________________________________________________________ 
~A         DEPT             GR             DT
# ...
         3581.0          7.012         67.051
         3581.5          7.256         67.013
         3582.0          7.500         67.016
         3582.5          7.743         67.019
         3583.0          7.987         67.023
         3583.5          8.231         67.026
         3584.0          8.177         67.029
         3584.5          7.532         67.032
         3585.0          6.888         67.035
         3585.5          6.543         67.039
         3586.0          6.672         67.042
         3586.5          6.801         67.045
         3587.0          6.930         67.048
         3587.5          7.058         67.052
         3588.0          7.187         67.055
         3588.5          7.316         67.058
         3589.0          7.445         67.061
         3589.5          7.574         67.064
         3590.0          7.703         67.068
         3590.5          7.832         67.071
         3591.0          7.960         67.074
         3591.5          7.607         67.077
         3592.0          7.172         67.081
         3592.5          6.738         67.084
         3593.0          6.304         67.087
         3593.5          5.870         67.090
         3594.0          5.436         67.093
         3594.5          5.001         67.097
         3595.0          4.567         67.100
         3595.5          4.133         67.103
         3596.0          3.699         67.106
         3596.5          3.264         67.110
         3597.0          2.830         67.113
         3597.5          2.396         67.116
         3598.0          1.962         67.119
         3598.5          1.528         67.122
         3599.0          1.093         67.126
         3599.5          0.659         67.129
         3600.0          0.968         67.132
         3600.5          1.296         67.135
         3601.0          1.623         67.138
         3601.5          1.950         67.142
         3602.0          2.278         67.145
         3602.5          2.605         67.148
         3603.0          2.933         67.151
         3603.5          3.260         67.155
         3604.0          3.588         67.158
         3604.5          3.919         67.178
         3605.0          4.323         67.218
         3605.5          4.727         67.259
         3606.0          5.131         67.299
         3606.5          5.535         67.339
         3607.0          5.939         67.380
         3607.5          6.343         67.420
         3608.0          6.507         67.461
         3608.5          6.220         67.501
         3609.0          5.932         67.542
         3609.5          5.645         67.582
         3610.0          5.358         67.623
         3610.5          5.071         67.663
         3611.0          4.783         67.704
         3611.5          4.496         67.744
         3612.0          4.374         67.785
         3612.5          4.627         67.825
         3613.0          4.879         67.866
         3613.5          5.116         67.906
         3614.0          5.193         67.946
         3614.5          5.271         67.987
         3615.0          5.348         68.027
         3615.5          5.095         68.068
         3616.0          4.624         68.095
         3616.5          4.154         67.997
         3617.0          3.683         67.899
         3617.5          3.213         67.800
         3618.0          2.742         67.702
         3618.5          2.272         67.604
         3619.0          1.922         67.506
         3619.5          2.647         67.408
         3620.0          3.373         67.309
         3620.5          4.099         67.211
         3621.0          4.825         67.113
         3621.5          5.550         67.015
         3622.0          6.276         66.917
         3622.5          7.002         66.879
         3623.0          7.728         66.891
         3623.5          7.843         66.903
         3624.0          7.377         66.916
         3624.5          6.912         66.928
         3625.0          6.446         66.940
         3625.5          5.980         66.952
         3626.0          5.515         66.964
         3626.5          5.049         66.977
         3627.0          4.584         66.989
         3627.5          4.118         67.001
         3628.0          3.653         67.013
         3628.5          3.582         67.026
         3629.0          3.776         67.038
         3629.5          3.970         67.050
         3630.0          4.142         67.062
         3630.5          4.063         67.074
         3631.0          3.875         67.087
         3631.5          3.515         67.099
         3632.0          2.796         67.111
         3632.5          2.797         67.123
         3633.0          2.978         67.135
         3633.5          3.159         67.148
         3634.0          3.340         67.160
         3634.5          3.521         67.172
         3635.0          3.702         67.184
         3635.5          3.883         67.196
         3636.0          4.064         67.209
         3636.5          4.244         67.221
         3637.0          4.425         67.233
         3637.5          4.476         67.245
         3638.0          4.300         67.257
         3638.5          4.125         67.270
         3639.0          3.949         67.282
         3639.5          3.773         67.294
         3640.0          3.598         67.306
         3640.5          3.422         66.196
         3641.0          3.528         64.466
         3641.5          4.062         62.735
         3642.0          4.597         60.633
         3642.5          5.131         55.870
         3643.0          5.666         53.012
         3643.5          6.200         52.818
         3644.0          6.734         52.624
         3644.5          7.269         52.430
         3645.0          7.803         52.236
         3645.5          8.055         52.041
         3646.0          7.548         51.818
         3646.5          7.041         51.559
         3647.0          6.534         51.300
         3647.5          6.027         51.041
         3648.0          5.998         50.782
         3648.5          5.975         50.523
         3649.0          5.953         50.264
         3649.5          5.930         50.005
         3650.0          5.907         49.746
         3650.5          5.885         49.632
         3651.0          5.862         49.672
         3651.5          5.840         49.713
         3652.0          5.817         49.753
         3652.5          5.794         49.794
         3653.0          5.772         49.834
         3653.5          5.749         49.875
         3654.0          6.436         49.915
         3654.5          7.502         49.955
         3655.0          8.567         49.996
         3655.5          9.632         50.036
         3656.0         10.697         50.077
         3656.5         10.576         50.117
         3657.0         10.191         50.157
         3657.5          9.806         50.198
         3658.0          9.421         50.238
         3658.5          9.035         50.279
         3659.0          8.650         50.319
         3659.5          8.223         50.273
         3660.0          7.479         50.144
         3660.5          6.736         50.015
         3661.0          5.992         49.886
         3661.5          5.450         49.757
         3662.0          6.669         49.629
         3662.5          7.887         49.500
         3663.0          9.105         49.371
         3663.5          8.881         49.242
         3664.0          8.454         49.113
         3664.5          8.027         49.199
         3665.0          7.600         49.297
         3665.5          7.173         49.395
         3666.0          7.686         49.493
         3666.5          8.454         49.591
         3667.0          9.222         49.689
         3667.5          9.990         49.787
