~Version Information Block
 VERS.                2.00:     CWLS LOG ASCII STANDARD - VERSION 2.000000
 WRAP.                  NO:     One Line Per Depth Step
#
~Well Information Block
#MNEM.UNIT                     Data                         Information
#----------   ------------------------------------------   ----------------
# Enverus has updated the API/UWI.  The previous names are renamed to  PREV_API / PREV_UWI
API.                             42-371-39483-90-00 : API (14 Digits with Dashes)
UWI.                                 42371394839000 : UNIQUE WELL ID

 STRT.FT                                    10010.0000:     START DEPTH
 STOP.FT                                    11812.0000:     STOP DEPTH
 STEP.FT                                        0.5000:     STEP
 NULL.                                       -999.2500:     NULL VALUE
 COMP.                           PATRIOT RESOURCES INC:     COMPANY
 WELL.                        ROOSTERFISH UNIT 22NE 1H:     WELL
 FLD .                             WOLFBONE TREND AREA:     FIELD
 LOC .                                                :     LOCATION
 SEC .                                              22:     SECTION
 CNTY.                                          PEACOS:     COUNTY
 STAT.                                           TEXAS:     STATE
 CTRY.                                           U.S.A:     COUNTRY
 SRVC.                                    SCHLUMBERGER:     SERVICE COMPANY
 DATE.                                      03/18/2017:     DATE
PREV_APII .                                  42371394830000:     API NUMBER
 PREV_UWI .                                  42371394830000:     UWI NUMBER
 TVD .                                              NO:     TVD flag
 WSTA.                                             LOC:     Well status
#
~Curve Information Block
#MNEM.UNIT       API CODE      Curve Description
#----------    -------------   -------------------
 DEPT.FT                   :   Depth in Feet
 ECGR.GAPI     35 310 01 01:   Environmentally Corrected Gamma Ray
 CALI.IN       70 280 01 01:   Caliper
 TENS.LBS                  :   Tension
 SPHI_476.V/V  61 890 01 01:   Sonic Porosity 47.6 Matrix
 DT  .US/F     60 520 08 01:   Delta-T
 DTSM.US/F                 :   Delta-T Shear Measurement
 STIT.FT/H                 :   STIT
#
~Parameter Information Block
#MNEM.UNIT            Value               Description
#----------    --------------------    -------------------
 RUN .                         ONE:    Run Number
 PDAT.                          GL:    Permanent Datum
 EPD .FT                        25:    Elevation Of Perm. Datum
 LMF .               KELLY BUSHING:    Log Measured From
 EKB .FT                          :    Elevation Of Kelly Bushing
 DF .FT                           :    Elevation Of Derrick Floor
 GL .FT                         25:    Elevation Of Ground Level
 TD  .FT                     18979:    Total Depth
 CSGD.FT                      5100:    Casing Bottom (Driller) 1
 CSGL.FT                     18979:    Casing Bottom (Logger) 1
 MUD .                   OIL BASED:    Drilling Fluid Type
 MUDV .CP                      102:    Drilling Fluid Viscosity
 MUDD .LB/USG                 13.0:    Drilling Fluid Density
 FL .ML/30MIN                     :    Drilling Fluid Loss
 PH.                           8.8:    Drilling Fluid Ph
 MUDS .                           :    Mud Sample Source
 RM .OHMM                         :    Resistivity Of Mud Sample
 RMT .DEGF                        :    Mud Sample Temperature
 RMF .OHMM                        :    Mud Filtrate Resistivity
 RMFT.DEGF                        :    Mud Filtrate Sample Temperature
 RMC .OHMM                        :    Mud Cake Resistivity
 RMCT.DEGF                        :    Mud Cake Sample Temperature
 RMB .OHMM                        :    Mud Resistivity At Bht
 TMAX .DEGF                    152:    Bottom Hole Temperature
#
~Other Information Block
<DescLogPlotStart>   NEURALOG PLOT DEFINITION
PLOTDEFVERSION: 3
LASFILE: D:\nds\projects\poojawells\December data\PoojaWells Digitizing_Cassidy
DEPTHSCALE: 240.000000
RESOLUTION: 144
DEPTHLABELFREQ: 100.000000
HEAVYGRIDFREQ: 100.000000
MEDIUMGRIDFREQ: 50.000000
LIGHTGRIDFREQ: 10.000000
#
#   TRACK 1
#
STARTTRACK: 
 LEFTX: 0.500000 inch
 RIGHTX: 3.000000 inch
 SCALETYPE: Linear
 NUMCHARTDIVISIONS: 10
CURVE: ECGR  0.000000   150.000000 (0,0,255)      Solid             2     Y    
BACKUP: 150.000000 300.000000 (0,0,255)      Solid             2    
CURVE: CALI  6.000000   16.000000  (0,131,131)    Dot               2     Y    
BACKUP: -4.000000  6.000000   (0,131,131)    Dot               2    
CURVE: TENS  10000.000000 0.000000   (255,0,255)    Short_Dash        2     N  
ENDTRACK: 
#
#   TRACK 2
#
STARTTRACK: 
 LEFTX: 3.500000 inch
 RIGHTX: 8.500000 inch
 SCALETYPE: Linear
 NUMCHARTDIVISIONS: 10
CURVE: SPHI_476 0.300000   -0.100000  (255,0,0)      Solid             2     N 
CURVE: DT    140.000000 40.000000  (255,131,0)    Dot               2     N    
CURVE: DTSM  240.000000 40.000000  (255,255,0)    Short_Dash        2     N    
ENDTRACK: 
#
#   TRACK 3
#
STARTTRACK: 
 LEFTX: 8.500000 inch
 RIGHTX: 9.256944 inch
 SCALETYPE: Linear
 NUMCHARTDIVISIONS: 10
CURVE: STIT  0.000000   50.000000  (0,0,255)      Solid             2     N    
ENDTRACK: 
<DescLogPlotEnd>
~A DEPTH     ECGR             CALI             TENS             SPHI_476             DT               DTSM             STIT            
# ...
   10254.000 38.10306145      8.45786517       4685.95371109    0.07910864       58.45403900      110.23676880     0.45412844      
   10254.500 36.67717185      8.45786517       4628.49162011    0.05626741       56.03064067      110.73816156     0.47771953      
   10255.000 33.35596568      8.45786517       4670.39106145    0.05341226       54.93732591      111.97772551     0.50131062      
   10255.500 31.91526874      8.45786517       4846.36871508    0.05298050       54.92479109      113.66406843     0.52490170      
   10256.000 34.12712255      8.45786517       4786.08007449    0.05498607       55.25069638      116.19322541     0.54849279      
   10256.500 41.84561709      8.45786517       4727.42085661    0.05069638       54.56128134      119.97295264     0.57208388      
   10257.000 48.19673541      8.45786517       4668.76163873    0.04779944       54.14577530      123.67493733     0.59780518      
   10257.500 51.89419905      8.45786517       4635.31967722    0.04902507       53.74683141      125.35306019     0.62518436      
   10258.000 54.61297953      8.45786517       4612.97330850    0.06016713       57.13015480      127.10165699     0.65575897      
   10258.500 58.03800118      8.45786517       4627.56052142    0.21782730       72.43751694      129.12343596     0.68800642      
   10259.000 63.05657575      8.45786517       4795.15828678    0.22058496       78.85951358      130.95479722     0.81859479      
   10259.500 66.71282126      8.45786517       4845.99627561    0.21858496       78.98871673      130.42470715     3.78135837      
   10260.000 65.16297620      8.45786517       4792.36499069    0.21587744       77.86908078      129.41504178     3.60756252      
   10260.500 60.30060884      8.45786517       4738.73370577    0.21392758       77.67409471      128.44011142     3.38319599      
   10261.000 55.37441446      8.45786517       4685.63501121    0.20711699       76.66434540      125.78989256     2.57663285      
   10261.500 54.02106119      8.45793638       4657.57427783    0.19888579       75.30640669      123.42618384     1.76243661      
   10262.000 55.79825263      8.45804987       4679.31904469    0.21228412       77.38857939      120.64066852     0.94814107      
   10262.500 56.81087172      8.45823303       4706.05817738    0.22339833       78.92757660      124.26183844     0.25006133      
   10263.000 54.50488521      8.45900727       4707.55791327    0.22685237       79.49860724      127.59251890     0.35247174      
   10263.500 51.80584960      8.46173785       4655.75405306    0.23062674       80.00000000      131.78272981     0.43888389      
   10264.000 50.26118608      8.55912589       4594.97206704    0.23359331       80.39461467      132.80408542     0.50096180      
   10264.500 52.76968813      8.63403499       4567.03910615    0.23565460       80.73816156      133.91829155     0.50215727      
   10265.000 60.35404173      8.64840101       4567.03910615    0.23509749       80.52924791      135.23676880     3.66463706      
   10265.500 69.59370222      9.33336352       4518.15642458    0.22976787       80.04178273      136.84122563     3.44418814      
   10266.000 76.67520618      8.74545758       4427.37430168    0.22564067       79.28040854      138.44568245     3.03109903      
   10266.500 81.02817667      8.84312381       4395.11173184    0.22267409       78.70473538      139.02506964     2.63237585      
   10267.000 83.16369567      8.90926095       4359.91620112    0.21114206       77.37883008      135.12534819     1.84546597      
   10267.500 84.08969619      8.86116918       4324.72067039    0.20389972       76.35097493      129.03669243     1.03982113      
   10268.000 81.72799883      8.85136856       4289.52513966    0.19932219       75.86350975      124.66001852     0.26012742      
   10268.500 79.06327445      8.95332182       4254.32960894    0.19163417       74.62674095      121.18733922     0.23791048      
   10269.000 76.32368889      8.91844135       4233.41018357    0.18586815       73.77785515      121.54689142     0.23421473      
   10269.500 74.63296814      8.58791228       4239.12872585    0.18328691       73.33465977      121.44376690     0.23140263      
   10270.000 73.99258890      8.58251520       4244.17268360    0.17938719       72.69001194      120.82290999     0.22994947      
   10270.500 74.17955225      8.59115424       4249.66017433    0.17453978       72.05083565      120.23398329     0.22935780      
   10271.000 73.87247938      8.60986893       4254.87216506    0.16906279       71.35097493      118.99721448     0.22935780      
   10271.500 71.32992655      8.41170761       4259.81850571    0.16221634       70.34818942      117.54874652     0.22935780      
   10272.000 69.68111116      8.31990092       4273.49245303    0.15901034       69.74233983      116.27437326     0.22935780      
   10272.500 71.73188083      8.30241870       4287.66286531    0.15721594       69.55431755      115.52228412     0.22935780      
   10273.000 72.59304465      8.28508911       4268.49389192    0.15754875       69.46247748      114.75463413     0.22935780      
   10273.500 70.09258734      8.26724555       4246.22669409    0.15926781       69.86668317      113.96106086     0.22935780      
   10274.000 62.91648660      8.26142591       4235.47486034    0.16243733       70.48611046      114.43496376     0.22935780      
   10274.500 62.77292408      8.26123808       4245.53072626    0.16795265       71.16038505      114.97998043     0.22935780      
   10275.000 62.79845778      8.26122250       4255.58659218    0.17270195       71.92566844      115.51673797     0.22935780      
   10275.500 68.75032107      8.26122659       4254.44388014    0.17924791       72.85401083      116.05013928     0.22935780      
   10276.000 77.60991498      8.26121540       4245.30218385    0.18174559       73.22179673      116.73081793     0.22935780      
   10276.500 84.61051731      8.26119922       4236.16048756    0.18181058       73.08247238      117.46011649     0.22935780      
   10277.000 87.29073891      8.26120185       4234.79205462    0.17587125       72.25968996      118.18941504     0.22935780      
   10277.500 86.67656629      8.26113150       4240.37864680    0.16874033       71.42176909      117.90579894     0.22935780      
   10278.000 81.75080466      8.25252128       4245.96523898    0.16194986       70.35015011      117.17650038     0.22935780      
   10278.500 70.65123763      8.24256326       4251.55183116    0.15543175       69.33452527      116.44720182     0.22935780      
   10279.000 58.07731209      8.23371213       4257.13842334    0.15267409       68.96975957      115.74030426     0.22935780      
   10279.500 49.76548106      8.23936122       4253.87957790    0.15041783       68.62496887      115.04606814     0.22935780      
   10280.000 55.23287910      8.24492885       4242.70639354    0.15250696       69.04194521      114.35183201     0.22935780      
   10280.500 60.46730561      8.25048333       4231.84357542    0.15543175       69.48226438      113.68593113     0.22935780      
   10281.000 64.17072459      8.25604151       4261.37270551    0.16367688       70.70987651      114.69337899     0.22935780      
   10281.500 64.91086685      8.26109614       4287.70949721    0.17169916       71.62994372      115.45155659     0.22935780      
   10282.000 69.89103686      8.26119692       4265.92178771    0.17905292       72.63200430      115.74182698     0.22935780      
   10282.500 75.78891287      8.26120999       4245.81005587    0.18321727       73.39403050      116.38203708     0.22935780      
   10283.000 83.41269508      8.26122329       4236.57069188    0.18572423       73.81135338      117.57100831     0.22935780      
   10283.500 91.27711660      8.26123200       4252.04125483    0.18813370       74.10216346      118.73297569     0.22935780      
   10284.000 86.84288463      8.26123596       4267.51181779    0.19142061       74.51764099      119.80448869     0.22935780      
