#--------------------------------------------------#
#-------------------ENVERUS, INC.------------------#
#------------------WWW.ENVERUS.COM-----------------#
#------------------COPYRIGHT 2020------------------#
#--------------------------------------------------#
#THIS FILE MAY BE USED ONLY IN ACCORDANCE WITH A CURRENT SUBSCRIPTION AGREEMENT BETWEEN
#THE USER AND ENVERUS, INC. NO PART OF THIS FILE MAY BE REPRODUCED, USED, COPIED,
#MODIFIED, PROPAGATED, OR DISTRIBUTED EXCEPT IN ACCORDANCE WITH THE SUBSCRIPTION
#AGREEMENT. UNAUTHORIZED USE OR DISTRIBUTION OF ALL OR ANY PART OF THIS FILE MAY VIOLATE
#COPYRIGHT, TRADEMARK, AND/OR OTHER LAWS AND IS SUBJECT TO CIVIL AS WELL AS CRIMINAL
#SANCTIONS.
#--------------------------------------------------#
#THIS FILE IS PROVIDED "AS-IS" AND ALL WARRANTIES ARE EXPRESSLY DISCLAIMED, WHETHER
#EXPRESS, ORAL, IMPLIED, STATUTORY OR OTHERWISE, INCLUDING ANY IMPLIED WARRANTY OF FITNESS
#FOR A PARTICULAR PURPOSE, MERCHANTABILITY, TITLE OR NON-INFRINGEMENT, AND ANY WARRANTIES
#ARISING BY VIRTUE OF CUSTOM OF TRADE OR COURSE OF DEALING.  FURTHER, ENVERUS, INC.
#AND ITS LICENSORS DO NOT REPRESENT OR WARRANT THAT THIS FILE WILL MEET USER'S
#REQUIREMENTS OR ARE SUITABLE FOR USER'S NEEDS OR THAT THE DATA OR RESULTS PROVIDED IN
#CONJUNCTION THEREWITH ARE CORRECT, ACCURATE, TIMELY OR RELIABLE. THESE DISCLAIMERS SHALL
#APPLY REGARDLESS OF ANY FAILURE OF ESSENTIAL PURPOSE OF ANY LIMITED REMEDY.  SOME
#JURISDICTIONS DO NOT ALLOW THE EXCLUSION OF CERTAIN WARRANTIES SO SOME OF THE ABOVE
#EXCLUSIONS MAY NOT APPLY. IN NO EVENT SHALL ENVERUS, INC. OR ANY OF ITS AFFILIATES
#BE LIABLE UNDER ANY LEGAL THEORY, WHETHER IN TORT (INCLUDING WITHOUT LIMITATION
#NEGLIGENCE), CONTRACT, STRICT LIABILITY, STATUTORY OR OTHERWISE, FOR ANY SPECIAL,
#INCIDENTAL, CONSEQUENTIAL, EXEMPLARY, PUNITIVE OR INDIRECT DAMAGE OF ANY KIND, INCLUDING
#WITHOUT LIMITATION LOSS OF REVENUE, PROFITS, GOODWILL, USE, AND/OR DATA OR THE COST OF
#PROCUREMENT OF SUBSTITUTE GOODS OR SERVICES, EVEN IF APPRISED OF THE POSSIBILITY OF SUCH
#DAMAGES IN ADVANCE.
#--------------------------------------------------#

~VERSION INFORMATION
VERS. 2.0 : CWLS LOG ASCII STANDARD - VERSION 2.0
WRAP.  NO : ONE LINE PER DEPTH STEP
~WELL INFORMATION
#MNEMONIC     .UNIT              VALUE :DESCRIPTION
STRT       .FT                86 :START DEPTH
STOP       .FT                5215 :STOP DEPTH
STEP       .FT                   0.500 :STEP
NULL       .                  -999.990 :NULL
UWI        .              42389101440000 :UNIQUE WELL ID
API        .              42389101440000 :API NUMBER
COMP       .         :COMPANY
WELL       .         1, :WELL
DATE       .                            :LOG DATE
~CURVE INFORMATION
#MNEMONIC     .UNIT      API CODE :CURVE DESCRIPTION
DEPTH       .FT                      :MEASURED DEPTH
DT.US/FT        UNKNOWN   :DT
GR.API        UNKNOWN   :GR
~A    DEPTH    DT    GR
# ...
 663.5     -999.990   5.878
 664     -999.990   8.015
 664.5     -999.990   8.595
 665     -999.990   6.864
 665.5     -999.990   5.132
 666     -999.990   3.4
 666.5     -999.990   1.669
 667     -999.990   0.456
 667.5     -999.990   0.958
 668     -999.990   1.46
 668.5     -999.990   1.961
 669     -999.990   2.463
 669.5     -999.990   2.964
 670     -999.990   4.086
 670.5     -999.990   5.69
 671     -999.990   5.933
 671.5     -999.990   5.494
 672     -999.990   5.055
 672.5     -999.990   4.616
 673     -999.990   4.178
 673.5     -999.990   3.75
 674     -999.990   4.552
 674.5     -999.990   5.355
 675     -999.990   6.158
 675.5     -999.990   6.961
 676     -999.990   7.764
 676.5     -999.990   7.034
 677     -999.990   5.935
 677.5     -999.990   4.836
 678     -999.990   4.581
 678.5     -999.990   5.132
 679     -999.990   5.684
 679.5     -999.990   6.236
 680     -999.990   7.263
 680.5     -999.990   8.467
 681     -999.990   8.832
 681.5     -999.990   7.719
 682     -999.990   6.605
 682.5     -999.990   5.491
 683     -999.990   6.081
 683.5     -999.990   7.817
 684     -999.990   9.553
 684.5     -999.990   11.29
 685     -999.990   11.725
 685.5     -999.990   9.492
 686     -999.990   7.259
 686.5     -999.990   5.026
 687     -999.990   3.204
 687.5     -999.990   1.684
 688     -999.990   1.779
 688.5     -999.990   2.582
 689     -999.990   3.385
 689.5     -999.990   4.187
 690     -999.990   4.99
 690.5     -999.990   4.281
 691     -999.990   3.516
 691.5     -999.990   2.752
 692     -999.990   1.987
 692.5     -999.990   3.345
 693     -999.990   5.506
 693.5     -999.990   6.73
 694     -999.990   6.214
 694.5     -999.990   5.699
 695     -999.990   5.184
 695.5     -999.990   4.668
 696     -999.990   4.546
 696.5     -999.990   6.415
 697     -999.990   6.149
 697.5     -999.990   5.137
 698     -999.990   5.745
 698.5     -999.990   6.621
 699     -999.990   7.496
 699.5     -999.990   8.372
 700     -999.990   9.247
 700.5     -999.990   9.25
 701     -999.990   8.787
 701.5     -999.990   8.324
 702     -999.990   8.244
 702.5     -999.990   8.868
 703     -999.990   9.492
 703.5     -999.990   10.116
 704     -999.990   10.649
 704.5     -999.990   10.317
 705     -999.990   9.985
 705.5     -999.990   9.654
 706     -999.990   9.322
 706.5     -999.990   8.99
 707     -999.990   10.143
 707.5     -999.990   11.416
 708     -999.990   10.201
 708.5     -999.990   11.011
 709     -999.990   13.17
 709.5     -999.990   15.329
 710     -999.990   17.487
 710.5     -999.990   19.646
 711     -999.990   19.298
 711.5     -999.990   18.488
 712     -999.990   17.678
 712.5     -999.990   16.868
 713     -999.990   17.832
 713.5     -999.990   19.944
 714     -999.990   22.056
 714.5     -999.990   24.167
 715     -999.990   26.279
 715.5     -999.990   28.391
 716     -999.990   30.503
 716.5     -999.990   31.636
 717     -999.990   32.713
 717.5     -999.990   33.79
 718     -999.990   34.866
 718.5     -999.990   35.943
 719     -999.990   37.02
 719.5     -999.990   38.096
 720     -999.990   36.986
 720.5     -999.990   31.952
 721     -999.990   29.968
 721.5     -999.990   30.969
 722     -999.990   30.373
 722.5     -999.990   28.749
 723     -999.990   27.657
 723.5     -999.990   28.058
 724     -999.990   28.459
 724.5     -999.990   28.859
 725     -999.990   25.51
 725.5     -999.990   28.219
 726     -999.990   30.928
 726.5     -999.990   32.12
 727     -999.990   32.441
 727.5     -999.990   32.761
 728     -999.990   33.081
 728.5     -999.990   33.401
 729     -999.990   33.722
 729.5     -999.990   34.042
 730     -999.990   32.081
 730.5     -999.990   28.193
 731     -999.990   24.305
 731.5     -999.990   24.691
 732     -999.990   26.49
 732.5     -999.990   25.613
 733     -999.990   25.159
 733.5     -999.990   25.846
 734     -999.990   26.533
 734.5     -999.990   26.861
 735     -999.990   24.693
 735.5     -999.990   26.522
 736     -999.990   26.487
 736.5     -999.990   25.396
 737     -999.990   24.305
 737.5     -999.990   23.214
 738     -999.990   22.123
 738.5     -999.990   21.032
 739     -999.990   21.239
 739.5     -999.990   22.141
 740     -999.990   23.043
 740.5     -999.990   23.944
 741     -999.990   25.25
 741.5     -999.990   26.622
 742     -999.990   27.993
 742.5     -999.990   28.096
 743     -999.990   27.097
 743.5     -999.990   26.097
 744     -999.990   25.098
 744.5     -999.990   24.099
 745     -999.990   23.099
 745.5     -999.990   22.1
 746     -999.990   21.925
 746.5     -999.990   22.64
 747     -999.990   23.356
 747.5     -999.990   24.072
 748     -999.990   24.787
 748.5     -999.990   25.503
 749     -999.990   26.219
 749.5     -999.990   25.639
 750     -999.990   24.829
 750.5     -999.990   25.459
 751     -999.990   27.553
 751.5     -999.990   27.695
 752     -999.990   26.479
 752.5     -999.990   25.262
 753     -999.990   24.046
 753.5     -999.990   22.829
 754     -999.990   22.183
 754.5     -999.990   22.315
 755     -999.990   22.448
 755.5     -999.990   22.581
 756     -999.990   22.465
 756.5     -999.990   21.132
 757     -999.990   19.799
 757.5     -999.990   18.466
 758     -999.990   17.786
 758.5     -999.990   17.192
 759     -999.990   16.598
 759.5     -999.990   16.005
 760     -999.990   15.411
 760.5     -999.990   14.817
 761     -999.990   14.223
 761.5     -999.990   14.532
 762     -999.990   15.042
 762.5     -999.990   15.551
 763     -999.990   16.061
 763.5     -999.990   16.571
 764     -999.990   16.192
 764.5     -999.990   15.247
 765     -999.990   14.302
 765.5     -999.990   13.356
 766     -999.990   12.411
 766.5     -999.990   11.466
 767     -999.990   12.642
 767.5     -999.990   13.889
 768     -999.990   15.136
 768.5     -999.990   16.383
 769     -999.990   17.63
 769.5     -999.990   18.877
 770     -999.990   20.124
 770.5     -999.990   21.371
 771     -999.990   20.985
 771.5     -999.990   20.403
 772     -999.990   19.821
 772.5     -999.990   19.239
 773     -999.990   18.657
 773.5     -999.990   18.075
 774     -999.990   17.493
 774.5     -999.990   18.986
 775     -999.990   24.222
 775.5     -999.990   23.965
 776     -999.990   23.123
 776.5     -999.990   22.282
 777     -999.990   21.441
 777.5     -999.990   20.6
 778     -999.990   19.758
 778.5     -999.990   20.526
 779     -999.990   21.725
 779.5     -999.990   22.925
 780     -999.990   24.124
 780.5     -999.990   23.727
 781     -999.990   21.809
 781.5     -999.990   19.891
 782     -999.990   17.994
 782.5     -999.990   17.331
 783     -999.990   19.38
 783.5     -999.990   21.428
 784     -999.990   23.476
 784.5     -999.990   22.388
 785     -999.990   21.317
 785.5     -999.990   21.863
 786     -999.990   22.409
 786.5     -999.990   22.956
 787     -999.990   23.502
 787.5     -999.990   24.048
 788     -999.990   22.739
 788.5     -999.990   21.159
 789     -999.990   19.579
 789.5     -999.990   17.999
 790     -999.990   18.435
 790.5     -999.990   19.932
 791     -999.990   16.742
 791.5     -999.990   12
 792     -999.990   7.258
 792.5     -999.990   7.496
 793     -999.990   7.822
 793.5     -999.990   8.147
 794     -999.990   8.472
 794.5     -999.990   8.797
 795     -999.990   9.123
 795.5     -999.990   9.448
 796     -999.990   9.549
 796.5     -999.990   9.335
 797     -999.990   9.12
 797.5     -999.990   8.905
 798     -999.990   8.69
 798.5     -999.990   8.476
 799     -999.990   8.261
 799.5     -999.990   8.046
 800     -999.990   8.498
 800.5     -999.990   9.981
 801     -999.990   11.464
 801.5     -999.990   12.892
 802     -999.990   13.493
 802.5     -999.990   14.094
 803     -999.990   14.695
 803.5     -999.990   15.295
 804     -999.990   15.896
 804.5     -999.990   15.891
 805     -999.990   14.878
 805.5     -999.990   13.864
 806     -999.990   12.851
 806.5     -999.990   11.837
 807     -999.990   10.824
 807.5     -999.990   9.811
 808     -999.990   10.35
 808.5     -999.990   11.283
