###############################################
##         ENVERUS                           ##
##         ESS - Open Hole                   ##
##         PERMIAN / DELAWARE                ##
##         Nov 04 2023  V4.0                 ##
##         42-371-32680-00-00                ##
###############################################
## Copyright 2017-2023  ENVERUS.  All Rights Reserved. 
## Confidential - Property of ENVERUS, use governed by terms and 
## conditions found within the existing Information Services Subscription Agreement 
## (as may be amended, the “ISSA”) between Customer and ENVERUS. 
## 
~VERSION INFORMATION
# MNEM.UNIT                               DATA : DESCRIPTION OF MNEMONIC
#-----.-----     ----------------------------- : -----------------------------
VERS.                                     2.00 : CWLS LOG ASCII STANDARD - VERSION 2.00
WRAP.                                       NO : MULTIPLE LINES PER DEPTH STEP
VEND.                                  ENVERUS : VENDOR
TYPE.                          ESS - OPEN HOLE : ENVERUS ESSENTIAL CURVES – ACCESSIBLE THROUGH ENVERUS PRISM(TM)
DOC.                                  31991434 : ENVERUS HEADER RAW DOCUMENT ID
#___________________________________________________________________________________________________ 
~WELL INFORMATION 
# uAv5E/S3ZwrMaovXfwZJbnQ+z8RwnTA5GIEFL0LfM7mdkMX/8iXP+LiYgCnT3sJm4ejuYgXNUZeSPI/Yhcow4w== 
# MNEM.UNIT                                              DATA : DESCRIPTION OF MNEMONIC 
#-----.-----                    ----------------------------- : ----------------------------- 
CNTY.                                                   PECOS : COUNTY 
STATE.                                                  TEXAS : STATE 
CNTRY.                                                    USA : COUNTRY 
API.                                             42-371-32680 : API (10 Digit) 
API_14.                                    42-371-32680-00-00 : API (14 Digits) 
API_14_std.                                 42-371-32680-0000 : API (14 Digits Standard) 
UWI.                                           42371326800000 : UNIQUE WELL ID 
WELL.                                     MARALO - STEWART  1 : WELL NAME
STRT.FT                                                  21.0 : START DEPTH
STOP.FT                                               21630.0 : STOP DEPTH
STEP.FT                                                   0.5 : STEP BETWEEN DEPTHS
NULL.                                                 -999.25 : NULL VALUE
COMP.                                            MARALO, INC. : COMPANY 
DATE.                                             11-DEC-1978 : LOG DATE
#___________________________________________________________________________________________________ 
~CURVE INFORMATION 
# MNEM.UNIT           : CURVE DESCRIPTION 
#-----.-----          : ----------------------------- 
 DEPT.FT               : MEASURED DEPTH 
 GR__D.API             : GAMMA RAY (GR) 
 DT__D.US/FT           : SONIC DELTA TRANSIT TIME (DT) 
 RESD__D.OHMM          : DEEP INDUCTION RESISTIVITY (ILD - ILD) 
 #___________________________________________________________________________________________________ 
~A         DEPT          GR__D          DT__D        RESD__D
# ...
        10647.0         48.722         65.666       -999.250
        10647.5         55.866         69.980       -999.250
        10648.0         56.628         80.291       -999.250
        10648.5         57.390         87.507       -999.250
        10649.0         58.153         89.908       -999.250
        10649.5         60.825         89.238       -999.250
        10650.0         70.193         86.863       -999.250
        10650.5         79.561         85.816       -999.250
        10651.0         88.930         84.090       -999.250
        10651.5         87.748         83.871       -999.250
        10652.0         84.489         83.895       -999.250
        10652.5         81.230         84.498       -999.250
        10653.0         81.285         85.169       -999.250
        10653.5         86.633         85.840       -999.250
        10654.0         83.886         86.226       -999.250
        10654.5         80.718         85.435       -999.250
        10655.0         80.356         85.050       -999.250
        10655.5         79.995         85.141       -999.250
        10656.0         79.510         86.624       -999.250
        10656.5         77.613         88.159       -999.250
        10657.0         75.716         89.084       -999.250
        10657.5         76.843         89.806       -999.250
        10658.0         81.024         90.039       -999.250
        10658.5         85.204         88.537       -999.250
        10659.0         89.385         87.035       -999.250
        10659.5         88.002         85.534       -999.250
        10660.0         84.266         85.013       -999.250
        10660.5         80.531         85.177       -999.250
        10661.0         76.796         85.685       -999.250
        10661.5         73.060         86.194       -999.250
        10662.0         73.652         86.253       -999.250
        10662.5         76.606         85.299       -999.250
        10663.0         79.559         83.419       -999.250
        10663.5         82.513         81.002       -999.250
        10664.0         85.467         80.139       -999.250
        10664.5         82.163         80.301       -999.250
        10665.0         76.922         80.967       -999.250
        10665.5         71.681         81.633       -999.250
        10666.0         66.439         81.990       -999.250
        10666.5         67.415         82.336       -999.250
        10667.0         71.153         83.209       -999.250
        10667.5         72.681         86.011       -999.250
        10668.0         71.558         87.137       -999.250
        10668.5         70.435         87.539       -999.250
        10669.0         69.311         87.102       -999.250
        10669.5         74.011         86.664       -999.250
        10670.0         85.051         85.184       -999.250
        10670.5         95.386         85.072       -999.250
        10671.0         86.931         85.786       -999.250
        10671.5         80.466         86.730       -999.250
        10672.0         80.715         88.328       -999.250
        10672.5         80.964         88.240       -999.250
        10673.0         81.213         88.028       -999.250
        10673.5         79.691         87.701       -999.250
        10674.0         77.548         87.374       -999.250
        10674.5         75.406         86.982       -999.250
        10675.0         73.263         86.539       -999.250
        10675.5         71.120         85.461       -999.250
        10676.0         69.933         84.509       -999.250
        10676.5         73.858         83.854       -999.250
        10677.0         77.783         83.840       -999.250
        10677.5         81.707         85.036       -999.250
        10678.0         81.831         86.378       -999.250
        10678.5         80.055         87.634       -999.250
        10679.0         78.279         88.356       -999.250
        10679.5         76.503         88.622       -999.250
        10680.0         74.727         87.715       -999.250
        10680.5         77.973         84.390       -999.250
        10681.0         81.912         82.731       -999.250
        10681.5         85.851         81.467       -999.250
        10682.0         89.791         80.129       -999.250
        10682.5         92.361         77.176       -999.250
        10683.0         84.807         75.584       -999.250
        10683.5         77.252         74.564       -999.250
        10684.0         69.697         73.918       -999.250
        10684.5         62.143         73.271       -999.250
        10685.0         58.610         72.734       -999.250
        10685.5         56.715         72.200       -999.250
        10686.0         54.820         72.068       -999.250
        10686.5         52.925         74.415       -999.250
        10687.0         51.029         77.534       -999.250
        10687.5         49.791         81.127       -999.250
        10688.0         51.968         84.780       -999.250
        10688.5         54.144         87.504       -999.250
        10689.0         56.321         87.953       -999.250
        10689.5         63.877         85.828       -999.250
        10690.0         76.442         79.878       -999.250
        10690.5         89.007         74.364       -999.250
        10691.0         85.004         71.983       -999.250
        10691.5         79.188         69.672       -999.250
        10692.0         73.371         69.021       -999.250
        10692.5         67.555         68.762       -999.250
        10693.0         61.738         68.502       -999.250
        10693.5         55.922         68.235       -999.250
        10694.0         50.106         67.665       -999.250
        10694.5         49.624         65.713       -999.250
        10695.0         50.366         63.261       -999.250
        10695.5         51.108         62.435       -999.250
        10696.0         51.851         62.235       -999.250
        10696.5         51.916         63.724       -999.250
        10697.0         50.677         64.960       -999.250
        10697.5         49.439         64.920       -999.250
        10698.0         50.040         64.211       -999.250
        10698.5         53.041         63.428       -999.250
        10699.0         56.042         63.351       -999.250
        10699.5         59.043         63.228       -999.250
        10700.0         58.920         62.557       -999.250
        10700.5         56.155         61.648       -999.250
        10701.0         53.389         60.334       -999.250
        10701.5         54.765         60.279       -999.250
        10702.0         56.681         61.131       -999.250
        10702.5         55.303         61.055       -999.250
        10703.0         51.247         60.864       -999.250
        10703.5         47.191         60.217       -999.250
        10704.0         46.140         59.228       -999.250
        10704.5         49.805         58.238       -999.250
        10705.0         53.469         57.426       -999.250
        10705.5         55.349         56.691       -999.250
        10706.0         50.186         54.858       -999.250
        10706.5         45.023         54.404       -999.250
        10707.0         39.860         54.623       -999.250
        10707.5         36.451         55.545       -999.250
        10708.0         34.679         64.415       -999.250
        10708.5         32.906         73.704       -999.250
        10709.0         31.133         78.162       -999.250
        10709.5         36.803         82.620       -999.250
        10710.0         51.395         87.077       -999.250
        10710.5         65.986         87.166       -999.250
        10711.0         80.578         85.529       -999.250
        10711.5         77.674         83.892       -999.250
        10712.0         73.991         82.263       -999.250
        10712.5         71.539         82.174       -999.250
