#--------------------------------------------------#
#-------------------ENVERUS, INC.------------------#
#------------------WWW.ENVERUS.COM-----------------#
#------------------COPYRIGHT 2020------------------#
#--------------------------------------------------#
#THIS FILE MAY BE USED ONLY IN ACCORDANCE WITH A CURRENT SUBSCRIPTION AGREEMENT BETWEEN
#THE USER AND ENVERUS, INC. NO PART OF THIS FILE MAY BE REPRODUCED, USED, COPIED,
#MODIFIED, PROPAGATED, OR DISTRIBUTED EXCEPT IN ACCORDANCE WITH THE SUBSCRIPTION
#AGREEMENT. UNAUTHORIZED USE OR DISTRIBUTION OF ALL OR ANY PART OF THIS FILE MAY VIOLATE
#COPYRIGHT, TRADEMARK, AND/OR OTHER LAWS AND IS SUBJECT TO CIVIL AS WELL AS CRIMINAL
#SANCTIONS.
#--------------------------------------------------#
#THIS FILE IS PROVIDED "AS-IS" AND ALL WARRANTIES ARE EXPRESSLY DISCLAIMED, WHETHER
#EXPRESS, ORAL, IMPLIED, STATUTORY OR OTHERWISE, INCLUDING ANY IMPLIED WARRANTY OF FITNESS
#FOR A PARTICULAR PURPOSE, MERCHANTABILITY, TITLE OR NON-INFRINGEMENT, AND ANY WARRANTIES
#ARISING BY VIRTUE OF CUSTOM OF TRADE OR COURSE OF DEALING.  FURTHER, ENVERUS, INC.
#AND ITS LICENSORS DO NOT REPRESENT OR WARRANT THAT THIS FILE WILL MEET USER'S
#REQUIREMENTS OR ARE SUITABLE FOR USER'S NEEDS OR THAT THE DATA OR RESULTS PROVIDED IN
#CONJUNCTION THEREWITH ARE CORRECT, ACCURATE, TIMELY OR RELIABLE. THESE DISCLAIMERS SHALL
#APPLY REGARDLESS OF ANY FAILURE OF ESSENTIAL PURPOSE OF ANY LIMITED REMEDY.  SOME
#JURISDICTIONS DO NOT ALLOW THE EXCLUSION OF CERTAIN WARRANTIES SO SOME OF THE ABOVE
#EXCLUSIONS MAY NOT APPLY. IN NO EVENT SHALL ENVERUS, INC. OR ANY OF ITS AFFILIATES
#BE LIABLE UNDER ANY LEGAL THEORY, WHETHER IN TORT (INCLUDING WITHOUT LIMITATION
#NEGLIGENCE), CONTRACT, STRICT LIABILITY, STATUTORY OR OTHERWISE, FOR ANY SPECIAL,
#INCIDENTAL, CONSEQUENTIAL, EXEMPLARY, PUNITIVE OR INDIRECT DAMAGE OF ANY KIND, INCLUDING
#WITHOUT LIMITATION LOSS OF REVENUE, PROFITS, GOODWILL, USE, AND/OR DATA OR THE COST OF
#PROCUREMENT OF SUBSTITUTE GOODS OR SERVICES, EVEN IF APPRISED OF THE POSSIBILITY OF SUCH
#DAMAGES IN ADVANCE.
#--------------------------------------------------#

~VERSION INFORMATION
VERS. 2.0 : CWLS LOG ASCII STANDARD - VERSION 2.0
WRAP.  NO : ONE LINE PER DEPTH STEP
~WELL INFORMATION
#MNEMONIC     .UNIT              VALUE :DESCRIPTION
STRT       .FT                2 :START DEPTH
STOP       .FT                6341 :STOP DEPTH
STEP       .FT                   0.500 :STEP
NULL       .                  -999.990 :NULL
UWI        .              42389104050000 :UNIQUE WELL ID
API        .              42389104050000 :API NUMBER
COMP       .         ENDEAVOR ENERGY RESOURCES L.P. :COMPANY
WELL       .        TXL REEVES STATE UNIT  2 :WELL
DATE       .                            :LOG DATE
~CURVE INFORMATION
#MNEMONIC     .UNIT      API CODE :CURVE DESCRIPTION
DEPTH       .FT                      :MEASURED DEPTH
GR.API        UNKNOWN   :GR
DT.US/FT        UNKNOWN   :DT
~A    DEPTH    GR    DT
# ...
 3370     9.631   67.456
 3370.5     10.697   67.414
 3371     11.763   67.371
 3371.5     11.428   67.328
 3372     10.268   67.286
 3372.5     9.108   67.243
 3373     8.402   67.201
 3373.5     9.018   67.158
 3374     9.635   67.115
 3374.5     10.251   67.083
 3375     10.868   67.073
 3375.5     11.485   67.062
 3376     11.913   67.052
 3376.5     10.267   67.041
 3377     8.621   67.03
 3377.5     6.976   67.02
 3378     5.33   67.009
 3378.5     4.294   66.998
 3379     3.634   67.121
 3379.5     2.975   67.249
 3380     2.316   67.377
 3380.5     1.835   67.504
 3381     1.834   67.632
 3381.5     1.833   67.76
 3382     1.832   67.887
 3382.5     1.997   67.999
 3383     2.364   67.774
 3383.5     2.73   67.55
 3384     3.096   67.326
 3384.5     3.463   67.444
 3385     3.611   67.815
 3385.5     3.163   68.185
 3386     2.715   68.208
 3386.5     2.266   68.003
 3387     1.818   67.799
 3387.5     1.639   67.594
 3388     3.006   67.389
 3388.5     3.934   67.184
 3389     3.072   66.98
 3389.5     2.211   66.956
 3390     1.349   67.02
 3390.5     1.044   67.084
 3391     1.482   67.148
 3391.5     1.92   67.212
 3392     2.358   67.276
 3392.5     2.796   67.34
 3393     3.235   67.404
 3393.5     3.673   67.468
 3394     3.568   67.532
 3394.5     3.229   67.596
 3395     2.889   67.66
 3395.5     2.55   67.724
 3396     2.21   67.788
 3396.5     1.871   67.777
 3397     1.532   67.576
 3397.5     1.192   67.375
 3398     0.853   67.173
 3398.5     0.751   66.972
 3399     1.02   66.875
 3399.5     1.29   67.051
 3400     1.559   67.226
 3400.5     1.828   67.402
 3401     2.097   67.577
 3401.5     2.366   67.753
 3402     2.635   67.862
 3402.5     2.904   67.781
 3403     2.992   67.7
 3403.5     2.941   67.618
 3404     2.891   67.537
 3404.5     2.841   67.456
 3405     2.791   67.375
 3405.5     2.741   67.294
 3406     2.691   67.213
 3406.5     2.64   67.131
 3407     2.59   67.05
 3407.5     2.54   67.056
 3408     2.039   67.13
 3408.5     1.449   67.204
 3409     0.86   67.279
 3409.5     0.27   67.353
 3410     -0.021   67.427
 3410.5     0.393   67.501
 3411     0.808   67.575
 3411.5     1.223   67.649
 3412     1.638   67.616
 3412.5     2.053   67.565
 3413     2.281   67.514
 3413.5     2.141   67.463
 3414     2.001   67.413
 3414.5     1.861   67.362
 3415     1.72   67.311
 3415.5     1.58   67.26
 3416     1.44   67.21
 3416.5     1.43   67.159
 3417     1.563   67.108
 3417.5     1.695   67.057
 3418     1.828   67.071
 3418.5     1.961   67.254
 3419     2.094   67.437
 3419.5     2.226   67.62
 3420     2.359   67.803
 3420.5     2.492   67.984
 3421     2.625   67.922
 3421.5     2.757   67.86
 3422     2.89   67.798
 3422.5     3.023   67.735
 3423     2.802   67.673
 3423.5     2.394   67.611
 3424     1.986   67.549
 3424.5     1.579   67.486
 3425     1.649   67.424
 3425.5     1.957   67.455
 3426     2.265   67.593
 3426.5     2.573   67.73
 3427     2.881   67.867
 3427.5     3.189   68.004
 3428     3.497   68.141
 3428.5     3.219   68.163
 3429     2.5   68.035
 3429.5     1.782   67.908
 3430     1.064   67.78
 3430.5     1.414   67.653
 3431     1.785   67.525
 3431.5     2.156   67.509
 3432     2.527   67.542
 3432.5     2.672   67.575
 3433     2.43   67.609
 3433.5     2.189   67.642
 3434     1.948   67.675
 3434.5     1.707   67.708
 3435     1.466   67.741
 3435.5     1.224   67.737
 3436     0.983   67.659
 3436.5     0.742   67.582
 3437     0.723   67.504
 3437.5     1.418   67.427
 3438     2.113   67.349
 3438.5     2.808   67.272
 3439     3.503   67.254
 3439.5     3.275   67.247
 3440     3.038   67.239
 3440.5     2.801   67.232
 3441     2.565   67.224
 3441.5     2.328   67.217
 3442     2.091   67.209
 3442.5     1.854   67.202
 3443     1.617   67.194
 3443.5     1.381   67.187
 3444     1.347   67.18
 3444.5     1.822   67.172
 3445     2.297   67.165
 3445.5     2.772   67.157
 3446     3.247   67.15
 3446.5     3.392   67.142
 3447     3.178   67.135
 3447.5     2.964   67.127
 3448     2.75   67.12
 3448.5     2.535   67.112
 3449     2.321   67.105
 3449.5     2.107   67.097
 3450     1.893   67.09
 3450.5     1.679   67.083
 3451     1.678   67.075
 3451.5     1.866   67.068
 3452     2.053   67.06
 3452.5     2.241   67.053
 3453     2.429   67.045
 3453.5     2.617   67.038
 3454     2.287   67.03
 3454.5     1.944   67.023
 3455     1.601   67.015
 3455.5     1.258   67.008
 3456     1.533   67
 3456.5     1.968   66.994
 3457     2.404   66.991
 3457.5     2.84   66.989
 3458     3.275   66.986
 3458.5     2.159   66.984
 3459     1.026   66.982
 3459.5     0.752   66.979
 3460     1.192   66.977
 3460.5     1.633   66.974
 3461     2.073   66.972
 3461.5     2.513   66.97
 3462     2.743   66.967
 3462.5     2.598   66.965
 3463     2.452   66.962
 3463.5     2.306   66.96
 3464     2.16   66.958
 3464.5     2.014   66.955
 3465     1.868   66.953
 3465.5     1.783   66.95
 3466     2.168   66.948
 3466.5     2.553   66.946
 3467     2.939   66.943
 3467.5     3.324   66.941
 3468     3.709   66.938
 3468.5     4.094   66.936
 3469     4.326   66.934
 3469.5     3.945   66.931
 3470     3.564   66.929
 3470.5     3.184   66.926
 3471     2.803   66.924
 3471.5     2.422   66.922
 3472     2.041   66.919
 3472.5     1.813   66.917
 3473     2.322   66.914
 3473.5     2.832   66.912
 3474     3.341   66.906
 3474.5     3.85   66.878
 3475     4.36   66.849
 3475.5     4.869   66.821
 3476     4.79   66.793
 3476.5     4.365   66.764
 3477     3.94   66.736
 3477.5     3.515   66.707
 3478     3.09   66.69
 3478.5     2.665   66.744
 3479     2.439   66.799
 3479.5     2.37   66.854
 3480     2.302   66.908
 3480.5     2.233   66.963
 3481     2.165   67.018
 3481.5     2.096   67.072
 3482     2.028   67.102
 3482.5     1.805   67.112
 3483     1.423   67.121
 3483.5     1.042   67.13
 3484     0.661   67.14
 3484.5     0.28   67.149
 3485     -0.101   67.159
 3485.5     -0.265   67.168
 3486     0.315   67.178
 3486.5     0.895   67.187
 3487     1.474   67.147
 3487.5     2.054   67.082
 3488     2.634   67.017
 3488.5     2.787   66.951
 3489     2.701   66.886
 3489.5     2.616   66.821
 3490     2.531   66.756
 3490.5     2.445   66.691
 3491     2.36   66.626
 3491.5     2.275   66.561
 3492     2.189   66.496
 3492.5     2.104   66.431
 3493     2.019   66.366
 3493.5     1.934   66.33
 3494     1.848   66.356
 3494.5     1.763   66.381
 3495     1.678   66.407
 3495.5     1.592   66.433
 3496     1.799   66.458
 3496.5     2.02   66.484
 3497     2.242   66.51
 3497.5     2.463   66.535
 3498     2.684   66.561
 3498.5     2.906   66.586
 3499     3.127   66.612
 3499.5     3.348   66.638
 3500     3.569   66.663
 3500.5     3.791   66.689
 3501     3.825   66.715
 3501.5     3.209   66.74
 3502     2.592   66.766
 3502.5     1.976   66.792
 3503     2.356   66.817
 3503.5     2.965   66.843
 3504     3.573   66.868
 3504.5     4.182   65.584
 3505     4.791   63.694
 3505.5     4.596   61.805
 3506     4.208   59.915
 3506.5     3.82   58.026
 3507     3.432   58.843
 3507.5     3.044   61.056
 3508     2.656   63.27
 3508.5     2.373   63.474
 3509     2.65   62.174
 3509.5     2.928   60.873
 3510     3.205   59.573
 3510.5     3.483   58.272
 3511     3.591   58.31
 3511.5     3.402   58.908
 3512     3.214   59.506
 3512.5     3.025   60.104
 3513     2.837   60.702
 3513.5     3.204   61.3
 3514     3.716   59.962
 3514.5     4.229   58.13
 3515     4.741   56.298
 3515.5     5.254   54.465
 3516     5.451   52.479
 3516.5     5.189   49.932
 3517     4.927   49.552
 3517.5     4.665   49.364
 3518     4.403   49.176
 3518.5     4.141   48.988
 3519     3.879   48.8
 3519.5     3.617   48.982
 3520     3.355   49.461
 3520.5     3.539   49.94
 3521     3.963   50.028
 3521.5     4.388   49.836
 3522     4.812   49.645
 3522.5     5.237   49.453
 3523     5.514   49.262
 3523.5     5.397   49.071
 3524     5.28   48.879
 3524.5     5.162   48.688
 3525     5.045   48.828
