~VERSION INFORMATION
VERS.           1.2   :CWLS Log ASCII Standard - VERSION 1.2
WRAP.           NO    :One Line per depth step
PROD.  Schlumberger   :LAS Producer
PROG.  DLIS to ASCII 17C0-152                          :LAS Program name and version
CREA.        2014/05/28 16:07                          :LAS Creation date {YYYY/MM/DD hh:mm}
DLIS_CREA.  2014-May-27 22:17                          :DLIS Creation date and time {YYYY-MMM-DD hh:mm}
SOURCE.     db5fefe1-f67d-4e3f-8816-ab53d5f8be46       :DLIS File Name
#--------------------------------------------------
~WELL INFORMATION
#MNEM.UNIT      DATA             DESCRIPTION
#---- ------ --------------   -----------------------------
# Enverus has updated the API/UWI.  The previous names are renamed to  PREV_API / PREV_UWI
API.  API (14 Digits with Dashes) : 42-389-34023-90-00
UWI.              UNIQUE WELL ID : 42389340239000

STRT .F      9586.5000       :START DEPTH     
STOP .F      10811.5000      :STOP DEPTH     
STEP .F       0.5000         :STEP       
NULL .          -999.25      :NULL VALUE
COMP .                 COMPANY:  J. Cleo Thompson                   
WELL .                    WELL:  Okapi State Unit B35 #2H           
FLD  .                   FIELD:  Wolfbone (Trend Area)              
LOC  .                LOCATION:  260' FNL & 500' FEL                
CNTY .                  COUNTY:  Reeves                             
STAT .                   STATE:  Texas                              
CTRY .                 COUNTRY:                                     
SRVC .         SERVICE COMPANY:  Schlumberger                       
LATI .DEG             LATITUDE:  31.112200 degrees                  
LONG .DEG            LONGITUDE:  -103.28900 degrees                 
PREV_API  .              API NUMBER:  42-389-34023                       
DATE .                LOG DATE:  27-May-2014
PREV_UWI  .          UNIQUE WELL ID:                                     
#-----------------------------------------------------------------------------
~PARAMETER INFORMATION
#MNEM.UNIT    VALUE                      DESCRIPTION
#---- -----   --------------------       ------------------------
CN   .        J. Cleo Thompson           :Company Name
WN   .        Okapi State Unit B35 #2H   :Well Name
FN   .        Wolfbone (Trend Area)      :Field Name
FL   .        260' FNL & 500' FEL        :Field Location
FL1  .        Section  35  Block  50 T8S  Abstract 4369 :Field Location, Line 1
COUN .        Reeves                     :County or Parish
STAT .        Texas                      :State or Province
NATI .                                   :Nation
DATE .        27-May-2014                :Tools Above Rotary Table Date
APIN .        42-389-34023               :API Well Number
SECT .        35                         :Section
TOWN .        50 T8S                     :Township
RANG .        4369                       :Range
DMF  .        KB                         :Drilling Measured From (Name of Drilling Elevation Reference)
LMF  .        KB                         :Logging Measured From (Name of Logging Elevation Reference)
PDAT .        GL                         :Permanent Datum
ENGI .        AJ Massis                  :Engineer s Name
WITN .        Bennie McNett              :Witness s Name
LATI .        31.112200 degrees          :Latitude
LONG .        -103.28900 degrees         :Longitude
LUL  .        Midland                    :Logging Unit Location
LUN  .        9105                       :Logging Unit Number
RUN  .        1B                         :Run Number
SON  .                                   :Service Order Number
BHT  .DEGF     162.00000                 :Bottom Hole Temperature
BS   .IN         8.50000                 :Bit Size
MDEN .G/C3       2.71000                 :Matrix Density for Density Porosity
DFD  .LB/G      10.70000                 :Drilling Fluid Density
DFV  .S         46.00000                 :Drilling Fluid Viscosity
DFL  .C3        10.00000                 :Drilling Fluid Loss
RMFS .OHMM       0.30000                 :Resistivity of Mud Filtrate Sample
EKB  .F       2829.00000                 :Elevation of Kelly Bushing
EGL  .F       2807.00000                 :Elevation of Ground Level
BLI  .F       11012.00000                :Bottom Log Interval
BSAL .PPM     132000.00000               :Borehole Salinity
FLEV .F          8.00000                 :Depth of Drilling Fluid Level to LMF (Log Measured From)
MCST .DEGF      68.00000                 :Mudcake Sample Temperature
MFST .DEGF      80.20000                 :Mud Filtrate Sample Temperature
MRT  .DEGF     162.00000                 :Maximum Recorded Temperature
MST  .DEGF      80.20000                 :Mud Sample Temperature
RMCS .OHMM    -999.25000                 :Resistivity of Mud Cake Sample
RMS  .OHMM       0.30000                 :Resistivity of Mud Sample
RW   .OHMM       1.00000                 :Connate Water Resistivity
TDD  .F       11012.00000                :Driller Total Depth
TDL  .F       11012.00000                :Logger Total Depth
TLI  .F       9676.00000                 :Top Log Interval
HIDE .        Wolfbone (Trend Area)      :Header Identifier
MATR .        LIME                       :Rock Matrix for Neutron Porosity Corrections
FNUM .           1.00000                 :F-Numerator for Formation Factor Formula
FEXP .           2.00000                 :Exponent "m" for Formation Factor Formula
DFT  .        Salt Brine                 :Drilling Fluid Type
DFPH .           9.00000                 :Drilling Fluid pH
MCSS .                                   :Mudcake Sample Source
MFSS .                                   :Mud Filtrate Sample Source
FD   .G/C3       1.10000                 :Fluid Density
MSS  .        Active Tank                :Mud Sample Source
OS1  .                                   :Other Services Line 1
OS2  .                                   :Other Services Line 2
OS3  .                                   :Other Services Line 3
OS4  .                                   :Other Services Line 4
OS5  .                                   :Other Services Line 5
R1   .        Tools run as per toolsketch :Remarks Line 1
R2   .        Logs performed on a Limestone matrix (2.71

g/cc  47.6 us/ft ). Mud Properties  MW =

10.7 g/cc  FD = 1.1 g/cc. :Remarks Line 2
R3   .        Max recorded temperature from downhole

thermometer = 162 degF. :Remarks Line 3
R4   .        Logs run from TD to casing. GR & Neutron

logged from casing to 200ft as per client

request. :Remarks Line 4
R5   .        Tools got stuck near TD and calipers had to be closed in order to get free. :Remarks Line 5
R6   .        Well was washed out for many intervals. :Remarks Line 6
R7   .        Repeat done at casing due to getting stuck at TD :Remarks Line 7
R8   .                                   :Remarks Line 8
TCS  .        18 00 00                   :Time Circulation Stopped
TLAB .        16 19 01                   :Time Logger At Bottom
EPD  .C3         2807.000000             :Elevation of Permanent Datum above Mean Sea Level
APD  .F          22.000000               :Elevation of Depth Reference (LMF) above Permanent Datum
#-----------------------------------------------------------------------------
~CURVE INFORMATION
#MNEM.UNIT   API CODE                                  DESCRIPTION
#---- -----  --------                                  -----------------------
DEPT .F                                                :DEPTH (BOREHOLE) {F12.4}
CDF  .LBF                                              :Calibrated Downhole Force {F11.4}
CTEM .DEGF                                             :Cartridge Temperature {F11.4}
DCAL .IN                                               :Differential Caliper {F11.4}
DTCO .US/F                                             :Delta-T Compressional {F11.4}
DTSM .US/F                                             :Delta-T Shear {F11.4}
ED   .F                                                :East Departure {F11.4}
GR_EDTC.GAPI                                           :Gamma Ray {F11.4}
GTEM .DEGF                                             :Generalized Borehole Temperature {F11.4}
HAZI .DEG                                              :Hole Azimuth Relative to True North {F11.4}
HAZIM.DEG                                              :Memorized Hole Azimuth {F11.4}
ITT  .S                                                :Integrated Transit Time {F11.4}
ND   .F                                                :North Departure {F11.4}
P1AZ .DEG                                              :Pad 1 Azimuth in Horizontal Plane (0 = True North) {F11.4}
PR   .                                                 :Poisson s Ratio {F11.4}
RB   .DEG                                              :Relative Bearing {F11.4}
SDEV .DEG                                              :Sonde Deviation {F11.4}
SDEVM.DEG                                              :Memorized Sonde Deviation {F11.4}
SPHI .CFCF                                             :Sonic Porosity {F11.4}
STIT .F                                                :Stuck Tool Indicator, Total {F11.4}
TENS .LBF                                              :Cable Tension {F11.4}
#-----------------------------------------------------------------------------
# 
#      DEPT        CDF        CTEM       DCAL       DTCO       DTSM        ED      GR_EDTC      GTEM       HAZI      HAZIM       ITT         ND        P1AZ        PR         RB        SDEV      SDEVM       SPHI       STIT       TENS
#
~A  
# ...
   9989.0000  1216.4462   165.5529     0.2153    80.0918   130.4218     0.0000    81.2458   153.2675   273.5363   269.8842     0.0602     0.0000    35.9057     0.1973   122.3794     1.6009     1.7073     0.2298     0.0000  3967.0002
   9989.5000  1217.4583   165.5529     0.2153    80.0693   130.7356     0.0000    89.4248   153.2718   273.3145   268.5955     0.0602     0.0000    33.3266     0.1999   120.0219     1.6146     1.7154     0.2296     0.0000  3985.6667
   9990.0000  1220.5217   165.5529     0.2021    80.1093   131.6457     0.0000    99.9163   153.2760   272.5390   267.2787     0.0601     0.0000    30.8112     0.2060   118.2824     1.6390     1.7222     0.2299     0.0000  3979.0002
   9990.5000  1221.8812   165.5529     0.2153    80.0911   131.7597     0.0000   102.1429   153.2803   271.6484   266.5848     0.0601     0.0000    28.7534     0.2070   117.1148     1.6620     1.7242     0.2298     0.0000  3985.3335
   9991.0000  1221.7539   165.5529     0.2153    79.7537   131.3542     0.0000    96.0547   153.2846   270.4854   266.6676     0.0601     0.0000    26.0929     0.2080   115.6173     1.6885     1.7231     0.2274     0.0000  4006.3333
   9991.5000  1221.7428   165.5529     0.2153    78.9462   130.8710     0.0000    93.8702   153.2888   269.5693   267.4410     0.0600     0.0000    23.5125     0.2140   113.9524     1.7063     1.7223     0.2217     0.0000  3981.6667
   9992.0000  1219.9639   165.5529     0.2153    78.8040   129.4671     0.0000    91.0601   153.2931   269.1768   268.5906     0.0600     0.0000    21.0967     0.2057   111.9289     1.7114     1.7248     0.2207     0.0000  3975.6667
   9992.5000  1217.5275   165.5529     0.2042    78.6481   129.4019     0.0000    86.9362   153.2974   269.4165   269.6523     0.0599     0.0000    18.6111     0.2071   109.2027     1.7051     1.7306     0.2196     0.0000  4002.0000
   9993.0000  1220.2678   165.5529     0.2042    77.9660   129.7437     0.0000    76.3780   153.3017   270.2173   270.1475     0.0599     0.0000    16.0089     0.2174   105.7980     1.6920     1.7367     0.2148     0.0000  3974.3333
   9993.5000  1218.2611   165.5529     0.2153    76.5996   128.5030     0.0000    76.8491   153.3059   271.3045   270.0978     0.0599     0.0000    13.2209     0.2244   101.9212     1.6795     1.7414     0.2051     0.0000  3967.6667
   9994.0000  1216.9272   165.5529     0.1931    74.7410   126.6174     0.0000    80.5012   153.3102   272.2822   269.2616     0.0598     0.0000    10.8323     0.2326    98.5538     1.6731     1.7409     0.1919     0.0000  3996.0000
   9994.5000  1225.6752   165.5529     0.1931    73.2248   123.4711     0.0000    87.6395   153.3145   272.7399   267.8300     0.0598     0.0000     8.4293     0.2287    95.6919     1.6748     1.7342     0.1812     0.0000  3996.0000
   9995.0000  1233.8751   165.5529     0.1931    71.3910   122.4700     0.0000    90.3501   153.3187   272.5682   266.1804     0.0598     0.0000     6.1688     0.2427    93.6024     1.6811     1.7235     0.1683     0.0000  3958.3335
   9995.5000  1233.4696   165.5529     0.2042    69.1703   119.5932     0.0000    79.6151   153.3230   271.6646   264.7606     0.0597     0.0000     3.3537     0.2487    91.6899     1.6926     1.7125     0.1525     0.0000  4004.3333
   9996.0000  1229.3191   165.5529     0.1931    67.2191   116.2173     0.0000    63.3557   153.3273   270.2079   263.9478     0.0597     0.0000     0.8920     0.2486    90.6843     1.7051     1.7049     0.1387     0.0000  3953.3333
   9996.5000  1224.9828   165.5529     0.1931    66.6016   113.2398     0.0000    46.9408   153.3315   268.5955   263.9437     0.0597     0.0000   358.6432     0.2356    90.0475     1.7154     1.7043     0.1344     0.0000  3974.6670
   9997.0000  1220.3392   165.5529     0.1931    65.5835   112.0785     0.0000    41.3101   153.3358   267.2787   264.6324     0.0596     0.0000   356.2736     0.2396    88.9948     1.7222     1.7124     0.1272     0.0000  3952.0002
   9997.5000  1219.3650   165.5529     0.1931    65.6257   110.4737     0.0000    38.3068   153.3401   266.5848   265.4772     0.0596     0.0000   354.0065     0.2273    87.4205     1.7242     1.7246     0.1275     0.0000  3947.0000
   9998.0000  1220.1709   165.5529     0.1909    66.3549   108.5186     0.0000    38.9307   153.3444   266.6676   266.5271     0.0596     0.0000   351.4282     0.2014    84.7581     1.7231     1.7438     0.1326     0.0000  3935.0000
   9998.5000  1222.1528   165.5529     0.1931    67.0426   108.2642     0.0000    40.7412   153.3486   267.2521   267.2018     0.0595     0.0000   349.3173     0.1890    82.0615     1.7224     1.7602     0.1375     0.0000  3924.0002
   9999.0000  1221.1011   165.5529     0.1931    68.2866   108.5355     0.0000    47.1789   153.3529   268.3511   267.2587     0.0595     0.0000   346.7047     0.1724    78.3483     1.7237     1.7666     0.1463     0.0000  3940.0002
   9999.5000  1224.5992   165.5529     0.2243    68.9095   109.9406     0.0000    51.2162   153.3571   269.4684   266.6710     0.0595     0.0000   344.1145     0.1765    74.6392     1.7292     1.7590     0.1507     0.0000  3940.3335
  10000.0000  1224.7725   165.5529     0.2355    69.0206   111.9890     0.0000    61.2180   153.3614   270.1475   265.5798     0.0594     0.0000   341.4037     0.1937    71.2483     1.7367     1.7381     0.1515     0.0000  3927.2502
  10000.5000  1221.6150   165.5529     0.2265    70.1103   112.8853     0.0000    65.6117   153.3657   270.0978   264.2855     0.0594     0.0000   338.7789     0.1860    68.6720     1.7414     1.7102     0.1592     0.0000  3985.3335
  10001.0000  1229.6886   165.5529     0.2376    69.7517   113.4885     0.0000    67.8652   153.3700   269.2616   263.1506     0.0594     0.0000   336.0128     0.1965    66.7415     1.7409     1.6842     0.1567     0.0000  3922.0002
  10001.5000  1213.8922   165.5529     0.2376    68.7417   115.0877     0.0000    58.4736   153.3742   267.8300   262.5828     0.0593     0.0000   333.4225     0.2227    65.5827     1.7342     1.6708     0.1495     0.0000  3945.0000
  10002.0000  1214.5497   165.5529     0.2355    68.6175   115.9540     0.0000    49.3923   153.3785   266.1804   262.4214     0.0593     0.0000   331.3745     0.2305    65.1844     1.7235     1.6680     0.1486     0.0000  3944.6667
  10002.5000  1216.6826   165.5529     0.2355    68.7442   115.4968     0.0000    42.1468   153.3828   265.0036   262.8376     0.0592     0.0000   329.1428     0.2257    64.1292     1.7145     1.6827     0.1495     0.0000  3938.3335
  10003.0000  1220.1884   165.5529     0.2355    69.6863   116.0774     0.0000    43.3095   153.3870   264.0486   263.5769     0.0592     0.0000   326.2416     0.2182    62.1826     1.7060     1.7114     0.1562     0.0000  3959.7500
  10003.5000  1217.6250   165.5529     0.2265    70.3636   117.7775     0.0000    45.0333   153.3913   263.8769   264.3128     0.0592     0.0000   323.4931     0.2225    59.6052     1.7037     1.7453     0.1610     0.0000  3935.3337
  10004.0000  1215.2675   165.5529     0.2132    72.0159   118.4105     0.0000    50.8822   153.3956   264.4460   264.7660     0.0591     0.0000   320.9034     0.2065    56.4459     1.7100     1.7733     0.1727     0.0000  3933.0000
  10004.5000  1215.2606   165.5529     0.2243    74.4233   121.0674     0.0000    61.4698   153.3998   265.4772   264.7917     0.0591     0.0000   318.3335     0.1963    52.8441     1.7246     1.7846     0.1897     0.0000  3926.3335
  10005.0000  1215.8381   165.5529     0.2355    76.7570   123.2397     0.0000    70.4422   153.4041   266.5271   264.3953     0.0591     0.0000   315.6867     0.1831    49.1465     1.7438     1.7742     0.2062     0.0000  3937.6670
  10005.5000  1214.7435   165.5529     0.2355    77.8659   126.9974     0.0000    77.7185   153.4084   267.2018   263.6755     0.0590     0.0000   313.0297     0.1988    45.8146     1.7602     1.7447     0.2140     0.0000  3917.0000
  10006.0000  1214.7435   165.5529     0.2243    79.4942   127.8388     0.0000    77.6694   153.4126   267.2587   263.0047     0.0590     0.0000   310.3123     0.1848    43.0399     1.7666     1.7126     0.2256     0.0000  3931.6665
