#--------------------------------------------------#
#-------------------ENVERUS, INC.------------------#
#------------------WWW.ENVERUS.COM-----------------#
#------------------COPYRIGHT 2020------------------#
#--------------------------------------------------#
#THIS FILE MAY BE USED ONLY IN ACCORDANCE WITH A CURRENT SUBSCRIPTION AGREEMENT BETWEEN
#THE USER AND ENVERUS, INC. NO PART OF THIS FILE MAY BE REPRODUCED, USED, COPIED,
#MODIFIED, PROPAGATED, OR DISTRIBUTED EXCEPT IN ACCORDANCE WITH THE SUBSCRIPTION
#AGREEMENT. UNAUTHORIZED USE OR DISTRIBUTION OF ALL OR ANY PART OF THIS FILE MAY VIOLATE
#COPYRIGHT, TRADEMARK, AND/OR OTHER LAWS AND IS SUBJECT TO CIVIL AS WELL AS CRIMINAL
#SANCTIONS.
#--------------------------------------------------#
#THIS FILE IS PROVIDED "AS-IS" AND ALL WARRANTIES ARE EXPRESSLY DISCLAIMED, WHETHER
#EXPRESS, ORAL, IMPLIED, STATUTORY OR OTHERWISE, INCLUDING ANY IMPLIED WARRANTY OF FITNESS
#FOR A PARTICULAR PURPOSE, MERCHANTABILITY, TITLE OR NON-INFRINGEMENT, AND ANY WARRANTIES
#ARISING BY VIRTUE OF CUSTOM OF TRADE OR COURSE OF DEALING.  FURTHER, ENVERUS, INC.
#AND ITS LICENSORS DO NOT REPRESENT OR WARRANT THAT THIS FILE WILL MEET USER'S
#REQUIREMENTS OR ARE SUITABLE FOR USER'S NEEDS OR THAT THE DATA OR RESULTS PROVIDED IN
#CONJUNCTION THEREWITH ARE CORRECT, ACCURATE, TIMELY OR RELIABLE. THESE DISCLAIMERS SHALL
#APPLY REGARDLESS OF ANY FAILURE OF ESSENTIAL PURPOSE OF ANY LIMITED REMEDY.  SOME
#JURISDICTIONS DO NOT ALLOW THE EXCLUSION OF CERTAIN WARRANTIES SO SOME OF THE ABOVE
#EXCLUSIONS MAY NOT APPLY. IN NO EVENT SHALL ENVERUS, INC. OR ANY OF ITS AFFILIATES
#BE LIABLE UNDER ANY LEGAL THEORY, WHETHER IN TORT (INCLUDING WITHOUT LIMITATION
#NEGLIGENCE), CONTRACT, STRICT LIABILITY, STATUTORY OR OTHERWISE, FOR ANY SPECIAL,
#INCIDENTAL, CONSEQUENTIAL, EXEMPLARY, PUNITIVE OR INDIRECT DAMAGE OF ANY KIND, INCLUDING
#WITHOUT LIMITATION LOSS OF REVENUE, PROFITS, GOODWILL, USE, AND/OR DATA OR THE COST OF
#PROCUREMENT OF SUBSTITUTE GOODS OR SERVICES, EVEN IF APPRISED OF THE POSSIBILITY OF SUCH
#DAMAGES IN ADVANCE.
#--------------------------------------------------#

~VERSION INFORMATION
VERS. 2.0 : CWLS LOG ASCII STANDARD - VERSION 2.0
WRAP. NO : ONE LINE PER DEPTH STEP
~WELL INFORMATION
#MNEMONIC     .UNIT              VALUE :DESCRIPTION
STRT       .FT                7.00000 :START DEPTH
STOP       .FT                16581.00000 :STOP DEPTH
STEP       .FT                0.50000 :STEP
NULL       .                -999.25000 :NULL VALUE
UWI       .                42389300260000 :UNIQUE WELL ID
API       .                42389300260000 :API NUMBER
COMP       .                 :COMPANY
WELL       .                 :WELL
FLD       .                 :FIELD
LOC       .                 :LOCATION
CNTY       .                 :COUNTY
STAT       .                 :STATE
CTRY       .                 :COUNTRY
SRVC       .                 :SERVICE COMPANY
DATE       .                 :DATE
~CURVE INFORMATION
#MNEMONIC     .UNIT      API CODE :CURVE DESCRIPTION
DEPTH       .FT                      :MEASURED DEPTH
CAL       .IN        UNKNOWN   :CAL
DT       .US/FT        UNKNOWN   :DT
GR       .GAPI        UNKNOWN   :GR
~A    DEPTH    CAL    DT    GR
# ...
11821.50000    -999.25000    82.43335    87.87078
11822.00000    -999.25000    73.76536    90.42139
11822.50000    -999.25000    74.01457    92.97199
11823.00000    -999.25000    74.26378    95.52259
11823.50000    -999.25000    74.51299    98.07319
11824.00000    -999.25000    77.92124    100.62379
11824.50000    -999.25000    90.93747    95.65246
11825.00000    -999.25000    91.30956    90.33484
11825.50000    -999.25000    91.68165    98.21954
11826.00000    -999.25000    91.80521    104.73497
11826.50000    -999.25000    91.58790    99.27342
11827.00000    -999.25000    91.37059    93.81187
11827.50000    -999.25000    90.74381    88.35032
11828.00000    -999.25000    89.83352    82.88877
11828.50000    -999.25000    88.92323    80.78995
11829.00000    -999.25000    88.31434    82.69438
11829.50000    -999.25000    94.15059    84.59881
11830.00000    -999.25000    94.10019    60.31668
11830.50000    -999.25000    94.04980    61.96138
11831.00000    -999.25000    89.81246    63.60608
11831.50000    -999.25000    86.79520    65.25077
11832.00000    -999.25000    83.77794    66.89547
11832.50000    -999.25000    80.76068    68.54017
11833.00000    -999.25000    86.97903    70.18487
11833.50000    -999.25000    96.62344    71.82957
11834.00000    -999.25000    101.37614    73.47426
11834.50000    -999.25000    98.08126    75.11896
11835.00000    -999.25000    94.94945    76.76366
11835.50000    -999.25000    86.95804    78.40836
11836.00000    -999.25000    81.71606    79.87942
11836.50000    -999.25000    81.17718    79.05309
11837.00000    -999.25000    82.15652    78.22676
11837.50000    -999.25000    83.45205    80.05805
11838.00000    -999.25000    84.20921    84.66692
11838.50000    -999.25000    83.41040    89.27580
11839.00000    -999.25000    82.61159    93.88468
11839.50000    -999.25000    90.72023    92.21130
11840.00000    -999.25000    100.00077    88.77001
11840.50000    -999.25000    110.16331    86.31199
11841.00000    -999.25000    105.60409    89.73558
11841.50000    -999.25000    101.04488    93.15918
11842.00000    -999.25000    95.69526    96.45715
11842.50000    -999.25000    89.99415    94.40994
11843.00000    -999.25000    86.70553    92.36272
11843.50000    -999.25000    84.99961    90.31550
11844.00000    -999.25000    85.52359    88.74590
11844.50000    -999.25000    83.90517    90.95128
11845.00000    -999.25000    80.70894    93.15667
11845.50000    -999.25000    77.51272    95.36205
11846.00000    -999.25000    75.97108    97.56744
11846.50000    -999.25000    75.70318    99.77283
11847.00000    -999.25000    80.24641    101.97821
11847.50000    -999.25000    84.78964    95.39488
11848.00000    -999.25000    86.61268    99.70485
11848.50000    -999.25000    86.77164    94.74036
11849.00000    -999.25000    86.93059    88.41633
11849.50000    -999.25000    87.08955    84.26552
11850.00000    -999.25000    88.06903    90.68923
11850.50000    -999.25000    95.64664    97.11295
11851.00000    -999.25000    112.09019    103.53666
11851.50000    -999.25000    109.13859    109.96038
11852.00000    -999.25000    106.18699    116.38410
11852.50000    -999.25000    103.23538    117.37776
11853.00000    -999.25000    100.28378    115.85040
11853.50000    -999.25000    93.32485    114.32304
11854.00000    -999.25000    94.68438    112.79568
11854.50000    -999.25000    95.12563    123.96530
11855.00000    -999.25000    92.43945    126.40042
11855.50000    -999.25000    89.75328    123.78139
11856.00000    -999.25000    87.06710    121.18917
11856.50000    -999.25000    84.38093    129.16326
11857.00000    -999.25000    82.15259    137.13735
11857.50000    -999.25000    87.34102    145.11144
11858.00000    -999.25000    90.05181    149.52956
11858.50000    -999.25000    90.54479    148.49841
11859.00000    -999.25000    91.03776    147.46726
11859.50000    -999.25000    91.13477    117.46336
11860.00000    -999.25000    90.98717    159.36204
11860.50000    -999.25000    90.60601    154.42233
11861.00000    -999.25000    89.21418    148.68177
11861.50000    -999.25000    87.82234    142.94121
11862.00000    -999.25000    86.43051    137.20065
11862.50000    -999.25000    85.03868    131.46009
11863.00000    -999.25000    83.64685    125.71953
11863.50000    -999.25000    82.26051    112.58015
11864.00000    -999.25000    82.36076    98.98233
11864.50000    -999.25000    82.46100    99.62074
11865.00000    -999.25000    88.71832    104.22725
11865.50000    -999.25000    92.86441    108.83376
11866.00000    -999.25000    91.89304    113.44027
11866.50000    -999.25000    90.92167    118.04678
11867.00000    -999.25000    89.95030    121.38814
11867.50000    -999.25000    87.63434    120.15161
11868.00000    -999.25000    84.94536    116.52162
11868.50000    -999.25000    83.33231    112.68771
11869.00000    -999.25000    82.52172    111.09991
11869.50000    -999.25000    82.72238    115.40951
11870.00000    -999.25000    85.95395    119.71912
11870.50000    -999.25000    90.13128    114.95977
11871.00000    -999.25000    91.87764    112.96680
11871.50000    -999.25000    88.48796    117.49916
11872.00000    -999.25000    85.09829    122.03151
11872.50000    -999.25000    82.00775    115.74984
11873.00000    -999.25000    82.05778    109.05144
11873.50000    -999.25000    84.75636    105.72798
11874.00000    -999.25000    106.10156    112.36829
11874.50000    -999.25000    106.50919    119.00860
11875.00000    -999.25000    101.41347    125.64891
11875.50000    -999.25000    96.60072    132.28922
11876.00000    -999.25000    92.70436    131.04764
11876.50000    -999.25000    88.80799    129.72976
11877.00000    -999.25000    84.14523    128.41188
11877.50000    -999.25000    83.89121    125.80890
11878.00000    -999.25000    83.63719    122.78130
11878.50000    -999.25000    83.38317    119.75370
11879.00000    -999.25000    85.32336    116.72610
11879.50000    -999.25000    87.78059    113.69849
11880.00000    -999.25000    90.23781    110.67089
11880.50000    -999.25000    92.69503    107.64329
11881.00000    -999.25000    92.06820    106.95428
11881.50000    -999.25000    90.38036    108.39916
11882.00000    -999.25000    88.69253    109.84404
11882.50000    -999.25000    87.00470    111.28892
11883.00000    -999.25000    85.57321    113.10917
11883.50000    -999.25000    85.47842    118.96461
11884.00000    -999.25000    85.93891    124.82005
11884.50000    -999.25000    86.87585    130.67550
11885.00000    -999.25000    87.81280    136.53094
11885.50000    -999.25000    88.57084    133.52759
11886.00000    -999.25000    88.30512    128.28586
11886.50000    -999.25000    88.03939    123.04412
11887.00000    -999.25000    87.77366    117.80238
11887.50000    -999.25000    87.50793    113.74101
11888.00000    -999.25000    87.64504    118.94472
11888.50000    -999.25000    87.94292    121.69829
11889.00000    -999.25000    87.79098    117.66707
11889.50000    -999.25000    87.39811    127.88260
11890.00000    -999.25000    87.00524    122.01183
11890.50000    -999.25000    86.61237    116.14104
11891.00000    -999.25000    86.21950    110.56945
11891.50000    -999.25000    86.87683    112.65440
11892.00000    -999.25000    88.89769    114.73935
11892.50000    -999.25000    90.91856    116.82430
11893.00000    -999.25000    91.34822    118.90924
11893.50000    -999.25000    91.31218    120.99419
11894.00000    -999.25000    91.27615    123.07914
11894.50000    -999.25000    85.48206    125.16409
11895.00000    -999.25000    83.11884    127.24904
11895.50000    -999.25000    83.10316    122.49749
11896.00000    -999.25000    83.08748    116.42040
11896.50000    -999.25000    84.70690    117.45484
11897.00000    -999.25000    89.15570    120.08332
11897.50000    -999.25000    93.60451    122.71179
11898.00000    -999.25000    92.87927    125.34027
11898.50000    -999.25000    91.44339    127.96874
11899.00000    -999.25000    90.00751    130.59722
11899.50000    -999.25000    88.62050    133.22569
11900.00000    -999.25000    89.05275    129.93133
