#--------------------------------------------------#
#-------------------ENVERUS, INC.------------------#
#------------------WWW.ENVERUS.COM-----------------#
#------------------COPYRIGHT 2020------------------#
#--------------------------------------------------#
#THIS FILE MAY BE USED ONLY IN ACCORDANCE WITH A CURRENT SUBSCRIPTION AGREEMENT BETWEEN
#THE USER AND ENVERUS, INC. NO PART OF THIS FILE MAY BE REPRODUCED, USED, COPIED,
#MODIFIED, PROPAGATED, OR DISTRIBUTED EXCEPT IN ACCORDANCE WITH THE SUBSCRIPTION
#AGREEMENT. UNAUTHORIZED USE OR DISTRIBUTION OF ALL OR ANY PART OF THIS FILE MAY VIOLATE
#COPYRIGHT, TRADEMARK, AND/OR OTHER LAWS AND IS SUBJECT TO CIVIL AS WELL AS CRIMINAL
#SANCTIONS.
#--------------------------------------------------#
#THIS FILE IS PROVIDED "AS-IS" AND ALL WARRANTIES ARE EXPRESSLY DISCLAIMED, WHETHER
#EXPRESS, ORAL, IMPLIED, STATUTORY OR OTHERWISE, INCLUDING ANY IMPLIED WARRANTY OF FITNESS
#FOR A PARTICULAR PURPOSE, MERCHANTABILITY, TITLE OR NON-INFRINGEMENT, AND ANY WARRANTIES
#ARISING BY VIRTUE OF CUSTOM OF TRADE OR COURSE OF DEALING.  FURTHER, ENVERUS, INC.
#AND ITS LICENSORS DO NOT REPRESENT OR WARRANT THAT THIS FILE WILL MEET USER'S
#REQUIREMENTS OR ARE SUITABLE FOR USER'S NEEDS OR THAT THE DATA OR RESULTS PROVIDED IN
#CONJUNCTION THEREWITH ARE CORRECT, ACCURATE, TIMELY OR RELIABLE. THESE DISCLAIMERS SHALL
#APPLY REGARDLESS OF ANY FAILURE OF ESSENTIAL PURPOSE OF ANY LIMITED REMEDY.  SOME
#JURISDICTIONS DO NOT ALLOW THE EXCLUSION OF CERTAIN WARRANTIES SO SOME OF THE ABOVE
#EXCLUSIONS MAY NOT APPLY. IN NO EVENT SHALL ENVERUS, INC. OR ANY OF ITS AFFILIATES
#BE LIABLE UNDER ANY LEGAL THEORY, WHETHER IN TORT (INCLUDING WITHOUT LIMITATION
#NEGLIGENCE), CONTRACT, STRICT LIABILITY, STATUTORY OR OTHERWISE, FOR ANY SPECIAL,
#INCIDENTAL, CONSEQUENTIAL, EXEMPLARY, PUNITIVE OR INDIRECT DAMAGE OF ANY KIND, INCLUDING
#WITHOUT LIMITATION LOSS OF REVENUE, PROFITS, GOODWILL, USE, AND/OR DATA OR THE COST OF
#PROCUREMENT OF SUBSTITUTE GOODS OR SERVICES, EVEN IF APPRISED OF THE POSSIBILITY OF SUCH
#DAMAGES IN ADVANCE.
#--------------------------------------------------#

~VERSION INFORMATION
VERS. 2.0 : CWLS LOG ASCII STANDARD - VERSION 2.0
WRAP. NO : ONE LINE PER DEPTH STEP
~WELL INFORMATION
#MNEMONIC     .UNIT              VALUE :DESCRIPTION
STRT       .FT                7.00000 :START DEPTH
STOP       .FT                16581.00000 :STOP DEPTH
STEP       .FT                0.50000 :STEP
NULL       .                -999.25000 :NULL VALUE
UWI       .                42389300260000 :UNIQUE WELL ID
API       .                42389300260000 :API NUMBER
COMP       .                 :COMPANY
WELL       .                 :WELL
FLD       .                 :FIELD
LOC       .                 :LOCATION
CNTY       .                 :COUNTY
STAT       .                 :STATE
CTRY       .                 :COUNTRY
SRVC       .                 :SERVICE COMPANY
DATE       .                 :DATE
~CURVE INFORMATION
#MNEMONIC     .UNIT      API CODE :CURVE DESCRIPTION
DEPTH       .FT                      :MEASURED DEPTH
CAL       .IN        UNKNOWN   :CAL
DT       .US/FT        UNKNOWN   :DT
GR       .GAPI        UNKNOWN   :GR
~A    DEPTH    CAL    DT    GR
# ...
9673.50000    -999.25000    63.99073    64.98328
9674.00000    -999.25000    64.79174    45.99602
9674.50000    -999.25000    65.59275    37.57862
9675.00000    -999.25000    67.61463    37.93164
9675.50000    -999.25000    69.65310    38.28467
9676.00000    -999.25000    71.33304    38.63770
9676.50000    -999.25000    71.17596    39.06050
9677.00000    -999.25000    71.01887    44.55933
9677.50000    -999.25000    71.12885    50.05816
9678.00000    -999.25000    75.34692    55.55699
9678.50000    -999.25000    79.56499    61.05582
9679.00000    -999.25000    83.51525    71.50517
9679.50000    -999.25000    84.28433    127.39386
9680.00000    -999.25000    85.05340    131.32539
9680.50000    -999.25000    85.41229    124.72591
9681.00000    -999.25000    84.85626    118.12644
9681.50000    -999.25000    84.30023    111.52696
9682.00000    -999.25000    82.35105    104.92748
9682.50000    -999.25000    79.18726    98.32800
9683.00000    -999.25000    77.15781    91.72853
9683.50000    -999.25000    77.28088    96.83048
9684.00000    -999.25000    78.50798    104.05024
9684.50000    -999.25000    80.08794    111.27000
9685.00000    -999.25000    81.66790    118.48976
9685.50000    -999.25000    82.65289    125.70951
9686.00000    -999.25000    83.25577    126.07194
9686.50000    -999.25000    83.85865    126.23654
9687.00000    -999.25000    80.90418    126.40114
9687.50000    -999.25000    78.06770    124.40246
9688.00000    -999.25000    80.78647    121.60407
9688.50000    -999.25000    83.50524    119.72916
9689.00000    -999.25000    84.25067    131.89600
9689.50000    -999.25000    84.15685    138.62395
9690.00000    -999.25000    84.06303    133.16502
9690.50000    -999.25000    83.98413    127.70608
9691.00000    -999.25000    84.84725    122.24715
9691.50000    -999.25000    85.71037    124.65710
9692.00000    -999.25000    86.57350    128.04353
9692.50000    -999.25000    84.61532    131.42996
9693.00000    -999.25000    80.55385    126.50186
9693.50000    -999.25000    78.05726    118.65399
9694.00000    -999.25000    75.56067    110.80611
9694.50000    -999.25000    73.06409    102.95824
9695.00000    -999.25000    71.08125    95.11036
9695.50000    -999.25000    73.50183    87.26249
9696.00000    -999.25000    75.92240    79.41461
9696.50000    -999.25000    78.34298    87.27298
9697.00000    -999.25000    81.52968    100.62846
9697.50000    -999.25000    84.82705    113.98394
9698.00000    -999.25000    84.88210    127.33943
9698.50000    -999.25000    84.93716    138.91234
9699.00000    -999.25000    84.99222    135.91752
9699.50000    -999.25000    84.91531    132.92270
9700.00000    -999.25000    84.71350    126.79251
9700.50000    -999.25000    81.97679    116.63724
9701.00000    -999.25000    77.40748    106.48198
9701.50000    -999.25000    72.83818    96.32671
9702.00000    -999.25000    66.16132    86.17145
9702.50000    -999.25000    64.18008    76.01618
9703.00000    -999.25000    64.42379    65.86092
9703.50000    -999.25000    67.03728    55.70566
9704.00000    -999.25000    70.60320    62.82210
9704.50000    -999.25000    74.16912    83.48276
9705.00000    -999.25000    77.56510    104.14342
9705.50000    -999.25000    79.87871    118.51480
9706.00000    -999.25000    80.34905    116.89696
9706.50000    -999.25000    80.81939    115.27912
9707.00000    -999.25000    81.28972    116.05434
9707.50000    -999.25000    81.76006    120.37558
9708.00000    -999.25000    82.23039    128.48864
9708.50000    -999.25000    82.49524    136.60169
9709.00000    -999.25000    82.14890    140.82225
9709.50000    -999.25000    81.80255    137.71210
9710.00000    -999.25000    81.67487    134.60195
9710.50000    -999.25000    81.70728    131.49180
9711.00000    -999.25000    81.73969    128.38164
9711.50000    -999.25000    81.77210    125.27149
9712.00000    -999.25000    81.80451    122.16134
9712.50000    -999.25000    81.83693    121.10226
9713.00000    -999.25000    81.86934    121.10197
9713.50000    -999.25000    81.90175    121.10167
9714.00000    -999.25000    81.93416    121.10137
9714.50000    -999.25000    80.41651    118.37761
9715.00000    -999.25000    77.11838    114.80329
9715.50000    -999.25000    73.82025    111.22898
9716.00000    -999.25000    74.76324    107.65466
9716.50000    -999.25000    76.11582    104.08035
9717.00000    -999.25000    72.95604    102.61704
9717.50000    -999.25000    69.79625    104.45212
9718.00000    -999.25000    75.33688    106.28720
9718.50000    -999.25000    71.46140    104.78299
9719.00000    -999.25000    68.96752    89.47366
9719.50000    -999.25000    72.05215    74.16434
9720.00000    -999.25000    75.13678    79.27782
9720.50000    -999.25000    78.22141    85.91684
9721.00000    -999.25000    81.30603    92.55586
9721.50000    -999.25000    76.16384    99.19489
9722.00000    -999.25000    71.15912    105.31723
9722.50000    -999.25000    69.11805    95.18744
9723.00000    -999.25000    69.06166    85.05764
9723.50000    -999.25000    72.77786    74.92784
9724.00000    -999.25000    76.49407    77.14299
9724.50000    -999.25000    80.21028    94.40608
9725.00000    -999.25000    83.92649    111.66917
9725.50000    -999.25000    85.20408    127.15197
9726.00000    -999.25000    85.19678    123.06791
9726.50000    -999.25000    85.05346    118.98385
9727.00000    -999.25000    84.91014    114.89979
9727.50000    -999.25000    82.64257    110.77161
9728.00000    -999.25000    80.13660    105.43430
9728.50000    -999.25000    77.63064    100.09699
9729.00000    -999.25000    75.12467    94.75968
9729.50000    -999.25000    72.61871    89.42237
9730.00000    -999.25000    72.06540    84.08507
9730.50000    -999.25000    71.84479    78.74776
9731.00000    -999.25000    71.62417    73.41045
9731.50000    -999.25000    72.96127    68.07314
9732.00000    -999.25000    74.77767    80.65948
9732.50000    -999.25000    79.51608    96.63896
9733.00000    -999.25000    81.64887    103.82472
9733.50000    -999.25000    82.42261    104.41412
9734.00000    -999.25000    83.19053    105.00353
9734.50000    -999.25000    83.95846    105.59293
9735.00000    -999.25000    84.35273    106.34453
9735.50000    -999.25000    84.37353    110.21488
9736.00000    -999.25000    84.39432    114.08523
9736.50000    -999.25000    84.41512    117.95559
9737.00000    -999.25000    84.43591    121.82594
9737.50000    -999.25000    82.62812    125.69630
9738.00000    -999.25000    80.40087    125.26216
9738.50000    -999.25000    78.35891    118.39557
9739.00000    -999.25000    77.97589    111.52898
9739.50000    -999.25000    77.59287    104.66240
9740.00000    -999.25000    77.20985    97.79581
9740.50000    -999.25000    76.82683    90.92922
9741.00000    -999.25000    74.86917    84.06264
9741.50000    -999.25000    72.74314    77.19605
9742.00000    -999.25000    71.72292    70.32946
9742.50000    -999.25000    75.15357    85.46904
9743.00000    -999.25000    78.58423    113.15888
9743.50000    -999.25000    82.01488    118.70333
9744.00000    -999.25000    83.90550    124.24778
9744.50000    -999.25000    84.01705    129.79223
9745.00000    -999.25000    83.89187    133.64555
9745.50000    -999.25000    83.76669    129.08235
9746.00000    -999.25000    83.64151    124.51915
9746.50000    -999.25000    83.69116    119.95595
9747.00000    -999.25000    84.01409    120.52928
9747.50000    -999.25000    84.33702    122.57251
9748.00000    -999.25000    84.65995    124.61575
9748.50000    -999.25000    84.98288    126.65899
9749.00000    -999.25000    85.30581    128.70223
9749.50000    -999.25000    85.35701    130.62865
9750.00000    -999.25000    84.90784    129.46761
9750.50000    -999.25000    84.45866    128.30658
9751.00000    -999.25000    84.00949    127.14554
9751.50000    -999.25000    83.80309    125.98450
9752.00000    -999.25000    83.79083    125.85910
9752.50000    -999.25000    83.77857    127.04356
9753.00000    -999.25000    83.76631    128.22801
9753.50000    -999.25000    83.50212    129.41247
9754.00000    -999.25000    83.09100    130.59692
