~Version Information Block
 VERS.                2.00:     CWLS LOG ASCII STANDARD - VERSION 2.000000
 WRAP.                  NO:     One Line Per Depth Step
#
~Well Information Block
#MNEM.UNIT                     Data                         Information
#----------   ------------------------------------------   ----------------
 STRT.FT                                     1000.0000:     START DEPTH
 STOP.FT                                    15733.0000:     STOP DEPTH
 STEP.FT                                        0.5000:     STEP
 NULL.                                       -999.0000:     NULL VALUE
 COMP.                                 MOBIL PRODUCING:     COMPANY
 WELL.                                    IB-WEATHERBY:     WELL
 FLD .                                   ROJO CABALLOS:     FIELD
 LOC .                                         UNKNOWN:     LOCATION
 LONG.                                 -103.1458890000:     LONGITUDE
 LATI.                                   31.1330510000:     LATITUDE
 CNTY.                                           PECOS:     COUNTY
 STAT.                                           TEXAS:     STATE
 CTRY.                                           U.S.A:     COUNTRY
 SRVC.                                         UNKNOWN:     SERVICE COMPANY
 DATE.                                         UNKNOWN:     DATE
 API .                                  42371057360000:     API NUMBER
 UWI .                                  42371057360000:     UWI NUMBER
 SLAT.                                       31.133051:     Surface latitude
 SLON.                                     -103.145889:     surface longitude
 TVD .                                              NO:     TVD flag
 WSTA.                                             LOC:     Well status
#
~Curve Information Block
#MNEM.UNIT       API CODE      Curve Description
#----------    -------------   -------------------
 DEPT.FT                   :   Depth in Feet
 DT  .UNKNOWN          UNKNOWN:   DT-Load
 DTedit.ft/s          UNKNOWN:   DT-Load
 GR  .UNKNOWN          UNKNOWN:   GR-Load
 GR_org.UNKNOWN          UNKNOWN:   GR_org-Load
#
~Parameter Information Block
#MNEM.UNIT            Value               Description
#----------    --------------------    -------------------
 RUN .                         ONE:    Run Number
 PDAT.                          GL:    Permanent Datum
 EPD .FT                          :    Elevation Of Perm. Datum
 LMF .               KELLY BUSHING:    Log Measured From
 EKB .FT                          :    Elevation Of Kelly Bushing
 DF .FT                           :    Elevation Of Derrick Floor
 GL .FT                           :    Elevation Of Ground Level
 TD  .FT                          :    Total Depth
 CSGD.FT                          :    Casing Bottom (Driller) 1
 CSGL.FT                          :    Casing Bottom (Logger) 1
 MUD .                            :    Drilling Fluid Type
 MUDV .CP                         :    Drilling Fluid Viscosity
 MUDD .LB/USG                     :    Drilling Fluid Density
 FL .ML/30MIN                     :    Drilling Fluid Loss
 PH.                              :    Drilling Fluid Ph
 MUDS .                           :    Mud Sample Source
 RM .OHMM                         :    Resistivity Of Mud Sample
 RMT .DEGF                        :    Mud Sample Temperature
 RMF .OHMM                        :    Mud Filtrate Resistivity
 RMFT.DEGF                        :    Mud Filtrate Sample Temperature
 RMC .OHMM                        :    Mud Cake Resistivity
 RMCT.DEGF                        :    Mud Cake Sample Temperature
 RMB .OHMM                        :    Mud Resistivity At Bht
 TMAX .DEGF                       :    Bottom Hole Temperature
#
~Other Information Block
<DescLogPlotStart>   NEURALOG PLOT DEFINITION
PLOTDEFVERSION: 3
LASFILE: E:\Nair Innovations\42_TEXAS\371_Pecos\Mobil_IB-Weatherby 1 Pecos_1.la
DEPTHSCALE: 239.999996
RESOLUTION: 200
DEPTHLABELFREQ: 100.000000
HEAVYGRIDFREQ: 50.000000
MEDIUMGRIDFREQ: 50.000000
LIGHTGRIDFREQ: 10.000000
#
#   TRACK 1
#
STARTTRACK: 
 LEFTX: 0.500000 inch
 RIGHTX: 3.000000 inch
 SCALETYPE: Linear
 NUMCHARTDIVISIONS: 10
CURVE: GR    0.000000   150.000000 (255,0,0)      Short_Dash        4     N    
CURVE: DTedit 6637.927700 24453.046900 (0,131,131)    Solid             2     N
CURVE: GR_org -999.990000 109.000000 (255,0,255)    Solid             2     N  
ENDTRACK: 
#
#   TRACK 2
#
STARTTRACK: 
 LEFTX: 3.750000 inch
 RIGHTX: 6.250000 inch
 SCALETYPE: Linear
 NUMCHARTDIVISIONS: 10
ENDTRACK: 
#
#   TRACK 3
#
STARTTRACK: 
 LEFTX: 6.250000 inch
 RIGHTX: 8.750000 inch
 SCALETYPE: Linear
 NUMCHARTDIVISIONS: 10
CURVE: DT    190.000000 50.000000  (255,0,131)    Solid             2     N    
ENDTRACK: 
<DescLogPlotEnd>
<DepthTrack type='Reference' track='1' Label='0' color='0' hor='0' />
<Reference font='144,0,-900,0,500,0,16777216,Arial' />
~A DEPTH     DT               DTedit             GR               GR_org            
# ...
    8821.000 82.70680000      12090.90430000   32.39000000      32.39000000     
    8821.500 82.70680000      12090.90430000   33.58780000      33.58780000     
    8822.000 83.18180000      12021.86040000   36.32140000      36.32140000     
    8822.500 83.18180000      12021.86040000   38.85610000      38.85610000     
    8823.000 81.10690000      12329.40720000   40.49620000      40.49620000     
    8823.500 81.10690000      12329.40720000   41.65550000      41.65550000     
    8824.000 82.47270000      12125.22460000   42.05180000      42.05180000     
    8824.500 82.47270000      12125.22460000   40.58570000      40.58570000     
    8825.000 85.47500000      11699.32710000   38.40880000      38.40880000     
    8825.500 85.47500000      11699.32710000   38.35220000      38.35220000     
    8826.000 82.60100000      12106.39160000   38.69830000      38.69830000     
    8826.500 82.60100000      12106.39160000   38.81450000      38.81450000     
    8827.000 83.62520000      11958.11820000   38.27830000      38.27830000     
    8827.500 83.62520000      11958.11820000   36.63940000      36.63940000     
    8828.000 84.08750000      11892.37400000   33.81390000      33.81390000     
    8828.500 84.08750000      11892.37400000   34.64640000      34.64640000     
    8829.000 64.90190000      15407.86910000   37.94650000      37.94650000     
    8829.500 64.90190000      15407.86910000   40.87890000      40.87890000     
    8830.000 75.56320000      13233.95510000   42.30470000      42.30470000     
    8830.500 75.56320000      13233.95510000   42.81540000      42.81540000     
    8831.000 90.02440000      11108.09960000   43.70680000      43.70680000     
    8831.500 90.02440000      11108.09960000   42.94150000      42.94150000     
    8832.000 83.35660000      11996.65040000   40.24770000      40.24770000     
    8832.500 83.35660000      11996.65040000   38.79520000      38.79520000     
    8833.000 81.21350000      12313.22360000   38.23880000      38.23880000     
    8833.500 81.21350000      12313.22360000   38.31060000      38.31060000     
    8834.000 82.09590000      12180.87600000   39.11580000      39.11580000     
    8834.500 82.09590000      12180.87600000   40.03150000      40.03150000     
    8835.000 84.09500000      11891.31350000   40.76830000      40.76830000     
    8835.500 84.09500000      11891.31350000   41.16710000      41.16710000     
    8836.000 86.53970000      11555.38960000   40.97890000      40.97890000     
    8836.500 86.53970000      11555.38960000   40.10110000      40.10110000     
    8837.000 84.45360000      11840.82130000   38.63990000      38.63990000     
    8837.500 84.45360000      11840.82130000   37.26380000      37.26380000     
    8838.000 81.59170000      12256.14940000   36.95980000      36.95980000     
    8838.500 81.59170000      12256.14940000   37.31660000      37.31660000     
    8839.000 83.34160000      11998.80960000   38.13540000      38.13540000     
    8839.500 83.34160000      11998.80960000   38.04720000      38.04720000     
    8840.000 85.37060000      11713.63480000   37.07180000      37.07180000     
    8840.500 85.37060000      11713.63480000   36.39930000      36.39930000     
    8841.000 84.79280000      11793.45410000   36.19820000      36.19820000     
    8841.500 84.79280000      11793.45410000   36.25600000      36.25600000     
    8842.000 85.50720000      11694.92090000   36.32910000      36.32910000     
    8842.500 85.50720000      11694.92090000   36.27240000      36.27240000     
    8843.000 87.45590000      11434.33400000   35.57710000      35.57710000     
    8843.500 87.45590000      11434.33400000   33.62260000      33.62260000     
    8844.000 85.71280000      11666.86910000   31.61470000      31.61470000     
    8844.500 85.71280000      11666.86910000   30.67910000      30.67910000     
    8845.000 86.50290000      11560.30660000   30.56100000      30.56100000     
    8845.500 86.50290000      11560.30660000   29.34340000      29.34340000     
    8846.000 78.73880000      12700.21880000   27.81010000      27.81010000     
    8846.500 78.73880000      12700.21880000   25.63070000      25.63070000     
    8847.000 57.91140000      17267.75780000   23.69110000      23.69110000     
    8847.500 57.91140000      17267.75780000   25.36730000      25.36730000     
    8848.000 58.74880000      17021.62500000   28.75690000      28.75690000     
    8848.500 58.74880000      17021.62500000   32.40490000      32.40490000     
    8849.000 73.85840000      13539.42190000   35.14090000      35.14090000     
    8849.500 73.85840000      13539.42190000   35.66340000      35.66340000     
    8850.000 85.04800000      11758.06640000   34.91230000      34.91230000     
    8850.500 85.04800000      11758.06640000   35.80940000      35.80940000     
    8851.000 78.12810000      12799.49220000   38.44600000      38.44600000     
    8851.500 78.12810000      12799.49220000   40.96840000      40.96840000     
    8852.000 80.92400000      12357.27250000   42.19320000      42.19320000     
    8852.500 80.92400000      12357.27250000   42.19950000      42.19950000     
    8853.000 82.92970000      12058.40530000   41.87290000      41.87290000     
    8853.500 82.92970000      12058.40530000   40.28750000      40.28750000     
    8854.000 78.81690000      12687.63380000   38.96910000      38.96910000     
    8854.500 78.81690000      12687.63380000   38.91200000      38.91200000     
    8855.000 75.91280000      13173.00880000   41.16470000      41.16470000     
    8855.500 75.91280000      13173.00880000   43.04830000      43.04830000     
    8856.000 79.82240000      12527.81150000   43.81740000      43.81740000     
    8856.500 79.82240000      12527.81150000   43.97370000      43.97370000     
    8857.000 77.76930000      12858.54390000   43.56150000      43.56150000     
    8857.500 77.76930000      12858.54390000   42.74150000      42.74150000     
    8858.000 79.63020000      12558.04880000   41.84810000      41.84810000     
    8858.500 79.63020000      12558.04880000   41.24300000      41.24300000     
    8859.000 80.76930000      12380.94140000   40.63410000      40.63410000     
    8859.500 80.76930000      12380.94140000   39.59910000      39.59910000     
    8860.000 84.70870000      11805.16210000   38.15030000      38.15030000     
    8860.500 84.70870000      11805.16210000   36.97360000      36.97360000     
    8861.000 81.91440000      12207.86620000   36.07590000      36.07590000     
    8861.500 81.91440000      12207.86620000   35.57030000      35.57030000     
    8862.000 79.70230000      12546.68950000   35.79080000      35.79080000     
    8862.500 79.70230000      12546.68950000   36.44620000      36.44620000     
    8863.000 77.62980000      12881.65140000   36.01570000      36.01570000     
    8863.500 77.62980000      12881.65140000   34.56940000      34.56940000     
    8864.000 79.69320000      12548.12210000   33.47340000      33.47340000     
    8864.500 79.69320000      12548.12210000   34.17920000      34.17920000     
    8865.000 82.86440000      12067.90820000   36.22690000      36.22690000     
    8865.500 82.86440000      12067.90820000   39.27850000      39.27850000     
    8866.000 77.07140000      12974.98140000   41.78090000      41.78090000     
    8866.500 77.07140000      12974.98140000   43.66960000      43.66960000     
    8867.000 82.05850000      12186.42770000   46.51000000      46.51000000     
    8867.500 82.05850000      12186.42770000   46.85080000      46.85080000     
    8868.000 83.70320000      11946.97460000   46.57090000      46.57090000     
    8868.500 83.70320000      11946.97460000   46.55470000      46.55470000     
    8869.000 79.69700000      12547.52440000   47.13370000      47.13370000     
    8869.500 79.69700000      12547.52440000   45.44640000      45.44640000     
    8870.000 74.87590000      13355.43160000   40.96340000      40.96340000     
