###############################################
##         ENVERUS                           ##
##         ESS - Open Hole                   ##
##         PERMIAN / DELAWARE                ##
##         Nov 04 2023  V4.0                 ##
##         42-371-36358-00-00                ##
###############################################
## Copyright 2017-2023  ENVERUS.  All Rights Reserved. 
## Confidential - Property of ENVERUS, use governed by terms and 
## conditions found within the existing Information Services Subscription Agreement 
## (as may be amended, the “ISSA”) between Customer and ENVERUS. 
## 
~VERSION INFORMATION
# MNEM.UNIT                               DATA : DESCRIPTION OF MNEMONIC
#-----.-----     ----------------------------- : -----------------------------
VERS.                                     2.00 : CWLS LOG ASCII STANDARD - VERSION 2.00
WRAP.                                       NO : MULTIPLE LINES PER DEPTH STEP
VEND.                                  ENVERUS : VENDOR
TYPE.                          ESS - OPEN HOLE : ENVERUS ESSENTIAL CURVES – ACCESSIBLE THROUGH ENVERUS PRISM(TM)
DOC.                                  32044985 : ENVERUS HEADER RAW DOCUMENT ID
#___________________________________________________________________________________________________ 
~WELL INFORMATION 
# 9/F+NtSLBEAIaZM9LpLMxALTyCH3LMfPBQiNKTeSadJ6NAezaEZy+3+OEP8rVGNvVB4ifWNnxSKvs1BiqqZA9A== 
# MNEM.UNIT                                              DATA : DESCRIPTION OF MNEMONIC 
#-----.-----                    ----------------------------- : ----------------------------- 
CNTY.                                                   PECOS : COUNTY 
STATE.                                                  TEXAS : STATE 
CNTRY.                                                    USA : COUNTRY 
API.                                             42-371-36358 : API (10 Digit) 
API_14.                                    42-371-36358-00-00 : API (14 Digits) 
API_14_std.                                 42-371-36358-0000 : API (14 Digits Standard) 
UWI.                                           42371363580000 : UNIQUE WELL ID 
WELL.                           SCHLOSSER, FRED ESTATE -B-  9 : WELL NAME
STRT.FT                                                 151.0 : START DEPTH
STOP.FT                                                5707.0 : STOP DEPTH
STEP.FT                                                   0.5 : STEP BETWEEN DEPTHS
NULL.                                                 -999.25 : NULL VALUE
COMP.                                      APACHE CORPORATION : COMPANY 
DATE.                                             07-JUN-1992 : LOG DATE
#___________________________________________________________________________________________________ 
~CURVE INFORMATION 
# MNEM.UNIT           : CURVE DESCRIPTION 
#-----.-----          : ----------------------------- 
 DEPT.FT               : MEASURED DEPTH 
 GR.API                : GAMMA RAY (GR) 
 DT.US/FT              : SONIC DELTA TRANSIT TIME (DT) 
 #___________________________________________________________________________________________________ 
~A         DEPT             GR             DT
# ...
         1630.0          7.023         58.393
         1630.5          5.468         62.661
         1631.0          5.357         67.304
         1631.5          5.245         69.244
         1632.0          5.134         70.171
         1632.5          5.022         70.534
         1633.0          4.846         70.609
         1633.5          4.213         70.322
         1634.0          3.581         69.528
         1634.5          3.662         69.049
         1635.0          4.026         68.884
         1635.5          4.390         68.801
         1636.0          4.755         68.717
         1636.5          5.119         68.472
         1637.0          5.420         68.021
         1637.5          5.540         67.787
         1638.0          5.661         67.878
         1638.5          5.781         68.304
         1639.0          5.902         68.835
         1639.5          6.022         69.367
         1640.0          6.143         69.898
         1640.5          6.695         70.430
         1641.0          7.292         70.509
         1641.5          7.889         70.308
         1642.0          8.487         70.107
         1642.5          9.109         69.906
         1643.0         10.219         69.705
         1643.5         11.329         70.308
         1644.0         12.438         70.982
         1644.5         13.548         71.757
         1645.0         22.307         72.104
         1645.5         33.160         71.815
         1646.0         44.013         70.735
         1646.5         70.357         69.432
         1647.0        107.139         67.680
         1647.5        123.371         65.785
         1648.0        137.253         62.270
         1648.5        123.931         59.240
         1649.0         62.606         57.823
         1649.5         32.050         57.498
         1650.0          7.832         57.173
         1650.5          6.465         56.848
         1651.0          6.213         54.764
         1651.5          5.961         53.073
         1652.0          5.710         52.777
         1652.5          5.458         52.481
         1653.0          5.489         52.701
         1653.5          6.628         53.319
         1654.0          7.767         53.829
         1654.5          8.906         55.474
         1655.0         27.884         57.118
         1655.5         49.899         57.934
         1656.0         76.407         56.428
         1656.5        104.209         54.921
         1657.0        132.472         53.415
         1657.5        152.015         52.682
         1658.0        127.914         54.424
         1658.5        100.584         56.166
         1659.0         70.300         57.908
         1659.5         40.015         60.811
         1660.0          9.731         62.698
         1660.5          7.155         62.983
         1661.0          5.482         63.268
         1661.5          5.022         63.572
         1662.0          4.738         63.891
         1662.5          4.455         65.365
         1663.0          4.172         67.930
         1663.5          3.972         67.948
         1664.0          5.719         67.967
         1664.5          6.077         68.561
         1665.0          6.128         69.337
         1665.5          6.179         70.114
         1666.0          4.978         70.890
         1666.5          3.454         71.376
         1667.0          2.905         70.798
         1667.5          3.847         70.221
         1668.0          4.788         68.839
         1668.5          4.549         68.703
         1669.0          4.265         68.566
         1669.5          3.982         68.430
         1670.0          3.699         68.294
         1670.5          3.603         68.251
         1671.0          4.730         68.463
         1671.5          4.848         68.928
         1672.0          4.871         69.546
         1672.5          4.895         70.164
         1673.0          4.919         70.782
         1673.5          4.942         71.400
         1674.0          4.966         71.444
         1674.5          5.071         71.411
         1675.0          5.407         71.045
         1675.5          5.743         70.484
         1676.0          6.079         70.357
         1676.5          6.416         70.526
         1677.0          5.603         70.696
         1677.5          4.334         70.865
         1678.0          3.394         70.650
         1678.5          3.170         70.115
         1679.0          2.947         69.665
         1679.5          3.048         69.215
         1680.0          3.370         68.834
         1680.5          3.693         68.468
         1681.0          4.016         68.291
         1681.5          4.339         68.116
         1682.0          4.661         67.940
         1682.5          4.984         68.202
         1683.0          5.293         69.407
         1683.5          4.923         70.612
         1684.0          4.554         71.816
         1684.5          4.184         73.021
         1685.0          3.814         72.906
         1685.5          3.729         71.633
         1686.0          3.936         70.360
         1686.5          4.143         69.086
         1687.0          4.350         69.185
         1687.5          4.556         69.850
         1688.0          4.763         70.515
         1688.5          4.970         70.679
         1689.0         10.231         70.520
         1689.5         16.500         70.360
         1690.0         22.770         69.892
         1690.5         29.039         68.820
         1691.0         99.441         67.556
         1691.5        111.622         65.887
         1692.0        123.804         63.441
         1692.5        130.468         61.460
         1693.0        135.094         59.669
         1693.5        114.208         58.340
         1694.0         93.215         57.524
         1694.5         71.119         57.419
         1695.0         49.024         56.991
         1695.5         26.928         56.527
         1696.0         19.999         56.569
         1696.5         16.200         56.690
         1697.0         12.400         57.266
         1697.5          9.586         58.133
         1698.0          9.234         59.000
         1698.5          8.881         59.322
         1699.0          7.930         59.594
         1699.5          6.875         61.183
         1700.0          5.821         64.374
         1700.5          4.995         67.564
         1701.0          4.884         69.510
         1701.5          4.773         67.229
         1702.0          5.245         64.891
         1702.5          6.249         61.456
         1703.0          7.252         58.718
         1703.5          8.255         57.613
         1704.0          9.258         56.507
         1704.5          8.970         55.402
         1705.0          8.544         54.297
         1705.5          7.622         57.797
         1706.0          6.700         61.984
         1706.5          5.778         66.171
         1707.0          4.856         68.472
         1707.5          3.986         69.458
         1708.0          4.545         68.760
         1708.5          5.104         67.926
         1709.0          5.662         66.925
         1709.5          6.221         64.399
         1710.0          6.780         62.267
         1710.5          6.658         60.135
         1711.0          6.035         59.627
         1711.5          5.412         62.294
         1712.0          4.789         64.960
         1712.5          4.165         67.626
         1713.0          4.069         67.473
         1713.5          4.618         67.071
         1714.0          5.167         66.818
         1714.5          5.612         68.501
         1715.0          5.252         70.184
         1715.5          4.892         71.867
         1716.0          4.532         73.261
         1716.5          4.172         70.864
