~Version Information Block
 VERS.                2.00:     CWLS LOG ASCII STANDARD - VERSION 2.000000
 WRAP.                  NO:     One Line Per Depth Step
#
~Well Information Block
#MNEM.UNIT                     Data                         Information
#----------   ------------------------------------------   ----------------
# Enverus has updated the API/UWI.  The previous names are renamed to  PREV_API / PREV_UWI
API.                             42-371-39483-90-00 : API (14 Digits with Dashes)
UWI.                                 42371394839000 : UNIQUE WELL ID

 STRT.FT                                    10010.0000:     START DEPTH
 STOP.FT                                    11812.0000:     STOP DEPTH
 STEP.FT                                        0.5000:     STEP
 NULL.                                       -999.2500:     NULL VALUE
 COMP.                           PATRIOT RESOURCES INC:     COMPANY
 WELL.                        ROOSTERFISH UNIT 22NE 1H:     WELL
 FLD .                             WOLFBONE TREND AREA:     FIELD
 LOC .                                                :     LOCATION
 SEC .                                              22:     SECTION
 CNTY.                                          PEACOS:     COUNTY
 STAT.                                           TEXAS:     STATE
 CTRY.                                           U.S.A:     COUNTRY
 SRVC.                                    SCHLUMBERGER:     SERVICE COMPANY
 DATE.                                      03/18/2017:     DATE
PREV_APII .                                  42371394830000:     API NUMBER
 PREV_UWI .                                  42371394830000:     UWI NUMBER
 TVD .                                              NO:     TVD flag
 WSTA.                                             LOC:     Well status
#
~Curve Information Block
#MNEM.UNIT       API CODE      Curve Description
#----------    -------------   -------------------
 DEPT.FT                   :   Depth in Feet
 ECGR.GAPI     35 310 01 01:   Environmentally Corrected Gamma Ray
 CALI.IN       70 280 01 01:   Caliper
 TENS.LBS                  :   Tension
 SPHI_476.V/V  61 890 01 01:   Sonic Porosity 47.6 Matrix
 DT  .US/F     60 520 08 01:   Delta-T
 DTSM.US/F                 :   Delta-T Shear Measurement
 STIT.FT/H                 :   STIT
#
~Parameter Information Block
#MNEM.UNIT            Value               Description
#----------    --------------------    -------------------
 RUN .                         ONE:    Run Number
 PDAT.                          GL:    Permanent Datum
 EPD .FT                        25:    Elevation Of Perm. Datum
 LMF .               KELLY BUSHING:    Log Measured From
 EKB .FT                          :    Elevation Of Kelly Bushing
 DF .FT                           :    Elevation Of Derrick Floor
 GL .FT                         25:    Elevation Of Ground Level
 TD  .FT                     18979:    Total Depth
 CSGD.FT                      5100:    Casing Bottom (Driller) 1
 CSGL.FT                     18979:    Casing Bottom (Logger) 1
 MUD .                   OIL BASED:    Drilling Fluid Type
 MUDV .CP                      102:    Drilling Fluid Viscosity
 MUDD .LB/USG                 13.0:    Drilling Fluid Density
 FL .ML/30MIN                     :    Drilling Fluid Loss
 PH.                           8.8:    Drilling Fluid Ph
 MUDS .                           :    Mud Sample Source
 RM .OHMM                         :    Resistivity Of Mud Sample
 RMT .DEGF                        :    Mud Sample Temperature
 RMF .OHMM                        :    Mud Filtrate Resistivity
 RMFT.DEGF                        :    Mud Filtrate Sample Temperature
 RMC .OHMM                        :    Mud Cake Resistivity
 RMCT.DEGF                        :    Mud Cake Sample Temperature
 RMB .OHMM                        :    Mud Resistivity At Bht
 TMAX .DEGF                    152:    Bottom Hole Temperature
#
~Other Information Block
<DescLogPlotStart>   NEURALOG PLOT DEFINITION
PLOTDEFVERSION: 3
LASFILE: D:\nds\projects\poojawells\December data\PoojaWells Digitizing_Cassidy
DEPTHSCALE: 240.000000
RESOLUTION: 144
DEPTHLABELFREQ: 100.000000
HEAVYGRIDFREQ: 100.000000
MEDIUMGRIDFREQ: 50.000000
LIGHTGRIDFREQ: 10.000000
#
#   TRACK 1
#
STARTTRACK: 
 LEFTX: 0.500000 inch
 RIGHTX: 3.000000 inch
 SCALETYPE: Linear
 NUMCHARTDIVISIONS: 10
CURVE: ECGR  0.000000   150.000000 (0,0,255)      Solid             2     Y    
BACKUP: 150.000000 300.000000 (0,0,255)      Solid             2    
CURVE: CALI  6.000000   16.000000  (0,131,131)    Dot               2     Y    
BACKUP: -4.000000  6.000000   (0,131,131)    Dot               2    
CURVE: TENS  10000.000000 0.000000   (255,0,255)    Short_Dash        2     N  
ENDTRACK: 
#
#   TRACK 2
#
STARTTRACK: 
 LEFTX: 3.500000 inch
 RIGHTX: 8.500000 inch
 SCALETYPE: Linear
 NUMCHARTDIVISIONS: 10
CURVE: SPHI_476 0.300000   -0.100000  (255,0,0)      Solid             2     N 
CURVE: DT    140.000000 40.000000  (255,131,0)    Dot               2     N    
CURVE: DTSM  240.000000 40.000000  (255,255,0)    Short_Dash        2     N    
ENDTRACK: 
#
#   TRACK 3
#
STARTTRACK: 
 LEFTX: 8.500000 inch
 RIGHTX: 9.256944 inch
 SCALETYPE: Linear
 NUMCHARTDIVISIONS: 10
CURVE: STIT  0.000000   50.000000  (0,0,255)      Solid             2     N    
ENDTRACK: 
<DescLogPlotEnd>
~A DEPTH     ECGR             CALI             TENS             SPHI_476             DT               DTSM             STIT            
# ...
   11748.500 -999.25000000    8.47966050       4846.36871508    0.24791086       82.46219658      151.91736305     0.68807339      
   11749.000 -999.25000000    8.41124984       4815.64245810    0.24791086       82.42638281      152.08449396     0.68807339      
   11749.500 -999.25000000    8.55048711       4790.50279330    0.24958217       82.74025070      151.82324639     0.68807339      
   11750.000 -999.25000000    8.88224958       4790.50279330    0.25310306       83.00139276      151.45859711     0.68807339      
   11750.500 -999.25000000    9.27021872       4828.57767381    0.24994022       82.54874652      151.09394783     0.68807339      
   11751.000 -999.25000000    8.89458144       4862.00927621    0.24731620       82.40947075      151.37883008     0.68807339      
   11751.500 -999.25000000    8.47453054       4861.62011173    0.24793981       82.40947075      151.83844011     0.68807339      
   11752.000 -999.25000000    8.51277163       4831.35474860    0.24733462       82.40947075      151.83844011     0.68807339      
   11752.500 -999.25000000    8.55905121       4768.68016760    0.24735830       82.40947075      151.83844011     0.68807339      
   11753.000 -999.25000000    8.47594889       4706.70391061    0.24735376       82.40947075      151.83844011     0.68807339      
   11753.500 -999.25000000    8.40661393       4791.20111732    0.24735376       82.40947075      151.83844011     0.68807339      
   11754.000 -999.25000000    8.44322618       4860.00000000    0.24735376       82.40947075      151.83844011     0.68807339      
   11754.500 -999.25000000    8.49797828       4902.23463687    0.24735376       82.40947075      151.70264624     0.68807339      
   11755.000 -999.25000000    8.86383366       4875.09976057    0.24735376       82.40947075      151.55988858     0.68807339      
   11755.500 -999.25000000    8.50221226       4846.36871508    0.24735376       82.40947075      151.75289183     0.68807339      
   11756.000 -999.25000000    8.49221804       4832.08300080    0.24735376       82.40947075      151.97105783     0.68807339      
   11756.500 -999.25000000    8.56416534       4818.43575419    0.24735376       82.40947075      152.00195881     0.68807339      
   11757.000 -999.25000000    8.88041644       4881.45251397    0.24735376       82.40947075      151.65663356     0.68807339      
   11757.500 -999.25000000    8.59721838       4875.97765363    0.24735376       82.40947075      151.63273336     0.68807339      
   11758.000 -999.25000000    8.53607442       4828.86405959    0.24735376       82.40947075      151.76359639     0.68807339      
   11758.500 -999.25000000    8.75307486       4762.01117318    0.24735376       82.40947075      151.76359639     0.68807339      
   11759.000 -999.25000000    8.68604591       4771.64804469    0.24735376       82.40947075      151.76359639     0.68807339      
   11759.500 -999.25000000    8.59769819       4833.35352223    0.24735376       82.40947075      151.76359639     0.68807339      
   11760.000 -999.25000000    8.57031908       4867.16018529    0.24735376       82.40947075      151.76359639     0.68807339      
   11760.500 -999.25000000    8.57033247       4844.76691147    -999.25000000    -999.25000000    -999.25000000    0.68807339      
   11761.000 -999.25000000    8.57115105       4823.25421776    -999.25000000    -999.25000000    -999.25000000    0.68807339      
   11761.500 -999.25000000    8.57275316       4802.78234598    -999.25000000    -999.25000000    -999.25000000    0.68807339      
   11762.000 -999.25000000    8.57380096       4821.41527002    -999.25000000    -999.25000000    -999.25000000    0.68807339      
   11762.500 -999.25000000    8.58047698       4888.26815642    -999.25000000    -999.25000000    -999.25000000    0.68807339      
   11763.000 -999.25000000    8.79132064       4902.23463687    -999.25000000    -999.25000000    -999.25000000    0.68807339      
   11763.500 -999.25000000    8.60294360       4892.24860335    -999.25000000    -999.25000000    -999.25000000    0.68807339      
   11764.000 -999.25000000    8.58629995       4856.49441341    -999.25000000    -999.25000000    -999.25000000    0.68807339      
   11764.500 -999.25000000    8.59398671       4793.81983240    -999.25000000    -999.25000000    -999.25000000    0.68807339      
   11765.000 -999.25000000    8.56883034       4734.63687151    -999.25000000    -999.25000000    -999.25000000    0.68807339      
   11765.500 -999.25000000    8.54348142       4819.32960894    -999.25000000    -999.25000000    -999.25000000    0.68807339      
   11766.000 -999.25000000    8.54448646       4868.52886406    -999.25000000    -999.25000000    -999.25000000    0.68807339      
   11766.500 -999.25000000    8.54655379       4902.23463687    -999.25000000    -999.25000000    -999.25000000    0.68807339      
   11767.000 -999.25000000    8.54865888       4842.56983240    -999.25000000    -999.25000000    -999.25000000    0.68807339      
   11767.500 -999.25000000    8.55079535       4758.37988827    -999.25000000    -999.25000000    -999.25000000    0.68807339      
   11768.000 -999.25000000    8.55296776       4695.30726257    -999.25000000    -999.25000000    -999.25000000    0.68807339      
   11768.500 -999.25000000    8.55515999       4775.53072626    -999.25000000    -999.25000000    -999.25000000    0.68807339      
   11769.000 -999.25000000    8.55735222       4892.45810056    -999.25000000    -999.25000000    -999.25000000    0.68807339      
   11769.500 -999.25000000    8.55954446       4886.34776536    -999.25000000    -999.25000000    -999.25000000    0.68807339      
   11770.000 -999.25000000    8.56172820       4823.67318436    -999.25000000    -999.25000000    -999.25000000    0.68807339      
   11770.500 -999.25000000    8.56389463       4818.82681564    -999.25000000    -999.25000000    -999.25000000    0.68807339      
   11771.000 -999.25000000    8.56602799       4874.30167598    -999.25000000    -999.25000000    -999.25000000    0.68807339      
   11771.500 -999.25000000    8.56812481       4820.25139665    -999.25000000    -999.25000000    -999.25000000    0.68807339      
   11772.000 -999.25000000    8.56953583       4806.81564246    -999.25000000    -999.25000000    -999.25000000    0.68807339      
   11772.500 -999.25000000    8.55869974       4846.36871508    -999.25000000    -999.25000000    -999.25000000    0.68807339      
   11773.000 -999.25000000    8.54837863       4889.94413408    -999.25000000    -999.25000000    -999.25000000    0.68807339      
   11773.500 -999.25000000    8.52699766       4930.16759777    -999.25000000    -999.25000000    -999.25000000    0.68807339      
   11774.000 -999.25000000    8.47914652       4853.95051875    -999.25000000    -999.25000000    -999.25000000    0.68807339      
   11774.500 -999.25000000    8.43196110       4790.50279330    -999.25000000    -999.25000000    -999.25000000    0.68807339      
   11775.000 -999.25000000    8.38492354       4885.42016385    -999.25000000    -999.25000000    -999.25000000    0.68807339      
   11775.500 -999.25000000    8.33810916       4953.62392788    -999.25000000    -999.25000000    -999.25000000    0.68807339      
   11776.000 -999.25000000    8.29272473       4921.87278888    -999.25000000    -999.25000000    -999.25000000    0.68807339      
   11776.500 -999.25000000    8.24578968       4891.81871672    -999.25000000    -999.25000000    -999.25000000    0.68807339      
   11777.000 -999.25000000    8.26649820       4859.58141278    -999.25000000    -999.25000000    -999.25000000    0.68807339      
   11777.500 -999.25000000    8.31532728       4882.68156425    -999.25000000    -999.25000000    -999.25000000    0.68807339      
   11778.000 -999.25000000    8.32198691       4958.10055866    -999.25000000    -999.25000000    -999.25000000    0.68807339      
   11778.500 -999.25000000    8.32792991       4899.81378026    -999.25000000    -999.25000000    -999.25000000    0.68807339      
