#--------------------------------------------------#
#-------------------ENVERUS, INC.------------------#
#------------------WWW.ENVERUS.COM-----------------#
#------------------COPYRIGHT 2020------------------#
#--------------------------------------------------#
#THIS FILE MAY BE USED ONLY IN ACCORDANCE WITH A CURRENT SUBSCRIPTION AGREEMENT BETWEEN
#THE USER AND ENVERUS, INC. NO PART OF THIS FILE MAY BE REPRODUCED, USED, COPIED,
#MODIFIED, PROPAGATED, OR DISTRIBUTED EXCEPT IN ACCORDANCE WITH THE SUBSCRIPTION
#AGREEMENT. UNAUTHORIZED USE OR DISTRIBUTION OF ALL OR ANY PART OF THIS FILE MAY VIOLATE
#COPYRIGHT, TRADEMARK, AND/OR OTHER LAWS AND IS SUBJECT TO CIVIL AS WELL AS CRIMINAL
#SANCTIONS.
#--------------------------------------------------#
#THIS FILE IS PROVIDED "AS-IS" AND ALL WARRANTIES ARE EXPRESSLY DISCLAIMED, WHETHER
#EXPRESS, ORAL, IMPLIED, STATUTORY OR OTHERWISE, INCLUDING ANY IMPLIED WARRANTY OF FITNESS
#FOR A PARTICULAR PURPOSE, MERCHANTABILITY, TITLE OR NON-INFRINGEMENT, AND ANY WARRANTIES
#ARISING BY VIRTUE OF CUSTOM OF TRADE OR COURSE OF DEALING.  FURTHER, ENVERUS, INC.
#AND ITS LICENSORS DO NOT REPRESENT OR WARRANT THAT THIS FILE WILL MEET USER'S
#REQUIREMENTS OR ARE SUITABLE FOR USER'S NEEDS OR THAT THE DATA OR RESULTS PROVIDED IN
#CONJUNCTION THEREWITH ARE CORRECT, ACCURATE, TIMELY OR RELIABLE. THESE DISCLAIMERS SHALL
#APPLY REGARDLESS OF ANY FAILURE OF ESSENTIAL PURPOSE OF ANY LIMITED REMEDY.  SOME
#JURISDICTIONS DO NOT ALLOW THE EXCLUSION OF CERTAIN WARRANTIES SO SOME OF THE ABOVE
#EXCLUSIONS MAY NOT APPLY. IN NO EVENT SHALL ENVERUS, INC. OR ANY OF ITS AFFILIATES
#BE LIABLE UNDER ANY LEGAL THEORY, WHETHER IN TORT (INCLUDING WITHOUT LIMITATION
#NEGLIGENCE), CONTRACT, STRICT LIABILITY, STATUTORY OR OTHERWISE, FOR ANY SPECIAL,
#INCIDENTAL, CONSEQUENTIAL, EXEMPLARY, PUNITIVE OR INDIRECT DAMAGE OF ANY KIND, INCLUDING
#WITHOUT LIMITATION LOSS OF REVENUE, PROFITS, GOODWILL, USE, AND/OR DATA OR THE COST OF
#PROCUREMENT OF SUBSTITUTE GOODS OR SERVICES, EVEN IF APPRISED OF THE POSSIBILITY OF SUCH
#DAMAGES IN ADVANCE.
#--------------------------------------------------#

~VERSION INFORMATION
VERS. 2.0 : CWLS LOG ASCII STANDARD - VERSION 2.0
WRAP.  NO : ONE LINE PER DEPTH STEP
~WELL INFORMATION
#MNEMONIC     .UNIT              VALUE :DESCRIPTION
STRT       .FT                50 :START DEPTH
STOP       .FT                6118 :STOP DEPTH
STEP       .FT                   0.500 :STEP
NULL       .                  -999.990 :NULL
UWI        .              42389003090000 :UNIQUE WELL ID
API        .              42389003090000 :API NUMBER
COMP       .         :COMPANY
WELL       .         1, :WELL
DATE       .                            :LOG DATE
~CURVE INFORMATION
#MNEMONIC     .UNIT      API CODE :CURVE DESCRIPTION
DEPTH       .FT                      :MEASURED DEPTH
NEUT.API        UNKNOWN   :NEUT
GR.API        UNKNOWN   :GR
DT.US/FT        UNKNOWN   :DT
~A    DEPTH    NEUT    GR    DT
# ...
 4789.5     -999.990   16.829   72.36
 4790     -999.990   11.941   62.388
 4790.5     -999.990   9.172   63.01
 4791     -999.990   10.299   55.547
 4791.5     -999.990   11.426   53.974
 4792     -999.990   12.553   52.402
 4792.5     -999.990   13.68   56.03
 4793     -999.990   14.807   59.674
 4793.5     -999.990   14.921   62.737
 4794     -999.990   14.124   65.441
 4794.5     -999.990   13.326   68.146
 4795     -999.990   12.529   69.485
 4795.5     -999.990   12.617   69.536
 4796     -999.990   13.127   69.587
 4796.5     -999.990   13.638   68.028
 4797     -999.990   14.149   64.601
 4797.5     -999.990   14.66   60.859
 4798     -999.990   15.17   57.195
 4798.5     -999.990   15.681   56.448
 4799     -999.990   15.428   55.701
 4799.5     -999.990   14.462   60.227
 4800     -999.990   13.495   65.653
 4800.5     -999.990   12.529   63.251
 4801     -999.990   11.563   67.081
 4801.5     -999.990   10.596   69.388
 4802     -999.990   9.63   67.591
 4802.5     -999.990   9.607   66.606
 4803     -999.990   10.302   68.544
 4803.5     -999.990   10.997   68.971
 4804     -999.990   11.692   68.005
 4804.5     -999.990   12.386   68.15
 4805     -999.990   12.723   70.145
 4805.5     -999.990   12.256   71.07
 4806     -999.990   11.789   68.715
 4806.5     -999.990   11.322   67.16
 4807     -999.990   10.855   67.999
 4807.5     -999.990   10.388   68.838
 4808     -999.990   10.793   68.755
 4808.5     -999.990   11.869   67.657
 4809     -999.990   12.946   66.558
 4809.5     -999.990   14.022   68.228
 4810     -999.990   14.18   69.924
 4810.5     -999.990   13.248   68.598
 4811     -999.990   12.315   66.942
 4811.5     -999.990   11.855   67.07
 4812     -999.990   12.195   69.067
 4812.5     -999.990   12.535   69.431
 4813     -999.990   12.875   66.881
 4813.5     -999.990   13.215   66.911
 4814     -999.990   13.554   67.684
 4814.5     -999.990   13.165   65.913
 4815     -999.990   12.466   66.544
 4815.5     -999.990   11.768   68.049
 4816     -999.990   11.069   69.555
 4816.5     -999.990   11.351   71.061
 4817     -999.990   11.793   72.032
 4817.5     -999.990   12.236   70.771
 4818     -999.990   12.678   69.51
 4818.5     -999.990   13.12   68.316
 4819     -999.990   13.45   69.644
 4819.5     -999.990   13.333   70.972
 4820     -999.990   13.215   61.893
 4820.5     -999.990   13.098   57.912
 4821     -999.990   12.98   59.336
 4821.5     -999.990   12.863   56.936
 4822     -999.990   12.745   49.876
 4822.5     -999.990   15.46   45.279
 4823     -999.990   16.399   45.418
 4823.5     -999.990   15.868   47.584
 4824     -999.990   15.338   49.747
 4824.5     -999.990   14.808   50.004
 4825     -999.990   14.278   50.261
 4825.5     -999.990   13.748   50.518
 4826     -999.990   13.218   50.775
 4826.5     -999.990   12.688   51.032
 4827     -999.990   12.158   51.29
 4827.5     -999.990   11.628   50.773
 4828     -999.990   11.098   50.144
 4828.5     -999.990   10.568   50.219
 4829     -999.990   10.046   50.615
 4829.5     -999.990   10.945   50.758
 4830     -999.990   11.844   50.475
 4830.5     -999.990   12.743   50.193
 4831     -999.990   13.642   49.91
 4831.5     -999.990   13.693   49.628
 4832     -999.990   12.946   49.345
 4832.5     -999.990   12.199   49.091
 4833     -999.990   11.452   49.291
 4833.5     -999.990   11.612   49.491
 4834     -999.990   12.225   49.69
 4834.5     -999.990   12.839   49.89
 4835     -999.990   13.453   50.09
 4835.5     -999.990   13.142   49.95
 4836     -999.990   12.736   49.676
 4836.5     -999.990   12.329   49.401
 4837     -999.990   11.923   49.127
 4837.5     -999.990   11.516   48.852
 4838     -999.990   11.11   49.109
 4838.5     -999.990   11.567   49.435
 4839     -999.990   12.263   49.761
 4839.5     -999.990   12.958   50.087
 4840     -999.990   13.653   50.413
 4840.5     -999.990   14.349   50.173
 4841     -999.990   13.895   49.864
 4841.5     -999.990   12.419   49.554
 4842     -999.990   11.314   49.862
 4842.5     -999.990   11.788   50.22
 4843     -999.990   12.262   50.328
 4843.5     -999.990   12.736   49.581
 4844     -999.990   13.211   48.834
 4844.5     -999.990   13.685   48.088
 4845     -999.990   13.406   48.383
 4845.5     -999.990   13.055   49.349
 4846     -999.990   12.705   50.315
 4846.5     -999.990   12.355   50.443
 4847     -999.990   12.004   50.379
 4847.5     -999.990   11.654   50.314
 4848     -999.990   11.304   50.25
 4848.5     -999.990   11.377   50.186
 4849     -999.990   12.609   50.122
 4849.5     -999.990   13.841   50.252
 4850     -999.990   15.074   50.648
 4850.5     -999.990   16.306   51.044
 4851     -999.990   16.427   50.967
 4851.5     -999.990   15.088   50.708
 4852     -999.990   13.749   50.448
 4852.5     -999.990   13.924   49.92
 4853     -999.990   14.717   48.945
 4853.5     -999.990   15.51   48.878
 4854     -999.990   16.303   50.849
 4854.5     -999.990   16.064   50.702
 4855     -999.990   15.103   50.555
 4855.5     -999.990   14.142   50.407
 4856     -999.990   13.181   50.26
 4856.5     -999.990   12.219   50.282
 4857     -999.990   11.258   50.505
 4857.5     -999.990   11.103   50.727
 4858     -999.990   12.133   50.949
 4858.5     -999.990   13.163   51.171
 4859     -999.990   14.193   51.393
 4859.5     -999.990   15.223   51.616
 4860     -999.990   16.253   51.838
 4860.5     -999.990   17.181   52.06
 4861     -999.990   16.516   52.154
 4861.5     -999.990   15.852   51.932
 4862     -999.990   15.187   51.711
 4862.5     -999.990   14.523   51.489
 4863     -999.990   13.858   51.267
 4863.5     -999.990   13.194   51.159
 4864     -999.990   12.529   51.192
 4864.5     -999.990   11.865   51.225
 4865     -999.990   11.2   51.259
 4865.5     -999.990   10.536   51.292
 4866     -999.990   11.308   51.325
 4866.5     -999.990   12.753   50.826
 4867     -999.990   14.198   50.057
 4867.5     -999.990   15.642   50.323
 4868     -999.990   17.087   50.589
 4868.5     -999.990   17.5   50.856
 4869     -999.990   16.859   51.066
 4869.5     -999.990   16.218   50.902
 4870     -999.990   15.577   50.737
 4870.5     -999.990   14.936   50.573
 4871     -999.990   14.295   50.408
 4871.5     -999.990   13.654   50.244
 4872     -999.990   13.013   50.309
 4872.5     -999.990   13.002   50.585
 4873     -999.990   13.843   50.861
 4873.5     -999.990   14.684   51.136
 4874     -999.990   15.525   51.412
 4874.5     -999.990   15.712   51.71
 4875     -999.990   14.438   52.125
 4875.5     -999.990   13.164   52.541
 4876     -999.990   11.891   52.661
 4876.5     -999.990   10.617   52.426
 4877     -999.990   10.6   52.192
 4877.5     -999.990   11.284   51.957
 4878     -999.990   11.967   51.722
 4878.5     -999.990   12.65   51.487
 4879     -999.990   13.334   51.3
 4879.5     -999.990   14.001   51.449
 4880     -999.990   13.477   51.598
 4880.5     -999.990   12.953   51.747
 4881     -999.990   12.429   51.659
 4881.5     -999.990   11.905   51.47
 4882     -999.990   11.381   51.281
 4882.5     -999.990   10.857   51.358
 4883     -999.990   10.332   51.543
 4883.5     -999.990   10.417   51.727
 4884     -999.990   11.673   51.577
 4884.5     -999.990   12.93   51.259
 4885     -999.990   14.187   50.941
 4885.5     -999.990   15.443   50.623
 4886     -999.990   16.257   50.789
 4886.5     -999.990   14.404   50.976
 4887     -999.990   13.114   51.163
 4887.5     -999.990   14.462   51.271
 4888     -999.990   15.299   50.911
 4888.5     -999.990   15.064   50.55
 4889     -999.990   14.828   50.189
 4889.5     -999.990   14.593   50.138
 4890     -999.990   14.358   50.465
 4890.5     -999.990   14.122   50.793
 4891     -999.990   13.887   51.121
 4891.5     -999.990   13.652   51.449
 4892     -999.990   13.416   51.777
 4892.5     -999.990   13.181   51.745
 4893     -999.990   12.946   51.546
 4893.5     -999.990   12.71   51.347
 4894     -999.990   12.475   51.149
 4894.5     -999.990   13.018   50.95
 4895     -999.990   15.001   50.751
