~VERSION INFORMATION
VERS.           1.2   :CWLS Log ASCII Standard - VERSION 1.2
WRAP.           NO    :One Line per depth step
PROD.  Schlumberger   :LAS Producer
PROG.  DLIS to ASCII 17C0-152                          :LAS Program name and version
CREA.        2014/05/28 16:07                          :LAS Creation date {YYYY/MM/DD hh:mm}
DLIS_CREA.  2014-May-27 22:17                          :DLIS Creation date and time {YYYY-MMM-DD hh:mm}
SOURCE.     db5fefe1-f67d-4e3f-8816-ab53d5f8be46       :DLIS File Name
#--------------------------------------------------
~WELL INFORMATION
#MNEM.UNIT      DATA             DESCRIPTION
#---- ------ --------------   -----------------------------
# Enverus has updated the API/UWI.  The previous names are renamed to  PREV_API / PREV_UWI
API.  API (14 Digits with Dashes) : 42-389-34023-90-00
UWI.              UNIQUE WELL ID : 42389340239000

STRT .F      9586.5000       :START DEPTH     
STOP .F      10811.5000      :STOP DEPTH     
STEP .F       0.5000         :STEP       
NULL .          -999.25      :NULL VALUE
COMP .                 COMPANY:  J. Cleo Thompson                   
WELL .                    WELL:  Okapi State Unit B35 #2H           
FLD  .                   FIELD:  Wolfbone (Trend Area)              
LOC  .                LOCATION:  260' FNL & 500' FEL                
CNTY .                  COUNTY:  Reeves                             
STAT .                   STATE:  Texas                              
CTRY .                 COUNTRY:                                     
SRVC .         SERVICE COMPANY:  Schlumberger                       
LATI .DEG             LATITUDE:  31.112200 degrees                  
LONG .DEG            LONGITUDE:  -103.28900 degrees                 
PREV_API  .              API NUMBER:  42-389-34023                       
DATE .                LOG DATE:  27-May-2014
PREV_UWI  .          UNIQUE WELL ID:                                     
#-----------------------------------------------------------------------------
~PARAMETER INFORMATION
#MNEM.UNIT    VALUE                      DESCRIPTION
#---- -----   --------------------       ------------------------
CN   .        J. Cleo Thompson           :Company Name
WN   .        Okapi State Unit B35 #2H   :Well Name
FN   .        Wolfbone (Trend Area)      :Field Name
FL   .        260' FNL & 500' FEL        :Field Location
FL1  .        Section  35  Block  50 T8S  Abstract 4369 :Field Location, Line 1
COUN .        Reeves                     :County or Parish
STAT .        Texas                      :State or Province
NATI .                                   :Nation
DATE .        27-May-2014                :Tools Above Rotary Table Date
APIN .        42-389-34023               :API Well Number
SECT .        35                         :Section
TOWN .        50 T8S                     :Township
RANG .        4369                       :Range
DMF  .        KB                         :Drilling Measured From (Name of Drilling Elevation Reference)
LMF  .        KB                         :Logging Measured From (Name of Logging Elevation Reference)
PDAT .        GL                         :Permanent Datum
ENGI .        AJ Massis                  :Engineer s Name
WITN .        Bennie McNett              :Witness s Name
LATI .        31.112200 degrees          :Latitude
LONG .        -103.28900 degrees         :Longitude
LUL  .        Midland                    :Logging Unit Location
LUN  .        9105                       :Logging Unit Number
RUN  .        1B                         :Run Number
SON  .                                   :Service Order Number
BHT  .DEGF     162.00000                 :Bottom Hole Temperature
BS   .IN         8.50000                 :Bit Size
MDEN .G/C3       2.71000                 :Matrix Density for Density Porosity
DFD  .LB/G      10.70000                 :Drilling Fluid Density
DFV  .S         46.00000                 :Drilling Fluid Viscosity
DFL  .C3        10.00000                 :Drilling Fluid Loss
RMFS .OHMM       0.30000                 :Resistivity of Mud Filtrate Sample
EKB  .F       2829.00000                 :Elevation of Kelly Bushing
EGL  .F       2807.00000                 :Elevation of Ground Level
BLI  .F       11012.00000                :Bottom Log Interval
BSAL .PPM     132000.00000               :Borehole Salinity
FLEV .F          8.00000                 :Depth of Drilling Fluid Level to LMF (Log Measured From)
MCST .DEGF      68.00000                 :Mudcake Sample Temperature
MFST .DEGF      80.20000                 :Mud Filtrate Sample Temperature
MRT  .DEGF     162.00000                 :Maximum Recorded Temperature
MST  .DEGF      80.20000                 :Mud Sample Temperature
RMCS .OHMM    -999.25000                 :Resistivity of Mud Cake Sample
RMS  .OHMM       0.30000                 :Resistivity of Mud Sample
RW   .OHMM       1.00000                 :Connate Water Resistivity
TDD  .F       11012.00000                :Driller Total Depth
TDL  .F       11012.00000                :Logger Total Depth
TLI  .F       9676.00000                 :Top Log Interval
HIDE .        Wolfbone (Trend Area)      :Header Identifier
MATR .        LIME                       :Rock Matrix for Neutron Porosity Corrections
FNUM .           1.00000                 :F-Numerator for Formation Factor Formula
FEXP .           2.00000                 :Exponent "m" for Formation Factor Formula
DFT  .        Salt Brine                 :Drilling Fluid Type
DFPH .           9.00000                 :Drilling Fluid pH
MCSS .                                   :Mudcake Sample Source
MFSS .                                   :Mud Filtrate Sample Source
FD   .G/C3       1.10000                 :Fluid Density
MSS  .        Active Tank                :Mud Sample Source
OS1  .                                   :Other Services Line 1
OS2  .                                   :Other Services Line 2
OS3  .                                   :Other Services Line 3
OS4  .                                   :Other Services Line 4
OS5  .                                   :Other Services Line 5
R1   .        Tools run as per toolsketch :Remarks Line 1
R2   .        Logs performed on a Limestone matrix (2.71

g/cc  47.6 us/ft ). Mud Properties  MW =

10.7 g/cc  FD = 1.1 g/cc. :Remarks Line 2
R3   .        Max recorded temperature from downhole

thermometer = 162 degF. :Remarks Line 3
R4   .        Logs run from TD to casing. GR & Neutron

logged from casing to 200ft as per client

request. :Remarks Line 4
R5   .        Tools got stuck near TD and calipers had to be closed in order to get free. :Remarks Line 5
R6   .        Well was washed out for many intervals. :Remarks Line 6
R7   .        Repeat done at casing due to getting stuck at TD :Remarks Line 7
R8   .                                   :Remarks Line 8
TCS  .        18 00 00                   :Time Circulation Stopped
TLAB .        16 19 01                   :Time Logger At Bottom
EPD  .C3         2807.000000             :Elevation of Permanent Datum above Mean Sea Level
APD  .F          22.000000               :Elevation of Depth Reference (LMF) above Permanent Datum
#-----------------------------------------------------------------------------
~CURVE INFORMATION
#MNEM.UNIT   API CODE                                  DESCRIPTION
#---- -----  --------                                  -----------------------
DEPT .F                                                :DEPTH (BOREHOLE) {F12.4}
CDF  .LBF                                              :Calibrated Downhole Force {F11.4}
CTEM .DEGF                                             :Cartridge Temperature {F11.4}
DCAL .IN                                               :Differential Caliper {F11.4}
DTCO .US/F                                             :Delta-T Compressional {F11.4}
DTSM .US/F                                             :Delta-T Shear {F11.4}
ED   .F                                                :East Departure {F11.4}
GR_EDTC.GAPI                                           :Gamma Ray {F11.4}
GTEM .DEGF                                             :Generalized Borehole Temperature {F11.4}
HAZI .DEG                                              :Hole Azimuth Relative to True North {F11.4}
HAZIM.DEG                                              :Memorized Hole Azimuth {F11.4}
ITT  .S                                                :Integrated Transit Time {F11.4}
ND   .F                                                :North Departure {F11.4}
P1AZ .DEG                                              :Pad 1 Azimuth in Horizontal Plane (0 = True North) {F11.4}
PR   .                                                 :Poisson s Ratio {F11.4}
RB   .DEG                                              :Relative Bearing {F11.4}
SDEV .DEG                                              :Sonde Deviation {F11.4}
SDEVM.DEG                                              :Memorized Sonde Deviation {F11.4}
SPHI .CFCF                                             :Sonic Porosity {F11.4}
STIT .F                                                :Stuck Tool Indicator, Total {F11.4}
TENS .LBF                                              :Cable Tension {F11.4}
#-----------------------------------------------------------------------------
# 
#      DEPT        CDF        CTEM       DCAL       DTCO       DTSM        ED      GR_EDTC      GTEM       HAZI      HAZIM       ITT         ND        P1AZ        PR         RB        SDEV      SDEVM       SPHI       STIT       TENS
#
~A  
# ...
  10304.0000  1223.5680   165.5529     0.1909    79.3013   134.0902     0.0000    66.6644   155.9564   285.8384   288.7805     0.0359     0.0000   229.8512     0.2311   304.0269     1.8513     1.7280     0.2242     0.0000  4004.6665
  10304.5000  1218.5082   165.5529     0.2131    79.3815   133.7561     0.0000    68.4575   155.9607   285.9758   290.4611     0.0359     0.0000   227.4119     0.2281   301.4492     1.8315     1.7132     0.2248     0.0000  4013.3335
  10305.0000  1219.2795   165.5529     0.2131    79.7515   132.6348     0.0000    78.2769   155.9650   286.6088   291.4784     0.0358     0.0000   224.6233     0.2169   298.0260     1.7914     1.7066     0.2274     0.0000  4006.6665
  10305.5000  1222.1680   165.5529     0.1909    80.2122   133.4720     0.0000    88.2134   155.9692   287.6198   291.5180     0.0358     0.0000   221.6168     0.2173   294.0071     1.7442     1.7056     0.2306     0.0000  4024.2500
  10306.0000  1220.7014   165.5529     0.2131    81.9454   135.3306     0.0000    97.4954   155.9735   288.7037   290.5743     0.0357     0.0000   218.6222     0.2105   289.9265     1.7049     1.7069     0.2429     0.0000  4019.6665
  10306.5000  1226.1925   165.5529     0.2020    84.3475   138.0384     0.0000   109.4098   155.9777   289.4327   288.9865     0.0357     0.0000   215.7941     0.2021   286.3685     1.6836     1.7075     0.2599     0.0000  4038.3335
  10307.0000  1225.6348   165.5529     0.2042    87.0221   139.8863     0.0000   118.5553   155.9820   289.4761   287.2623     0.0356     0.0000   212.8766     0.1843   283.4062     1.6842     1.7064     0.2788     0.0000  4039.0000
  10307.5000  1223.3759   165.5529     0.2153    88.2733   142.6223     0.0000   119.1651   155.9863   288.7772   285.9819     0.0356     0.0000   209.9364     0.1895   281.1640     1.7031     1.7032     0.2876     0.0000  4028.0002
  10308.0000  1219.2056   165.5529     0.2153    88.4684   145.0289     0.0000   122.4387   155.9906   287.5752   285.6594     0.0356     0.0000   207.5443     0.2037   279.9734     1.7328     1.6983     0.2890     0.0000  4055.6665
  10308.5000  1222.5828   165.5529     0.2153    88.8785   146.2958     0.0000   119.8596   155.9948   286.2783   286.5592     0.0355     0.0000   204.9509     0.2075   278.6767     1.7621     1.6981     0.2919     0.0000  4033.0000
  10309.0000  1222.9200   165.5529     0.2375    88.9855   146.0321     0.0000   121.5481   155.9991   285.3146   288.2585     0.0355     0.0000   202.0346     0.2047   276.7233     1.7812     1.7054     0.2927     0.0000  4054.2502
  10309.5000  1227.2921   165.5529     0.2243    87.2855   146.4410     0.0000   107.1668   156.0034   285.0510   290.2441     0.0354     0.0000   199.0009     0.2245   273.9516     1.7841     1.7213     0.2807     0.0000  4074.6670
  10310.0000  1228.3619   165.5529     0.2375    85.8671   144.0535     0.0000    91.0260   156.0076   285.6387   291.9151     0.0354     0.0000   195.8553     0.2248   270.2167     1.7715     1.7408     0.2706     0.0000  4076.6670
  10310.5000  1228.8086   165.5529     0.2375  -999.2500   142.4552     0.0000    77.2128   156.0119   286.9992   292.7220     0.0354     0.0000   192.7841  -999.2500   265.7832     1.7496     1.7530  -999.2500     0.0000  4066.3333
  10311.0000  1235.4255   165.5529     0.2375    83.0303   139.4777     0.0000    86.3808   156.0162   288.7805   292.9018     0.0354     0.0000   189.7658     0.2256   260.9810     1.7280     1.7579     0.2506     0.0000  4072.0000
  10311.5000  1233.5577   165.5529     0.2375    82.1197   138.0074     0.0000    93.0274   156.0204   290.4611   292.0083     0.0353     0.0000   186.7570     0.2259   256.2897     1.7132     1.7431     0.2441     0.0000  4063.0002
  10312.0000  1235.3401   165.5529     0.2264    81.0905   136.5783     0.0000   101.1971   156.0247   291.4784   290.7020     0.0353     0.0000   183.9370     0.2278   252.4512     1.7066     1.7175     0.2368     0.0000  4078.0000
  10312.5000  1236.1500   165.5529     0.2375    80.1337   132.7982     0.0000    99.1639   156.0289   291.5180   289.3720     0.0353     0.0000   181.0608     0.2137   249.5347     1.7056     1.6878     0.2301     0.0000  4084.0000
  10313.0000  1235.5813   165.5529     0.2375    80.3945   132.2119     0.0000    98.5497   156.0332   290.5743   288.5122     0.0352     0.0000   178.1211     0.2067   247.5378     1.7069     1.6640     0.2319     0.0000  4064.3333
  10313.5000  1233.4771   165.5529     0.2354    80.3540   131.9003     0.0000    97.7037   156.0375   288.9865   288.4568     0.0352     0.0000   175.2591     0.2049   246.2629     1.7075     1.6548     0.2316     0.0000  4109.3330
  10314.0000  1229.3191   165.5529     0.2243    80.6582   132.0069     0.0000    97.0523   156.0418   287.2623   289.2238     0.0351     0.0000   172.4599     0.2021   245.1881     1.7064     1.6658     0.2338     0.0000  4058.7498
  10314.5000  1235.8666   165.5529     0.2243    80.7551   132.7425     0.0000    93.8622   156.0461   285.9819   290.5062     0.0351     0.0000   169.7081     0.2062   243.7164     1.7032     1.6965     0.2345     0.0000  4093.6667
  10315.0000  1239.2460   165.5529     0.2132    81.1559   132.5889     0.0000    93.8676   156.0503   285.6030   291.8521     0.0351     0.0000   166.6170     0.2004   241.0034     1.6990     1.7390     0.2373     0.0000  4141.6665
  10315.5000  1252.7001   165.5529     0.2042    81.4007   132.9816     0.0000    91.0782   156.0546   286.2999   292.8418     0.0350     0.0000   163.1765     0.2004   236.8654     1.6976     1.7801     0.2390     0.0000  4113.6670
  10316.0000  1236.9624   165.5529     0.2042    81.9797   134.0591     0.0000    94.4313   156.0588   287.8716   293.2705     0.0350     0.0000   160.0432     0.2013   232.1593     1.7032     1.8061     0.2431     0.0000  4134.6670
  10316.5000  1234.7108   165.5529     0.2153    82.4158   134.2589     0.0000   100.6116   156.0631   289.8548   293.1161     0.0349     0.0000   157.9212     0.1977   228.0537     1.7175     1.8082     0.2462     0.0000  4120.0000
  10317.0000  1234.6925   165.5529     0.2132    82.6808   135.0231     0.0000   109.6388   156.0674   291.6320   292.5238     0.0349     0.0000   155.4673     0.2000   223.8221     1.7368     1.7860     0.2481     0.0000  4083.6667
  10317.5000  1230.2761   165.5529     0.2153    82.7710   134.8091     0.0000   114.7664   156.0717   292.7220   291.7377     0.0349     0.0000   152.9791     0.1975   220.2439     1.7530     1.7476     0.2487     0.0000  4134.0000
  10318.0000  1230.6591   165.5529     0.2153    82.7551   135.0933     0.0000   108.1017   156.0759   292.9018   291.0761     0.0348     0.0000   150.2774     0.1997   217.3627     1.7579     1.7066     0.2486     0.0000  4112.6665
  10318.5000  1226.5753   165.5529     0.2153    83.0173   135.6947     0.0000    98.3135   156.0802   292.2278   290.7974     0.0348     0.0000   147.4393     0.2009   215.1992     1.7471     1.6785     0.2505     0.0000  4113.0005
  10319.0000  1226.1196   165.5529     0.2042    82.5264   135.4034     0.0000    87.2654   156.0844   290.9871   291.0131     0.0347     0.0000   144.7887     0.2045   213.7894     1.7233     1.6745     0.2470     0.0000  4113.3335
  10319.5000  1225.1790   165.5529     0.2132    82.2884   135.3351     0.0000    81.1635   156.0887   289.6161   291.6138     0.0347     0.0000   142.0668     0.2067   212.4392     1.6936     1.6985     0.2453     0.0000  4113.0000
  10320.0000  1224.9089   165.5529     0.2042    82.2084   134.9721     0.0000    78.5153   156.0930   288.6265   292.3276     0.0346     0.0000   139.2090     0.2051   210.5715     1.6678     1.7455     0.2448     0.0000  4123.6665
  10320.5000  1228.8086   165.5529     0.2153    82.3314   134.8195     0.0000    80.7197   156.0973   288.3952   292.9173     0.0346     0.0000   136.2648     0.2026   207.8597     1.6551     1.8018     0.2456     0.0000  4106.0000
  10321.0000  1227.7239   165.5529     0.2153    82.6335   134.5338     0.0000    84.3746   156.1015   289.0106   293.2439     0.0346     0.0000   133.0948     0.1971   204.0749     1.6619     1.8506     0.2478     0.0000  4103.6670
