~Version Information Block
 VERS.                2.00:     CWLS LOG ASCII STANDARD - VERSION 2.000000
 WRAP.                  NO:     One Line Per Depth Step
#
~Well Information Block
#MNEM.UNIT                     Data                         Information
#----------   ------------------------------------------   ----------------
# Enverus has updated the API/UWI.  The previous names are renamed to  PREV_API / PREV_UWI
API.                             42-371-39483-90-00 : API (14 Digits with Dashes)
UWI.                                 42371394839000 : UNIQUE WELL ID

 STRT.FT                                    10010.0000:     START DEPTH
 STOP.FT                                    11812.0000:     STOP DEPTH
 STEP.FT                                        0.5000:     STEP
 NULL.                                       -999.2500:     NULL VALUE
 COMP.                           PATRIOT RESOURCES INC:     COMPANY
 WELL.                        ROOSTERFISH UNIT 22NE 1H:     WELL
 FLD .                             WOLFBONE TREND AREA:     FIELD
 LOC .                                                :     LOCATION
 SEC .                                              22:     SECTION
 CNTY.                                          PEACOS:     COUNTY
 STAT.                                           TEXAS:     STATE
 CTRY.                                           U.S.A:     COUNTRY
 SRVC.                                    SCHLUMBERGER:     SERVICE COMPANY
 DATE.                                      03/18/2017:     DATE
PREV_APII .                                  42371394830000:     API NUMBER
 PREV_UWI .                                  42371394830000:     UWI NUMBER
 TVD .                                              NO:     TVD flag
 WSTA.                                             LOC:     Well status
#
~Curve Information Block
#MNEM.UNIT       API CODE      Curve Description
#----------    -------------   -------------------
 DEPT.FT                   :   Depth in Feet
 ECGR.GAPI     35 310 01 01:   Environmentally Corrected Gamma Ray
 CALI.IN       70 280 01 01:   Caliper
 TENS.LBS                  :   Tension
 SPHI_476.V/V  61 890 01 01:   Sonic Porosity 47.6 Matrix
 DT  .US/F     60 520 08 01:   Delta-T
 DTSM.US/F                 :   Delta-T Shear Measurement
 STIT.FT/H                 :   STIT
#
~Parameter Information Block
#MNEM.UNIT            Value               Description
#----------    --------------------    -------------------
 RUN .                         ONE:    Run Number
 PDAT.                          GL:    Permanent Datum
 EPD .FT                        25:    Elevation Of Perm. Datum
 LMF .               KELLY BUSHING:    Log Measured From
 EKB .FT                          :    Elevation Of Kelly Bushing
 DF .FT                           :    Elevation Of Derrick Floor
 GL .FT                         25:    Elevation Of Ground Level
 TD  .FT                     18979:    Total Depth
 CSGD.FT                      5100:    Casing Bottom (Driller) 1
 CSGL.FT                     18979:    Casing Bottom (Logger) 1
 MUD .                   OIL BASED:    Drilling Fluid Type
 MUDV .CP                      102:    Drilling Fluid Viscosity
 MUDD .LB/USG                 13.0:    Drilling Fluid Density
 FL .ML/30MIN                     :    Drilling Fluid Loss
 PH.                           8.8:    Drilling Fluid Ph
 MUDS .                           :    Mud Sample Source
 RM .OHMM                         :    Resistivity Of Mud Sample
 RMT .DEGF                        :    Mud Sample Temperature
 RMF .OHMM                        :    Mud Filtrate Resistivity
 RMFT.DEGF                        :    Mud Filtrate Sample Temperature
 RMC .OHMM                        :    Mud Cake Resistivity
 RMCT.DEGF                        :    Mud Cake Sample Temperature
 RMB .OHMM                        :    Mud Resistivity At Bht
 TMAX .DEGF                    152:    Bottom Hole Temperature
#
~Other Information Block
<DescLogPlotStart>   NEURALOG PLOT DEFINITION
PLOTDEFVERSION: 3
LASFILE: D:\nds\projects\poojawells\December data\PoojaWells Digitizing_Cassidy
DEPTHSCALE: 240.000000
RESOLUTION: 144
DEPTHLABELFREQ: 100.000000
HEAVYGRIDFREQ: 100.000000
MEDIUMGRIDFREQ: 50.000000
LIGHTGRIDFREQ: 10.000000
#
#   TRACK 1
#
STARTTRACK: 
 LEFTX: 0.500000 inch
 RIGHTX: 3.000000 inch
 SCALETYPE: Linear
 NUMCHARTDIVISIONS: 10
CURVE: ECGR  0.000000   150.000000 (0,0,255)      Solid             2     Y    
BACKUP: 150.000000 300.000000 (0,0,255)      Solid             2    
CURVE: CALI  6.000000   16.000000  (0,131,131)    Dot               2     Y    
BACKUP: -4.000000  6.000000   (0,131,131)    Dot               2    
CURVE: TENS  10000.000000 0.000000   (255,0,255)    Short_Dash        2     N  
ENDTRACK: 
#
#   TRACK 2
#
STARTTRACK: 
 LEFTX: 3.500000 inch
 RIGHTX: 8.500000 inch
 SCALETYPE: Linear
 NUMCHARTDIVISIONS: 10
CURVE: SPHI_476 0.300000   -0.100000  (255,0,0)      Solid             2     N 
CURVE: DT    140.000000 40.000000  (255,131,0)    Dot               2     N    
CURVE: DTSM  240.000000 40.000000  (255,255,0)    Short_Dash        2     N    
ENDTRACK: 
#
#   TRACK 3
#
STARTTRACK: 
 LEFTX: 8.500000 inch
 RIGHTX: 9.256944 inch
 SCALETYPE: Linear
 NUMCHARTDIVISIONS: 10
CURVE: STIT  0.000000   50.000000  (0,0,255)      Solid             2     N    
ENDTRACK: 
<DescLogPlotEnd>
~A DEPTH     ECGR             CALI             TENS             SPHI_476             DT               DTSM             STIT            
# ...
   11077.500 103.04326936     8.37738909       4561.83979392    0.27666306       86.57613742      152.07015178     0.56640490      
   11078.000 97.93755653      8.38787789       4549.27053408    0.27720478       86.65970288      152.37654644     0.56685025      
   11078.500 95.58540084      8.39824739       4541.39164222    0.27804059       86.80013928      152.82925515     0.56729561      
   11079.000 97.51671047      8.40403015       4554.25100016    0.28051453       87.17618384      153.23119777     0.56774096      
   11079.500 100.50211119     8.40782912       4566.92298952    0.28356544       87.56267409      152.95264624     0.56818632      
   11080.000 108.14685024     8.41157515       4576.81564246    0.28323024       87.48142990      153.53760446     0.56863167      
   11080.500 114.98205522     8.41532122       4586.87150838    0.28113035       87.11699164      153.69830726     0.56907703      
   11081.000 116.52138905     8.41908378       4591.41696293    0.27463772       86.03064067      153.54403257     0.56952238      
   11081.500 107.28989671     8.42286946       4573.13357034    0.27143118       85.75208914      153.38975787     0.56996774      
   11082.000 102.91156650     8.42667028       4554.85017776    0.27019712       85.61281337      153.23119777     0.57041309      
   11082.500 103.03034234     8.43034520       4539.10614525    0.27005873       85.61281337      154.20612813     0.57085845      
   11083.000 104.72503804     8.44029771       4539.10614525    0.27035605       86.25000000      155.20891365     0.57130380      
   11083.500 100.90596546     8.44940872       4536.93358163    0.28562208       87.84122563      155.64763231     0.57174916      
   11084.000 99.48408525      8.45766452       4525.76039727    0.28898667       88.23347636      155.80890937     0.57219451      
   11084.500 96.73018940      8.45780840       4514.58721291    0.29107535       88.53386208      155.92775880     0.57263987      
   11085.000 101.84508411     8.45782268       4521.14924182    0.29358151       88.95589855      156.01365949     0.57308522      
   11085.500 107.09837723     8.45784444       4535.35324854    0.29324060       88.91305162      155.64738153     0.57353058      
   11086.000 110.54810562     8.45785872       4549.90481800    0.29206174       88.77410640      155.29179796     0.57397593      
   11086.500 112.58702332     8.45786617       4564.30334219    0.29077049       88.67688022      154.96750232     0.57442129      
   11087.000 108.16618426     8.45786139       4556.94707282    0.28558583       87.98050139      153.23119777     0.57486664      
   11087.500 100.67816064     8.45783602       4544.18988965    0.28092322       87.21448468      153.03621170     0.57531200      
   11088.000 93.62914977      8.45683254       4548.88268156    0.28291081       87.23189415      152.28412256     0.57575735      
   11088.500 93.90579956      8.45316313       4567.03910615    0.27730410       86.62952646      151.13808197     0.57620271      
   11089.000 98.09248347      8.44953613       4567.03910615    0.27456825       86.26392758      150.62730315     0.57664806      
   11089.500 101.11347936     8.44592001       4567.03910615    0.27268338       86.04456825      150.50458796     0.57709342      
   11090.000 102.40656381     8.44230769       4567.03910615    0.26669320       85.26462396      149.37393205     0.57753877      
   11090.500 99.45437146      8.43869694       4567.03910615    0.25924393       84.09470752      148.46299410     0.57798413      
   11091.000 97.44134465      8.43508760       4567.03910615    0.25571031       83.66295265      147.83756938     0.57842948      
   11091.500 93.56284910      8.43144397       4567.03910615    0.25607242       83.79874652      147.67593964     0.57887484      
   11092.000 91.04542827      8.42399895       4567.03910615    0.25905989       84.17227424      149.05690410     0.57932019      
   11092.500 83.19364694      8.41274198       4567.03910615    0.26131616       84.49200021      150.34619976     0.57976555      
   11093.000 81.24574783      8.40208617       4567.03910615    0.26350975       84.79343380      151.63549542     0.58021090      
   11093.500 83.04154906      8.40178627       4567.03910615    0.26804457       85.40375073      152.77158774     0.58065626      
   11094.000 92.32211288      8.40174542       4567.03910615    0.27508357       86.36663871      153.27298050     0.58110161      
   11094.500 99.24245434      8.40171322       4567.03910615    0.28616527       88.02183900      155.52825534     0.58154697      
   11095.000 105.33840250     8.40169260       4567.03910615    0.29686630       90.19076217      158.80758503     0.58199232      
   11095.500 111.08630437     8.40168375       4567.03910615    0.30075905       91.32465291      158.58256702     0.58243768      
   11096.000 109.75969999     8.40167214       4505.02793296    0.30050836       91.89620850      158.84040773     0.58288303      
   11096.500 107.97342682     8.40162751       4504.65549348    0.30027855       91.35245126      159.31167745     0.58332838      
   11097.000 105.95768299     8.39999993       4539.10614525    0.28300836       87.62463573      158.80222841     0.58377374      
   11097.500 96.16315268      8.39305568       4567.03910615    0.26629526       85.02049041      155.18105850     0.58421909      
   11098.000 86.17811488      8.38598310       4594.65983247    0.30027855       91.98805502      154.62395543     0.58466445      
   11098.500 77.83939506      8.37899219       4579.38781570    0.29626741       89.30770820      154.28040854     0.58510980      
   11099.000 82.27297349      8.37107021       4563.43147622    0.29860724       89.77033694      154.38370474     0.58555516      
   11099.500 88.52655188      8.31980979       4548.28824434    0.27925680       86.58774373      155.26114206     0.58600051      
   11100.000 91.95628323      8.34460891       4542.43745960    0.30199787       95.08356546      156.01671309     0.58644587      
   11100.500 95.56006359      8.36802596       4551.04685352    0.30169392       90.06963788      157.34911792     0.58689122      
   11101.000 99.03733651      8.37350828       4559.34004851    0.30051913       91.35893355      158.52367688     0.58733658      
   11101.500 102.96521024     8.37365557       4567.09053517    0.30065414       93.07799443      163.80919220     0.58778193      
   11102.000 106.80662527     8.37372011       4566.94517486    0.30058789       93.47957289      164.93036212     0.58822729      
   11102.500 110.68938045     8.37714240       4567.35130997    0.30053511       93.55153203      164.93036212     0.58867264      
   11103.000 109.45062077     8.38073869       4547.08058383    0.30048233       93.77901578      164.96440730     0.58911800      
   11103.500 109.75489708     8.38433924       4511.52398988    0.30042956       93.27298050      165.07582792     0.58956335      
   11104.000 103.37882588     8.38794866       4524.07406981    0.30037678       92.09112614      165.18724853     0.59000871      
   11104.500 103.45685220     8.39156370       4539.14028718    0.30032400       90.76601671      164.59076296     0.59045406      
   11105.000 104.56654613     8.39518165       4539.14267654    0.30027855       89.73015320      164.39350170     0.59089942      
   11105.500 109.44680429     8.39879685       4539.05728356    0.29025070       88.66469359      164.35600744     0.59134477      
   11106.000 111.11936420     8.40386704       4539.13270403    0.28627935       87.92827298      163.81553916     0.59179013      
   11106.500 109.76104355     8.41395835       4539.16638946    0.28140867       87.30153203      163.23178132     0.59223548      
   11107.000 104.03718931     8.42376240       4539.05724172    0.27725627       86.63300836      160.02326768     0.59268084      
   11107.500 95.66829550      8.41760499       4536.37970728    0.27520891       86.30919220      157.82729805     0.59312619      
