#--------------------------------------------------#
#-------------------ENVERUS, INC.------------------#
#------------------WWW.ENVERUS.COM-----------------#
#------------------COPYRIGHT 2020------------------#
#--------------------------------------------------#
#THIS FILE MAY BE USED ONLY IN ACCORDANCE WITH A CURRENT SUBSCRIPTION AGREEMENT BETWEEN
#THE USER AND ENVERUS, INC. NO PART OF THIS FILE MAY BE REPRODUCED, USED, COPIED,
#MODIFIED, PROPAGATED, OR DISTRIBUTED EXCEPT IN ACCORDANCE WITH THE SUBSCRIPTION
#AGREEMENT. UNAUTHORIZED USE OR DISTRIBUTION OF ALL OR ANY PART OF THIS FILE MAY VIOLATE
#COPYRIGHT, TRADEMARK, AND/OR OTHER LAWS AND IS SUBJECT TO CIVIL AS WELL AS CRIMINAL
#SANCTIONS.
#--------------------------------------------------#
#THIS FILE IS PROVIDED "AS-IS" AND ALL WARRANTIES ARE EXPRESSLY DISCLAIMED, WHETHER
#EXPRESS, ORAL, IMPLIED, STATUTORY OR OTHERWISE, INCLUDING ANY IMPLIED WARRANTY OF FITNESS
#FOR A PARTICULAR PURPOSE, MERCHANTABILITY, TITLE OR NON-INFRINGEMENT, AND ANY WARRANTIES
#ARISING BY VIRTUE OF CUSTOM OF TRADE OR COURSE OF DEALING.  FURTHER, ENVERUS, INC.
#AND ITS LICENSORS DO NOT REPRESENT OR WARRANT THAT THIS FILE WILL MEET USER'S
#REQUIREMENTS OR ARE SUITABLE FOR USER'S NEEDS OR THAT THE DATA OR RESULTS PROVIDED IN
#CONJUNCTION THEREWITH ARE CORRECT, ACCURATE, TIMELY OR RELIABLE. THESE DISCLAIMERS SHALL
#APPLY REGARDLESS OF ANY FAILURE OF ESSENTIAL PURPOSE OF ANY LIMITED REMEDY.  SOME
#JURISDICTIONS DO NOT ALLOW THE EXCLUSION OF CERTAIN WARRANTIES SO SOME OF THE ABOVE
#EXCLUSIONS MAY NOT APPLY. IN NO EVENT SHALL ENVERUS, INC. OR ANY OF ITS AFFILIATES
#BE LIABLE UNDER ANY LEGAL THEORY, WHETHER IN TORT (INCLUDING WITHOUT LIMITATION
#NEGLIGENCE), CONTRACT, STRICT LIABILITY, STATUTORY OR OTHERWISE, FOR ANY SPECIAL,
#INCIDENTAL, CONSEQUENTIAL, EXEMPLARY, PUNITIVE OR INDIRECT DAMAGE OF ANY KIND, INCLUDING
#WITHOUT LIMITATION LOSS OF REVENUE, PROFITS, GOODWILL, USE, AND/OR DATA OR THE COST OF
#PROCUREMENT OF SUBSTITUTE GOODS OR SERVICES, EVEN IF APPRISED OF THE POSSIBILITY OF SUCH
#DAMAGES IN ADVANCE.
#--------------------------------------------------#

~VERSION INFORMATION
VERS. 2.0 : CWLS LOG ASCII STANDARD - VERSION 2.0
WRAP.  NO : ONE LINE PER DEPTH STEP
~WELL INFORMATION
#MNEMONIC     .UNIT              VALUE :DESCRIPTION
STRT       .FT                101 :START DEPTH
STOP       .FT                5444 :STOP DEPTH
STEP       .FT                   0.500 :STEP
NULL       .                  -999.99 :NULL
UWI        .                42389004350000 :UNIQUE WELL ID
API        .                42389004350000 :API NUMBER
COMP       .         :COMPANY
WELL       .        :WELL
DATE       .                 :LOG DATE
FLD       .                 :FIELD NAME
LOC       .                  UNK :LOCATION
CNTY       .                 UNK :COUNTY
STAT       .                 UNK :STATE
CTRY       .                 UNK :COUNTY
SRVC       .                 UNK :SERVICE COMPANY
~CURVE INFORMATION
#MNEMONIC     .UNIT      API CODE :CURVE DESCRIPTION
DEPTH       .FT                      :MEASURED DEPTH
DT.MSEC/FT        UNKNOWN   :DT
GR.API        UNKNOWN   :GR
~A    DEPTH    DT    GR
# ...
 1206.5     65.67685   25.12391
 1207     64.72254   25.15826
 1207.5     63.76822   25.1926
 1208     62.8139   25.22695
 1208.5     61.85367   27.32912
 1209     60.76819   29.46795
 1209.5     59.6827   31.60679
 1210     58.59721   33.74562
 1210.5     57.51173   35.88446
 1211     56.42624   36.78024
 1211.5     75.38855   35.56415
 1212     78.49152   34.34805
 1212.5     81.59448   33.13196
 1213     84.69745   32.05235
 1213.5     87.92222   32.35483
 1214     91.34432   32.65732
 1214.5     94.76643   32.9598
 1215     98.18853   33.26229
 1215.5     113.6512   33.018
 1216     124.41457   31.87455
 1216.5     125.0986   30.7311
 1217     125.78263   29.58764
 1217.5     126.46666   28.6269
 1218     127.15068   29.27717
 1218.5     127.83471   29.92745
 1219     128.51874   30.57773
 1219.5     126.61449   29.23357
 1220     124.31159   25.50103
 1220.5     122.0087   21.76849
 1221     114.86324   18.03596
 1221.5     119.11333   17.93442
 1222     123.36341   20.62912
 1222.5     124.65021   23.32381
 1223     123.03392   26.01851
 1223.5     121.41762   28.7132
 1224     119.80132   31.4079
 1224.5     116.40145   33.35058
 1225     114.96419   35.29141
 1225.5     116.48898   37.23225
 1226     118.01376   37.31377
 1226.5     119.53855   34.79584
 1227     121.06334   32.2779
 1227.5     112.27223   29.75997
 1228     102.90155   27.24204
 1228.5     93.53087   24.72411
 1229     93.82871   22.20617
 1229.5     95.87333   19.68824
 1230     97.64372   17.17031
 1230.5     99.11726   15.48822
 1231     100.12853   18.87454
 1231.5     98.92221   22.26087
 1232     97.82289   25.64719
 1232.5     97.5783   28.2432
 1233     97.33372   25.61261
 1233.5     96.72524   22.98202
 1234     96.10484   20.35143
 1234.5     92.34064   17.72084
 1235     88.05707   15.60646
 1235.5     83.7735   15.40788
 1236     79.48993   15.2093
 1236.5     75.20636   14.98131
 1237     70.92279   14.17306
 1237.5     61.70451   13.36481
 1238     60.98621   12.55657
 1238.5     60.7063   11.74832
 1239     60.42639   10.94007
 1239.5     60.14647   10.61852
 1240     63.4449   12.29673
 1240.5     71.18904   13.97494
 1241     77.49558   15.65315
 1241.5     74.66165   17.33137
 1242     71.82772   19.00958
 1242.5     73.82359   20.86947
 1243     77.14289   21.22389
 1243.5     80.46218   20.09288
 1244     83.33921   18.96188
 1244.5     83.37499   17.83087
 1245     83.41076   16.69986
 1245.5     83.44654   15.56886
 1246     83.48232   14.57219
 1246.5     83.51809   14.6399
 1247     76.19344   14.7076
 1247.5     68.80576   14.77531
 1248     74.03185   14.84301
 1248.5     81.10357   16.45825
 1249     82.64004   20.55299
 1249.5     81.63245   24.64774
 1250     81.0525   28.74249
 1250.5     80.68398   30.46853
 1251     80.80444   28.82377
 1251.5     86.26423   27.17901
 1252     91.72402   25.53425
 1252.5     97.18381   23.88949
 1253     97.27066   22.24473
 1253.5     94.81663   20.59997
 1254     92.36259   19.59312
 1254.5     89.90856   19.50178
 1255     87.45452   19.41045
 1255.5     81.33282   19.31911
 1256     80.89589   19.22778
 1256.5     83.30096   19.13644
 1257     85.70603   19.04511
 1257.5     88.1111   19.76404
 1258     90.51617   21.10355
 1258.5     92.92124   22.44307
 1259     95.32631   23.78259
 1259.5     97.73138   23.8895
 1260     90.37146   22.42127
 1260.5     80.13659   20.95305
 1261     87.60428   19.48482
 1261.5     95.07196   18.01659
 1262     92.77272   16.54837
 1262.5     90.32261   15.08014
 1263     87.87249   14.41795
 1263.5     86.11655   14.72038
 1264     87.58993   15.02282
 1264.5     82.42936   15.32526
 1265     83.52282   16.57944
 1265.5     87.92386   20.45455
 1266     86.27851   24.32966
 1266.5     83.68735   28.20476
 1267     81.28781   32.07987
 1267.5     86.80958   33.70028
 1268     92.33135   34.70179
 1268.5     97.85312   35.70331
 1269     101.74134   36.17827
 1269.5     104.90319   33.81507
 1270     108.06503   31.45188
 1270.5     111.22687   29.08868
 1271     111.79394   26.72548
 1271.5     107.64007   24.36229
 1272     90.00149   21.99909
 1272.5     86.10741   19.74221
 1273     83.04002   18.72145
 1273.5     80.15487   17.70068
 1274     77.26971   16.67991
 1274.5     75.65322   15.65915
 1275     75.10896   14.63838
 1275.5     74.56471   13.91254
 1276     76.82278   14.30826
 1276.5     79.15267   14.70398
 1277     81.48255   15.09969
 1277.5     83.81244   15.49541
 1278     85.35435   15.89113
 1278.5     85.21207   16.28685
 1279     85.0698   16.13312
 1279.5     84.5378   15.19196
 1280     82.3142   14.2508
 1280.5     80.09059   13.30964
 1281     77.86699   12.36848
 1281.5     75.64339   11.42732
 1282     73.41978   11.23227
 1282.5     64.32893   11.65602
 1283     66.11759   12.07978
 1283.5     67.90625   12.50353
 1284     60.6686   12.92729
 1284.5     62.03549   13.13908
 1285     61.89857   12.90065
 1285.5     60.65794   12.66222
 1286     61.33666   12.94797
 1286.5     63.39731   13.47824
 1287     65.45795   14.0085
 1287.5     67.25958   14.53876
 1288     67.37937   14.5676
 1288.5     67.49916   14.10983
 1289     67.61895   13.65207
 1289.5     67.73874   13.1943
 1290     64.61522   12.73654
 1290.5     58.39872   12.27877
 1291     58.22779   11.82101
 1291.5     58.05685   12.00145
 1292     57.88592   12.56436
 1292.5     57.73599   13.12728
 1293     58.16471   13.69019
 1293.5     58.59344   14.25311
 1294     59.02216   14.81602
 1294.5     59.45089   15.37893
 1295     59.87962   15.83984
 1295.5     60.30834   16.08718
 1296     60.6466   16.33453
 1296.5     60.02586   16.58187
 1297     59.40513   16.82921
 1297.5     58.84049   17.07656
 1298     61.49242   16.94364
 1298.5     64.14436   16.51072
 1299     66.79629   16.07781
 1299.5     69.44823   15.64489
 1300     58.53464   15.21197
 1300.5     61.58532   14.77905
 1301     67.29103   14.86854
 1301.5     72.99674   15.14338
 1302     78.70244   15.41821
 1302.5     84.36195   15.69305
 1303     84.1173   15.96789
 1303.5     83.87264   16.24272
 1304     83.62798   15.56401
 1304.5     82.44218   14.86271
 1305     79.65511   14.16141
 1305.5     76.80486   13.46011
 1306     71.43921   12.75881
 1306.5     66.07355   12.18647
 1307     60.98688   12.45519
 1307.5     64.30894   12.72391
 1308     65.76991   12.99263
 1308.5     59.72134   13.26135
 1309     54.37644   13.14836
 1309.5     54.68616   12.5051
 1310     54.99589   11.86185
 1310.5     55.30561   11.43938
 1311     55.61533   11.74174
 1311.5     55.92506   12.04409
 1312     55.33836   12.34644
 1312.5     54.51562   12.6488
 1313     53.69289   12.95115
 1313.5     53.12846   13.2535
 1314     53.37579   13.55586
 1314.5     53.62312   13.85821
 1315     53.87045   14.16056
 1315.5     54.11779   13.96375
 1316     54.36512   13.64929
 1316.5     54.61245   13.33483
 1317     54.85978   13.02036
 1317.5     55.70756   12.7059
 1318     56.69154   12.39144
 1318.5     57.67553   12.07698
 1319     58.65951   11.76252
 1319.5     59.6435   11.44806
 1320     61.15542   11.42289
 1320.5     63.71188   12.07294
 1321     66.26835   12.72299
 1321.5     68.82482   13.37305
 1322     71.38129   14.0231
 1322.5     72.94788   14.67316
 1323     73.9078   15.32321
 1323.5     74.86773   15.97695
 1324     75.82765   17.2236
 1324.5     75.26317   18.47026
 1325     74.28661   19.71691
 1325.5     73.31006   20.96356
 1326     72.3335   22.21021
 1326.5     75.60393   23.45687
 1327     80.24389   23.54716
 1327.5     79.27386   20.83025
 1328     76.78274   18.11335
 1328.5     76.20119   15.39644
 1329     78.29018   13.64558
 1329.5     74.38557   13.033
 1330     67.73137   12.42043
 1330.5     61.07718   11.80786
 1331     54.45437   11.19528
 1331.5     53.14912   10.58271
 1332     54.0997   9.97013
 1332.5     55.05027   9.35756
 1333     56.00085   8.74499
 1333.5     56.95142   9.41314
 1334     57.77798   10.12149
 1334.5     57.4624   10.82984
 1335     57.14682   11.5382
 1335.5     56.83125   12.24655
