###############################################
##         ENVERUS                           ##
##         ESS - Open Hole                   ##
##         PERMIAN / DELAWARE                ##
##         Nov 04 2023  V4.0                 ##
##         42-389-00931-00-00                ##
###############################################
## Copyright 2017-2023  ENVERUS.  All Rights Reserved. 
## Confidential - Property of ENVERUS, use governed by terms and 
## conditions found within the existing Information Services Subscription Agreement 
## (as may be amended, the “ISSA”) between Customer and ENVERUS. 
## 
~VERSION INFORMATION
# MNEM.UNIT                               DATA : DESCRIPTION OF MNEMONIC
#-----.-----     ----------------------------- : -----------------------------
VERS.                                     2.00 : CWLS LOG ASCII STANDARD - VERSION 2.00
WRAP.                                       NO : MULTIPLE LINES PER DEPTH STEP
VEND.                                  ENVERUS : VENDOR
TYPE.                          ESS - OPEN HOLE : ENVERUS ESSENTIAL CURVES – ACCESSIBLE THROUGH ENVERUS PRISM(TM)
DOC.                                  31935239 : ENVERUS HEADER RAW DOCUMENT ID
#___________________________________________________________________________________________________ 
~WELL INFORMATION 
# S9zL0tdqvH3y2XIpNbXcuKF0SeIoK+7NE6VaQ02nn2+shQHF2oZWL/5TS96hefD+9qjP/MIJWV/WOidK809eGw== 
# MNEM.UNIT                                              DATA : DESCRIPTION OF MNEMONIC 
#-----.-----                    ----------------------------- : ----------------------------- 
CNTY.                                                  REEVES : COUNTY 
STATE.                                                  TEXAS : STATE 
CNTRY.                                                    USA : COUNTRY 
API.                                             42-389-00931 : API (10 Digit) 
API_14.                                    42-389-00931-00-00 : API (14 Digits) 
API_14_std.                                 42-389-00931-0000 : API (14 Digits Standard) 
UWI.                                           42389009310000 : UNIQUE WELL ID 
WELL.                                                      1, : WELL NAME
STRT.FT                                                 101.0 : START DEPTH
STOP.FT                                                5373.0 : STOP DEPTH
STEP.FT                                                   0.5 : STEP BETWEEN DEPTHS
NULL.                                                 -999.25 : NULL VALUE
#___________________________________________________________________________________________________ 
~CURVE INFORMATION 
# MNEM.UNIT           : CURVE DESCRIPTION 
#-----.-----          : ----------------------------- 
 DEPT.FT               : MEASURED DEPTH 
 GR.API                : GAMMA RAY (GR) 
 DT.US/FT              : SONIC DELTA TRANSIT TIME (DT) 
 #___________________________________________________________________________________________________ 
~A         DEPT             GR             DT
# ...
         2537.0         10.560         68.155
         2537.5         10.133         68.275
         2538.0          9.706         68.396
         2538.5          9.279         68.516
         2539.0          8.852         68.636
         2539.5          8.424         68.756
         2540.0          7.997         68.738
         2540.5          7.570         68.687
         2541.0          7.569         68.635
         2541.5          8.196         68.584
         2542.0          8.823         68.532
         2542.5          9.450         68.481
         2543.0          9.180         68.429
         2543.5          8.850         68.378
         2544.0          8.521         68.326
         2544.5          8.192         68.275
         2545.0          7.863         68.258
         2545.5          7.533         68.299
         2546.0          7.204         68.339
         2546.5          7.016         68.380
         2547.0          7.688         68.421
         2547.5          8.359         68.462
         2548.0          9.031         68.503
         2548.5          9.702         68.544
         2549.0         10.374         68.585
         2549.5         10.706         68.626
         2550.0         10.152         68.667
         2550.5          9.598         68.708
         2551.0          9.043         68.570
         2551.5          8.489         68.376
         2552.0          7.934         68.182
         2552.5          7.380         67.988
         2553.0          6.825         67.794
         2553.5          6.974         66.008
         2554.0          7.924         63.999
         2554.5          8.874         61.991
         2555.0          9.824         59.744
         2555.5         10.774         56.857
         2556.0         11.724         53.970
         2556.5         12.674         52.882
         2557.0         13.624         52.526
         2557.5         13.145         52.170
         2558.0         12.195         51.813
         2558.5         11.245         51.464
         2559.0         10.296         51.351
         2559.5          9.346         51.237
         2560.0          9.117         51.124
         2560.5          9.331         51.010
         2561.0          9.546         50.896
         2561.5          9.760         50.783
         2562.0          9.974         50.669
         2562.5          9.873         50.555
         2563.0          9.496         50.693
         2563.5          9.119         50.924
         2564.0          8.742         51.156
         2564.5          8.365         51.387
         2565.0          7.988         51.619
         2565.5          7.611         51.850
         2566.0          7.237         52.082
         2566.5          7.577         52.210
         2567.0          7.916         52.002
         2567.5          8.255         51.795
         2568.0          8.594         51.588
         2568.5          8.933         51.380
         2569.0          9.272         51.173
         2569.5          8.752         50.966
         2570.0          7.633         50.758
         2570.5          6.514         50.633
         2571.0          5.395         50.825
         2571.5          4.276         51.017
         2572.0          5.001         51.161
         2572.5          5.744         51.095
         2573.0          6.487         51.030
         2573.5          7.230         50.965
         2574.0          7.973         50.900
         2574.5          8.716         50.835
         2575.0          8.902         50.770
         2575.5          8.709         50.704
         2576.0          8.516         50.639
         2576.5          8.323         50.615
         2577.0          8.130         50.703
         2577.5          7.937         50.790
         2578.0          7.744         50.878
         2578.5          7.469         50.965
         2579.0          7.144         51.053
         2579.5          6.819         51.141
         2580.0          6.493         51.085
         2580.5          6.184         50.957
         2581.0          6.232         50.829
         2581.5          6.279         50.702
         2582.0          6.326         50.574
         2582.5          6.373         50.447
         2583.0          6.420         50.319
         2583.5          6.593         50.192
         2584.0          7.480         50.064
         2584.5          8.368         49.936
         2585.0          9.255         49.809
         2585.5         10.143         49.681
         2586.0         11.031         49.554
         2586.5         11.918         49.426
         2587.0         12.806         49.425
         2587.5         12.230         49.577
         2588.0         11.597         49.730
         2588.5         10.965         49.883
         2589.0         10.332         50.036
         2589.5          9.700         50.189
         2590.0          9.067         50.342
         2590.5          8.435         50.246
         2591.0          8.557         50.097
         2591.5          9.022         49.949
         2592.0          9.486         49.800
         2592.5          9.951         49.651
         2593.0         10.415         49.502
         2593.5         10.880         49.353
         2594.0         12.723         49.204
         2594.5         15.716         49.091
         2595.0         18.030         49.008
         2595.5         17.433         48.926
         2596.0         16.836         48.843
         2596.5         16.239         48.760
         2597.0         15.643         48.773
         2597.5         20.252         48.978
         2598.0         25.572         49.184
         2598.5         30.891         49.389
         2599.0         36.210         49.595
         2599.5         41.530         49.800
         2600.0         46.849         50.005
         2600.5         43.291         50.211
         2601.0         39.424         50.251
         2601.5         35.558         50.146
         2602.0         31.691         50.040
         2602.5         27.824         49.934
         2603.0         19.943         49.829
         2603.5         13.042         49.723
         2604.0         13.696         49.617
         2604.5         14.351         49.512
         2605.0         15.006         49.406
         2605.5         15.660         49.301
         2606.0         16.315         49.195
         2606.5         14.856         49.089
         2607.0         12.347         49.139
         2607.5         12.887         49.348
         2608.0         13.428         49.558
         2608.5         13.969         49.768
         2609.0         14.509         49.977
         2609.5         14.024         50.187
         2610.0         13.188         50.397
         2610.5         12.352         52.917
         2611.0         11.516         56.002
         2611.5         10.679         59.088
         2612.0         11.687         61.840
         2612.5         12.872         63.167
         2613.0         12.207         64.493
         2613.5         11.543         65.819
         2614.0         10.879         67.145
         2614.5         10.215         67.318
         2615.0          9.550         66.885
         2615.5          8.886         66.452
         2616.0          8.222         66.018
         2616.5          7.557         65.585
         2617.0          8.117         65.152
         2617.5          9.267         64.832
         2618.0         10.416         64.992
         2618.5         11.566         65.152
         2619.0         11.950         65.312
         2619.5         11.302         65.472
         2620.0         10.653         65.632
         2620.5         10.004         65.792
         2621.0          9.355         66.031
         2621.5          8.707         66.342
         2622.0          8.058         66.653
         2622.5          8.327         66.963
         2623.0          8.637         67.274
         2623.5          8.946         67.585
