#--------------------------------------------------#
#-------------------ENVERUS, INC.------------------#
#------------------WWW.ENVERUS.COM-----------------#
#------------------COPYRIGHT 2020------------------#
#--------------------------------------------------#
#THIS FILE MAY BE USED ONLY IN ACCORDANCE WITH A CURRENT SUBSCRIPTION AGREEMENT BETWEEN
#THE USER AND ENVERUS, INC. NO PART OF THIS FILE MAY BE REPRODUCED, USED, COPIED,
#MODIFIED, PROPAGATED, OR DISTRIBUTED EXCEPT IN ACCORDANCE WITH THE SUBSCRIPTION
#AGREEMENT. UNAUTHORIZED USE OR DISTRIBUTION OF ALL OR ANY PART OF THIS FILE MAY VIOLATE
#COPYRIGHT, TRADEMARK, AND/OR OTHER LAWS AND IS SUBJECT TO CIVIL AS WELL AS CRIMINAL
#SANCTIONS.
#--------------------------------------------------#
#THIS FILE IS PROVIDED "AS-IS" AND ALL WARRANTIES ARE EXPRESSLY DISCLAIMED, WHETHER
#EXPRESS, ORAL, IMPLIED, STATUTORY OR OTHERWISE, INCLUDING ANY IMPLIED WARRANTY OF FITNESS
#FOR A PARTICULAR PURPOSE, MERCHANTABILITY, TITLE OR NON-INFRINGEMENT, AND ANY WARRANTIES
#ARISING BY VIRTUE OF CUSTOM OF TRADE OR COURSE OF DEALING.  FURTHER, ENVERUS, INC.
#AND ITS LICENSORS DO NOT REPRESENT OR WARRANT THAT THIS FILE WILL MEET USER'S
#REQUIREMENTS OR ARE SUITABLE FOR USER'S NEEDS OR THAT THE DATA OR RESULTS PROVIDED IN
#CONJUNCTION THEREWITH ARE CORRECT, ACCURATE, TIMELY OR RELIABLE. THESE DISCLAIMERS SHALL
#APPLY REGARDLESS OF ANY FAILURE OF ESSENTIAL PURPOSE OF ANY LIMITED REMEDY.  SOME
#JURISDICTIONS DO NOT ALLOW THE EXCLUSION OF CERTAIN WARRANTIES SO SOME OF THE ABOVE
#EXCLUSIONS MAY NOT APPLY. IN NO EVENT SHALL ENVERUS, INC. OR ANY OF ITS AFFILIATES
#BE LIABLE UNDER ANY LEGAL THEORY, WHETHER IN TORT (INCLUDING WITHOUT LIMITATION
#NEGLIGENCE), CONTRACT, STRICT LIABILITY, STATUTORY OR OTHERWISE, FOR ANY SPECIAL,
#INCIDENTAL, CONSEQUENTIAL, EXEMPLARY, PUNITIVE OR INDIRECT DAMAGE OF ANY KIND, INCLUDING
#WITHOUT LIMITATION LOSS OF REVENUE, PROFITS, GOODWILL, USE, AND/OR DATA OR THE COST OF
#PROCUREMENT OF SUBSTITUTE GOODS OR SERVICES, EVEN IF APPRISED OF THE POSSIBILITY OF SUCH
#DAMAGES IN ADVANCE.
#--------------------------------------------------#

~VERSION INFORMATION
VERS. 2.0 : CWLS LOG ASCII STANDARD - VERSION 2.0
WRAP.  NO : ONE LINE PER DEPTH STEP
~WELL INFORMATION
#MNEMONIC     .UNIT              VALUE :DESCRIPTION
STRT       .FT                50 :START DEPTH
STOP       .FT                6118 :STOP DEPTH
STEP       .FT                   0.500 :STEP
NULL       .                  -999.990 :NULL
UWI        .              42389003090000 :UNIQUE WELL ID
API        .              42389003090000 :API NUMBER
COMP       .         :COMPANY
WELL       .         1, :WELL
DATE       .                            :LOG DATE
~CURVE INFORMATION
#MNEMONIC     .UNIT      API CODE :CURVE DESCRIPTION
DEPTH       .FT                      :MEASURED DEPTH
NEUT.API        UNKNOWN   :NEUT
GR.API        UNKNOWN   :GR
DT.US/FT        UNKNOWN   :DT
~A    DEPTH    NEUT    GR    DT
# ...
 3299     -999.990   13.595   47.438
 3299.5     -999.990   13.008   44.404
 3300     -999.990   12.422   62.369
 3300.5     -999.990   11.835   59.425
 3301     -999.990   11.248   56.481
 3301.5     -999.990   10.661   53.538
 3302     -999.990   11.203   70.913
 3302.5     -999.990   12.157   72.104
 3303     -999.990   13.112   73.295
 3303.5     -999.990   14.066   74.487
 3304     -999.990   15.02   72.37
 3304.5     -999.990   15.974   68.893
 3305     -999.990   17.832   65.417
 3305.5     -999.990   21.806   65.161
 3306     -999.990   25.779   65.474
 3306.5     -999.990   29.752   65.787
 3307     -999.990   33.726   66.1
 3307.5     -999.990   31.914   65.064
 3308     -999.990   28.617   64.51
 3308.5     -999.990   25.321   64.242
 3309     -999.990   22.025   63.974
 3309.5     -999.990   20.895   64.504
 3310     -999.990   21.307   65.678
 3310.5     -999.990   21.719   65.732
 3311     -999.990   22.131   65.787
 3311.5     -999.990   22.248   65.742
 3312     -999.990   21.952   65.508
 3312.5     -999.990   21.655   65.274
 3313     -999.990   21.359   65.04
 3313.5     -999.990   21.062   64.806
 3314     -999.990   20.766   64.768
 3314.5     -999.990   20.47   64.978
 3315     -999.990   20.173   65.188
 3315.5     -999.990   19.877   65.398
 3316     -999.990   19.58   65.498
 3316.5     -999.990   20.585   65.296
 3317     -999.990   22.681   65.093
 3317.5     -999.990   24.776   64.89
 3318     -999.990   26.634   65.446
 3318.5     -999.990   27.138   66.116
 3319     -999.990   27.643   66.693
 3319.5     -999.990   25.275   66.865
 3320     -999.990   23.624   67.038
 3320.5     -999.990   24.089   67.211
 3321     -999.990   24.555   67.384
 3321.5     -999.990   25.02   67.557
 3322     -999.990   25.486   67.73
 3322.5     -999.990   25.074   67.903
 3323     -999.990   23.452   67.684
 3323.5     -999.990   21.831   67.456
 3324     -999.990   20.209   67.228
 3324.5     -999.990   19.988   67.393
 3325     -999.990   20.663   67.576
 3325.5     -999.990   21.337   67.25
 3326     -999.990   22.011   66.686
 3326.5     -999.990   22.686   66.695
 3327     -999.990   23.36   66.842
 3327.5     -999.990   24.034   66.99
 3328     -999.990   26.063   67.137
 3328.5     -999.990   28.443   67.284
 3329     -999.990   30.824   67.431
 3329.5     -999.990   31.575   67.578
 3330     -999.990   29.886   67.725
 3330.5     -999.990   28.198   67.872
 3331     -999.990   26.509   67.875
 3331.5     -999.990   24.82   67.815
 3332     -999.990   23.132   67.755
 3332.5     -999.990   21.443   67.694
 3333     -999.990   19.754   67.603
 3333.5     -999.990   19.052   67.345
 3334     -999.990   19.848   67.088
 3334.5     -999.990   20.644   66.831
 3335     -999.990   21.44   67.045
 3335.5     -999.990   22.235   67.4
 3336     -999.990   22.744   67.756
 3336.5     -999.990   20.595   68.111
 3337     -999.990   19.33   68.466
 3337.5     -999.990   18.73   68.822
 3338     -999.990   18.13   68.541
 3338.5     -999.990   17.529   67.949
 3339     -999.990   16.929   67.357
 3339.5     -999.990   16.329   66.765
 3340     -999.990   15.938   66.901
 3340.5     -999.990   17.223   67.622
 3341     -999.990   18.507   68.342
 3341.5     -999.990   19.792   67.686
 3342     -999.990   21.077   66.821
 3342.5     -999.990   22.362   67.2
 3343     -999.990   23.647   68.296
 3343.5     -999.990   23.964   67.999
 3344     -999.990   23.834   67.11
 3344.5     -999.990   23.703   67.188
 3345     -999.990   23.572   67.451
 3345.5     -999.990   23.441   67.438
 3346     -999.990   23.31   67.207
 3346.5     -999.990   24.923   66.975
 3347     -999.990   27.646   66.744
 3347.5     -999.990   30.369   67.542
 3348     -999.990   32.185   67.669
 3348.5     -999.990   30.78   67.24
 3349     -999.990   29.375   66.812
 3349.5     -999.990   27.97   66.384
 3350     -999.990   26.565   66.672
 3350.5     -999.990   25.491   67.062
 3351     -999.990   25.312   67.453
 3351.5     -999.990   25.132   67.843
 3352     -999.990   24.952   68.234
 3352.5     -999.990   24.773   67.858
 3353     -999.990   24.593   67.413
 3353.5     -999.990   24.413   66.968
 3354     -999.990   24.234   66.522
 3354.5     -999.990   24.054   66.741
 3355     -999.990   23.874   67.139
 3355.5     -999.990   23.384   67.477
 3356     -999.990   22.431   67.384
 3356.5     -999.990   21.477   67.291
 3357     -999.990   20.523   67.198
 3357.5     -999.990   19.569   67.105
 3358     -999.990   18.615   67.102
 3358.5     -999.990   17.661   67.44
 3359     -999.990   16.708   67.779
 3359.5     -999.990   15.754   68.118
 3360     -999.990   14.8   68.101
 3360.5     -999.990   13.846   67.541
 3361     -999.990   12.892   66.982
 3361.5     -999.990   12.276   66.446
 3362     -999.990   12.78   66.754
 3362.5     -999.990   13.285   67.061
 3363     -999.990   13.79   67.369
 3363.5     -999.990   14.294   67.676
 3364     -999.990   14.799   67.904
 3364.5     -999.990   15.303   67.488
 3365     -999.990   15.808   67.731
 3365.5     -999.990   15.611   67.974
 3366     -999.990   15.04   68.217
 3366.5     -999.990   14.469   67.777
 3367     -999.990   13.898   67.267
 3367.5     -999.990   13.327   66.757
 3368     -999.990   12.756   66.247
 3368.5     -999.990   12.844   65.79
 3369     -999.990   15.653   66.686
 3369.5     -999.990   18.461   67.581
 3370     -999.990   21.27   68.476
 3370.5     -999.990   24.078   68.093
 3371     -999.990   23.903   67.644
 3371.5     -999.990   22.281   67.194
 3372     -999.990   20.658   67.126
 3372.5     -999.990   19.035   67.339
 3373     -999.990   17.412   67.551
 3373.5     -999.990   15.79   67.421
 3374     -999.990   14.167   66.992
 3374.5     -999.990   12.662   66.563
 3375     -999.990   13.166   66.509
 3375.5     -999.990   13.671   66.781
 3376     -999.990   13.156   67.054
 3376.5     -999.990   12.355   67.327
 3377     -999.990   11.555   67.6
 3377.5     -999.990   10.754   67.873
 3378     -999.990   9.953   67.925
 3378.5     -999.990   9.842   67.698
 3379     -999.990   10.543   67.472
 3379.5     -999.990   11.243   67.491
 3380     -999.990   11.944   67.57
 3380.5     -999.990   12.644   67.649
 3381     -999.990   12.696   67.728
 3381.5     -999.990   12.185   67.806
 3382     -999.990   11.674   67.72
 3382.5     -999.990   11.163   67.468
 3383     -999.990   10.651   67.215
 3383.5     -999.990   10.14   66.962
 3384     -999.990   10.406   66.71
 3384.5     -999.990   10.822   66.606
 3385     -999.990   11.238   67.009
 3385.5     -999.990   11.654   67.411
 3386     -999.990   12.07   67.813
 3386.5     -999.990   12.486   67.907
 3387     -999.990   12.902   67.919
 3387.5     -999.990   13.318   67.931
 3388     -999.990   13.605   67.943
 3388.5     -999.990   12.949   67.575
 3389     -999.990   12.293   66.98
 3389.5     -999.990   11.637   66.613
 3390     -999.990   10.98   66.614
 3390.5     -999.990   10.324   66.615
 3391     -999.990   9.668   67.527
 3391.5     -999.990   9.012   67.476
 3392     -999.990   8.532   67.364
 3392.5     -999.990   9.125   67.252
 3393     -999.990   9.718   67.14
 3393.5     -999.990   10.311   67.054
 3394     -999.990   10.904   67.489
 3394.5     -999.990   11.498   67.839
 3395     -999.990   12.091   67.656
 3395.5     -999.990   12.684   67.474
 3396     -999.990   13.277   67.291
 3396.5     -999.990   13.354   67.23
 3397     -999.990   12.737   67.378
 3397.5     -999.990   12.12   67.526
 3398     -999.990   11.503   67.674
 3398.5     -999.990   10.886   67.822
 3399     -999.990   10.269   67.954
 3399.5     -999.990   9.652   67.795
 3400     -999.990   9.035   67.636
 3400.5     -999.990   8.418   67.477
 3401     -999.990   8.166   67.318
 3401.5     -999.990   8.729   67.21
 3402     -999.990   9.292   67.397
 3402.5     -999.990   9.855   67.584
 3403     -999.990   10.419   67.772
 3403.5     -999.990   10.982   67.959
 3404     -999.990   11.545   68.082
 3404.5     -999.990   12.109   67.961
 3405     -999.990   12.672   67.84
