~VERSION INFORMATION
VERS.           1.2   :CWLS Log ASCII Standard - VERSION 1.2
WRAP.           NO    :One Line per depth step
PROD.  Schlumberger   :LAS Producer
PROG.  DLIS to ASCII 17C0-152                          :LAS Program name and version
CREA.        2014/05/28 16:07                          :LAS Creation date {YYYY/MM/DD hh:mm}
DLIS_CREA.  2014-May-27 22:17                          :DLIS Creation date and time {YYYY-MMM-DD hh:mm}
SOURCE.     db5fefe1-f67d-4e3f-8816-ab53d5f8be46       :DLIS File Name
#--------------------------------------------------
~WELL INFORMATION
#MNEM.UNIT      DATA             DESCRIPTION
#---- ------ --------------   -----------------------------
# Enverus has updated the API/UWI.  The previous names are renamed to  PREV_API / PREV_UWI
API.  API (14 Digits with Dashes) : 42-389-34023-90-00
UWI.              UNIQUE WELL ID : 42389340239000

STRT .F      9586.5000       :START DEPTH     
STOP .F      10811.5000      :STOP DEPTH     
STEP .F       0.5000         :STEP       
NULL .          -999.25      :NULL VALUE
COMP .                 COMPANY:  J. Cleo Thompson                   
WELL .                    WELL:  Okapi State Unit B35 #2H           
FLD  .                   FIELD:  Wolfbone (Trend Area)              
LOC  .                LOCATION:  260' FNL & 500' FEL                
CNTY .                  COUNTY:  Reeves                             
STAT .                   STATE:  Texas                              
CTRY .                 COUNTRY:                                     
SRVC .         SERVICE COMPANY:  Schlumberger                       
LATI .DEG             LATITUDE:  31.112200 degrees                  
LONG .DEG            LONGITUDE:  -103.28900 degrees                 
PREV_API  .              API NUMBER:  42-389-34023                       
DATE .                LOG DATE:  27-May-2014
PREV_UWI  .          UNIQUE WELL ID:                                     
#-----------------------------------------------------------------------------
~PARAMETER INFORMATION
#MNEM.UNIT    VALUE                      DESCRIPTION
#---- -----   --------------------       ------------------------
CN   .        J. Cleo Thompson           :Company Name
WN   .        Okapi State Unit B35 #2H   :Well Name
FN   .        Wolfbone (Trend Area)      :Field Name
FL   .        260' FNL & 500' FEL        :Field Location
FL1  .        Section  35  Block  50 T8S  Abstract 4369 :Field Location, Line 1
COUN .        Reeves                     :County or Parish
STAT .        Texas                      :State or Province
NATI .                                   :Nation
DATE .        27-May-2014                :Tools Above Rotary Table Date
APIN .        42-389-34023               :API Well Number
SECT .        35                         :Section
TOWN .        50 T8S                     :Township
RANG .        4369                       :Range
DMF  .        KB                         :Drilling Measured From (Name of Drilling Elevation Reference)
LMF  .        KB                         :Logging Measured From (Name of Logging Elevation Reference)
PDAT .        GL                         :Permanent Datum
ENGI .        AJ Massis                  :Engineer s Name
WITN .        Bennie McNett              :Witness s Name
LATI .        31.112200 degrees          :Latitude
LONG .        -103.28900 degrees         :Longitude
LUL  .        Midland                    :Logging Unit Location
LUN  .        9105                       :Logging Unit Number
RUN  .        1B                         :Run Number
SON  .                                   :Service Order Number
BHT  .DEGF     162.00000                 :Bottom Hole Temperature
BS   .IN         8.50000                 :Bit Size
MDEN .G/C3       2.71000                 :Matrix Density for Density Porosity
DFD  .LB/G      10.70000                 :Drilling Fluid Density
DFV  .S         46.00000                 :Drilling Fluid Viscosity
DFL  .C3        10.00000                 :Drilling Fluid Loss
RMFS .OHMM       0.30000                 :Resistivity of Mud Filtrate Sample
EKB  .F       2829.00000                 :Elevation of Kelly Bushing
EGL  .F       2807.00000                 :Elevation of Ground Level
BLI  .F       11012.00000                :Bottom Log Interval
BSAL .PPM     132000.00000               :Borehole Salinity
FLEV .F          8.00000                 :Depth of Drilling Fluid Level to LMF (Log Measured From)
MCST .DEGF      68.00000                 :Mudcake Sample Temperature
MFST .DEGF      80.20000                 :Mud Filtrate Sample Temperature
MRT  .DEGF     162.00000                 :Maximum Recorded Temperature
MST  .DEGF      80.20000                 :Mud Sample Temperature
RMCS .OHMM    -999.25000                 :Resistivity of Mud Cake Sample
RMS  .OHMM       0.30000                 :Resistivity of Mud Sample
RW   .OHMM       1.00000                 :Connate Water Resistivity
TDD  .F       11012.00000                :Driller Total Depth
TDL  .F       11012.00000                :Logger Total Depth
TLI  .F       9676.00000                 :Top Log Interval
HIDE .        Wolfbone (Trend Area)      :Header Identifier
MATR .        LIME                       :Rock Matrix for Neutron Porosity Corrections
FNUM .           1.00000                 :F-Numerator for Formation Factor Formula
FEXP .           2.00000                 :Exponent "m" for Formation Factor Formula
DFT  .        Salt Brine                 :Drilling Fluid Type
DFPH .           9.00000                 :Drilling Fluid pH
MCSS .                                   :Mudcake Sample Source
MFSS .                                   :Mud Filtrate Sample Source
FD   .G/C3       1.10000                 :Fluid Density
MSS  .        Active Tank                :Mud Sample Source
OS1  .                                   :Other Services Line 1
OS2  .                                   :Other Services Line 2
OS3  .                                   :Other Services Line 3
OS4  .                                   :Other Services Line 4
OS5  .                                   :Other Services Line 5
R1   .        Tools run as per toolsketch :Remarks Line 1
R2   .        Logs performed on a Limestone matrix (2.71

g/cc  47.6 us/ft ). Mud Properties  MW =

10.7 g/cc  FD = 1.1 g/cc. :Remarks Line 2
R3   .        Max recorded temperature from downhole

thermometer = 162 degF. :Remarks Line 3
R4   .        Logs run from TD to casing. GR & Neutron

logged from casing to 200ft as per client

request. :Remarks Line 4
R5   .        Tools got stuck near TD and calipers had to be closed in order to get free. :Remarks Line 5
R6   .        Well was washed out for many intervals. :Remarks Line 6
R7   .        Repeat done at casing due to getting stuck at TD :Remarks Line 7
R8   .                                   :Remarks Line 8
TCS  .        18 00 00                   :Time Circulation Stopped
TLAB .        16 19 01                   :Time Logger At Bottom
EPD  .C3         2807.000000             :Elevation of Permanent Datum above Mean Sea Level
APD  .F          22.000000               :Elevation of Depth Reference (LMF) above Permanent Datum
#-----------------------------------------------------------------------------
~CURVE INFORMATION
#MNEM.UNIT   API CODE                                  DESCRIPTION
#---- -----  --------                                  -----------------------
DEPT .F                                                :DEPTH (BOREHOLE) {F12.4}
CDF  .LBF                                              :Calibrated Downhole Force {F11.4}
CTEM .DEGF                                             :Cartridge Temperature {F11.4}
DCAL .IN                                               :Differential Caliper {F11.4}
DTCO .US/F                                             :Delta-T Compressional {F11.4}
DTSM .US/F                                             :Delta-T Shear {F11.4}
ED   .F                                                :East Departure {F11.4}
GR_EDTC.GAPI                                           :Gamma Ray {F11.4}
GTEM .DEGF                                             :Generalized Borehole Temperature {F11.4}
HAZI .DEG                                              :Hole Azimuth Relative to True North {F11.4}
HAZIM.DEG                                              :Memorized Hole Azimuth {F11.4}
ITT  .S                                                :Integrated Transit Time {F11.4}
ND   .F                                                :North Departure {F11.4}
P1AZ .DEG                                              :Pad 1 Azimuth in Horizontal Plane (0 = True North) {F11.4}
PR   .                                                 :Poisson s Ratio {F11.4}
RB   .DEG                                              :Relative Bearing {F11.4}
SDEV .DEG                                              :Sonde Deviation {F11.4}
SDEVM.DEG                                              :Memorized Sonde Deviation {F11.4}
SPHI .CFCF                                             :Sonic Porosity {F11.4}
STIT .F                                                :Stuck Tool Indicator, Total {F11.4}
TENS .LBF                                              :Cable Tension {F11.4}
#-----------------------------------------------------------------------------
# 
#      DEPT        CDF        CTEM       DCAL       DTCO       DTSM        ED      GR_EDTC      GTEM       HAZI      HAZIM       ITT         ND        P1AZ        PR         RB        SDEV      SDEVM       SPHI       STIT       TENS
#
~A  
# ...
   9831.5000  1209.4775   163.5764     0.2243    82.2074   130.4276     0.0000   105.5759   151.9231   294.0039   291.9524     0.0724     0.0000    55.4782     0.1704   121.4898     2.0173     2.1173     0.2447     0.0000  3923.6670
   9832.0000  1206.1925   163.5764     0.2132    82.0563   131.9805     0.0000   109.4803   151.9273   293.5990   291.1129     0.0724     0.0000    53.0165     0.1849   119.4330     2.0349     2.1241     0.2437     0.0000  3925.3337
   9832.5000  1208.2677   163.5764     0.2132    82.0678   133.0053     0.0000   114.5925   151.9316   293.1425   290.2696     0.0723     0.0000    50.4645     0.1926   117.3370     2.0599     2.1305     0.2438     0.0000  3914.6665
   9833.0000  1209.7666   163.5764     0.2153    82.1677   133.2958     0.0000   111.7748   151.9359   292.7197   289.8369     0.0723     0.0000    47.7673     0.1936   115.0623     2.0863     2.1341     0.2445     0.0000  3945.4998
   9833.5000  1212.3895   163.5764     0.2132    82.4910   133.2112     0.0000   115.4917   151.9401   292.4856   289.8776     0.0722     0.0000    45.5982     0.1890   113.1268     2.1043     2.1358     0.2468     0.0000  3929.3333
   9834.0000  1219.7490   163.5764     0.2132    82.3264   133.4425     0.0000   114.4939   151.9444   292.3952   290.3441     0.0722     0.0000    42.6699     0.1927   110.2874     2.1192     2.1380     0.2456     0.0000  3937.0000
   9834.5000  1223.4674   163.5764     0.2132    82.1873   132.7205     0.0000   112.3819   151.9487   292.5559   290.8856     0.0722     0.0000    39.6171     0.1890   107.0722     2.1239     2.1411     0.2446     0.0000  3930.6667
   9835.0000  1217.0662   163.5764     0.2132    81.8907   132.5669     0.0000   109.5594   151.9530   292.9562   291.5569     0.0721     0.0000    37.1345     0.1915   104.1875     2.1196     2.1475     0.2425     0.0000  3920.6667
   9835.5000  1217.5970   163.5764     0.2132    81.4259   130.8547     0.0000   103.5680   151.9572   293.4960   291.9931     0.0721     0.0000    35.1242     0.1841   101.6359     2.1105     2.1555     0.2392     0.0000  3934.6667
   9836.0000  1216.9998   163.5764     0.2132    81.0091   130.5592     0.0000   100.8814   151.9615   293.9149   292.0037     0.0720     0.0000    33.3033     0.1870    99.3945     2.1030     2.1621     0.2363     0.0000  3912.9998
   9836.5000  1216.4026   163.5764     0.2132    80.7647   129.6441     0.0000    97.7889   151.9658   294.2678   291.5594     0.0720     0.0000    30.7262     0.1829    96.4628     2.0968     2.1651     0.2345     0.0000  3927.6665
   9837.0000  1218.4977   163.5764     0.2132    79.8479   127.8743     0.0000    97.0153   151.9700   294.2683   290.9459     0.0720     0.0000    28.2621     0.1805    93.9963     2.0961     2.1645     0.2281     0.0000  3928.3335
   9837.5000  1218.5071   163.5764     0.2132    79.2484   126.6895     0.0000    93.4941   151.9743   293.8337   290.0210     0.0719     0.0000    25.8488     0.1786    92.0168     2.1004     2.1607     0.2238     0.0000  3922.3335
   9838.0000  1220.0953   163.5764     0.2132    78.0564   125.5720     0.0000    85.6637   151.9786   293.0017   289.1577     0.0719     0.0000    23.2416     0.1851    90.2403     2.1082     2.1551     0.2154     0.0000  3924.0002
   9838.5000  1220.7681   163.5764     0.2243    76.1266   124.2954     0.0000    81.6283   151.9828   292.1655   288.5722     0.0718     0.0000    21.2145     0.1999    89.0483     2.1154     2.1501     0.2017     0.0000  3910.0000
   9839.0000  1221.2819   163.5764     0.2132    75.4658   123.4289     0.0000    75.4614   151.9871   291.1129   288.4184     0.0718     0.0000    18.6939     0.2015    87.5795     2.1241     2.1479     0.1971     0.0000  3912.9998
   9839.5000  1220.2135   163.5764     0.2132    75.2476   123.4838     0.0000    71.0490   151.9913   290.2696   288.6489     0.0718     0.0000    16.2569     0.2047    85.9848     2.1305     2.1494     0.1955     0.0000  3884.0000
   9840.0000  1219.7206   163.5764     0.2355    75.6000   123.0960     0.0000    62.3710   151.9956   289.8369   289.0308     0.0717     0.0000    13.8078     0.1972    83.9665     2.1341     2.1537     0.1980     0.0000  3907.6667
   9840.5000  1222.4935   163.5764     0.2132    76.2425   123.6838     0.0000    61.1373   151.9999   289.8303   289.5490     0.0717     0.0000    11.8206     0.1936    81.9850     2.1356     2.1615     0.2026     0.0000  3902.3333
   9841.0000  1226.5319   163.5764     0.2243    76.7593   125.1385     0.0000    66.9203   152.0042   290.2272   289.9124     0.0716     0.0000     9.3251     0.1984    79.0904     2.1374     2.1698     0.2062     0.0000  3906.6665
   9841.5000  1227.3282   163.5764     0.2265    77.8509   126.2044     0.0000    74.9051   152.0085   290.8856   289.9377     0.0716     0.0000     6.8412     0.1929    75.9460     2.1411     2.1743     0.2139     0.0000  3917.3335
   9842.0000  1227.1719   163.5764     0.2243    79.4716   127.6618     0.0000    85.2227   152.0127   291.5569   289.5755     0.0716     0.0000     4.3924     0.1836    72.8239     2.1475     2.1736     0.2254     0.0000  3876.6665
   9842.5000  1222.8015   163.5764     0.2355    81.1119   129.1184     0.0000    95.9880   152.0170   291.9931   289.0476     0.0715     0.0000     2.2740     0.1741    70.2679     2.1555     2.1689     0.2370     0.0000  3888.9998
   9843.0000  1219.1967   163.5764     0.2243    81.4980   131.1172     0.0000   109.4172   152.0212   292.0341   288.2226     0.0715     0.0000     0.8035     0.1852    68.7556     2.1608     2.1601     0.2397     0.0000  3877.0002
   9843.5000  1225.3090   163.5764     0.2355    82.3492   132.0173     0.0000   111.3989   152.0255   291.6847   287.4179     0.0714     0.0000   358.6697     0.1815    66.9706     2.1649     2.1502     0.2458     0.0000  3915.6667
   9844.0000  1225.6692   163.5764     0.2355    82.2448   133.2899     0.0000   113.0816   152.0298   290.9459   286.8293     0.0714     0.0000   356.1495     0.1926    65.1880     2.1645     2.1417     0.2450     0.0000  3918.0000
   9844.5000  1226.2665   163.5764     0.2355    82.1968   133.6223     0.0000   114.1381   152.0340   290.0210   286.6079     0.0714     0.0000   353.6884     0.1956    63.6513     2.1607     2.1371     0.2447     0.0000  3867.0000
   9845.0000  1225.4701   163.5764     0.2355    82.4397   133.5640     0.0000   118.8777   152.0383   289.1577   286.7064     0.0713     0.0000   351.3312     0.1923    62.1570     2.1551     2.1361     0.2464     0.0000  3897.6667
   9845.5000  1226.2665   163.5764     0.2355    82.3273   133.3047     0.0000   113.5691   152.0426   288.6626   287.0877     0.0713     0.0000   349.6501     0.1917    60.9704     2.1510     2.1371     0.2456     0.0000  3861.9998
   9846.0000  1224.1830   163.5764     0.2355    82.6499   134.2168     0.0000   105.8981   152.0468   288.4122   287.5906     0.0712     0.0000   347.5208     0.1946    59.0907     2.1479     2.1378     0.2479     0.0000  3875.6667
   9846.5000  1226.5983   163.5764     0.2355    82.8867   133.6239     0.0000   102.1115   152.0511   288.5705   287.9945     0.0712     0.0000   345.5518     0.1873    56.9630     2.1487     2.1353     0.2496     0.0000  3899.3335
   9847.0000  1226.5319   163.5764     0.2355    82.6269   132.8879     0.0000   106.2974   152.0554   289.0308   288.1319     0.0712     0.0000   343.5322     0.1849    54.4821     2.1537     2.1255     0.2477     0.0000  3874.0000
   9847.5000  1225.4417   163.5764     0.2355    81.4763   132.1340     0.0000   116.6619   152.0597   289.5490   287.9844     0.0711     0.0000   341.4905     0.1933    51.9217     2.1615     2.1120     0.2396     0.0000  3898.7500
   9848.0000  1224.9725   163.5764     0.2355    79.4658   131.1413     0.0000   119.5591   152.0639   289.9124   287.4983     0.0711     0.0000   340.0999     0.2099    50.1671     2.1698     2.0882     0.2254     0.0000  3890.0000
   9848.5000  1223.5234   163.5764     0.2355    67.1851   129.2643     0.0000   116.1281   152.0682   289.9655   286.7758     0.0710     0.0000   338.4531     0.3149    48.4672     2.1737     2.0619     0.1385     0.0000  3910.3333
