~Version Information Block
 VERS.                2.00:     CWLS LOG ASCII STANDARD - VERSION 2.000000
 WRAP.                  NO:     One Line Per Depth Step
#
~Well Information Block
#MNEM.UNIT                     Data                         Information
#----------   ------------------------------------------   ----------------
 STRT.FT                                     5200.0000:     START DEPTH
 STOP.FT                                    11550.0000:     STOP DEPTH
 STEP.FT                                        0.5000:     STEP
 NULL.                                       -999.2500:     NULL VALUE
 COMP.               AMERICAN QUASAR PETROLEUM COMPANY:     COMPANY
 WELL.                               MCCARTER # 1 - 31:     WELL
 FLD .                                         WILDCAT:     FIELD
 LOC .                                                :     LOCATION
 CNTY.                                          REEVES:     COUNTY
 STAT.                                           TEXAS:     STATE
 CTRY.                                             USA:     COUNTRY
 SRVC.                                                :     SERVICE COMPANY
 DATE.                                      08/07/2015:     DATE
 API .                                  42389311800000:     API NUMBER
 UWI .                                  42389311800000:     UWI NUMBER
 TVD .                                              NO:     TVD flag
 WSTA.                                             LOC:     Well status
#
~Curve Information Block
#MNEM.UNIT       API CODE      Curve Description
#----------    -------------   -------------------
 DEPT.FT                   :   Depth in Feet
 GR  .GAPI                 :   Gamma Ray
 LLD .OHMM                 :   Latero-Log Deep (Resistivity)
 CALI.IN                   :   Caliper
 DT  .US/F                 :   Delta-T
#
~Parameter Information Block
#MNEM.UNIT            Value               Description
#----------    --------------------    -------------------
 RUN .                         ONE:    Run Number
 PDAT.                          GL:    Permanent Datum
 EPD .FT                          :    Elevation Of Perm. Datum
 LMF .               KELLY BUSHING:    Log Measured From
 EKB .FT                          :    Elevation Of Kelly Bushing
 DF .FT                           :    Elevation Of Derrick Floor
 GL .FT                           :    Elevation Of Ground Level
 TD  .FT                          :    Total Depth
 CSGD.FT                          :    Casing Bottom (Driller) 1
 CSGL.FT                          :    Casing Bottom (Logger) 1
 MUD .                            :    Drilling Fluid Type
 MUDV .CP                         :    Drilling Fluid Viscosity
 MUDD .LB/USG                     :    Drilling Fluid Density
 FL .ML/30MIN                     :    Drilling Fluid Loss
 PH.                              :    Drilling Fluid Ph
 MUDS .                           :    Mud Sample Source
 RM .OHMM                         :    Resistivity Of Mud Sample
 RMT .DEGF                        :    Mud Sample Temperature
 RMF .OHMM                        :    Mud Filtrate Resistivity
 RMFT.DEGF                        :    Mud Filtrate Sample Temperature
 RMC .OHMM                        :    Mud Cake Resistivity
 RMCT.DEGF                        :    Mud Cake Sample Temperature
 RMB .OHMM                        :    Mud Resistivity At Bht
 TMAX .DEGF                       :    Bottom Hole Temperature    
#
~Other Information Block
<DescLogPlotStart>   NEURALOG PLOT DEFINITION
PLOTDEFVERSION: 3
LASFILE: E:\Nair Innovations\Texas - NII\Shivam\42389311800000\42389311800000_G
DEPTHSCALE: 239.999996
RESOLUTION: 200
DEPTHLABELFREQ: 100.000000
HEAVYGRIDFREQ: 100.000000
MEDIUMGRIDFREQ: 50.000000
LIGHTGRIDFREQ: 10.000000
#
#   TRACK 1
#
STARTTRACK: 
 LEFTX: 0.500000 inch
 RIGHTX: 3.000000 inch
 SCALETYPE: Linear
 NUMCHARTDIVISIONS: 10
CURVE: GR    0.000000   125.000000 (0,0,255)      Solid             2     Y    
BACKUP: 125.000000 250.000000 (0,0,255)      Solid             2    
CURVE: CALI  6.000000   16.000000  (0,0,255)      Solid             2     N    
ENDTRACK: 
#
#   TRACK 2
#
STARTTRACK: 
 LEFTX: 3.500000 inch
 RIGHTX: 8.500000 inch
 SCALETYPE: Log
 NUMCYCLES: 4
 STARTCYCLE: 2
CURVE: LLD   0.200000   2000.000000 (0,131,131)    Solid             2     Y   
BACKUP: 2000.000000 20000000.000000 (0,131,131)    Solid             2    
ENDTRACK: 
#
#   TRACK 3
#
STARTTRACK: 
 LEFTX: 3.500000 inch
 RIGHTX: 8.500000 inch
 SCALETYPE: Linear
 NUMCHARTDIVISIONS: 10
CURVE: DT    100.000000 40.000000  (0,131,131)    Solid             2     Y    
BACKUP: 160.000000 100.000000 (0,131,131)    Solid             2    
BACKUP: 40.000000  -20.000000 (0,131,131)    Solid             2    
ENDTRACK: 
<DescLogPlotEnd>
<DepthTrack type='Reference' track='1' Label='0' color='0' hor='0' />
<Reference font='144,0,-900,0,500,0,16777216,Arial' />
~A DEPTH     GR               LLD              CALI             DT              
# ...
    8120.500 136.07485363     219.51412197     12.65743121      75.85678936     
    8121.000 135.42301997     197.90599502     12.65713120      75.95864136     
    8121.500 131.51265117     185.49304068     12.65694130      75.51448551     
    8122.000 131.53775301     182.36850392     12.65140741      74.45270729     
    8122.500 141.64600673     184.95862358     12.64557150      73.27452547     
    8123.000 149.52866995     189.41866928     12.63958722      72.63736264     
    8123.500 157.15877841     194.45820866     12.64779704      72.83675260     
    8124.000 157.62675109     203.84712231     12.62047069      73.02977079     
    8124.500 146.70767335     195.99171056     12.62516130      73.15937967     
    8125.000 134.83736427     187.05610176     12.63566010      73.65634366     
    8125.500 123.99484273     179.03329443     12.65806915      74.06894923     
    8126.000 112.34445837     139.16017480     12.65847621      74.56329125     
    8126.500 113.86746559     110.99119127     12.66638836      75.09490509     
    8127.000 116.30384549     104.21441410     12.67489566      75.35444555     
    8127.500 130.62712389     100.09878205     12.67480670      75.27472527     
    8128.000 128.80846939     100.09878205     12.67250493      73.88255744     
    8128.500 116.72117427     106.45630039     12.67014322      72.33766234     
    8129.000 102.78057302     116.33154942     12.66780045      67.54245754     
    8129.500 103.05962243     127.13924049     12.66546202      68.46769231     
    8130.000 107.53121091     137.41366220     12.66312358      69.25314685     
    8130.500 116.68458115     136.46230557     12.66078515      70.03860140     
    8131.000 122.86241122     135.71546224     12.65844671      70.98139427     
    8131.500 120.90865822     137.04105198     12.65610828      72.00767904     
    8132.000 115.92535612     150.06135094     12.65376984      72.26164693     
    8132.500 109.88699232     159.81623372     12.65143141      72.52947053     
    8133.000 103.83684428     164.76374663     12.64909297      72.79980020     
    8133.500 97.40940637      162.40365307     12.64675454      73.17682318     
    8134.000 96.31636394      157.33363580     12.64441610      73.29670330     
    8134.500 97.60514963      146.98481856     12.64207766      73.29670330     
    8135.000 101.38205963     139.54599299     12.63973923      71.49850150     
    8135.500 103.80036712     138.26407559     12.63740079      70.46262534     
    8136.000 100.45002112     138.26407559     12.63506236      69.21644835     
    8136.500 93.57911216      139.56370194     12.63272392      67.89060196     
    8137.000 87.20082731      140.83979571     12.63038549      67.23941430     
    8137.500 83.56888169      139.54599299     12.62804705      67.24275724     
    8138.000 86.59610983      132.02898185     12.62570862      67.74085914     
    8138.500 89.87733261      125.84838044     12.62337018      68.14185814     
    8139.000 90.77914948      121.50583378     12.62103175      69.52215784     
    8139.500 87.74751187      121.50583378     12.61869331      69.50009990     
    8140.000 86.71764480      126.27301692     12.61635488      69.80219780     
    8140.500 85.75477970      131.66576944     12.61401644      70.10429570     
    8141.000 91.22583459      136.30872315     12.61167800      70.00000000     
    8141.500 96.47700786      138.86296750     12.60933957      70.17982018     
    8142.000 104.55995755     140.83979571     12.60700113      71.34786644     
    8142.500 115.62757713     139.78620638     12.60466270      72.57447049     
    8143.000 120.58987242     138.61019113     12.60232426      73.24876390     
    8143.500 121.63832553     136.43697614     12.59998583      73.41509065     
    8144.000 107.58180007     134.48854847     12.59764739      71.83204169     
    8144.500 92.13146155      144.12619510     12.59530896      70.69317976     
    8145.000 75.65409484      157.51524057     12.59297052      69.15448762     
    8145.500 77.39568595      176.91859536     12.59063209      68.19399763     
    8146.000 71.40164611      187.48817575     12.58829365      69.39436722     
    8146.500 88.23650230      187.49430015     12.58595522      70.53946054     
    8147.000 100.54095120     187.58178169     12.58363435      72.87712288     
    8147.500 104.35517997     166.32082205     12.58131556      75.87412587     
    8148.000 104.95050283     161.69957608     12.57873587      75.79059490     
    8148.500 98.56622333      167.32470029     12.56672218      75.70315713     
    8149.000 91.99702184      180.98693699     12.58580181      74.89849844     
    8149.500 86.09646360      210.00246111     12.58580181      71.15319555     
    8150.000 67.55298671      292.34337404     12.58580181      68.29420579     
    8150.500 49.20098407      533.71971570     -999.25000000    65.13627425     
    8151.000 35.80034329      1093.67671141    -999.25000000    61.67009832     
    8151.500 19.96796697      1045.69296521    -999.25000000    58.20392239     
    8152.000 20.42565520      933.88031483     -999.25000000    53.81618382     
    8152.500 32.83458338      569.46223382     -999.25000000    55.01378621     
    8153.000 45.38634436      345.87388429     -999.25000000    56.64511489     
    8153.500 80.75693804      210.37198823     -999.25000000    58.27644356     
    8154.000 108.45105853     148.45933619     -999.25000000    63.12745716     
    8154.500 112.35202256     125.37887955     -999.25000000    69.00674710     
    8155.000 113.93927521     107.76876885     -999.25000000    73.91033966     
    8155.500 115.19990284     110.80327486     -999.25000000    74.32572428     
    8156.000 113.80646503     115.47572427     -999.25000000    74.43596404     
    8156.500 111.63101540     120.89623085     -999.25000000    73.00923077     
    8157.000 108.16407762     128.42371418     -999.25000000    73.06965035     
    8157.500 107.52623819     126.03891533     -999.25000000    73.11688312     
    8158.000 110.51265123     126.10510941     -999.25000000    73.25954046     
    8158.500 115.86039156     120.79455481     -999.25000000    73.24471892     
    8159.000 119.01166392     119.23341946     -999.25000000    73.16232858     
    8159.500 126.79604628     122.25382631     -999.25000000    72.74825175     
    8160.000 128.02480437     131.29992094     12.61676647      72.22463251     
    8160.500 128.53651798     144.08712837     12.62089771      72.48686409     
    8161.000 127.57913905     155.92668404     12.62937150      72.75149754     
    8161.500 125.14239649     162.35245246     12.63615248      73.04801576     
    8162.000 127.04370960     165.20668898     12.64462433      70.90629371     
    8162.500 81.16298790      168.73319052     12.65309812      69.56543457     
    8163.000 80.12625422      170.95969058     12.66157192      68.50809191     
    8163.500 84.85149151      170.95969058     12.67004571      68.02197802     
    8164.000 88.00031178      169.38919617     12.67851950      68.86113886     
    8164.500 86.28629979      159.86760051     12.68699330      69.67872128     
    8165.000 83.24914291      153.03738309     12.69546709      70.88711289     
    8165.500 82.79196733      150.13345249     12.70394088      71.50352309     
    8166.000 85.02086711      161.67236184     12.71241468      70.99038370     
    8166.500 86.50744001      169.68286383     12.72088847      70.60153786     
    8167.000 87.79213741      179.03329443     12.72936226      71.41618382     
    8167.500 89.15031685      172.54474585     12.73783816      72.11288711     
    8168.000 92.83826358      166.29135612     12.74633321      72.96163836     
    8168.500 93.35586582      176.76559162     12.75497478      72.86609391     
    8169.000 91.47893680      185.76584500     12.75589034      72.62441558     
    8169.500 78.41856160      245.16408516     12.75515843      69.10089910     
