###############################################
##         ENVERUS                           ##
##         ESS - Open Hole                   ##
##         PERMIAN / DELAWARE                ##
##         Nov 04 2023  V4.0                 ##
##         42-371-32680-00-00                ##
###############################################
## Copyright 2017-2023  ENVERUS.  All Rights Reserved. 
## Confidential - Property of ENVERUS, use governed by terms and 
## conditions found within the existing Information Services Subscription Agreement 
## (as may be amended, the “ISSA”) between Customer and ENVERUS. 
## 
~VERSION INFORMATION
# MNEM.UNIT                               DATA : DESCRIPTION OF MNEMONIC
#-----.-----     ----------------------------- : -----------------------------
VERS.                                     2.00 : CWLS LOG ASCII STANDARD - VERSION 2.00
WRAP.                                       NO : MULTIPLE LINES PER DEPTH STEP
VEND.                                  ENVERUS : VENDOR
TYPE.                          ESS - OPEN HOLE : ENVERUS ESSENTIAL CURVES – ACCESSIBLE THROUGH ENVERUS PRISM(TM)
DOC.                                  31991434 : ENVERUS HEADER RAW DOCUMENT ID
#___________________________________________________________________________________________________ 
~WELL INFORMATION 
# uAv5E/S3ZwrMaovXfwZJbnQ+z8RwnTA5GIEFL0LfM7mdkMX/8iXP+LiYgCnT3sJm4ejuYgXNUZeSPI/Yhcow4w== 
# MNEM.UNIT                                              DATA : DESCRIPTION OF MNEMONIC 
#-----.-----                    ----------------------------- : ----------------------------- 
CNTY.                                                   PECOS : COUNTY 
STATE.                                                  TEXAS : STATE 
CNTRY.                                                    USA : COUNTRY 
API.                                             42-371-32680 : API (10 Digit) 
API_14.                                    42-371-32680-00-00 : API (14 Digits) 
API_14_std.                                 42-371-32680-0000 : API (14 Digits Standard) 
UWI.                                           42371326800000 : UNIQUE WELL ID 
WELL.                                     MARALO - STEWART  1 : WELL NAME
STRT.FT                                                  21.0 : START DEPTH
STOP.FT                                               21630.0 : STOP DEPTH
STEP.FT                                                   0.5 : STEP BETWEEN DEPTHS
NULL.                                                 -999.25 : NULL VALUE
COMP.                                            MARALO, INC. : COMPANY 
DATE.                                             11-DEC-1978 : LOG DATE
#___________________________________________________________________________________________________ 
~CURVE INFORMATION 
# MNEM.UNIT           : CURVE DESCRIPTION 
#-----.-----          : ----------------------------- 
 DEPT.FT               : MEASURED DEPTH 
 GR__D.API             : GAMMA RAY (GR) 
 DT__D.US/FT           : SONIC DELTA TRANSIT TIME (DT) 
 RESD__D.OHMM          : DEEP INDUCTION RESISTIVITY (ILD - ILD) 
 #___________________________________________________________________________________________________ 
~A         DEPT          GR__D          DT__D        RESD__D
# ...
         6291.0         48.110         61.177       -999.250
         6291.5         45.513         60.661       -999.250
         6292.0         42.915         60.216       -999.250
         6292.5         41.796         60.309       -999.250
         6293.0         50.591         63.048       -999.250
         6293.5         59.386         68.711       -999.250
         6294.0         69.780         69.516       -999.250
         6294.5        107.469         69.363       -999.250
         6295.0        107.560         67.554       -999.250
         6295.5        107.650         66.540       -999.250
         6296.0         84.460         66.843       -999.250
         6296.5         63.814         67.558       -999.250
         6297.0         43.168         68.508       -999.250
         6297.5         34.589         69.013       -999.250
         6298.0         36.127         69.104       -999.250
         6298.5         36.320         69.194       -999.250
         6299.0         35.114         70.385       -999.250
         6299.5         33.908         71.770       -999.250
         6300.0         37.249         72.930       -999.250
         6300.5         43.003         73.688       -999.250
         6301.0         40.303         74.446       -999.250
         6301.5         37.603         75.204       -999.250
         6302.0         34.903         75.963       -999.250
         6302.5         32.203         75.565       -999.250
         6303.0         29.503         74.462       -999.250
         6303.5         26.803         74.392       -999.250
         6304.0         24.429         75.506       -999.250
         6304.5         27.284         76.779       -999.250
         6305.0         30.139         78.240       -999.250
         6305.5         32.994         78.996       -999.250
         6306.0         35.691         78.915       -999.250
         6306.5         34.026         78.871       -999.250
         6307.0         32.360         79.099       -999.250
         6307.5         30.694         79.384       -999.250
         6308.0         29.286         79.865       -999.250
         6308.5         31.500         79.716       -999.250
         6309.0         33.715         79.196       -999.250
         6309.5         35.863         78.675       -999.250
         6310.0         34.422         78.242       -999.250
         6310.5         32.982         78.461       -999.250
         6311.0         31.541         79.232       -999.250
         6311.5         32.840         80.117       -999.250
         6312.0         36.763         81.020       -999.250
         6312.5         33.561         81.473       -999.250
         6313.0         30.359         80.712       -999.250
         6313.5         27.157         79.952       -999.250
         6314.0         23.955         79.192       -999.250
         6314.5         25.966         79.145       -999.250
         6315.0         30.355         79.233       -999.250
         6315.5         34.743         79.635       -999.250
         6316.0         37.055         80.037       -999.250
         6316.5         36.424         80.003       -999.250
         6317.0         35.793         79.881       -999.250
         6317.5         34.852         79.759       -999.250
         6318.0         32.827         79.637       -999.250
         6318.5         30.802         79.234       -999.250
         6319.0         28.778         78.814       -999.250
         6319.5         29.529         78.394       -999.250
         6320.0         30.406         78.246       -999.250
         6320.5         31.282         78.138       -999.250
         6321.0         29.111         77.744       -999.250
         6321.5         26.399         76.339       -999.250
         6322.0         28.298         74.992       -999.250
         6322.5         30.197         74.801       -999.250
         6323.0         28.803         74.802       -999.250
         6323.5         27.285         76.247       -999.250
         6324.0         25.767         78.265       -999.250
         6324.5         25.467         79.032       -999.250
         6325.0         27.272         78.795       -999.250
         6325.5         29.077         78.641       -999.250
         6326.0         30.882         79.050       -999.250
         6326.5         32.687         79.459       -999.250
         6327.0         32.311         80.067       -999.250
         6327.5         30.445         80.104       -999.250
         6328.0         28.578         79.426       -999.250
         6328.5         26.711         78.980       -999.250
         6329.0         27.412         78.848       -999.250
         6329.5         28.177         78.910       -999.250
         6330.0         28.941         79.791       -999.250
         6330.5         29.706         80.804       -999.250
         6331.0         32.404         80.564       -999.250
         6331.5         33.521         78.964       -999.250
         6332.0         30.845         76.996       -999.250
         6332.5         28.170         75.426       -999.250
         6333.0         25.494         74.205       -999.250
         6333.5         23.653         74.176       -999.250
         6334.0         29.976         74.939       -999.250
         6334.5         36.298         75.468       -999.250
         6335.0         38.509         75.384       -999.250
         6335.5         37.331         75.301       -999.250
         6336.0         36.154         75.218       -999.250
         6336.5         34.977         75.418       -999.250
         6337.0         33.800         75.668       -999.250
         6337.5         29.606         75.812       -999.250
         6338.0         22.864         75.398       -999.250
         6338.5         24.213         74.983       -999.250
         6339.0         25.855         74.923       -999.250
         6339.5         27.498         75.998       -999.250
         6340.0         28.819         77.777       -999.250
         6340.5         28.897         79.279       -999.250
         6341.0         28.975         79.877       -999.250
         6341.5         29.053         80.266       -999.250
         6342.0         29.130         80.419       -999.250
         6342.5         29.208         80.354       -999.250
         6343.0         29.286         79.683       -999.250
         6343.5         29.364         78.974       -999.250
         6344.0         29.442         78.392       -999.250
         6344.5         29.567         78.316       -999.250
         6345.0         30.148         78.291       -999.250
         6345.5         30.729         78.506       -999.250
         6346.0         31.311         78.112       -999.250
         6346.5         31.892         77.672       -999.250
         6347.0         32.474         77.287       -999.250
         6347.5         33.055         77.012       -999.250
         6348.0         33.636         77.340       -999.250
         6348.5         34.218         77.707       -999.250
         6349.0         34.799         78.051       -999.250
         6349.5         36.527         78.234       -999.250
         6350.0         38.718         78.037       -999.250
         6350.5         37.984         77.870       -999.250
         6351.0         35.876         77.938       -999.250
         6351.5         33.767         78.007       -999.250
         6352.0         31.658         77.928       -999.250
         6352.5         29.550         77.492       -999.250
         6353.0         27.441         77.056       -999.250
         6353.5         25.771         75.314       -999.250
         6354.0         26.872         74.858       -999.250
         6354.5         27.973         75.210       -999.250
         6355.0         29.074         75.834       -999.250
         6355.5         30.174         75.992       -999.250
         6356.0         30.815         74.998       -999.250
         6356.5         30.434         73.304       -999.250
