#--------------------------------------------------#
#-------------------ENVERUS, INC.------------------#
#------------------WWW.ENVERUS.COM-----------------#
#------------------COPYRIGHT 2020------------------#
#--------------------------------------------------#
#THIS FILE MAY BE USED ONLY IN ACCORDANCE WITH A CURRENT SUBSCRIPTION AGREEMENT BETWEEN
#THE USER AND ENVERUS, INC. NO PART OF THIS FILE MAY BE REPRODUCED, USED, COPIED,
#MODIFIED, PROPAGATED, OR DISTRIBUTED EXCEPT IN ACCORDANCE WITH THE SUBSCRIPTION
#AGREEMENT. UNAUTHORIZED USE OR DISTRIBUTION OF ALL OR ANY PART OF THIS FILE MAY VIOLATE
#COPYRIGHT, TRADEMARK, AND/OR OTHER LAWS AND IS SUBJECT TO CIVIL AS WELL AS CRIMINAL
#SANCTIONS.
#--------------------------------------------------#
#THIS FILE IS PROVIDED "AS-IS" AND ALL WARRANTIES ARE EXPRESSLY DISCLAIMED, WHETHER
#EXPRESS, ORAL, IMPLIED, STATUTORY OR OTHERWISE, INCLUDING ANY IMPLIED WARRANTY OF FITNESS
#FOR A PARTICULAR PURPOSE, MERCHANTABILITY, TITLE OR NON-INFRINGEMENT, AND ANY WARRANTIES
#ARISING BY VIRTUE OF CUSTOM OF TRADE OR COURSE OF DEALING.  FURTHER, ENVERUS, INC.
#AND ITS LICENSORS DO NOT REPRESENT OR WARRANT THAT THIS FILE WILL MEET USER'S
#REQUIREMENTS OR ARE SUITABLE FOR USER'S NEEDS OR THAT THE DATA OR RESULTS PROVIDED IN
#CONJUNCTION THEREWITH ARE CORRECT, ACCURATE, TIMELY OR RELIABLE. THESE DISCLAIMERS SHALL
#APPLY REGARDLESS OF ANY FAILURE OF ESSENTIAL PURPOSE OF ANY LIMITED REMEDY.  SOME
#JURISDICTIONS DO NOT ALLOW THE EXCLUSION OF CERTAIN WARRANTIES SO SOME OF THE ABOVE
#EXCLUSIONS MAY NOT APPLY. IN NO EVENT SHALL ENVERUS, INC. OR ANY OF ITS AFFILIATES
#BE LIABLE UNDER ANY LEGAL THEORY, WHETHER IN TORT (INCLUDING WITHOUT LIMITATION
#NEGLIGENCE), CONTRACT, STRICT LIABILITY, STATUTORY OR OTHERWISE, FOR ANY SPECIAL,
#INCIDENTAL, CONSEQUENTIAL, EXEMPLARY, PUNITIVE OR INDIRECT DAMAGE OF ANY KIND, INCLUDING
#WITHOUT LIMITATION LOSS OF REVENUE, PROFITS, GOODWILL, USE, AND/OR DATA OR THE COST OF
#PROCUREMENT OF SUBSTITUTE GOODS OR SERVICES, EVEN IF APPRISED OF THE POSSIBILITY OF SUCH
#DAMAGES IN ADVANCE.
#--------------------------------------------------#

~VERSION INFORMATION
VERS. 2.0 : CWLS LOG ASCII STANDARD - VERSION 2.0
WRAP. NO : ONE LINE PER DEPTH STEP
~WELL INFORMATION
#MNEMONIC     .UNIT              VALUE :DESCRIPTION
STRT       .FT                38.00000 :START DEPTH
STOP       .FT                20083.00000 :STOP DEPTH
STEP       .FT                0.50000 :STEP
NULL       .                -999.25000 :NULL VALUE
UWI       .                42389302750000 :UNIQUE WELL ID
API       .                42389302750000 :API NUMBER
COMP       .                 :COMPANY
WELL       .                 :WELL
FLD       .                 :FIELD
LOC       .                 :LOCATION
CNTY       .                 :COUNTY
STAT       .                 :STATE
CTRY       .                 :COUNTRY
SRVC       .                 :SERVICE COMPANY
DATE       .                 :DATE
~CURVE INFORMATION
#MNEMONIC     .UNIT      API CODE :CURVE DESCRIPTION
DEPTH       .FT                      :MEASURED DEPTH
CAL       .IN        UNKNOWN   :CAL
DT       .US/FT        UNKNOWN   :DT
GR       .GAPI        UNKNOWN   :GR
~A    DEPTH    CAL    DT    GR
# ...
12202.50000    12.62740    76.70476    81.43415
12203.00000    12.57450    73.81015    79.74123
12203.50000    12.52160    70.91553    74.52273
12204.00000    12.46870    68.02092    67.93135
12204.50000    12.41579    77.40841    61.33997
12205.00000    12.36109    79.78187    54.74859
12205.50000    12.30468    82.15533    48.15720
12206.00000    12.24828    84.52879    50.94750
12206.50000    12.28325    86.90225    59.25256
12207.00000    12.40481    87.31783    67.55762
12207.50000    12.52637    84.03047    75.86269
12208.00000    12.64793    80.74311    82.63306
12208.50000    12.76948    77.45574    85.80011
12209.00000    12.80812    74.16838    85.26712
12209.50000    12.66291    70.88102    80.06130
12210.00000    12.51770    67.59365    74.85548
12210.50000    12.37249    67.72097    69.64965
12211.00000    12.49284    72.81829    64.44383
12211.50000    12.76340    77.91561    59.23801
12212.00000    12.84144    83.01293    54.03219
12212.50000    12.62306    88.11025    58.99683
12213.00000    12.40467    90.40098    63.98850
12213.50000    12.26931    89.22111    68.98016
12214.00000    12.34277    88.04123    73.97182
12214.50000    12.41623    86.86136    78.96348
12215.00000    12.48969    85.68148    83.66042
12215.50000    12.56315    84.50161    85.91664
12216.00000    12.63661    83.32174    88.17286
12216.50000    12.71007    82.14186    90.42908
12217.00000    12.78352    80.93561    92.68530
12217.50000    12.85698    79.72567    91.97614
12218.00000    12.93044    78.51572    89.75641
12218.50000    13.00390    77.30578    87.53668
12219.00000    13.07736    76.09583    85.31695
12219.50000    13.14940    74.88589    79.96136
12220.00000    13.14963    75.50289    67.27654
12220.50000    13.14985    78.06778    55.96111
12221.00000    13.15007    80.63267    58.30191
12221.50000    13.15030    83.19756    60.64271
12222.00000    13.15052    85.76245    62.98350
12222.50000    13.15074    88.32734    65.32430
12223.00000    13.15097    87.75541    61.82090
12223.50000    13.15119    83.81927    55.28674
12224.00000    13.15141    80.49490    76.38553
12224.50000    13.15164    81.18505    77.30204
12225.00000    13.14913    81.87519    78.21855
12225.50000    13.14643    82.56534    78.01188
12226.00000    13.14373    79.75830    77.09186
12226.50000    13.14104    75.18838    76.17184
12227.00000    13.13834    70.61845    75.25182
12227.50000    13.13564    66.04852    74.33180
12228.00000    13.13295    66.28607    69.38821
12228.50000    13.13025    69.74556    62.92270
12229.00000    13.08270    73.20506    56.45718
12229.50000    13.00811    76.66455    49.99167
12230.00000    12.93352    80.12404    50.38847
12230.50000    12.85893    80.83547    57.65850
12231.00000    12.78434    80.77367    64.92853
12231.50000    12.70975    80.71186    70.06216
12232.00000    12.63516    80.65006    64.72431
12232.50000    12.56057    80.58825    63.92929
12233.00000    12.49749    80.40593    66.85773
12233.50000    12.48345    79.67726    69.78617
12234.00000    12.46942    78.94648    72.71461
12234.50000    12.45538    78.21570    75.64306
12235.00000    12.44135    77.48493    78.57150
12235.50000    12.42731    76.75415    81.49994
12236.00000    12.41327    76.02337    80.59474
12236.50000    12.39924    75.87837    78.04337
12237.00000    12.38520    76.86358    75.49200
12237.50000    12.37116    77.84879    72.94062
12238.00000    12.35713    78.83400    70.38925
12238.50000    12.34309    79.81921    67.83788
12239.00000    12.32925    80.80442    65.28651
12239.50000    12.31588    81.78963    62.73514
12240.00000    12.30252    82.77484    60.18377
12240.50000    12.28915    83.76005    57.63239
12241.00000    12.27579    84.55480    60.26998
12241.50000    12.26242    79.46515    70.77733
12242.00000    12.29840    74.37549    81.28469
12242.50000    12.33757    72.14061    79.41103
12243.00000    12.37673    73.68438    75.00177
12243.50000    12.41590    75.22815    70.59249
12244.00000    12.45506    76.77192    66.18322
12244.50000    12.49423    78.31569    61.77395
12245.00000    12.53340    79.85946    57.36468
12245.50000    12.57256    79.58263    52.95541
12246.00000    12.61173    75.67578    48.54614
12246.50000    12.65089    71.76894    54.33023
12247.00000    12.63186    68.27966    60.25249
12247.50000    12.50271    73.12445    66.17475
12248.00000    12.37356    77.96923    66.54642
12248.50000    12.35859    82.81402    62.21353
12249.00000    12.35512    85.40042    57.88064
12249.50000    12.35164    83.97984    53.54774
12250.00000    12.34816    82.55926    54.88039
12250.50000    12.34468    81.13869    59.53939
12251.00000    12.34120    79.71811    62.49367
12251.50000    12.33773    78.29753    60.46138
12252.00000    12.33425    76.87696    58.42908
12252.50000    12.33077    75.45638    58.46760
12253.00000    12.32729    74.03580    62.15510
12253.50000    12.32381    73.85091    65.84260
12254.00000    12.32034    77.05751    69.53010
12254.50000    12.31686    78.77349    69.36025
12255.00000    12.46004    78.02439    67.57131
12255.50000    12.59441    77.27529    65.78236
12256.00000    12.49059    76.52619    63.99342
12256.50000    12.38678    75.77709    62.20447
12257.00000    12.30647    75.02799    58.13687
12257.50000    12.44101    74.27889    52.98844
12258.00000    12.57555    75.04237    47.84000
12258.50000    12.71009    77.78559    42.69156
12259.00000    12.84463    77.33563    41.44371
12259.50000    12.97917    76.88567    42.31591
12260.00000    12.92207    76.43571    43.18811
12260.50000    12.46430    77.79392    44.06031
12261.00000    12.44421    79.19301    44.93251
12261.50000    12.42412    80.59209    45.80471
12262.00000    12.40403    81.16457    46.67691
12262.50000    12.45610    78.73268    47.54911
12263.00000    12.60000    76.30078    46.98797
12263.50000    12.74389    73.86889    45.86388
12264.00000    12.88778    71.43699    44.73979
12264.50000    13.03168    69.00509    43.61570
12265.00000    13.17557    66.57320    42.49161
12265.50000    13.31947    68.05437    43.30154
12266.00000    13.18638    69.72810    44.60627
12266.50000    12.79696    71.40183    45.91101
12267.00000    12.59295    73.07556    47.21574
12267.50000    12.51771    74.74929    48.52047
12268.00000    12.44247    76.42302    49.82520
12268.50000    12.36724    78.09675    51.12993
12269.00000    12.29200    79.39674    52.43466
12269.50000    12.27370    79.06621    53.14716
12270.00000    12.27231    78.73567    52.56953
12270.50000    12.27092    78.40514    51.99191
12271.00000    12.26952    78.07460    51.41429
12271.50000    -999.25000    77.74407    50.83667
12272.00000    -999.25000    77.41353    50.25904
12272.50000    -999.25000    79.20462    49.68142
12273.00000    -999.25000    74.14260    49.10380
12273.50000    -999.25000    69.08059    48.52618
12274.00000    -999.25000    70.57694    48.63572
12274.50000    -999.25000    72.73801    50.11568
12275.00000    -999.25000    74.89907    51.59563
12275.50000    -999.25000    77.06014    53.07558
12276.00000    -999.25000    79.25111    54.55554
12276.50000    -999.25000    81.45077    56.03549
12277.00000    -999.25000    81.15375    54.53656
12277.50000    -999.25000    74.22585    56.71111
12278.00000    -999.25000    67.29795    58.88567
12278.50000    -999.25000    60.37005    61.06022
12279.00000    -999.25000    57.33743    63.23478
12279.50000    -999.25000    59.02036    62.25614
12280.00000    -999.25000    60.70328    61.08920
12280.50000    -999.25000    62.38621    59.92226
12281.00000    -999.25000    65.00439    58.75532
12281.50000    -999.25000    68.33713    57.58838
12282.00000    -999.25000    71.66986    57.04776
12282.50000    -999.25000    75.39768    57.88452
12283.00000    -999.25000    79.34025    58.72128
12283.50000    -999.25000    83.28281    59.57730
12284.00000    -999.25000    87.22538    64.03818
12284.50000    -999.25000    91.16794    68.49906
12285.00000    -999.25000    95.11051    72.95994
