#--------------------------------------------------#
#-------------------ENVERUS, INC.------------------#
#------------------WWW.ENVERUS.COM-----------------#
#------------------COPYRIGHT 2020------------------#
#--------------------------------------------------#
#THIS FILE MAY BE USED ONLY IN ACCORDANCE WITH A CURRENT SUBSCRIPTION AGREEMENT BETWEEN
#THE USER AND ENVERUS, INC. NO PART OF THIS FILE MAY BE REPRODUCED, USED, COPIED,
#MODIFIED, PROPAGATED, OR DISTRIBUTED EXCEPT IN ACCORDANCE WITH THE SUBSCRIPTION
#AGREEMENT. UNAUTHORIZED USE OR DISTRIBUTION OF ALL OR ANY PART OF THIS FILE MAY VIOLATE
#COPYRIGHT, TRADEMARK, AND/OR OTHER LAWS AND IS SUBJECT TO CIVIL AS WELL AS CRIMINAL
#SANCTIONS.
#--------------------------------------------------#
#THIS FILE IS PROVIDED "AS-IS" AND ALL WARRANTIES ARE EXPRESSLY DISCLAIMED, WHETHER
#EXPRESS, ORAL, IMPLIED, STATUTORY OR OTHERWISE, INCLUDING ANY IMPLIED WARRANTY OF FITNESS
#FOR A PARTICULAR PURPOSE, MERCHANTABILITY, TITLE OR NON-INFRINGEMENT, AND ANY WARRANTIES
#ARISING BY VIRTUE OF CUSTOM OF TRADE OR COURSE OF DEALING.  FURTHER, ENVERUS, INC.
#AND ITS LICENSORS DO NOT REPRESENT OR WARRANT THAT THIS FILE WILL MEET USER'S
#REQUIREMENTS OR ARE SUITABLE FOR USER'S NEEDS OR THAT THE DATA OR RESULTS PROVIDED IN
#CONJUNCTION THEREWITH ARE CORRECT, ACCURATE, TIMELY OR RELIABLE. THESE DISCLAIMERS SHALL
#APPLY REGARDLESS OF ANY FAILURE OF ESSENTIAL PURPOSE OF ANY LIMITED REMEDY.  SOME
#JURISDICTIONS DO NOT ALLOW THE EXCLUSION OF CERTAIN WARRANTIES SO SOME OF THE ABOVE
#EXCLUSIONS MAY NOT APPLY. IN NO EVENT SHALL ENVERUS, INC. OR ANY OF ITS AFFILIATES
#BE LIABLE UNDER ANY LEGAL THEORY, WHETHER IN TORT (INCLUDING WITHOUT LIMITATION
#NEGLIGENCE), CONTRACT, STRICT LIABILITY, STATUTORY OR OTHERWISE, FOR ANY SPECIAL,
#INCIDENTAL, CONSEQUENTIAL, EXEMPLARY, PUNITIVE OR INDIRECT DAMAGE OF ANY KIND, INCLUDING
#WITHOUT LIMITATION LOSS OF REVENUE, PROFITS, GOODWILL, USE, AND/OR DATA OR THE COST OF
#PROCUREMENT OF SUBSTITUTE GOODS OR SERVICES, EVEN IF APPRISED OF THE POSSIBILITY OF SUCH
#DAMAGES IN ADVANCE.
#--------------------------------------------------#

~VERSION INFORMATION
VERS. 2.0 : CWLS LOG ASCII STANDARD - VERSION 2.0
WRAP. NO : ONE LINE PER DEPTH STEP
~WELL INFORMATION
#MNEMONIC     .UNIT              VALUE :DESCRIPTION
STRT       .FT                38.00000 :START DEPTH
STOP       .FT                20083.00000 :STOP DEPTH
STEP       .FT                0.50000 :STEP
NULL       .                -999.25000 :NULL VALUE
UWI       .                42389302750000 :UNIQUE WELL ID
API       .                42389302750000 :API NUMBER
COMP       .                 :COMPANY
WELL       .                 :WELL
FLD       .                 :FIELD
LOC       .                 :LOCATION
CNTY       .                 :COUNTY
STAT       .                 :STATE
CTRY       .                 :COUNTRY
SRVC       .                 :SERVICE COMPANY
DATE       .                 :DATE
~CURVE INFORMATION
#MNEMONIC     .UNIT      API CODE :CURVE DESCRIPTION
DEPTH       .FT                      :MEASURED DEPTH
CAL       .IN        UNKNOWN   :CAL
DT       .US/FT        UNKNOWN   :DT
GR       .GAPI        UNKNOWN   :GR
~A    DEPTH    CAL    DT    GR
# ...
13085.50000    -999.25000    82.91571    73.06517
13086.00000    -999.25000    81.20306    74.29637
13086.50000    -999.25000    79.49040    75.52758
13087.00000    -999.25000    77.77775    76.75878
13087.50000    -999.25000    78.94956    76.75338
13088.00000    -999.25000    81.05181    75.58763
13088.50000    -999.25000    80.41658    74.42188
13089.00000    -999.25000    78.67508    73.25613
13089.50000    -999.25000    78.94736    74.64837
13090.00000    -999.25000    80.07703    76.13816
13090.50000    -999.25000    81.20670    77.62795
13091.00000    -999.25000    80.98480    77.15925
13091.50000    -999.25000    79.18589    75.92061
13092.00000    -999.25000    77.38698    74.68197
13092.50000    -999.25000    75.58807    73.44333
13093.00000    -999.25000    73.78915    72.20468
13093.50000    -999.25000    71.99024    70.96604
13094.00000    -999.25000    70.19133    70.01138
13094.50000    -999.25000    71.45182    69.69002
13095.00000    -999.25000    76.14952    69.36867
13095.50000    -999.25000    80.84721    69.04732
13096.00000    -999.25000    84.33539    68.72597
13096.50000    -999.25000    81.00637    68.40462
13097.00000    -999.25000    77.67735    68.08326
13097.50000    -999.25000    74.34833    67.76191
13098.00000    -999.25000    71.01931    67.44056
13098.50000    -999.25000    69.72769    67.11921
13099.00000    -999.25000    79.62236    75.10794
13099.50000    -999.25000    86.38896    71.94637
13100.00000    -999.25000    84.06281    68.78480
13100.50000    -999.25000    81.73666    65.20878
13101.00000    -999.25000    79.41051    63.09584
13101.50000    -999.25000    77.08437    65.40088
13102.00000    -999.25000    74.75822    67.70593
13102.50000    -999.25000    72.43207    70.01098
13103.00000    -999.25000    71.23513    72.31602
13103.50000    -999.25000    73.35825    74.62107
13104.00000    -999.25000    74.28204    74.61007
13104.50000    -999.25000    75.20583    73.63189
13105.00000    -999.25000    82.96634    72.65371
13105.50000    -999.25000    82.62203    71.67553
13106.00000    -999.25000    77.51009    71.57793
13106.50000    -999.25000    73.95583    72.46459
13107.00000    -999.25000    75.86680    73.35125
13107.50000    -999.25000    77.77777    74.23792
13108.00000    -999.25000    79.68873    75.12458
13108.50000    -999.25000    79.98973    76.01124
13109.00000    -999.25000    77.28834    76.89791
13109.50000    -999.25000    75.18605    76.53422
13110.00000    -999.25000    77.93459    75.94837
13110.50000    -999.25000    80.68312    75.36252
13111.00000    -999.25000    83.43166    74.77666
13111.50000    -999.25000    84.54009    74.19081
13112.00000    -999.25000    83.50058    73.60496
13112.50000    -999.25000    82.46108    73.01911
13113.00000    -999.25000    81.42158    72.17911
13113.50000    -999.25000    80.38207    70.28535
13114.00000    -999.25000    79.30071    68.39159
13114.50000    -999.25000    78.21899    66.49783
13115.00000    -999.25000    77.13728    64.60407
13115.50000    -999.25000    76.05556    62.71031
13116.00000    -999.25000    76.93181    60.81655
13116.50000    -999.25000    79.24627    58.92279
13117.00000    -999.25000    81.56074    57.02903
13117.50000    -999.25000    83.87520    56.57979
13118.00000    -999.25000    84.32638    57.92353
13118.50000    -999.25000    84.85561    59.26726
13119.00000    -999.25000    79.71792    60.61099
13119.50000    -999.25000    74.58023    61.95472
13120.00000    -999.25000    69.44254    63.29846
13120.50000    -999.25000    66.23950    64.64219
13121.00000    -999.25000    70.81516    65.98592
13121.50000    -999.25000    75.39082    67.32965
13122.00000    -999.25000    79.96647    69.68669
13122.50000    -999.25000    84.54213    72.08147
13123.00000    -999.25000    89.11778    74.47626
13123.50000    -999.25000    86.16312    76.87105
13124.00000    -999.25000    83.59738    79.26583
13124.50000    -999.25000    83.15174    75.34044
13125.00000    -999.25000    82.70610    72.74810
13125.50000    -999.25000    77.45709    74.49119
13126.00000    -999.25000    76.67907    76.23428
13126.50000    -999.25000    77.02310    75.04194
13127.00000    -999.25000    77.36712    72.76540
13127.50000    -999.25000    77.71115    70.48885
13128.00000    -999.25000    78.05518    68.21230
13128.50000    -999.25000    78.21177    65.93576
13129.00000    -999.25000    77.91939    63.65921
13129.50000    -999.25000    77.62702    64.72562
13130.00000    -999.25000    77.33464    66.53846
13130.50000    -999.25000    77.04227    68.35130
13131.00000    -999.25000    78.97740    70.16414
13131.50000    -999.25000    81.06520    71.97698
13132.00000    -999.25000    83.15300    73.11342
13132.50000    -999.25000    85.24079    73.92285
13133.00000    -999.25000    87.32859    74.73228
13133.50000    -999.25000    86.96817    75.54171
13134.00000    -999.25000    86.34932    76.35115
13134.50000    -999.25000    85.73047    77.16057
13135.00000    -999.25000    85.11162    75.75193
13135.50000    -999.25000    84.49277    73.38271
13136.00000    -999.25000    83.87391    71.01350
13136.50000    -999.25000    85.10063    68.64428
13137.00000    -999.25000    84.70701    66.27506
13137.50000    -999.25000    81.02916    63.90585
13138.00000    -999.25000    77.35131    61.53663
13138.50000    -999.25000    73.67346    59.16742
13139.00000    -999.25000    69.99561    60.87313
13139.50000    -999.25000    82.68058    66.05618
13140.00000    -999.25000    83.99911    71.23923
13140.50000    -999.25000    82.86886    76.42228
13141.00000    -999.25000    81.73861    78.27817
13141.50000    -999.25000    82.27856    76.47275
13142.00000    -999.25000    82.98716    74.66732
13142.50000    -999.25000    83.69577    72.86189
13143.00000    -999.25000    84.12291    75.97667
13143.50000    -999.25000    83.44451    79.73585
13144.00000    -999.25000    82.76611    77.49226
13144.50000    -999.25000    82.08771    75.24868
13145.00000    -999.25000    81.34313    73.00509
13145.50000    -999.25000    79.97075    70.76151
13146.00000    -999.25000    78.59838    68.51792
13146.50000    -999.25000    77.22601    66.27433
13147.00000    -999.25000    75.85364    64.03075
13147.50000    -999.25000    74.48126    64.98847
13148.00000    -999.25000    73.10889    67.60580
13148.50000    -999.25000    86.91154    70.22313
13149.00000    -999.25000    87.47147    72.84047
13149.50000    -999.25000    85.02193    75.45780
13150.00000    -999.25000    82.57240    74.17418
13150.50000    -999.25000    81.80913    70.74500
13151.00000    -999.25000    82.09876    69.24196
13151.50000    -999.25000    82.38840    71.65080
13152.00000    -999.25000    80.17054    74.05964
13152.50000    -999.25000    77.57727    75.68826
13153.00000    -999.25000    74.98401    73.66884
13153.50000    -999.25000    73.30202    71.64942
13154.00000    -999.25000    74.90896    69.63001
13154.50000    -999.25000    76.51590    67.61059
13155.00000    -999.25000    78.12283    65.76795
13155.50000    -999.25000    79.72977    67.32844
13156.00000    -999.25000    79.25172    68.88893
13156.50000    -999.25000    78.11383    70.44942
13157.00000    -999.25000    76.97594    72.00990
13157.50000    -999.25000    75.83806    73.57039
13158.00000    -999.25000    79.90688    75.13088
13158.50000    -999.25000    84.48045    76.69137
13159.00000    -999.25000    87.89938    78.25186
13159.50000    -999.25000    87.08515    79.81235
13160.00000    -999.25000    86.27092    73.05541
13160.50000    -999.25000    85.45669    68.34921
13161.00000    -999.25000    84.64247    73.21225
13161.50000    -999.25000    84.04743    78.07528
13162.00000    -999.25000    83.60804    75.05012
13162.50000    -999.25000    80.25178    70.60778
13163.00000    -999.25000    76.89552    66.16543
13163.50000    -999.25000    73.53926    61.72308
13164.00000    -999.25000    70.66478    57.52865
13164.50000    -999.25000    74.72504    61.16314
13165.00000    -999.25000    78.78530    64.79763
