~VERSION INFORMATION
VERS.           1.2   :CWLS Log ASCII Standard - VERSION 1.2
WRAP.           NO    :One Line per depth step
PROD.  Schlumberger   :LAS Producer
PROG.  DLIS to ASCII 17C0-152                          :LAS Program name and version
CREA.        2014/05/28 16:07                          :LAS Creation date {YYYY/MM/DD hh:mm}
DLIS_CREA.  2014-May-27 22:17                          :DLIS Creation date and time {YYYY-MMM-DD hh:mm}
SOURCE.     db5fefe1-f67d-4e3f-8816-ab53d5f8be46       :DLIS File Name
#--------------------------------------------------
~WELL INFORMATION
#MNEM.UNIT      DATA             DESCRIPTION
#---- ------ --------------   -----------------------------
# Enverus has updated the API/UWI.  The previous names are renamed to  PREV_API / PREV_UWI
API.  API (14 Digits with Dashes) : 42-389-34023-90-00
UWI.              UNIQUE WELL ID : 42389340239000

STRT .F      9586.5000       :START DEPTH     
STOP .F      10811.5000      :STOP DEPTH     
STEP .F       0.5000         :STEP       
NULL .          -999.25      :NULL VALUE
COMP .                 COMPANY:  J. Cleo Thompson                   
WELL .                    WELL:  Okapi State Unit B35 #2H           
FLD  .                   FIELD:  Wolfbone (Trend Area)              
LOC  .                LOCATION:  260' FNL & 500' FEL                
CNTY .                  COUNTY:  Reeves                             
STAT .                   STATE:  Texas                              
CTRY .                 COUNTRY:                                     
SRVC .         SERVICE COMPANY:  Schlumberger                       
LATI .DEG             LATITUDE:  31.112200 degrees                  
LONG .DEG            LONGITUDE:  -103.28900 degrees                 
PREV_API  .              API NUMBER:  42-389-34023                       
DATE .                LOG DATE:  27-May-2014
PREV_UWI  .          UNIQUE WELL ID:                                     
#-----------------------------------------------------------------------------
~PARAMETER INFORMATION
#MNEM.UNIT    VALUE                      DESCRIPTION
#---- -----   --------------------       ------------------------
CN   .        J. Cleo Thompson           :Company Name
WN   .        Okapi State Unit B35 #2H   :Well Name
FN   .        Wolfbone (Trend Area)      :Field Name
FL   .        260' FNL & 500' FEL        :Field Location
FL1  .        Section  35  Block  50 T8S  Abstract 4369 :Field Location, Line 1
COUN .        Reeves                     :County or Parish
STAT .        Texas                      :State or Province
NATI .                                   :Nation
DATE .        27-May-2014                :Tools Above Rotary Table Date
APIN .        42-389-34023               :API Well Number
SECT .        35                         :Section
TOWN .        50 T8S                     :Township
RANG .        4369                       :Range
DMF  .        KB                         :Drilling Measured From (Name of Drilling Elevation Reference)
LMF  .        KB                         :Logging Measured From (Name of Logging Elevation Reference)
PDAT .        GL                         :Permanent Datum
ENGI .        AJ Massis                  :Engineer s Name
WITN .        Bennie McNett              :Witness s Name
LATI .        31.112200 degrees          :Latitude
LONG .        -103.28900 degrees         :Longitude
LUL  .        Midland                    :Logging Unit Location
LUN  .        9105                       :Logging Unit Number
RUN  .        1B                         :Run Number
SON  .                                   :Service Order Number
BHT  .DEGF     162.00000                 :Bottom Hole Temperature
BS   .IN         8.50000                 :Bit Size
MDEN .G/C3       2.71000                 :Matrix Density for Density Porosity
DFD  .LB/G      10.70000                 :Drilling Fluid Density
DFV  .S         46.00000                 :Drilling Fluid Viscosity
DFL  .C3        10.00000                 :Drilling Fluid Loss
RMFS .OHMM       0.30000                 :Resistivity of Mud Filtrate Sample
EKB  .F       2829.00000                 :Elevation of Kelly Bushing
EGL  .F       2807.00000                 :Elevation of Ground Level
BLI  .F       11012.00000                :Bottom Log Interval
BSAL .PPM     132000.00000               :Borehole Salinity
FLEV .F          8.00000                 :Depth of Drilling Fluid Level to LMF (Log Measured From)
MCST .DEGF      68.00000                 :Mudcake Sample Temperature
MFST .DEGF      80.20000                 :Mud Filtrate Sample Temperature
MRT  .DEGF     162.00000                 :Maximum Recorded Temperature
MST  .DEGF      80.20000                 :Mud Sample Temperature
RMCS .OHMM    -999.25000                 :Resistivity of Mud Cake Sample
RMS  .OHMM       0.30000                 :Resistivity of Mud Sample
RW   .OHMM       1.00000                 :Connate Water Resistivity
TDD  .F       11012.00000                :Driller Total Depth
TDL  .F       11012.00000                :Logger Total Depth
TLI  .F       9676.00000                 :Top Log Interval
HIDE .        Wolfbone (Trend Area)      :Header Identifier
MATR .        LIME                       :Rock Matrix for Neutron Porosity Corrections
FNUM .           1.00000                 :F-Numerator for Formation Factor Formula
FEXP .           2.00000                 :Exponent "m" for Formation Factor Formula
DFT  .        Salt Brine                 :Drilling Fluid Type
DFPH .           9.00000                 :Drilling Fluid pH
MCSS .                                   :Mudcake Sample Source
MFSS .                                   :Mud Filtrate Sample Source
FD   .G/C3       1.10000                 :Fluid Density
MSS  .        Active Tank                :Mud Sample Source
OS1  .                                   :Other Services Line 1
OS2  .                                   :Other Services Line 2
OS3  .                                   :Other Services Line 3
OS4  .                                   :Other Services Line 4
OS5  .                                   :Other Services Line 5
R1   .        Tools run as per toolsketch :Remarks Line 1
R2   .        Logs performed on a Limestone matrix (2.71

g/cc  47.6 us/ft ). Mud Properties  MW =

10.7 g/cc  FD = 1.1 g/cc. :Remarks Line 2
R3   .        Max recorded temperature from downhole

thermometer = 162 degF. :Remarks Line 3
R4   .        Logs run from TD to casing. GR & Neutron

logged from casing to 200ft as per client

request. :Remarks Line 4
R5   .        Tools got stuck near TD and calipers had to be closed in order to get free. :Remarks Line 5
R6   .        Well was washed out for many intervals. :Remarks Line 6
R7   .        Repeat done at casing due to getting stuck at TD :Remarks Line 7
R8   .                                   :Remarks Line 8
TCS  .        18 00 00                   :Time Circulation Stopped
TLAB .        16 19 01                   :Time Logger At Bottom
EPD  .C3         2807.000000             :Elevation of Permanent Datum above Mean Sea Level
APD  .F          22.000000               :Elevation of Depth Reference (LMF) above Permanent Datum
#-----------------------------------------------------------------------------
~CURVE INFORMATION
#MNEM.UNIT   API CODE                                  DESCRIPTION
#---- -----  --------                                  -----------------------
DEPT .F                                                :DEPTH (BOREHOLE) {F12.4}
CDF  .LBF                                              :Calibrated Downhole Force {F11.4}
CTEM .DEGF                                             :Cartridge Temperature {F11.4}
DCAL .IN                                               :Differential Caliper {F11.4}
DTCO .US/F                                             :Delta-T Compressional {F11.4}
DTSM .US/F                                             :Delta-T Shear {F11.4}
ED   .F                                                :East Departure {F11.4}
GR_EDTC.GAPI                                           :Gamma Ray {F11.4}
GTEM .DEGF                                             :Generalized Borehole Temperature {F11.4}
HAZI .DEG                                              :Hole Azimuth Relative to True North {F11.4}
HAZIM.DEG                                              :Memorized Hole Azimuth {F11.4}
ITT  .S                                                :Integrated Transit Time {F11.4}
ND   .F                                                :North Departure {F11.4}
P1AZ .DEG                                              :Pad 1 Azimuth in Horizontal Plane (0 = True North) {F11.4}
PR   .                                                 :Poisson s Ratio {F11.4}
RB   .DEG                                              :Relative Bearing {F11.4}
SDEV .DEG                                              :Sonde Deviation {F11.4}
SDEVM.DEG                                              :Memorized Sonde Deviation {F11.4}
SPHI .CFCF                                             :Sonic Porosity {F11.4}
STIT .F                                                :Stuck Tool Indicator, Total {F11.4}
TENS .LBF                                              :Cable Tension {F11.4}
#-----------------------------------------------------------------------------
# 
#      DEPT        CDF        CTEM       DCAL       DTCO       DTSM        ED      GR_EDTC      GTEM       HAZI      HAZIM       ITT         ND        P1AZ        PR         RB        SDEV      SDEVM       SPHI       STIT       TENS
#
~A  
# ...
   9674.0000  1193.2808   162.4696     0.0499    75.2788   116.0963     0.0000    51.2502   150.5786   148.7353   263.2627     0.0845     0.0000   320.6800     0.1373   171.9480     1.6679     1.3823     0.1957     0.0000  3787.0002
   9674.5000  1190.0767   162.4280     0.1034    75.5232   118.6166     0.0000    54.8819   150.5829   149.7200   272.4830     0.0845     0.0000   320.6445     0.1591   170.9284     1.6675     1.4843     0.1975     0.0000  3784.0000
   9675.0000  1186.1978   162.3478     0.1799    75.4710   120.7692     0.0000    60.3287   150.5872   150.9440   281.3727     0.0845     0.0000   320.5980     0.1796   169.6583     1.6674     1.6031     0.1971     0.0000  3794.0000
   9675.5000  1187.8489   162.3642     0.7129    75.7341   119.7266     0.0000    68.4679   150.5914   152.4261   287.5591     0.0844     0.0000   320.5386     0.1665   168.1174     1.6641     1.6978     0.1990     0.0000  3797.0002
   9676.0000  1189.0707   162.4280     2.9501    76.5404   125.3482     0.0000    70.7090   150.5957   155.0069   290.8692     0.0844     0.0000   320.4413     0.2027   165.4403     1.6534     1.7539     0.2047     0.0000  3788.6670
   9676.5000  1191.6937   162.6014     1.6857    77.5857   133.2894     0.0000    68.9184   150.6000   158.5934   293.4847     0.0844     0.0000   320.3117     0.2438   161.7253     1.6302     1.7972     0.2121     0.0000  3810.0000
   9677.0000  1188.0762   162.6277     1.8049    78.0838   136.1645     0.0000    67.2806   150.6042   163.4982   294.7843     0.0843     0.0000   320.1692     0.2550   156.6789     1.5879     1.8136     0.2156     0.0000  3787.0002
   9677.5000  1184.4492   162.5622     1.8698    79.5626   137.2387     0.0000    64.3674   150.6085   168.5994   295.3954     0.0843     0.0000   320.0548     0.2469   151.4641     1.5361     1.8115     0.2260     0.0000  3771.6665
   9678.0000  1186.3425   162.5487     1.9993    80.5811   139.1698     0.0000    67.2120   150.6128   176.8346   295.7307     0.0842     0.0000   319.9263     0.2478   143.1005     1.4489     1.8007     0.2332     0.0000  3779.3335
   9678.5000  1187.2067   162.6277     2.2362    80.5844   139.8553     0.0000    68.1992   150.6171   187.6158   295.9666     0.0842     0.0000   319.8467     0.2515   132.2388     1.3467     1.7906     0.2333     0.0000  3754.6667
   9679.0000  1188.3501   162.6524     3.4979    80.6884   136.0486     0.0000    70.3944   150.6213   198.3959   296.3130     0.0842     0.0000   323.8175     0.2287   125.4282     1.2697     1.7823     0.2340     0.0000  3769.3333
   9679.5000  1188.8442   162.5348     3.9672    80.7752   134.2356     0.0000    72.9697   150.6256   214.4694   296.6841     0.0841     0.0000   357.2083     0.2162   142.7451     1.2057     1.7827     0.2346     0.0000  3778.0000
   9680.0000  1187.1133   162.4433     4.3498    80.7854   132.8506     0.0000    73.0349   150.6299   232.1100   296.9938     0.0841     0.0000    26.9647     0.2066   154.8598     1.2036     1.7932     0.2347     0.0000  3751.0000
   9680.5000  1185.8579   162.5882     4.5759    81.1330   132.5574     0.0000    68.4606   150.6341   248.9838   297.0809     0.0840     0.0000    46.4920     0.2005   157.5131     1.2694     1.8069     0.2372     0.0000  3798.3333
   9681.0000  1185.5925   162.6149     4.1951    81.2252   132.6067     0.0000    65.3475   150.6384   260.6567   296.9233     0.0840     0.0000    54.4176     0.1998   153.7669     1.3576     1.8258     0.2378     0.0000  3781.3335
   9681.5000  1186.6686   162.5750     3.9568    82.6684   132.0460     0.0000    61.8504   150.6427   272.4830   296.4474     0.0839     0.0000    58.4907     0.1777   146.0170     1.4843     1.8407     0.2480     0.0000  3791.5002
   9682.0000  1185.5925   162.6014     3.9658    83.7456   131.6131     0.0000    65.7769   150.6469   281.3727   295.7825     0.0839     0.0000    59.9726     0.1598   138.6109     1.6031     1.8475     0.2556     0.0000  3798.6665
   9682.5000  1185.5925   162.6149     3.9568    85.4146   132.5950     0.0000    65.0380   150.6512   286.5183   295.1476     0.0839     0.0000    59.5652     0.1454   133.0598     1.6813     1.8456     0.2674     0.0000  3810.6665
   9683.0000  1186.7358   162.5750     3.9465    85.9537   133.3251     0.0000    67.3730   150.6555   290.8692   294.5097     0.0838     0.0000    58.0040     0.1444   127.1480     1.7539     1.8377     0.2712     0.0000  3823.0002
   9683.5000  1187.4084   162.7218     3.9451    86.0137   134.1283     0.0000    66.5637   150.6597   293.4847   294.0477     0.0838     0.0000    55.9055     0.1508   122.4331     1.7972     1.8255     0.2717     0.0000  3800.6665
   9684.0000  1185.9243   162.6277     4.0191    86.5653   134.5033     0.0000    65.5872   150.6640   294.7843   293.8229     0.0837     0.0000    52.8509     0.1464   118.0781     1.8136     1.8130     0.2756     0.0000  3816.9998
   9684.5000  1186.6543   162.7485     3.9984    87.0714   134.4846     0.0000    67.4034   150.6683   295.3118   293.8440     0.0837     0.0000    50.2271     0.1391   114.9256     1.8128     1.8077     0.2791     0.0000  3839.6670
   9685.0000  1190.7762   162.6805     4.0605    87.0115   133.9740     0.0000    71.5319   150.6725   295.6725   293.9924     0.0837     0.0000    45.9152     0.1352   110.2526     1.8031     1.8067     0.2787     0.0000  3823.0000
   9685.5000  1183.4690   162.8820     0.4041    86.5121   138.8704     0.0000    80.1342   150.6768   295.9666   294.1335     0.0836     0.0000    42.2410     0.1829   106.2823     1.7906     1.8146     0.2752     0.0000  3831.6670
   9686.0000  1176.0604   162.8286     0.3689    85.2271   137.7334     0.0000    88.6576   150.6811   296.3130   294.1316     0.0836     0.0000    38.7794     0.1898   102.4718     1.7823     1.8265     0.2661     0.0000  3788.0000
   9686.5000  1172.9435   162.9087     0.3265    82.2155   136.9881     0.0000    93.9499   150.6853   296.6841   293.9538     0.0835     0.0000    35.6006     0.2185    98.9201     1.7827     1.8341     0.2448     0.0000  3828.6667
   9687.0000  1207.1737   163.0374     0.3244    83.5701   135.6987     0.0000    95.6272   150.6896   296.9452   293.5243     0.0835     0.0000    33.1819     0.1945    96.2397     1.7906     1.8410     0.2544     0.0000  3927.0000
   9687.5000  1244.0841   163.0494     0.3022    81.9207   134.4344     0.0000    98.2258   150.6939   297.0809   292.9440     0.0834     0.0000    28.6813     0.2047    91.6018     1.8069     1.8369     0.2427     0.0000  3982.6665
   9688.0000  1281.9523   162.9523     0.2820    81.4034   131.9586     0.0000   100.1527   150.6981   296.9233   292.3507     0.0834     0.0000    23.4384     0.1928    86.5132     1.8258     1.8255     0.2391     0.0000  3918.6667
   9688.5000  1234.0654   163.0117     0.2800    81.2909   131.1233     0.0000   105.4219   150.7024   296.4474   291.9048     0.0834     0.0000    19.2117     0.1879    82.7607     1.8407     1.8125     0.2383     0.0000  3861.3333
   9689.0000  1192.4384   163.1658     0.2688    81.2621   131.5590     0.0000   103.0674   150.7067   295.9234   291.5741     0.0833     0.0000    18.5263     0.1915    82.5993     1.8471     1.7941     0.2381     0.0000  3868.0000
   9689.5000  1189.4742   163.3656     0.2477    80.6210   131.0638     0.0000   103.6569   150.7110   295.1476   291.4355     0.0833     0.0000    17.8822     0.1956    82.7312     1.8456     1.7782     0.2335     0.0000  3835.6670
   9690.0000  1188.3798   163.2602     0.2598    80.3138   131.7984     0.0000    96.1025   150.7152   294.5097   291.5049     0.0832     0.0000    15.0392     0.2047    80.5251     1.8377     1.7677     0.2314     0.0000  3845.0000
   9690.5000  1190.4063   163.2075     0.2466    80.0766   132.0331     0.0000    90.4659   150.7195   294.0477   291.6947     0.0832     0.0000    11.8203     0.2091    77.7670     1.8255     1.7662     0.2297     0.0000  3822.6667
   9691.0000  1198.1504   163.4183     0.2355    79.8172   131.6851     0.0000    83.1927   150.7238   293.8525   291.8420     0.0832     0.0000     9.4848     0.2096    75.6255     1.8155     1.7700     0.2278     0.0000  3850.6667
