###############################################
##         ENVERUS                           ##
##         ESS - Open Hole                   ##
##         PERMIAN / DELAWARE                ##
##         Nov 04 2023  V4.0                 ##
##         42-371-36358-00-00                ##
###############################################
## Copyright 2017-2023  ENVERUS.  All Rights Reserved. 
## Confidential - Property of ENVERUS, use governed by terms and 
## conditions found within the existing Information Services Subscription Agreement 
## (as may be amended, the “ISSA”) between Customer and ENVERUS. 
## 
~VERSION INFORMATION
# MNEM.UNIT                               DATA : DESCRIPTION OF MNEMONIC
#-----.-----     ----------------------------- : -----------------------------
VERS.                                     2.00 : CWLS LOG ASCII STANDARD - VERSION 2.00
WRAP.                                       NO : MULTIPLE LINES PER DEPTH STEP
VEND.                                  ENVERUS : VENDOR
TYPE.                          ESS - OPEN HOLE : ENVERUS ESSENTIAL CURVES – ACCESSIBLE THROUGH ENVERUS PRISM(TM)
DOC.                                  32044985 : ENVERUS HEADER RAW DOCUMENT ID
#___________________________________________________________________________________________________ 
~WELL INFORMATION 
# 9/F+NtSLBEAIaZM9LpLMxALTyCH3LMfPBQiNKTeSadJ6NAezaEZy+3+OEP8rVGNvVB4ifWNnxSKvs1BiqqZA9A== 
# MNEM.UNIT                                              DATA : DESCRIPTION OF MNEMONIC 
#-----.-----                    ----------------------------- : ----------------------------- 
CNTY.                                                   PECOS : COUNTY 
STATE.                                                  TEXAS : STATE 
CNTRY.                                                    USA : COUNTRY 
API.                                             42-371-36358 : API (10 Digit) 
API_14.                                    42-371-36358-00-00 : API (14 Digits) 
API_14_std.                                 42-371-36358-0000 : API (14 Digits Standard) 
UWI.                                           42371363580000 : UNIQUE WELL ID 
WELL.                           SCHLOSSER, FRED ESTATE -B-  9 : WELL NAME
STRT.FT                                                 151.0 : START DEPTH
STOP.FT                                                5707.0 : STOP DEPTH
STEP.FT                                                   0.5 : STEP BETWEEN DEPTHS
NULL.                                                 -999.25 : NULL VALUE
COMP.                                      APACHE CORPORATION : COMPANY 
DATE.                                             07-JUN-1992 : LOG DATE
#___________________________________________________________________________________________________ 
~CURVE INFORMATION 
# MNEM.UNIT           : CURVE DESCRIPTION 
#-----.-----          : ----------------------------- 
 DEPT.FT               : MEASURED DEPTH 
 GR.API                : GAMMA RAY (GR) 
 DT.US/FT              : SONIC DELTA TRANSIT TIME (DT) 
 #___________________________________________________________________________________________________ 
~A         DEPT             GR             DT
# ...
         4936.0          9.889         49.744
         4936.5          9.793         49.790
         4937.0          9.519         49.786
         4937.5          8.929         49.763
         4938.0          8.339         49.740
         4938.5          7.749         49.717
         4939.0          7.530         49.731
         4939.5          7.458         49.797
         4940.0          7.867         49.864
         4940.5          8.594         49.930
         4941.0          9.321         49.927
         4941.5         10.048         49.896
         4942.0          9.731         49.865
         4942.5          9.415         49.833
         4943.0          9.083         49.802
         4943.5          8.361         49.771
         4944.0          7.858         49.739
         4944.5          8.640         49.683
         4945.0          9.422         49.605
         4945.5         10.204         49.564
         4946.0         10.987         49.604
         4946.5         11.769         49.644
         4947.0         12.551         49.707
         4947.5         11.913         49.853
         4948.0         11.016         50.000
         4948.5         10.119         50.146
         4949.0          9.221         50.161
         4949.5          8.324         50.047
         4950.0          7.791         49.934
         4950.5          7.894         49.820
         4951.0          7.997         49.706
         4951.5          8.100         49.592
         4952.0          8.202         49.511
         4952.5          8.305         49.571
         4953.0          8.331         49.631
         4953.5          8.198         49.691
         4954.0          8.065         49.617
         4954.5          7.932         49.529
         4955.0          7.799         49.564
         4955.5          7.666         49.665
         4956.0          7.682         49.767
         4956.5          7.806         49.777
         4957.0          7.930         49.785
         4957.5          8.053         49.793
         4958.0          8.177         49.801
         4958.5          8.301         49.809
         4959.0          8.425         49.817
         4959.5          8.549         49.944
         4960.0          8.673         50.097
         4960.5          9.205         50.251
         4961.0          9.820         50.369
         4961.5         10.435         50.484
         4962.0         10.020         50.599
         4962.5          9.387         50.714
         4963.0          9.107         50.829
         4963.5          9.363         50.843
         4964.0          9.619         50.825
         4964.5          9.696         50.808
         4965.0          9.483         50.790
         4965.5          9.270         50.773
         4966.0          9.057         50.755
         4966.5          8.844         50.738
         4967.0          8.631         50.729
         4967.5          8.571         50.726
         4968.0          8.600         50.723
         4968.5          8.629         50.720
         4969.0          8.658         50.717
         4969.5          8.687         50.715
         4970.0          8.707         50.712
         4970.5          8.691         50.709
         4971.0          8.675         50.706
         4971.5          8.659         50.703
         4972.0          8.643         50.700
         4972.5          8.627         50.697
         4973.0          8.611         50.694
         4973.5          8.595         50.691
         4974.0          8.579         50.689
         4974.5          8.604         50.686
         4975.0          8.894         50.683
         4975.5          9.184         50.680
         4976.0          9.475         50.691
         4976.5          9.765         50.782
         4977.0         10.055         50.874
         4977.5         10.345         50.965
         4978.0         10.635         50.921
         4978.5         10.925         50.799
         4979.0         11.144         50.677
         4979.5         10.683         50.555
         4980.0         10.223         50.434
         4980.5          9.762         50.394
         4981.0         11.007         50.381
         4981.5         12.789         50.368
         4982.0         14.388         50.356
         4982.5         13.954         50.343
         4983.0         13.520         50.330
         4983.5         12.703         50.409
         4984.0         11.871         50.509
         4984.5         11.039         50.608
         4985.0         10.207         50.690
         4985.5          9.374         50.603
         4986.0          9.859         50.516
         4986.5         10.693         50.453
         4987.0         11.113         50.467
         4987.5         10.885         50.480
         4988.0         10.658         50.493
         4988.5         10.431         50.529
         4989.0         10.203         50.585
         4989.5          9.976         50.640
         4990.0          9.748         50.695
         4990.5          9.521         50.751
         4991.0          9.294         50.809
         4991.5          9.066         50.881
         4992.0          8.839         50.937
         4992.5          8.611         50.892
         4993.0          8.384         50.847
         4993.5          8.157         50.802
         4994.0          7.929         50.756
         4994.5          8.365         50.711
         4995.0          9.314         50.387
         4995.5         10.263         49.890
         4996.0         11.212         49.394
         4996.5         11.356         49.312
         4997.0         11.102         49.316
         4997.5         10.849         49.320
         4998.0         11.045         49.325
         4998.5         11.491         49.329
         4999.0         11.937         49.253
         4999.5         12.382         49.092
         5000.0         12.828         48.932
         5000.5         13.274         48.771
         5001.0         13.719         48.746
         5001.5         13.366         48.801
         5002.0         12.708         48.855
         5002.5         12.050         48.910
         5003.0         11.402         48.989
         5003.5         10.758         49.280
         5004.0         10.114         49.571
         5004.5          9.529         52.486
         5005.0          9.057         56.009
         5005.5          8.584         59.102
         5006.0          8.111         60.838
         5006.5          7.639         61.871
         5007.0          8.178         61.916
         5007.5          8.968         61.902
         5008.0          9.758         62.682
         5008.5         10.547         63.501
         5009.0          8.871         64.320
         5009.5          6.927         64.678
         5010.0          5.880         64.857
         5010.5          5.927         65.036
         5011.0          5.974         64.802
         5011.5          6.406         63.963
         5012.0          9.404         63.124
         5012.5          9.779         62.492
         5013.0         10.015         62.401
         5013.5         10.252         62.310
         5014.0         10.449         62.219
         5014.5          9.439         62.248
         5015.0          8.428         62.769
         5015.5          8.004         63.289
         5016.0          7.975         63.810
         5016.5          7.946         64.330
         5017.0          7.917         63.867
         5017.5          7.888         63.612
         5018.0          7.591         63.764
         5018.5          6.983         63.917
         5019.0          6.375         64.070
         5019.5          5.768         64.216
         5020.0          5.160         64.360
         5020.5          4.876         64.753
         5021.0          4.623         65.327
         5021.5          4.369         65.902
         5022.0          4.116         65.373
         5022.5          4.482         63.137
