~VERSION INFORMATION
 VERS.                2.0:   CWLS LOG ASCII STANDARD - VERSION 2.0
 WRAP.                 NO:   ONE LINE PER DEPTH STEP
~WELL INFORMATION
#MNEM.UNIT      DATA TYPE    INFORMATION
#----------   ------------   ------------------------------
 STRT.FT           0.0000:   START DEPTH
 STOP.FT        7147.0000:   STOP DEPTH
 STEP.FT           0.5000:   STEP LENGTH
 NULL.          -999.2500:   NULL VALUE
 COMP. MOBIL PRODUCING TEXAS & NEW MEEXICO INC:   COMPANY
 WELL. SCHLOSER FRED ESTATE B #2:   WELL
 FLD .      ROJO CABALLOS:   FIELD
 LOC .                   :   LOCATION
 CNTY.              PECOS:   COUNTY
 STAT.              TEXAS:   STATE
 CTRY. UNITED STATES OF AMERICA:   COUNTRY
 SRVC.       Schlumberger:   SERVICE COMPANY
 DATE.        10-Jun-1980:   LOGDATE
 API .     42371330900000:   API NUMBER
~CURVE INFORMATION
#MNEM.UNIT       API CODE    CURVE DESCRIPTION
#----------   ------------   ------------------------------
 DEPT.F                  :   
 GRD .GAPI   45 310 01 00:   GAMMA RAY FROM DENSITY LOG
 GRR .GAPI   11 310 01 00:   GAMMA RAY FROM RESISTIVITY LOG
 GRS .GAPI   60 310 01 00:   GAMMA RAY FROM SONIC LOG
 DT  .US/F   60 500 00 00:   DELTA-T (INTERVAL TRANSIT TIME)
 CALD.IN     45 280 60 00:   CALIPER FROM DENSITY LOG
 CORR.G/C3   45 356 01 00:   DENSITY CORRECTION
 RHOB.G/C3   45 350 01 00:   BULK DENSITY
 NPHI_LS.DEC 42 890 01 00:   NEUTRON POROSITY LIMESTONE
 DPHI_LS.DEC 45 890 10 00:   DENSITY POROSITY LIMESTONE
 LLD .OHMM   11 220 10 00:   LATEROLOG DEEP RESISTIVITY
 LLS .OHMM   11 220 09 00:   LATEROLOG SHALLOW RESISTIVITY
~PARAMETER INFORMATION
#MNEM.UNIT          VALUE    DESCRIPTION
#----------   ------------   ------------------------------
 PD  .                 GL:   PERMANENT DATUM
 EPD .FT             2752:   ELEVATION PERMANENT DATUM
 LMF .                 KB:   LOG MEASURED FROM
 DAPD.FT               13:   FEET ABOVE PERMANENT DATUM
 DMF .                 KB:   DRILLING MEASURED FROM
 EKB .FT             2765:   KELLY BUSHING
 EDF .FT             2764:   DRILLING FLOOR
 EGL .FT             2752:   GROUND LEVEL
 DATE.           06/10/80:   RUN DATE
 RUN .                  1:   RUN NUMBER
 DD  .FT             7150:   DEPTH DRILLER
 DL  .FT             7150:   DEPTH LOGGER
 BLI .FT             7147:   BOTTOM LOG INTERVAL
 TLI .FT             5000:   TOP LOG INTERVAL
 CS  .IN            8.625:   CASING SIZE
 CBD .FT             1919:   CASING BOTTOM DRILLER
 CBL .FT             1904:   CASING BOTTOM LOGGER
 BS  .IN            7.875:   BIT SIZE
 BSD .FT             7150:   BIT SIZE AT DEPTH
 DFT .              BRINE:   DRILLING FLUID TYPE
 DFD .                 10:   DRILLING FLUID DENSITY
 DFV .                 35:   DRILLING FLUID VISCOSITY
 DFPH.                9.5:   DRILLING FLUID PH
 DFL .                 20:   DRILLING FLUID LOSS
 MSS .               CIRC:   MUD SAMPLE SOURCE
 RMS .OHMM           .055:   RESISTIVITY MUD SAMPLE
 MST .DEGF             73:   MUD SAMPLE TEMPERATURE
 RMF .OHMM           .055:   RESISTIVITY MUD FILTRATE SAMPLE
 MFST.DEGF             73:   MUD FILTRATE SAMPLE TEMPERATURE
 MFSS.                  M:   MUD FILTRATE SAMPLE SOURCE
 RMB .OHMM            .03:   RESISTIVITY MUD AT BHT
 BHT .DEGF            107:   BOTTOM HOLE TEMPERATURE
 TCS .HRS            1615:   TIME CIRCULATED STOPPED
 TLAB.HRS            0300:   TIME LOGGER AT BOTTOM
 MRT .DEGF            107:   MAXIMUM RECORDED TEMPERATURE
 LUN .               8024:   LOGGING UNIT NUMBER
 LUL .               MONA:   LOGGING UNIT LOCATION
 ENGI.           MC BRIDE:   RECORDING ENGINEER
 CLNT.            :   CLIENT CODE
 ORIG.      1" 2.5" PRINT:   ORIGIN OF DATA
 UWI .     42371330900000:   UNIQUE WELL ID
 
~OTHER INFORMATION
~A    DEPT     GRD        GRR         GRS        DT       CALD       CORR       RHOB      NPHI_LS    DPHI_LS      LLD        LLS   
# ...
 5093.5000    15.2028     9.6555     9.3061    48.8879     9.0830     0.0036     2.8883     0.0039    -0.1065 41864.5273  -999.2500
 5094.0000    15.0751    11.1783    12.0445    48.8577     9.0905    -0.0036     2.8702     0.0040    -0.1018 40176.3086  -999.2500
 5094.5000    14.6605    10.6676    13.6851    48.8525     9.0845    -0.0066     2.8737     0.0040    -0.1057 38556.2148  -999.2500
 5095.0000    14.3435    10.3731    13.2069    48.8421     9.0785    -0.0080     2.8824     0.0038    -0.1124 37529.1289  -999.2500
 5095.5000    14.1181    11.0652    12.0814    48.7800     9.0799    -0.0071     2.8910     0.0036    -0.1155 36780.7383  -999.2500
 5096.0000    13.6698    13.4360    10.0265    48.7600     9.0887    -0.0051     2.8997     0.0028    -0.1158 33852.0430  -999.2500
 5096.5000    13.5255    14.1744     9.3675    48.7859     9.0976    -0.0032     2.9083     0.0028    -0.1198 26829.8320  -999.2500
 5097.0000    13.3812    13.2081     9.7660    48.7805     9.0716    -0.0012     2.9179     0.0028    -0.1264 16428.5801  -999.2500
 5097.5000    13.2368    11.2425    11.1364    48.7380     9.0659     0.0008     2.9278     0.0029    -0.1326  9395.6553  -999.2500
 5098.0000    13.0925    10.4865    11.8619    48.5547     9.0667     0.0020     2.9346     0.0044    -0.1386  7536.0596  -999.2500
 5098.5000    13.1774    10.7669    12.3685    48.3257     9.0675     0.0020     2.9424     0.0054    -0.1424 12234.8545  -999.2500
 5099.0000    13.4796    11.8994    12.6185    48.2585     9.0699     0.0011     2.9479     0.0055    -0.1434 30042.3965  -999.2500
 5099.5000    14.1581    13.4164    12.7415    48.2848     9.0730    -0.0018     2.9488     0.0053    -0.1432 41470.4922  -999.2500
 5100.0000    13.8067    13.4245    12.2154    48.4009     9.0762    -0.0043     2.9486     0.0051    -0.1435 47158.4141  -999.2500
 5100.5000    13.1799    13.3278    11.6892    48.5000     9.0794    -0.0042     2.9476     0.0050    -0.1442 49456.9375  -999.2500
 5101.0000    12.6014    11.8643    11.0113    48.5635     9.0825    -0.0021     2.9470     0.0048    -0.1458 50418.1758  -999.2500
 5101.5000    12.3787    11.5337    10.2868    48.7483     9.0863    -0.0003     2.9474     0.0049    -0.1466 50496.2344  -999.2500
 5102.0000    12.6899    12.7511    10.6731    49.0198     9.0969    -0.0003     2.9479     0.0056    -0.1477 50499.0078  -999.2500
 5102.5000    13.0010    14.1312    12.8273    49.2178     9.0889    -0.0012     2.9492     0.0064    -0.1485 50501.8359  -999.2500
 5103.0000    13.1159    12.4579    12.8158    49.3185     9.0810    -0.0038     2.9514     0.0070    -0.1492 50504.6055  -999.2500
 5103.5000    12.4883    10.0561    12.5121    49.3549     9.0884    -0.0070     2.9544     0.0061    -0.1494 50507.4336  -999.2500
 5104.0000    11.3935     7.7533    11.9825    49.2898     9.0970    -0.0065     2.9564     0.0054    -0.1510 50510.2617  -999.2500
 5104.5000    11.1291     7.5798    11.0286    48.8605     9.0986    -0.0049     2.9521     0.0044    -0.1531 50513.0352  -999.2500
 5105.0000    11.1649     9.4884    10.1993    48.5555     9.0737    -0.0033     2.9430     0.0041    -0.1515 50515.8633  -999.2500
 5105.5000    11.2007    11.9234    10.6984    48.3947     9.0616    -0.0019     2.9314     0.0044    -0.1418 50518.6367  -999.2500
 5106.0000    12.7948    14.2986    13.9387    48.3060     9.0622    -0.0040     2.9182     0.0043    -0.1318 50521.4688  -999.2500
 5106.5000    14.5576    17.0187    16.6680    48.4058     9.0629    -0.0145     2.9091     0.0039    -0.1241 50524.2969  -999.2500
 5107.0000    16.3204    19.3486    17.7760    48.6020     9.0635    -0.0187     2.9040     0.0041    -0.1212 50527.0703  -999.2500
 5107.5000    16.2236    20.9190    16.7041    48.9353     9.0642    -0.0183     2.9044     0.0044    -0.1212 50529.8984  -999.2500
 5108.0000    14.2219    18.9011    15.2606    49.2818     9.0648    -0.0180     2.9088     0.0046    -0.1257 50532.6719  -999.2500
 5108.5000    11.7430    14.6020    13.5180    49.7239     9.0655    -0.0126     2.9251     0.0047    -0.1366 50535.5039  -999.2500
 5109.0000     9.7555    12.0491    12.8085    49.8585     9.0661    -0.0071     2.9415     0.0040    -0.1460 50538.3320  -999.2500
 5109.5000    10.8270    11.5095    12.2742    49.9241     9.0668    -0.0016     2.9578     0.0038    -0.1515 50541.1055  -999.2500
 5110.0000    12.2303    11.3832    12.0724    49.9524     9.0674     0.0021     2.9719     0.0042    -0.1573 50543.9375  -999.2500
 5110.5000    12.2681    10.9902    12.2670    49.9632     9.0681     0.0010     2.9710     0.0046    -0.1614 50546.7695  -999.2500
 5111.0000    11.6777    10.5948    12.3858    49.9984     9.0687    -0.0068     2.9496     0.0045    -0.1560 50549.5430  -999.2500
 5111.5000    11.7267    10.1993    12.2438    49.8622     9.0676    -0.0107     2.9228     0.0046    -0.1393 50552.3750  -999.2500
 5112.0000    12.8472    10.3462    11.2601    49.5536     9.0665    -0.0111     2.9171     0.0052    -0.1291 50555.1484  -999.2500
 5112.5000    13.6036    10.2382    11.5183    49.0716     9.0654    -0.0108     2.9113     0.0061    -0.1256 50557.9805  -999.2500
 5113.0000    13.2447    10.3197    12.2801    48.7466     9.0653    -0.0099     2.9056     0.0067    -0.1236 50560.7539  -999.2500
 5113.5000    12.9206    11.1586    13.1590    48.4761     9.0654    -0.0090     2.9030     0.0067    -0.1221 50563.5859  -999.2500
 5114.0000    12.5965    13.0241    13.7301    48.3826     9.0654    -0.0070     2.9077     0.0069    -0.1243 50566.4180  -999.2500
 5114.5000    12.2726    14.5365    13.5560    48.3281     9.0659    -0.0033     2.9246     0.0076    -0.1333 50569.1953  -999.2500
 5115.0000    11.9485    14.9991    13.5767    48.3588     9.0672     0.0004     2.9436     0.0087    -0.1454 50572.0273  -999.2500
 5115.5000    12.4620    14.9565    14.2964    48.4228     9.0685     0.0026     2.9615     0.0097    -0.1543 50574.8594  -999.2500
 5116.0000    13.1849    14.2267    15.2439    48.4379     9.0677     0.0002     2.9634     0.0096    -0.1564 50577.6328  -999.2500
 5116.5000    13.9281    13.3480    16.1485    48.4423     9.0666    -0.0017     2.9603     0.0087    -0.1511 50580.4648  -999.2500
 5117.0000    14.0610    12.5400    16.5673    48.4505     9.0658    -0.0026     2.9509     0.0082    -0.1459 50583.2422  -999.2500
 5117.5000    13.2089    11.7320    16.2630    48.4966     9.0675    -0.0028     2.9466     0.0077    -0.1427 50586.0742  -999.2500
 5118.0000    13.0254    10.9241    15.2680    48.7414     9.0687    -0.0030     2.9449     0.0073    -0.1433 50588.9102  -999.2500
 5118.5000    13.1066    10.4553    14.8913    49.0441     9.0673    -0.0036     2.9427     0.0069    -0.1443 50591.6875  -999.2500
 5119.0000    13.1878    10.4448    14.8498    49.3467     9.0655    -0.0066     2.9354     0.0063    -0.1440 50594.5195  -999.2500
 5119.5000    13.6173    10.8312    14.7702    49.5954     9.0653    -0.0096     2.9236     0.0062    -0.1397 50597.2969  -999.2500
 5120.0000    12.8758    12.1744    13.9054    49.4820     9.0653    -0.0112     2.9119     0.0062    -0.1297 50600.1289  -999.2500
 5120.5000    12.3315    13.3701    13.0312    49.3000     9.0653    -0.0110     2.9012     0.0064    -0.1219 50602.9648  -999.2500
 5121.0000    12.1515    14.0570    12.6398    49.1554     9.0658    -0.0098     2.9006     0.0069    -0.1203 50605.7422  -999.2500
 5121.5000    12.0989    13.4711    12.4512    49.1424     9.0663    -0.0068     2.9044     0.0073    -0.1214 50608.5742  -999.2500
 5122.0000    12.1120    11.9181    12.8701    49.1500     9.0667    -0.0036     2.9205     0.0069    -0.1270 50568.0820  -999.2500
 5122.5000    12.2236    10.7386    13.2715    49.1762     9.0672     0.0016     2.9365     0.0061    -0.1394 50356.1602  -999.2500
 5123.0000    12.8673    10.4667    13.7823    49.1493     9.0677     0.0033     2.9438     0.0057    -0.1474 50145.1211  -999.2500
 5123.5000    13.8544    10.5629    14.5472    49.0126     9.0682     0.0051     2.9403     0.0056    -0.1466 49934.9688  -999.2500
