#--------------------------------------------------#
#-------------------ENVERUS, INC.------------------#
#------------------WWW.ENVERUS.COM-----------------#
#------------------COPYRIGHT 2020------------------#
#--------------------------------------------------#
#THIS FILE MAY BE USED ONLY IN ACCORDANCE WITH A CURRENT SUBSCRIPTION AGREEMENT BETWEEN
#THE USER AND ENVERUS, INC. NO PART OF THIS FILE MAY BE REPRODUCED, USED, COPIED,
#MODIFIED, PROPAGATED, OR DISTRIBUTED EXCEPT IN ACCORDANCE WITH THE SUBSCRIPTION
#AGREEMENT. UNAUTHORIZED USE OR DISTRIBUTION OF ALL OR ANY PART OF THIS FILE MAY VIOLATE
#COPYRIGHT, TRADEMARK, AND/OR OTHER LAWS AND IS SUBJECT TO CIVIL AS WELL AS CRIMINAL
#SANCTIONS.
#--------------------------------------------------#
#THIS FILE IS PROVIDED "AS-IS" AND ALL WARRANTIES ARE EXPRESSLY DISCLAIMED, WHETHER
#EXPRESS, ORAL, IMPLIED, STATUTORY OR OTHERWISE, INCLUDING ANY IMPLIED WARRANTY OF FITNESS
#FOR A PARTICULAR PURPOSE, MERCHANTABILITY, TITLE OR NON-INFRINGEMENT, AND ANY WARRANTIES
#ARISING BY VIRTUE OF CUSTOM OF TRADE OR COURSE OF DEALING.  FURTHER, ENVERUS, INC.
#AND ITS LICENSORS DO NOT REPRESENT OR WARRANT THAT THIS FILE WILL MEET USER'S
#REQUIREMENTS OR ARE SUITABLE FOR USER'S NEEDS OR THAT THE DATA OR RESULTS PROVIDED IN
#CONJUNCTION THEREWITH ARE CORRECT, ACCURATE, TIMELY OR RELIABLE. THESE DISCLAIMERS SHALL
#APPLY REGARDLESS OF ANY FAILURE OF ESSENTIAL PURPOSE OF ANY LIMITED REMEDY.  SOME
#JURISDICTIONS DO NOT ALLOW THE EXCLUSION OF CERTAIN WARRANTIES SO SOME OF THE ABOVE
#EXCLUSIONS MAY NOT APPLY. IN NO EVENT SHALL ENVERUS, INC. OR ANY OF ITS AFFILIATES
#BE LIABLE UNDER ANY LEGAL THEORY, WHETHER IN TORT (INCLUDING WITHOUT LIMITATION
#NEGLIGENCE), CONTRACT, STRICT LIABILITY, STATUTORY OR OTHERWISE, FOR ANY SPECIAL,
#INCIDENTAL, CONSEQUENTIAL, EXEMPLARY, PUNITIVE OR INDIRECT DAMAGE OF ANY KIND, INCLUDING
#WITHOUT LIMITATION LOSS OF REVENUE, PROFITS, GOODWILL, USE, AND/OR DATA OR THE COST OF
#PROCUREMENT OF SUBSTITUTE GOODS OR SERVICES, EVEN IF APPRISED OF THE POSSIBILITY OF SUCH
#DAMAGES IN ADVANCE.
#--------------------------------------------------#

# EXPORTED FROM DI TRANSFORM
# DI TRANSFORM - A PRODUCT OF DRILLINGINFO, INC. - WWW.DRILLINGINFO.COM
#
~VERSION INFORMATION
 VERS.        2.0 : LAS ASCII STANDARD - VERSION 2.0
 WRAP.         NO : ONE LINE PER DEPTH STEP

~WELL INFORMATION
#MNEM.UNIT       DATA TYPE       INFORMATION
#---------       ---------       -----------
 STRT.FT           100 : START DEPTH
 STOP.FT         18040 : STOP DEPTH
 STEP.FT           0.5 : STEP LENGTH
 NULL.         -999.25 : NULL VALUE
 UWI.   42371302980000 : UNIQUE WELL ID
 API.   42371302980000 : WELL IDENTIFIER
 COMP.                 : COMPANY
 WELL.          DRD_55 : WELL NAME
 FLD.                  : FIELD NAME
 LOC.                  : WELL LOCATION
 CNTY.                 : COUNTY
 STAT.                 : STATE OR PROVINCE
 CTRY.                 : COUNTRY
 SRVC.                 : SERVICE COMPANY
 DATE.                 : DATE

~CURVE INFORMATION
#MNEM.UNIT       API CODE       CURVE DESCRIPTION
#---------       --------       -----------------
 DEPT.FT        : <MEASURED DEPTH>
 CAL.IN         : CALIPER
 DT.US/FT       : SONIC
 GR.GAPI        : GAMMA RAY

~PARAMETER INFORMATION
#MNEM.UNIT       VALUE       DESCRIPTION
#---------       -----       -----------

~A       DEPT         CAL          DT          GR
# ...
        12660     11.0388     80.9566     58.0729
      12660.5     11.0388     81.7461     60.2412
        12661     11.0655     82.9752     63.2806
      12661.5     11.0957     81.3333     68.3882
        12662     11.1202     81.4545     72.5284
      12662.5      11.177       81.25     73.5577
        12663     11.2099     81.2121     72.8909
      12663.5     11.2657     81.2121     71.6599
        12664      11.283      81.174     71.3823
      12664.5     11.2975     81.0909     72.4116
        12665     11.2975     81.0909     73.4409
      12665.5     11.2975     81.2121     73.6842
        12666     11.2591     80.9697     72.6787
      12666.5     11.1947     80.8485     71.6494
        12667     11.2605     80.6584     71.2551
      12667.5     11.3787     80.4848     71.2551
        12668     11.4609     80.2845     70.9908
      12668.5     11.5045     79.9764     69.9615
        12669     11.5045     79.9682     68.9322
      12669.5     11.5045     80.6544     69.5139
        12670     11.5045     81.5542     71.5879
      12670.5     11.5045     81.7411     72.8933
        12671     11.5045     81.8182     74.0513
      12671.5     11.5045      81.697     74.0891
        12672     11.5045     81.8171     74.0891
      12672.5     11.5045      81.697     74.0891
        12673     11.5169     82.0882     74.4939
      12673.5      11.532     82.6204     74.8988
        12674     11.5472     82.7879     74.8988
      12674.5     11.5624     82.8731     74.8988
        12675     11.5776     81.4545     75.3036
      12675.5     11.5821     81.4288     75.7085
        12676     11.5218     81.4545     75.7085
      12676.5     11.4786     81.4545     75.7085
        12677     11.4527     81.4545     74.7311
      12677.5     11.4527     81.4545     72.7161
        12678     11.4915     81.3941     70.7502
      12678.5     11.5303     81.0909     68.3878
        12679     11.5821     81.7576     67.6113
      12679.5     11.5821     83.6748     68.4211
        12680      11.608     83.1908      69.502
      12680.5      11.608     81.5503     71.3402
        12681      11.608     81.5758     72.3695
      12681.5     11.6054     81.5758     73.2794
        12682     11.5835     81.5758     73.2794
      12682.5     11.5513     81.5758     73.2794
        12683     11.5184     81.4545     72.5013
      12683.5     11.4855     81.4545      71.472
        12684     11.4526     81.2113     70.8476
      12684.5      11.401     79.7865     69.8183
        12685      11.401     77.0799     70.1326
      12685.5     11.4092     75.5455     71.6599
        12686     11.4269     74.8878     72.3985
      12686.5      11.338     75.6394     71.3693
        12687     11.2592     79.4536     69.5747
      12687.5       11.37     82.0629     68.8259
        12688     11.4184     82.9509     69.1749
      12688.5     11.1022     83.1378     71.3889
        12689     11.0905     83.6538     74.0902
      12689.5     11.0905     83.9966      74.916
        12690     11.1164     83.4806     73.9737
      12690.5     11.1164     82.2912     71.9622
        12691     11.1009     75.5907     67.2492
      12691.5     11.0093     72.3661     62.3537
        12692     10.9517     74.4039     55.3713
      12692.5      10.806     75.3274     52.8538
        12693     10.7861     75.5152     51.8219
      12693.5     10.8309     75.5152     53.7552
        12694     10.9981     75.7397     55.7808
      12694.5     11.0388      76.386     56.0302
        12695     10.9887     78.1322      55.896
      12695.5     10.9219     77.7382     54.7697
        12696     10.9573     74.3519      54.251
      12696.5     10.7138     71.9225     53.8462
        12697     10.7461     72.2178     53.8891
      12697.5     10.7987     73.8182     54.9184
        12698      10.806     74.2512     55.4656
      12698.5     10.8264     74.7555     55.1688
        12699     10.8076     76.1844     53.7698
      12699.5     10.7888     75.5316     50.4059
        12700     10.7801     76.0436     47.0769
      12700.5     10.7568      78.427     44.2284
        12701     10.6967     77.4275     41.1153
      12701.5     10.6766     74.6968     36.8554
        12702     10.6766     67.2621     34.1987
      12702.5     10.6766     65.8787     34.0081
        12703     10.6766     66.7632     34.6615
      12703.5     10.6786     69.4788      34.881
        12704     10.7115      74.557     35.2227
      12704.5     10.7801     74.9383     34.2668
        12705     10.8032     74.9354     32.3619
      12705.5     10.8318     74.7287     31.0424
        12706     10.8318     74.0927     30.7692
      12706.5     10.8577      72.448     30.5303
        12707      10.824     70.8024     30.7692
      12707.5     10.7801      68.702     31.3743
        12708     10.7533     68.6778      32.411
      12708.5     10.7284     69.8886     33.9549
        12709     10.7284     76.4943     35.4988
      12709.5     10.7499     79.7543      36.706
        12710     10.7542     83.3495     36.3121
      12710.5     10.7542     82.3653     34.7682
        12711     10.7542     74.1658     32.3558
      12711.5     10.7542     68.9509     30.6683
        12712     10.7364     60.9538     27.7074
      12712.5     10.7025     56.1668     26.1635
        12713     10.7025     58.5016     25.2874
      12713.5     10.7025     64.7382     26.9248
        12714     10.7663     72.7818     31.2999
      12714.5     10.8227     81.2296     36.5332
        12715     10.8791     81.1545     45.9121
      12715.5     10.9398     80.2581     52.3364
        12716     10.9735     76.9617     55.7545
      12716.5     11.0129     75.2107     55.7621
        12717     11.0336     75.0303     52.1078
      12717.5     11.0172     77.9203     48.2899
        12718     10.8866     82.6955     41.9614
      12718.5     10.8263     81.8378     36.1537
        12719     10.7809     80.5692     31.6383
      12719.5      10.741     70.1692     29.9477
        12720     10.6998     65.0019     27.9142
      12720.5     10.6508     64.7141     27.1255
        12721     10.6508     65.0028     26.2605
      12721.5     10.6508     66.0673     25.5061
        12722     10.6613     70.7731     27.0574
      12722.5     10.6766     84.2072     30.7432
        12723     10.7363     76.9531     33.5698
      12723.5     10.7542     66.5017     35.9401
        12724     10.8161     66.0133     36.8421
      12724.5     10.8318     65.8182     36.0596
        12725     10.8318     65.9394     33.5374
      12725.5     10.8314     66.0606     30.9471
        12726     10.7656     66.1284     28.7932
      12726.5     10.7025     66.3154     31.0748
        12727     10.6766     67.8892     33.9808
      12727.5     10.6766      75.766     37.9402
        12728     10.6766     78.3914     45.2549
      12728.5     10.7354     80.3943     47.5465
        12729     10.8246     75.4311      55.606
      12729.5     10.8928     76.8916     58.3403
        12730     10.9211     77.9444     62.2656
      12730.5     10.9612     79.7241     65.6037
        12731     10.9612     81.5736     65.5941
      12731.5     10.9285     80.4061     62.4141
        12732     10.9095     77.3721     59.4053
      12732.5     10.9095     71.7737     56.9173
        12733     10.9095     74.6136     56.7416
      12733.5     10.9095     77.1308     57.4899
        12734     10.9095      78.638     56.5366
      12734.5     10.9095     78.4242     53.4396
        12735     10.8753     76.9121      48.353
      12735.5     10.8577     73.5814     41.1951
        12736     10.8395     69.0189     36.7543
      12736.5     10.8066     69.0972     34.2422
        12737     10.7801     68.6999     33.8017
      12737.5     10.8068     67.8379     35.0531
        12738     10.8651     69.8377     37.3075
      12738.5     10.8836     73.2219     40.7594
        12739     10.8836     77.0404     41.9674
      12739.5     10.8836     78.5699     42.5101
