#--------------------------------------------------#
#-------------------ENVERUS, INC.------------------#
#------------------WWW.ENVERUS.COM-----------------#
#------------------COPYRIGHT 2020------------------#
#--------------------------------------------------#
#THIS FILE MAY BE USED ONLY IN ACCORDANCE WITH A CURRENT SUBSCRIPTION AGREEMENT BETWEEN
#THE USER AND ENVERUS, INC. NO PART OF THIS FILE MAY BE REPRODUCED, USED, COPIED,
#MODIFIED, PROPAGATED, OR DISTRIBUTED EXCEPT IN ACCORDANCE WITH THE SUBSCRIPTION
#AGREEMENT. UNAUTHORIZED USE OR DISTRIBUTION OF ALL OR ANY PART OF THIS FILE MAY VIOLATE
#COPYRIGHT, TRADEMARK, AND/OR OTHER LAWS AND IS SUBJECT TO CIVIL AS WELL AS CRIMINAL
#SANCTIONS.
#--------------------------------------------------#
#THIS FILE IS PROVIDED "AS-IS" AND ALL WARRANTIES ARE EXPRESSLY DISCLAIMED, WHETHER
#EXPRESS, ORAL, IMPLIED, STATUTORY OR OTHERWISE, INCLUDING ANY IMPLIED WARRANTY OF FITNESS
#FOR A PARTICULAR PURPOSE, MERCHANTABILITY, TITLE OR NON-INFRINGEMENT, AND ANY WARRANTIES
#ARISING BY VIRTUE OF CUSTOM OF TRADE OR COURSE OF DEALING.  FURTHER, ENVERUS, INC.
#AND ITS LICENSORS DO NOT REPRESENT OR WARRANT THAT THIS FILE WILL MEET USER'S
#REQUIREMENTS OR ARE SUITABLE FOR USER'S NEEDS OR THAT THE DATA OR RESULTS PROVIDED IN
#CONJUNCTION THEREWITH ARE CORRECT, ACCURATE, TIMELY OR RELIABLE. THESE DISCLAIMERS SHALL
#APPLY REGARDLESS OF ANY FAILURE OF ESSENTIAL PURPOSE OF ANY LIMITED REMEDY.  SOME
#JURISDICTIONS DO NOT ALLOW THE EXCLUSION OF CERTAIN WARRANTIES SO SOME OF THE ABOVE
#EXCLUSIONS MAY NOT APPLY. IN NO EVENT SHALL ENVERUS, INC. OR ANY OF ITS AFFILIATES
#BE LIABLE UNDER ANY LEGAL THEORY, WHETHER IN TORT (INCLUDING WITHOUT LIMITATION
#NEGLIGENCE), CONTRACT, STRICT LIABILITY, STATUTORY OR OTHERWISE, FOR ANY SPECIAL,
#INCIDENTAL, CONSEQUENTIAL, EXEMPLARY, PUNITIVE OR INDIRECT DAMAGE OF ANY KIND, INCLUDING
#WITHOUT LIMITATION LOSS OF REVENUE, PROFITS, GOODWILL, USE, AND/OR DATA OR THE COST OF
#PROCUREMENT OF SUBSTITUTE GOODS OR SERVICES, EVEN IF APPRISED OF THE POSSIBILITY OF SUCH
#DAMAGES IN ADVANCE.
#--------------------------------------------------#

~VERSION INFORMATION
VERS. 2.0 : CWLS LOG ASCII STANDARD - VERSION 2.0
WRAP.  NO : ONE LINE PER DEPTH STEP
~WELL INFORMATION
#MNEMONIC     .UNIT              VALUE :DESCRIPTION
STRT       .FT                50 :START DEPTH
STOP       .FT                6118 :STOP DEPTH
STEP       .FT                   0.500 :STEP
NULL       .                  -999.990 :NULL
UWI        .              42389003090000 :UNIQUE WELL ID
API        .              42389003090000 :API NUMBER
COMP       .         :COMPANY
WELL       .         1, :WELL
DATE       .                            :LOG DATE
~CURVE INFORMATION
#MNEMONIC     .UNIT      API CODE :CURVE DESCRIPTION
DEPTH       .FT                      :MEASURED DEPTH
NEUT.API        UNKNOWN   :NEUT
GR.API        UNKNOWN   :GR
DT.US/FT        UNKNOWN   :DT
~A    DEPTH    NEUT    GR    DT
# ...
 2979     -999.990   13.484   67.934
 2979.5     -999.990   14.226   68.19
 2980     -999.990   14.753   67.882
 2980.5     -999.990   13.867   67.574
 2981     -999.990   12.981   67.266
 2981.5     -999.990   12.095   66.958
 2982     -999.990   11.21   66.863
 2982.5     -999.990   10.324   67.227
 2983     -999.990   9.488   67.591
 2983.5     -999.990   9.881   67.956
 2984     -999.990   10.273   68.037
 2984.5     -999.990   10.665   67.869
 2985     -999.990   11.058   67.701
 2985.5     -999.990   11.45   67.533
 2986     -999.990   11.843   67.365
 2986.5     -999.990   12.235   67.673
 2987     -999.990   12.628   68.204
 2987.5     -999.990   13.02   68.046
 2988     -999.990   13.413   67.889
 2988.5     -999.990   13.805   67.731
 2989     -999.990   14.197   67.573
 2989.5     -999.990   14.59   67.416
 2990     -999.990   14.668   67.258
 2990.5     -999.990   14.286   67.1
 2991     -999.990   13.905   67.285
 2991.5     -999.990   13.523   67.77
 2992     -999.990   13.141   68.256
 2992.5     -999.990   12.759   68.741
 2993     -999.990   12.377   69.429
 2993.5     -999.990   11.995   70.464
 2994     -999.990   11.613   71.5
 2994.5     -999.990   11.231   72.536
 2995     -999.990   10.849   72.931
 2995.5     -999.990   10.468   70.675
 2996     -999.990   10.086   68.418
 2996.5     -999.990   9.704   64.026
 2997     -999.990   9.322   59.483
 2997.5     -999.990   9.36   54.94
 2998     -999.990   11.017   50.84
 2998.5     -999.990   10.998   49.385
 2999     -999.990   10.26   47.929
 2999.5     -999.990   9.523   51.945
 3000     -999.990   8.786   51.708
 3000.5     -999.990   8.73   51.47
 3001     -999.990   9.32   51.233
 3001.5     -999.990   9.911   50.995
 3002     -999.990   10.501   50.757
 3002.5     -999.990   11.092   50.52
 3003     -999.990   11.682   50.282
 3003.5     -999.990   12.272   50.045
 3004     -999.990   11.914   50.181
 3004.5     -999.990   11.154   50.416
 3005     -999.990   10.394   50.651
 3005.5     -999.990   9.633   50.886
 3006     -999.990   9.439   51.121
 3006.5     -999.990   9.31   51.317
 3007     -999.990   9.181   51.22
 3007.5     -999.990   9.051   51.123
 3008     -999.990   9.299   51.026
 3008.5     -999.990   10.272   51.065
 3009     -999.990   11.244   51.376
 3009.5     -999.990   12.217   51.686
 3010     -999.990   13.19   51.996
 3010.5     -999.990   12.66   52.019
 3011     -999.990   11.774   52.019
 3011.5     -999.990   10.888   51.926
 3012     -999.990   10.001   51.589
 3012.5     -999.990   9.115   51.252
 3013     -999.990   8.229   50.915
 3013.5     -999.990   7.864   51.481
 3014     -999.990   7.705   52.177
 3014.5     -999.990   7.547   52.873
 3015     -999.990   7.388   53.569
 3015.5     -999.990   7.23   54.265
 3016     -999.990   9.038   54.812
 3016.5     -999.990   11.397   54.758
 3017     -999.990   13.757   54.705
 3017.5     -999.990   16.116   54.651
 3018     -999.990   18.475   62.433
 3018.5     -999.990   21.36   66.755
 3019     -999.990   22.187   71.076
 3019.5     -999.990   19.791   75.397
 3020     -999.990   17.395   78.776
 3020.5     -999.990   14.999   78.63
 3021     -999.990   12.603   77.031
 3021.5     -999.990   11.598   72.333
 3022     -999.990   12.545   69.637
 3022.5     -999.990   13.493   69.288
 3023     -999.990   14.44   68.939
 3023.5     -999.990   15.387   59.577
 3024     -999.990   16.334   54.889
 3024.5     -999.990   15.565   50.202
 3025     -999.990   14.218   45.632
 3025.5     -999.990   13.748   44.086
 3026     -999.990   14.31   42.54
 3026.5     -999.990   14.872   43.612
 3027     -999.990   15.352   48.72
 3027.5     -999.990   14.375   50.2
 3028     -999.990   13.399   51.155
 3028.5     -999.990   12.423   52.111
 3029     -999.990   11.446   56.548
 3029.5     -999.990   10.47   61.621
 3030     -999.990   11.763   66.693
 3030.5     -999.990   13.934   71.766
 3031     -999.990   16.105   75.007
 3031.5     -999.990   15.804   73.358
 3032     -999.990   14.51   71.708
 3032.5     -999.990   13.215   66.326
 3033     -999.990   11.92   66.71
 3033.5     -999.990   10.625   67.092
 3034     -999.990   9.33   65.316
 3034.5     -999.990   9.535   63.94
 3035     -999.990   10.692   65.694
 3035.5     -999.990   11.849   67.449
 3036     -999.990   13.007   68.422
 3036.5     -999.990   14.164   69.24
 3037     -999.990   15.321   70.058
 3037.5     -999.990   16.478   69.159
 3038     -999.990   15.818   67.835
 3038.5     -999.990   14.742   66.511
 3039     -999.990   13.666   59.881
 3039.5     -999.990   14.39   51.782
 3040     -999.990   15.66   48.676
 3040.5     -999.990   16.931   46.119
 3041     -999.990   16.754   43.562
 3041.5     -999.990   16.085   48.266
 3042     -999.990   15.415   50.197
 3042.5     -999.990   14.746   50.815
 3043     -999.990   14.077   51.433
 3043.5     -999.990   13.408   52.051
 3044     -999.990   12.739   52.063
 3044.5     -999.990   12.069   51.629
 3045     -999.990   12.059   51.196
 3045.5     -999.990   13.131   51.109
 3046     -999.990   14.203   51.049
 3046.5     -999.990   15.275   50.988
 3047     -999.990   14.083   50.928
 3047.5     -999.990   12.841   50.867
 3048     -999.990   11.6   50.807
 3048.5     -999.990   10.358   50.747
 3049     -999.990   10.825   50.689
 3049.5     -999.990   11.755   50.637
 3050     -999.990   21.233   50.584
 3050.5     -999.990   19.013   50.532
 3051     -999.990   16.794   50.479
 3051.5     -999.990   14.575   50.427
 3052     -999.990   12.355   50.374
 3052.5     -999.990   10.136   50.322
 3053     -999.990   7.916   50.269
 3053.5     -999.990   7.553   50.3
 3054     -999.990   8.104   50.374
 3054.5     -999.990   8.656   50.448
 3055     -999.990   9.207   50.521
 3055.5     -999.990   9.307   50.595
 3056     -999.990   8.966   50.669
 3056.5     -999.990   8.626   50.743
 3057     -999.990   8.381   50.817
 3057.5     -999.990   9.117   50.891
 3058     -999.990   9.854   50.965
 3058.5     -999.990   10.59   51.038
 3059     -999.990   11.327   51.112
 3059.5     -999.990   12.063   51.16
 3060     -999.990   12.8   51.081
 3060.5     -999.990   13.537   51.003
 3061     -999.990   14.273   50.924
 3061.5     -999.990   13.44   50.845
 3062     -999.990   12.125   50.767
 3062.5     -999.990   10.81   50.688
 3063     -999.990   9.495   50.609
 3063.5     -999.990   10.263   50.531
 3064     -999.990   11.132   50.452
 3064.5     -999.990   11.553   50.374
 3065     -999.990   10.96   50.295
 3065.5     -999.990   10.367   50.216
 3066     -999.990   9.774   50.138
 3066.5     -999.990   9.181   50.059
 3067     -999.990   11.019   50.023
 3067.5     -999.990   13.69   51.012
 3068     -999.990   16.362   52
 3068.5     -999.990   19.033   52.988
 3069     -999.990   21.705   53.976
 3069.5     -999.990   24.377   54.738
 3070     -999.990   27.048   53.711
 3070.5     -999.990   27.733   52.684
 3071     -999.990   24.154   51.657
 3071.5     -999.990   20.575   51.347
 3072     -999.990   16.996   51.323
 3072.5     -999.990   13.419   51.299
 3073     -999.990   13.213   51.275
 3073.5     -999.990   13.007   51.251
 3074     -999.990   12.802   51.227
 3074.5     -999.990   12.7   51.203
 3075     -999.990   13.002   51.161
 3075.5     -999.990   13.303   51.012
 3076     -999.990   13.605   50.864
 3076.5     -999.990   13.906   50.716
 3077     -999.990   14.208   50.568
 3077.5     -999.990   14.131   50.42
 3078     -999.990   13.706   50.272
 3078.5     -999.990   13.281   50.206
 3079     -999.990   12.857   50.3
 3079.5     -999.990   12.432   50.394
 3080     -999.990   13.436   50.489
 3080.5     -999.990   14.498   50.583
 3081     -999.990   15.56   50.677
 3081.5     -999.990   16.622   50.772
 3082     -999.990   15.863   50.866
 3082.5     -999.990   14.667   50.96
 3083     -999.990   13.471   51.054
 3083.5     -999.990   12.276   51.149
 3084     -999.990   13.913   51.243
 3084.5     -999.990   17.335   50.535
 3085     -999.990   19.34   50.634
 3085.5     -999.990   18.904   50.734
