#--------------------------------------------------#
#-------------------ENVERUS, INC.------------------#
#------------------WWW.ENVERUS.COM-----------------#
#------------------COPYRIGHT 2020------------------#
#--------------------------------------------------#
#THIS FILE MAY BE USED ONLY IN ACCORDANCE WITH A CURRENT SUBSCRIPTION AGREEMENT BETWEEN
#THE USER AND ENVERUS, INC. NO PART OF THIS FILE MAY BE REPRODUCED, USED, COPIED,
#MODIFIED, PROPAGATED, OR DISTRIBUTED EXCEPT IN ACCORDANCE WITH THE SUBSCRIPTION
#AGREEMENT. UNAUTHORIZED USE OR DISTRIBUTION OF ALL OR ANY PART OF THIS FILE MAY VIOLATE
#COPYRIGHT, TRADEMARK, AND/OR OTHER LAWS AND IS SUBJECT TO CIVIL AS WELL AS CRIMINAL
#SANCTIONS.
#--------------------------------------------------#
#THIS FILE IS PROVIDED "AS-IS" AND ALL WARRANTIES ARE EXPRESSLY DISCLAIMED, WHETHER
#EXPRESS, ORAL, IMPLIED, STATUTORY OR OTHERWISE, INCLUDING ANY IMPLIED WARRANTY OF FITNESS
#FOR A PARTICULAR PURPOSE, MERCHANTABILITY, TITLE OR NON-INFRINGEMENT, AND ANY WARRANTIES
#ARISING BY VIRTUE OF CUSTOM OF TRADE OR COURSE OF DEALING.  FURTHER, ENVERUS, INC.
#AND ITS LICENSORS DO NOT REPRESENT OR WARRANT THAT THIS FILE WILL MEET USER'S
#REQUIREMENTS OR ARE SUITABLE FOR USER'S NEEDS OR THAT THE DATA OR RESULTS PROVIDED IN
#CONJUNCTION THEREWITH ARE CORRECT, ACCURATE, TIMELY OR RELIABLE. THESE DISCLAIMERS SHALL
#APPLY REGARDLESS OF ANY FAILURE OF ESSENTIAL PURPOSE OF ANY LIMITED REMEDY.  SOME
#JURISDICTIONS DO NOT ALLOW THE EXCLUSION OF CERTAIN WARRANTIES SO SOME OF THE ABOVE
#EXCLUSIONS MAY NOT APPLY. IN NO EVENT SHALL ENVERUS, INC. OR ANY OF ITS AFFILIATES
#BE LIABLE UNDER ANY LEGAL THEORY, WHETHER IN TORT (INCLUDING WITHOUT LIMITATION
#NEGLIGENCE), CONTRACT, STRICT LIABILITY, STATUTORY OR OTHERWISE, FOR ANY SPECIAL,
#INCIDENTAL, CONSEQUENTIAL, EXEMPLARY, PUNITIVE OR INDIRECT DAMAGE OF ANY KIND, INCLUDING
#WITHOUT LIMITATION LOSS OF REVENUE, PROFITS, GOODWILL, USE, AND/OR DATA OR THE COST OF
#PROCUREMENT OF SUBSTITUTE GOODS OR SERVICES, EVEN IF APPRISED OF THE POSSIBILITY OF SUCH
#DAMAGES IN ADVANCE.
#--------------------------------------------------#

# EXPORTED FROM DI TRANSFORM
# DI TRANSFORM - A PRODUCT OF DRILLINGINFO, INC. - WWW.DRILLINGINFO.COM
#
~VERSION INFORMATION
 VERS.        2.0 : LAS ASCII STANDARD - VERSION 2.0
 WRAP.         NO : ONE LINE PER DEPTH STEP

~WELL INFORMATION
#MNEM.UNIT       DATA TYPE       INFORMATION
#---------       ---------       -----------
 STRT.FT           190 : START DEPTH
 STOP.FT         12010 : STOP DEPTH
 STEP.FT           0.5 : STEP LENGTH
 NULL.         -999.25 : NULL VALUE
 UWI.   42389335580000 : UNIQUE WELL ID
 API.   42389335580000 : WELL IDENTIFIER
 COMP.                 : COMPANY
 WELL.          DRD_55 : WELL NAME
 FLD.                  : FIELD NAME
 LOC.                  : WELL LOCATION
 CNTY.                 : COUNTY
 STAT.                 : STATE OR PROVINCE
 CTRY.                 : COUNTRY
 SRVC.                 : SERVICE COMPANY
 DATE.                 : DATE

~CURVE INFORMATION
#MNEM.UNIT       API CODE       CURVE DESCRIPTION
#---------       --------       -----------------
 DEPT.FT          : <MEASURED DEPTH>
 CAL.IN           : CALIPER
 DPHI.%           : DENSITY POROSITY
 DT.US/FT         : SONIC
 GR.GAPI          : GAMMA RAY
 NPHI.%           : NEUTRON POROSITY
 RHOB.G/CM3       : DENSITY

~PARAMETER INFORMATION
#MNEM.UNIT       VALUE       DESCRIPTION
#---------       -----       -----------
 EKB.FT      2793 : ELEVATION ABOVE MSL

~A      DEPT         CAL        DPHI          DT          GR        NPHI        RHOB
# ...
        9405       8.834     13.0075     77.8134     87.5502     22.2425      2.4947
      9405.5       8.834     13.6241      77.425     84.3012      22.083      2.4912
        9406       8.834     13.3876     76.9436     79.4494     23.7941       2.496
      9406.5       8.834     12.9857     76.4041     70.5937     19.5089       2.505
        9407       8.834     13.1315     75.6099     73.5609      18.164      2.5168
      9407.5       8.834     12.3245     74.9451     78.9276     18.6871      2.5141
        9408       8.834     12.1981      74.476     80.7758     22.4658      2.4972
      9408.5       8.834      14.464     74.4603     82.4328     17.7458      2.4793
        9409       8.834     13.3181     74.7086     80.0476     19.4422      2.4975
      9409.5       8.834      11.748      75.288     78.7298     20.6243      2.5287
        9410       8.834      8.5343     76.4186     82.0692     19.8745      2.5476
      9410.5       8.834     12.0101     77.5131     77.8494     18.6719       2.516
        9411      8.8341     13.1536     78.4809     83.2392     19.7097      2.4883
      9411.5       8.834      14.212     78.6362     91.1149     21.5445      2.4832
        9412       8.834      13.164     78.6901     96.1386     23.0958      2.4898
      9412.5       8.834     13.7307     78.4929     93.7639      22.491      2.4824
        9413       8.834     14.3159     78.2485     92.1369      23.151      2.4725
      9413.5       8.834     14.4851     77.9925     95.9415     19.2582      2.4726
        9414       8.834     14.8951     77.5234     82.9686     20.5787      2.4749
      9414.5       8.834     14.4108     76.6935     79.6788       21.37      2.4784
        9415       8.834     14.2945     75.2301     80.4735     19.2983      2.4848
      9415.5       8.834      14.231     73.4284     78.1403     21.7392       2.492
        9416       8.834     12.1901     70.6622     70.0071      19.022      2.4977
      9416.5       8.834     13.3901     67.4433     65.7449     17.4435      2.5028
        9417       8.834     12.7441      63.317     71.9336     16.6667      2.5261
      9417.5       8.834     10.3144     59.8017     44.3673     14.7681      2.5908
        9418       8.834      4.0703     56.1663     31.5134     12.2274      2.6653
      9418.5       8.834      0.2956     54.4312     22.9232      8.2605       2.701
        9419       8.834      0.3493     55.3953     20.0637      5.9004      2.6953
      9419.5       8.834        0.48      58.804     24.2994      5.5451      2.6507
        9420       8.834      5.0624     63.8638     33.0458      8.4698      2.5957
      9420.5       8.834      6.5891     68.3845     52.4303      9.8446      2.5564
        9421       8.834     11.2185      72.469      64.728     12.1472       2.515
      9421.5       8.834     12.6533     75.1384     67.4848      17.689      2.4941
        9422       8.834     13.8918     76.8328     69.7214      19.676       2.481
      9422.5       8.834     15.0896     77.4084     78.0146     19.2653      2.4686
        9423       8.834     14.6347     77.7211     87.8357     18.4383      2.4572
      9423.5       8.834     15.4846     77.7597     88.0675     22.4292      2.4484
        9424       8.834     16.0464     77.7597     81.4427     22.0006      2.4669
      9424.5       8.834     13.9512     78.1534      72.602     19.9131      2.4789
        9425       8.834     13.7896     78.8399     79.0622     20.0262      2.4859
      9425.5       8.834     13.5926     79.1039      93.241     20.5668      2.4759
        9426       8.834     15.1013     78.8525     99.9608     22.6901      2.4606
      9426.5       8.834     16.1136     78.3835     96.0822     23.4847      2.4478
        9427       8.834      14.315      77.985     92.0628      22.777      2.4772
      9427.5       8.834     14.6883     77.8819     95.1681     21.4371       2.453
        9428       8.834     16.2989     78.0041    107.5375     20.5925      2.4457
      9428.5       8.834     15.4356     78.0041    100.7714     19.2598      2.4569
        9429       8.834     15.3281     77.7118     96.0434     21.1388      2.4498
      9429.5       8.834     16.7485     77.3991     79.3913     20.8867      2.4455
        9430       8.834      16.248     77.2086     77.7328     19.3321      2.4659
      9430.5       8.834     14.9214     76.9043     82.1116     18.2997      2.4749
        9431       8.834     14.0348     76.7054     87.0568     19.7511      2.4799
      9431.5       8.834     14.5183     76.3087     85.8177     19.8615      2.4834
        9432       8.834     13.8663       75.79     80.6449     17.2251       2.491
      9432.5       8.834     12.8828     75.4006     76.7333     18.1101      2.5022
        9433       8.834     12.6249     75.1935     65.3047     19.3925      2.5114
      9433.5       8.834      11.567     75.5929     62.0514      18.938      2.5204
        9434       8.834     11.0973     76.5921     61.7145     18.1382      2.5243
      9434.5       8.834     11.5853     77.7135     84.8153     18.9241      2.5097
        9435       8.834     12.5024     78.5051     84.9065     20.9068      2.4933
      9435.5       8.834     13.4714     78.7373     97.1118     21.8711      2.4724
        9436       8.834     15.7397     78.7373     90.7271     23.2932      2.4525
      9436.5       8.834     16.5014     78.5202      85.027     25.5614       2.446
        9437       8.834     16.2646     78.7783     81.6648     20.3851      2.4627
      9437.5       8.834     14.6083     79.3225     76.7062     18.5036      2.4734
        9438       8.834     14.1513     79.9202     75.6365     17.5671      2.4778
      9438.5       8.834      14.272     80.4504     99.3674     21.4202      2.4709
        9439       8.834     14.8285     80.8147    112.2426     21.9188      2.4647
      9439.5       8.834     16.2151     80.9528     98.9807     23.3018       2.459
        9440       8.834     15.1072     81.1813     98.5371     19.1072      2.4549
      9440.5       8.834     15.8136     81.1509    105.7826       20.71      2.4502
        9441       8.834     16.2998     80.8382    100.4685      22.322      2.4442
      9441.5       8.834     16.4213     80.5255    101.4901     23.3379      2.4446
        9442       8.834     15.6646     80.2128     98.4924     21.0688      2.4556
      9442.5       8.834      15.293     79.9593     98.0423     20.8441      2.4525
        9443       8.834     16.9316     80.0815    104.6779      19.254      2.4318
      9443.5       8.834     17.8869     80.0815     97.5286     23.8589      2.4174
        9444       8.834     18.1734     80.0815     94.8401     23.2569      2.4157
      9444.5       8.834     17.6105     79.8712     94.9013     21.0525      2.4247
        9445       8.834     17.4855     79.5585     93.5463     20.8384       2.429
      9445.5       8.834     16.9498     79.1946     90.1706     20.9202      2.4361
        9446      8.8745     16.3745     78.8109     84.0361     20.1875      2.4448
      9446.5      8.8745     15.9461     78.4982     81.2253     18.2159      2.4581
        9447      8.8745     14.5655     78.2724      83.728     17.6787       2.474
      9447.5      8.8745       14.64     78.1172     91.8614     18.7444      2.4645
        9448      8.8745     17.3323     78.0815     92.9732     21.0284      2.4406
      9448.5      8.8745     16.4445      78.272     88.5965     21.8098      2.4337
        9449      8.8745      17.521     78.5847     91.6076      19.472      2.4312
      9449.5      8.8745     16.3281     78.8595     84.9374     20.6243      2.4489
        9450      8.8745     15.0714     78.9817     80.9396      20.583       2.462
      9450.5      8.8745     15.4085     78.8071     81.3765     21.3099      2.4571
        9451      8.8745     15.7669     78.4341     78.0267     20.3456      2.4583
      9451.5      8.8745     15.7669     77.8094     75.9109      21.466      2.4609
        9452      8.8745     15.5708     77.1358     74.9214     20.0166      2.4657
