#--------------------------------------------------#
#-------------------ENVERUS, INC.------------------#
#------------------WWW.ENVERUS.COM-----------------#
#------------------COPYRIGHT 2020------------------#
#--------------------------------------------------#
#THIS FILE MAY BE USED ONLY IN ACCORDANCE WITH A CURRENT SUBSCRIPTION AGREEMENT BETWEEN
#THE USER AND ENVERUS, INC. NO PART OF THIS FILE MAY BE REPRODUCED, USED, COPIED,
#MODIFIED, PROPAGATED, OR DISTRIBUTED EXCEPT IN ACCORDANCE WITH THE SUBSCRIPTION
#AGREEMENT. UNAUTHORIZED USE OR DISTRIBUTION OF ALL OR ANY PART OF THIS FILE MAY VIOLATE
#COPYRIGHT, TRADEMARK, AND/OR OTHER LAWS AND IS SUBJECT TO CIVIL AS WELL AS CRIMINAL
#SANCTIONS.
#--------------------------------------------------#
#THIS FILE IS PROVIDED "AS-IS" AND ALL WARRANTIES ARE EXPRESSLY DISCLAIMED, WHETHER
#EXPRESS, ORAL, IMPLIED, STATUTORY OR OTHERWISE, INCLUDING ANY IMPLIED WARRANTY OF FITNESS
#FOR A PARTICULAR PURPOSE, MERCHANTABILITY, TITLE OR NON-INFRINGEMENT, AND ANY WARRANTIES
#ARISING BY VIRTUE OF CUSTOM OF TRADE OR COURSE OF DEALING.  FURTHER, ENVERUS, INC.
#AND ITS LICENSORS DO NOT REPRESENT OR WARRANT THAT THIS FILE WILL MEET USER'S
#REQUIREMENTS OR ARE SUITABLE FOR USER'S NEEDS OR THAT THE DATA OR RESULTS PROVIDED IN
#CONJUNCTION THEREWITH ARE CORRECT, ACCURATE, TIMELY OR RELIABLE. THESE DISCLAIMERS SHALL
#APPLY REGARDLESS OF ANY FAILURE OF ESSENTIAL PURPOSE OF ANY LIMITED REMEDY.  SOME
#JURISDICTIONS DO NOT ALLOW THE EXCLUSION OF CERTAIN WARRANTIES SO SOME OF THE ABOVE
#EXCLUSIONS MAY NOT APPLY. IN NO EVENT SHALL ENVERUS, INC. OR ANY OF ITS AFFILIATES
#BE LIABLE UNDER ANY LEGAL THEORY, WHETHER IN TORT (INCLUDING WITHOUT LIMITATION
#NEGLIGENCE), CONTRACT, STRICT LIABILITY, STATUTORY OR OTHERWISE, FOR ANY SPECIAL,
#INCIDENTAL, CONSEQUENTIAL, EXEMPLARY, PUNITIVE OR INDIRECT DAMAGE OF ANY KIND, INCLUDING
#WITHOUT LIMITATION LOSS OF REVENUE, PROFITS, GOODWILL, USE, AND/OR DATA OR THE COST OF
#PROCUREMENT OF SUBSTITUTE GOODS OR SERVICES, EVEN IF APPRISED OF THE POSSIBILITY OF SUCH
#DAMAGES IN ADVANCE.
#--------------------------------------------------#

~VERSION INFORMATION
VERS. 2.0 : CWLS LOG ASCII STANDARD - VERSION 2.0
WRAP. NO : ONE LINE PER DEPTH STEP
~WELL INFORMATION
#MNEMONIC     .UNIT              VALUE :DESCRIPTION
STRT       .FT                101.00000 :START DEPTH
STOP       .FT                5802.00000 :STOP DEPTH
STEP       .FT                0.50000 :STEP
NULL       .                -999.25000 :NULL VALUE
UWI       .                42389010150000 :UNIQUE WELL ID
API       .                42389010150000 :API NUMBER
COMP       .                 :COMPANY
WELL       .                 :WELL
FLD       .                 :FIELD
LOC       .                 :LOCATION
CNTY       .                 :COUNTY
STAT       .                 :STATE
CTRY       .                 :COUNTRY
SRVC       .                 :SERVICE COMPANY
DATE       .                 :DATE
~CURVE INFORMATION
#MNEMONIC     .UNIT      API CODE :CURVE DESCRIPTION
DEPTH       .FT                      :MEASURED DEPTH
DT       .US/FT        UNKNOWN   :DT
GR       .GAPI        UNKNOWN   :GR
~A    DEPTH    DT    GR
# ...
3079.00000    -999.25000    5.65379
3079.50000    -999.25000    6.12586
3080.00000    -999.25000    6.95543
3080.50000    -999.25000    7.78499
3081.00000    -999.25000    8.61456
3081.50000    -999.25000    9.21272
3082.00000    -999.25000    9.18115
3082.50000    -999.25000    9.14958
3083.00000    -999.25000    9.11802
3083.50000    -999.25000    9.08645
3084.00000    -999.25000    9.05488
3084.50000    -999.25000    9.25043
3085.00000    -999.25000    9.85594
3085.50000    -999.25000    10.46145
3086.00000    -999.25000    11.06695
3086.50000    -999.25000    10.56839
3087.00000    -999.25000    9.99991
3087.50000    -999.25000    9.43143
3088.00000    -999.25000    8.86295
3088.50000    -999.25000    8.29447
3089.00000    -999.25000    7.72599
3089.50000    -999.25000    10.49982
3090.00000    -999.25000    9.95563
3090.50000    -999.25000    9.41143
3091.00000    -999.25000    8.86724
3091.50000    -999.25000    8.32304
3092.00000    -999.25000    10.33117
3092.50000    -999.25000    10.28551
3093.00000    -999.25000    10.23984
3093.50000    -999.25000    10.19417
3094.00000    -999.25000    10.14850
3094.50000    -999.25000    10.10283
3095.00000    -999.25000    10.05716
3095.50000    -999.25000    10.52958
3096.00000    -999.25000    11.06648
3096.50000    -999.25000    11.60339
3097.00000    -999.25000    12.14029
3097.50000    -999.25000    11.41681
3098.00000    -999.25000    10.47518
3098.50000    -999.25000    9.53355
3099.00000    -999.25000    9.47415
3099.50000    -999.25000    9.74324
3100.00000    -999.25000    10.01233
3100.50000    -999.25000    10.28142
3101.00000    -999.25000    10.20758
3101.50000    -999.25000    9.97797
3102.00000    -999.25000    9.74836
3102.50000    -999.25000    9.51875
3103.00000    -999.25000    9.29466
3103.50000    -999.25000    9.41487
3104.00000    -999.25000    9.53508
3104.50000    -999.25000    9.65529
3105.00000    -999.25000    9.77550
3105.50000    -999.25000    9.75733
3106.00000    -999.25000    9.49908
3106.50000    -999.25000    10.45140
3107.00000    -999.25000    11.40372
3107.50000    -999.25000    12.35603
3108.00000    -999.25000    17.11325
3108.50000    -999.25000    27.99364
3109.00000    -999.25000    33.07189
3109.50000    -999.25000    23.83475
3110.00000    -999.25000    14.93255
3110.50000    -999.25000    15.43513
3111.00000    -999.25000    15.93771
3111.50000    -999.25000    16.44029
3112.00000    -999.25000    16.69099
3112.50000    -999.25000    16.37754
3113.00000    -999.25000    16.06409
3113.50000    -999.25000    15.75064
3114.00000    -999.25000    15.43719
3114.50000    -999.25000    15.12374
3115.00000    -999.25000    14.81029
3115.50000    -999.25000    14.49684
3116.00000    -999.25000    14.18339
3116.50000    -999.25000    13.86994
3117.00000    -999.25000    13.44320
3117.50000    -999.25000    12.79339
3118.00000    -999.25000    12.14359
3118.50000    -999.25000    11.49378
3119.00000    -999.25000    10.84398
3119.50000    -999.25000    10.87200
3120.00000    -999.25000    10.92428
3120.50000    -999.25000    10.97656
3121.00000    -999.25000    11.02884
3121.50000    -999.25000    11.08111
3122.00000    -999.25000    11.13339
3122.50000    -999.25000    11.18567
3123.00000    -999.25000    11.19356
3123.50000    -999.25000    11.00848
3124.00000    -999.25000    10.82340
3124.50000    -999.25000    10.63832
3125.00000    -999.25000    10.45324
3125.50000    -999.25000    10.26816
3126.00000    -999.25000    10.08308
3126.50000    -999.25000    9.89800
3127.00000    -999.25000    9.71292
3127.50000    -999.25000    9.91735
3128.00000    -999.25000    10.23531
3128.50000    -999.25000    10.55327
3129.00000    -999.25000    10.87124
3129.50000    -999.25000    11.18920
3130.00000    -999.25000    11.04038
3130.50000    -999.25000    10.77688
3131.00000    -999.25000    10.51337
3131.50000    -999.25000    10.24987
3132.00000    -999.25000    9.98637
3132.50000    -999.25000    9.72286
3133.00000    -999.25000    9.45936
3133.50000    -999.25000    9.19586
3134.00000    -999.25000    8.93236
3134.50000    -999.25000    8.66885
3135.00000    -999.25000    8.40535
3135.50000    -999.25000    8.14185
3136.00000    -999.25000    8.28262
3136.50000    -999.25000    8.44238
3137.00000    -999.25000    8.60214
3137.50000    -999.25000    8.76189
3138.00000    -999.25000    8.92165
3138.50000    -999.25000    8.31031
3139.00000    -999.25000    7.75982
3139.50000    -999.25000    7.23776
3140.00000    -999.25000    6.71571
3140.50000    -999.25000    6.19365
3141.00000    -999.25000    5.70982
3141.50000    -999.25000    6.04284
3142.00000    -999.25000    6.37586
3142.50000    -999.25000    6.70888
3143.00000    -999.25000    7.04190
3143.50000    -999.25000    7.37492
3144.00000    -999.25000    7.70794
3144.50000    -999.25000    7.71765
3145.00000    -999.25000    7.43094
3145.50000    -999.25000    7.14423
3146.00000    -999.25000    6.85751
3146.50000    -999.25000    6.57080
3147.00000    -999.25000    6.28409
3147.50000    -999.25000    5.99737
3148.00000    -999.25000    5.70720
3148.50000    -999.25000    5.32189
3149.00000    -999.25000    4.93659
3149.50000    -999.25000    4.55128
3150.00000    -999.25000    4.16597
3150.50000    -999.25000    4.15890
3151.00000    -999.25000    4.16076
3151.50000    -999.25000    4.16262
3152.00000    -999.25000    4.16448
3152.50000    -999.25000    4.20814
3153.00000    -999.25000    4.34683
3153.50000    -999.25000    4.48552
3154.00000    -999.25000    4.62422
3154.50000    -999.25000    4.76291
3155.00000    -999.25000    4.90160
3155.50000    -999.25000    5.04030
3156.00000    -999.25000    5.17899
3156.50000    -999.25000    5.31768
3157.00000    -999.25000    5.45638
3157.50000    -999.25000    5.41781
3158.00000    -999.25000    5.37471
3158.50000    -999.25000    5.33161
3159.00000    -999.25000    5.28850
3159.50000    -999.25000    5.25752
3160.00000    -999.25000    5.23414
3160.50000    -999.25000    5.21076
3161.00000    -999.25000    5.18739
3161.50000    -999.25000    5.16401
3162.00000    -999.25000    5.14064
3162.50000    -999.25000    5.11726
3163.00000    -999.25000    5.09389
3163.50000    -999.25000    5.52359
3164.00000    -999.25000    6.04803
3164.50000    -999.25000    6.57247
3165.00000    -999.25000    7.09690
3165.50000    -999.25000    7.62134
3166.00000    -999.25000    8.14578
3166.50000    -999.25000    7.63995
3167.00000    -999.25000    6.61718
3167.50000    -999.25000    7.33865
3168.00000    -999.25000    8.06012
3168.50000    -999.25000    8.78159
3169.00000    -999.25000    9.50306
3169.50000    -999.25000    10.22454
3170.00000    -999.25000    10.94601
3170.50000    -999.25000    11.66748
3171.00000    -999.25000    12.38910
3171.50000    -999.25000    13.17192
3172.00000    -999.25000    13.95475
3172.50000    -999.25000    14.73757
3173.00000    -999.25000    15.52039
3173.50000    -999.25000    14.86367
3174.00000    -999.25000    14.17527
3174.50000    -999.25000    13.48686
3175.00000    -999.25000    13.74276
3175.50000    -999.25000    14.16656
3176.00000    -999.25000    14.59035
3176.50000    -999.25000    15.01415
3177.00000    -999.25000    15.25794
3177.50000    -999.25000    14.75731
3178.00000    -999.25000    14.25668
3178.50000    -999.25000    13.75605
3179.00000    -999.25000    13.25542
3179.50000    -999.25000    12.75479
3180.00000    -999.25000    12.25417
3180.50000    -999.25000    11.75354
3181.00000    -999.25000    11.49161
3181.50000    -999.25000    11.61985
3182.00000    -999.25000    11.74810
3182.50000    -999.25000    11.87634
3183.00000    -999.25000    12.00459
3183.50000    -999.25000    12.13283
3184.00000    -999.25000    12.26107
3184.50000    -999.25000    12.38932
3185.00000    -999.25000    11.82053
3185.50000    -999.25000    10.79507
3186.00000    -999.25000    10.14395
3186.50000    -999.25000    10.04083
3187.00000    -999.25000    9.93771
3187.50000    -999.25000    9.83459
3188.00000    -999.25000    9.31388
3188.50000    -999.25000    8.58437
