~Version Information Block
 VERS.                2.00:     CWLS LOG ASCII STANDARD - VERSION 2.000000
 WRAP.                  NO:     One Line Per Depth Step
#
~Well Information Block
#MNEM.UNIT                     Data                         Information
#----------   ------------------------------------------   ----------------
 STRT.FT                                       50.0000:     START DEPTH
 STOP.FT                                    15192.0000:     STOP DEPTH
 STEP.FT                                        0.5000:     STEP
 NULL.                                       -999.0000:     NULL VALUE
 COMP.                                 MOBIL PRODUCING:     COMPANY
 WELL.                                     ST MCINTYRE:     WELL
 FLD .                                   ROJO CABALLOS:     FIELD
 LOC .                                         UNKNOWN:     LOCATION
 LONG.                                 -103.1618580000:     LONGITUDE
 LATI.                                   31.1192890000:     LATITUDE
 CNTY.                                           PECOS:     COUNTY
 STAT.                                           TEXAS:     STATE
 CTRY.                                           U.S.A:     COUNTRY
 SRVC.                                         UNKNOWN:     SERVICE COMPANY
 DATE.                                         UNKNOWN:     DATE
 API .                                  42371053110000:     API NUMBER
 UWI .                                  42371053110000:     UWI NUMBER
 SLAT.                                       31.119289:     Surface latitude
 SLON.                                     -103.161858:     surface longitude
 TVD .                                              NO:     TVD flag
 WSTA.                                             LOC:     Well status
#
~Curve Information Block
#MNEM.UNIT       API CODE      Curve Description
#----------    -------------   -------------------
 DEPT.FT                   :   Depth in Feet
 DT  .UNKNOWN          UNKNOWN:   DT-Load
 DTedit.ft/s          UNKNOWN:   DT-Load
 GR  .UNKNOWN          UNKNOWN:   GR-Load
#
~Parameter Information Block
#MNEM.UNIT            Value               Description
#----------    --------------------    -------------------
 RUN .                         ONE:    Run Number
 PDAT.                          GL:    Permanent Datum
 EPD .FT                          :    Elevation Of Perm. Datum
 LMF .               KELLY BUSHING:    Log Measured From
 EKB .FT                          :    Elevation Of Kelly Bushing
 DF .FT                           :    Elevation Of Derrick Floor
 GL .FT                           :    Elevation Of Ground Level
 TD  .FT                          :    Total Depth
 CSGD.FT                          :    Casing Bottom (Driller) 1
 CSGL.FT                          :    Casing Bottom (Logger) 1
 MUD .                            :    Drilling Fluid Type
 MUDV .CP                         :    Drilling Fluid Viscosity
 MUDD .LB/USG                     :    Drilling Fluid Density
 FL .ML/30MIN                     :    Drilling Fluid Loss
 PH.                              :    Drilling Fluid Ph
 MUDS .                           :    Mud Sample Source
 RM .OHMM                         :    Resistivity Of Mud Sample
 RMT .DEGF                        :    Mud Sample Temperature
 RMF .OHMM                        :    Mud Filtrate Resistivity
 RMFT.DEGF                        :    Mud Filtrate Sample Temperature
 RMC .OHMM                        :    Mud Cake Resistivity
 RMCT.DEGF                        :    Mud Cake Sample Temperature
 RMB .OHMM                        :    Mud Resistivity At Bht
 TMAX .DEGF                       :    Bottom Hole Temperature
#
~Other Information Block
<DescLogPlotStart>   NEURALOG PLOT DEFINITION
PLOTDEFVERSION: 3
LASFILE: E:\Nair Innovations\42_TEXAS\371_Pecos\Mobil_St McIntyre 1 Pecos_1.las
DEPTHSCALE: 239.999996
RESOLUTION: 200
DEPTHLABELFREQ: 100.000000
HEAVYGRIDFREQ: 50.000000
MEDIUMGRIDFREQ: 50.000000
LIGHTGRIDFREQ: 10.000000
#
#   TRACK 1
#
STARTTRACK: 
 LEFTX: 0.500000 inch
 RIGHTX: 3.000000 inch
 SCALETYPE: Linear
 NUMCHARTDIVISIONS: 10
CURVE: GR    0.000000   150.000000 (255,0,0)      Short_Dash        4     N    
CURVE: DTedit 5571.227500 23879.853500 (0,131,131)    Solid             2     N
ENDTRACK: 
#
#   TRACK 2
#
STARTTRACK: 
 LEFTX: 3.750000 inch
 RIGHTX: 6.250000 inch
 SCALETYPE: Linear
 NUMCHARTDIVISIONS: 10
ENDTRACK: 
#
#   TRACK 3
#
STARTTRACK: 
 LEFTX: 6.250000 inch
 RIGHTX: 8.750000 inch
 SCALETYPE: Linear
 NUMCHARTDIVISIONS: 10
CURVE: DT    190.000000 50.000000  (255,0,131)    Solid             2     N    
ENDTRACK: 
<DescLogPlotEnd>
<DepthTrack type='Reference' track='1' Label='0' color='0' hor='0' />
<Reference font='144,0,-900,0,500,0,16777216,Arial' />
~A DEPTH     DT               DTedit             GR              
# ...
    8237.500 69.80940000      14324.71780000   52.58820000     
    8238.000 68.32980000      14634.90230000   49.23690000     
    8238.500 67.10610000      14901.77440000   47.79030000     
    8239.000 65.74790000      15209.61040000   49.24950000     
    8239.500 65.32760000      15307.46580000   53.11330000     
    8240.000 66.12510000      15122.85060000   56.44590000     
    8240.500 67.93370000      14720.23440000   63.48600000     
    8241.000 68.40720000      14618.34380000   69.25060000     
    8241.500 69.39220000      14410.84180000   75.21840000     
    8242.000 70.76550000      14131.17870000   77.72860000     
    8242.500 72.01820000      13885.37790000   79.01820000     
    8243.000 72.18850000      13852.62210000   77.50370000     
    8243.500 72.61990000      13770.32910000   72.67050000     
    8244.000 72.50570000      13792.01950000   66.99980000     
    8244.500 71.71150000      13944.76460000   59.43440000     
    8245.000 70.25090000      14234.69340000   53.47600000     
    8245.500 69.33450000      14422.83400000   50.71330000     
    8246.000 69.08330000      14475.27930000   51.43620000     
    8246.500 68.43570000      14612.25680000   52.43500000     
    8247.000 68.42260000      14615.05370000   53.61040000     
    8247.500 68.93490000      14506.44040000   57.73380000     
    8248.000 70.35050000      14214.54000000   62.42930000     
    8248.500 71.12610000      14059.53710000   62.65590000     
    8249.000 71.53530000      13979.11230000   61.84780000     
    8249.500 71.07180000      14070.27830000   58.82800000     
    8250.000 70.51570000      14181.23930000   55.39230000     
    8250.500 70.68510000      14147.25390000   52.81010000     
    8251.000 70.86770000      14110.80080000   52.11600000     
    8251.500 71.34030000      14017.32230000   52.34120000     
    8252.000 71.80440000      13926.72360000   54.37010000     
    8252.500 72.26460000      13838.03320000   56.44900000     
    8253.000 72.43820000      13804.87010000   59.04990000     
    8253.500 72.45510000      13801.65040000   61.07880000     
    8254.000 72.33180000      13825.17770000   60.13470000     
    8254.500 72.16670000      13856.80570000   57.57440000     
    8255.000 72.14660000      13860.66700000   57.09980000     
    8255.500 71.98390000      13891.99510000   57.44460000     
    8256.000 72.28270000      13834.56930000   56.87100000     
    8256.500 72.74960000      13745.77930000   56.21450000     
    8257.000 72.90190000      13717.06350000   56.06350000     
    8257.500 73.19530000      13662.08010000   55.36110000     
    8258.000 73.78720000      13552.48630000   52.20060000     
    8258.500 74.60900000      13403.20900000   47.60510000     
    8259.000 74.89420000      13352.16800000   46.26320000     
    8259.500 74.41750000      13437.69920000   46.65630000     
    8260.000 74.10050000      13495.18550000   45.89670000     
    8260.500 73.57190000      13592.14650000   45.06200000     
    8261.000 73.18900000      13663.25490000   44.36950000     
    8261.500 72.33790000      13824.01270000   44.21900000     
    8262.000 71.55160000      13975.92870000   44.30850000     
    8262.500 71.33670000      14018.03030000   45.19010000     
    8263.000 70.86580000      14111.17970000   46.54220000     
    8263.500 70.68920000      14146.43260000   48.65230000     
    8264.000 71.35690000      14014.06150000   51.93790000     
    8264.500 73.65820000      13576.22070000   54.30600000     
    8265.000 76.61000000      13053.12600000   55.28290000     
    8265.500 77.60580000      12885.63570000   55.70970000     
    8266.000 78.67430000      12710.63090000   56.50520000     
    8266.500 80.58780000      12408.82620000   58.83420000     
    8267.000 81.00060000      12345.58690000   59.46570000     
    8267.500 79.39870000      12594.66500000   57.13360000     
    8268.000 76.46510000      13077.86130000   51.23140000     
    8268.500 73.45300000      13614.14750000   45.15420000     
    8269.000 69.88560000      14309.09960000   43.27140000     
    8269.500 67.98730000      14708.62990000   44.70720000     
    8270.000 67.42970000      14830.25980000   47.96150000     
    8270.500 67.82960000      14742.82710000   52.03800000     
    8271.000 69.45410000      14397.99800000   58.29650000     
    8271.500 71.64220000      13958.25390000   63.12960000     
    8272.000 73.07870000      13683.87790000   65.66800000     
    8272.500 73.62210000      13582.87790000   66.56590000     
    8273.000 72.83740000      13729.21000000   66.43540000     
    8273.500 72.69560000      13755.99020000   64.03610000     
    8274.000 72.13260000      13863.35740000   57.39620000     
    8274.500 71.32530000      14020.27050000   51.90670000     
    8275.000 70.49760000      14184.88090000   48.82120000     
    8275.500 70.42700000      14199.09960000   50.05600000     
    8276.000 70.84390000      14115.54100000   54.10130000     
    8276.500 71.81490000      13924.68650000   60.47240000     
    8277.000 72.41030000      13810.18950000   71.17630000     
    8277.500 72.99580000      13699.41890000   77.06290000     
    8278.000 72.99390000      13699.77540000   75.79680000     
    8278.500 72.76030000      13743.75880000   68.06260000     
    8279.000 72.61110000      13771.99900000   59.49700000     
    8279.500 72.84270000      13728.21190000   50.04350000     
    8280.000 73.33440000      13636.16600000   45.91690000     
    8280.500 72.73330000      13748.86040000   44.86030000     
    8281.000 72.13260000      13863.35740000   48.54920000     
    8281.500 72.53860000      13785.76460000   53.90740000     
    8282.000 72.59610000      13774.84470000   61.24760000     
    8282.500 72.00820000      13887.30660000   65.97120000     
    8283.000 71.85390000      13917.12990000   68.38770000     
    8283.500 72.24430000      13841.92190000   69.41780000     
    8284.000 73.42880000      13618.63380000   70.43540000     
    8284.500 75.02540000      13328.81930000   72.02190000     
    8285.000 75.40690000      13261.38570000   73.43330000     
    8285.500 75.24600000      13289.74220000   75.18710000     
    8286.000 74.76140000      13375.88670000   71.62650000     
    8286.500 73.14970000      13670.59670000   65.83060000     
    8287.000 71.37660000      14010.19340000   62.31050000     
    8287.500 69.92940000      14300.13770000   57.92140000     
    8288.000 70.73520000      14137.23340000   54.07310000     
    8288.500 71.93640000      13901.16800000   52.58150000     
    8289.000 72.85850000      13725.23540000   53.08840000     
    8289.500 73.76390000      13556.76660000   55.27670000     
    8290.000 74.57120000      13410.00290000   59.49700000     
    8290.500 75.35440000      13270.62500000   66.27440000     
    8291.000 74.79000000      13370.77150000   70.83240000     
    8291.500 73.62210000      13582.87790000   71.21530000     
    8292.000 72.54160000      13785.19340000   68.86290000     
    8292.500 71.01570000      14081.39260000   68.05320000     
    8293.000 71.31020000      14023.23830000   70.98560000     
    8293.500 71.71060000      13944.93950000   72.50810000     
    8294.000 71.75150000      13936.99020000   72.78080000     
    8294.500 72.05750000      13877.80570000   72.28920000     
    8295.000 72.55970000      13781.75490000   68.25650000     
    8295.500 73.49450000      13606.46090000   62.07290000     
    8296.000 73.18590000      13663.83500000   57.33990000     
    8296.500 73.14820000      13670.87600000   54.58190000     
    8297.000 73.07280000      13684.98240000   54.31700000     
    8297.500 71.29810000      14025.61820000   57.62130000     
    8298.000 69.83890000      14318.66800000   60.50670000     
    8298.500 69.84640000      14317.13090000   62.19170000     
    8299.000 70.17990000      14249.09380000   63.04910000     
    8299.500 69.94600000      14296.74320000   64.20180000     
