~Version Information Block
 VERS.                2.00:     CWLS LOG ASCII STANDARD - VERSION 2.000000
 WRAP.                  NO:     One Line Per Depth Step
#
~Well Information Block
#MNEM.UNIT                     Data                         Information
#----------   ------------------------------------------   ----------------
 STRT.FT                                     5200.0000:     START DEPTH
 STOP.FT                                    11550.0000:     STOP DEPTH
 STEP.FT                                        0.5000:     STEP
 NULL.                                       -999.2500:     NULL VALUE
 COMP.               AMERICAN QUASAR PETROLEUM COMPANY:     COMPANY
 WELL.                               MCCARTER # 1 - 31:     WELL
 FLD .                                         WILDCAT:     FIELD
 LOC .                                                :     LOCATION
 CNTY.                                          REEVES:     COUNTY
 STAT.                                           TEXAS:     STATE
 CTRY.                                             USA:     COUNTRY
 SRVC.                                                :     SERVICE COMPANY
 DATE.                                      08/07/2015:     DATE
 API .                                  42389311800000:     API NUMBER
 UWI .                                  42389311800000:     UWI NUMBER
 TVD .                                              NO:     TVD flag
 WSTA.                                             LOC:     Well status
#
~Curve Information Block
#MNEM.UNIT       API CODE      Curve Description
#----------    -------------   -------------------
 DEPT.FT                   :   Depth in Feet
 GR  .GAPI                 :   Gamma Ray
 LLD .OHMM                 :   Latero-Log Deep (Resistivity)
 CALI.IN                   :   Caliper
 DT  .US/F                 :   Delta-T
#
~Parameter Information Block
#MNEM.UNIT            Value               Description
#----------    --------------------    -------------------
 RUN .                         ONE:    Run Number
 PDAT.                          GL:    Permanent Datum
 EPD .FT                          :    Elevation Of Perm. Datum
 LMF .               KELLY BUSHING:    Log Measured From
 EKB .FT                          :    Elevation Of Kelly Bushing
 DF .FT                           :    Elevation Of Derrick Floor
 GL .FT                           :    Elevation Of Ground Level
 TD  .FT                          :    Total Depth
 CSGD.FT                          :    Casing Bottom (Driller) 1
 CSGL.FT                          :    Casing Bottom (Logger) 1
 MUD .                            :    Drilling Fluid Type
 MUDV .CP                         :    Drilling Fluid Viscosity
 MUDD .LB/USG                     :    Drilling Fluid Density
 FL .ML/30MIN                     :    Drilling Fluid Loss
 PH.                              :    Drilling Fluid Ph
 MUDS .                           :    Mud Sample Source
 RM .OHMM                         :    Resistivity Of Mud Sample
 RMT .DEGF                        :    Mud Sample Temperature
 RMF .OHMM                        :    Mud Filtrate Resistivity
 RMFT.DEGF                        :    Mud Filtrate Sample Temperature
 RMC .OHMM                        :    Mud Cake Resistivity
 RMCT.DEGF                        :    Mud Cake Sample Temperature
 RMB .OHMM                        :    Mud Resistivity At Bht
 TMAX .DEGF                       :    Bottom Hole Temperature    
#
~Other Information Block
<DescLogPlotStart>   NEURALOG PLOT DEFINITION
PLOTDEFVERSION: 3
LASFILE: E:\Nair Innovations\Texas - NII\Shivam\42389311800000\42389311800000_G
DEPTHSCALE: 239.999996
RESOLUTION: 200
DEPTHLABELFREQ: 100.000000
HEAVYGRIDFREQ: 100.000000
MEDIUMGRIDFREQ: 50.000000
LIGHTGRIDFREQ: 10.000000
#
#   TRACK 1
#
STARTTRACK: 
 LEFTX: 0.500000 inch
 RIGHTX: 3.000000 inch
 SCALETYPE: Linear
 NUMCHARTDIVISIONS: 10
CURVE: GR    0.000000   125.000000 (0,0,255)      Solid             2     Y    
BACKUP: 125.000000 250.000000 (0,0,255)      Solid             2    
CURVE: CALI  6.000000   16.000000  (0,0,255)      Solid             2     N    
ENDTRACK: 
#
#   TRACK 2
#
STARTTRACK: 
 LEFTX: 3.500000 inch
 RIGHTX: 8.500000 inch
 SCALETYPE: Log
 NUMCYCLES: 4
 STARTCYCLE: 2
CURVE: LLD   0.200000   2000.000000 (0,131,131)    Solid             2     Y   
BACKUP: 2000.000000 20000000.000000 (0,131,131)    Solid             2    
ENDTRACK: 
#
#   TRACK 3
#
STARTTRACK: 
 LEFTX: 3.500000 inch
 RIGHTX: 8.500000 inch
 SCALETYPE: Linear
 NUMCHARTDIVISIONS: 10
CURVE: DT    100.000000 40.000000  (0,131,131)    Solid             2     Y    
BACKUP: 160.000000 100.000000 (0,131,131)    Solid             2    
BACKUP: 40.000000  -20.000000 (0,131,131)    Solid             2    
ENDTRACK: 
<DescLogPlotEnd>
<DepthTrack type='Reference' track='1' Label='0' color='0' hor='0' />
<Reference font='144,0,-900,0,500,0,16777216,Arial' />
~A DEPTH     GR               LLD              CALI             DT              
# ...
   11486.500 49.80769957      13.89035555      12.67898121      76.42497502     
   11487.000 57.87857483      11.02841148      12.67362353      77.92353361     
   11487.500 64.55628950      10.14941048      12.66962995      80.65755673     
   11488.000 72.51234252      9.60268585       12.66568765      83.39157985     
   11488.500 78.59195559      8.42945574       12.66172966      86.12560297     
   11489.000 80.28825202      7.72830234       12.65776886      88.29190809     
   11489.500 81.10945241      6.28093044       12.65380806      88.28171828     
   11490.000 81.36122669      6.05329612       12.64984725      88.94705295     
   11490.500 81.07418670      5.94259164       12.64588645      89.47310190     
   11491.000 80.39757462      6.10941934       12.64192565      89.99915085     
   11491.500 82.27490387      6.76220156       12.63796485      88.76123876     
   11492.000 85.37591564      7.21346990       12.63400405      87.68231768     
   11492.500 87.75015488      7.69485315       12.63004325      87.47152847     
   11493.000 85.84087683      7.83820050       12.62608244      87.26273726     
   11493.500 77.14926757      7.48473258       12.62212164      84.20579421     
   11494.000 68.86321151      8.13295618       12.61816084      84.62537463     
   11494.500 69.35344109      8.75613726       12.61420004      82.27737263     
   11495.000 72.29167127      9.51447228       12.61023924      81.20879121     
   11495.500 74.02600950      9.60268585       12.60627844      80.78921079     
   11496.000 72.68957363      9.78157419       12.60231764      80.48951049     
   11496.500 71.39159369      9.40551761       12.59835683      81.50007265     
   11497.000 73.02858744      8.77555282       12.59439603      82.22777223     
   11497.500 77.39026214      8.36127448       12.59043523      83.24675325     
   11498.000 80.17079101      8.28446494       12.58647443      84.92507493     
   11498.500 81.85378510      8.33442950       12.58251363      86.88691309     
   11499.000 81.76397157      8.39128402       12.57855283      87.80219780     
   11499.500 81.55944868      8.44852637       12.57459203      87.89613244     
   11500.000 81.45791614      8.50615921       12.57063122      85.82270151     
   11500.500 81.17848506      8.56418520       12.56667042      82.81459501     
   11501.000 74.73145108      9.00700354       12.56270962      79.82595277     
   11501.500 68.62527593      8.99629080       12.55874882      77.12914547     
   11502.000 70.43416406      9.50835093       12.55478802      76.90192101     
   11502.500 75.11403477      9.77875846       12.55082722      78.35414585     
   11503.000 80.99179154      9.44077778       12.54686642      80.94480519     
   11503.500 82.53520927      9.09532971       12.54290561      83.53546454     
   11504.000 83.53826844      8.13295618       12.53894481      86.12612388     
   11504.500 83.74230977      7.91087249       12.53498401      89.72027972     
   11505.000 83.57979073      8.91925525       12.53102321      88.63636364     
   11505.500 83.57979073      8.91925525       12.52706241      85.28266020     
   11506.000 83.57979073      8.91925525       12.52310161      79.80165549     
   11506.500 64.55557985      21.94380673      12.51914081      74.32065078     
   11507.000 59.95059080      22.14828824      12.51518000      72.29410879     
   11507.500 51.41781662      22.14828824      12.51121920      72.10435653     
   11508.000 48.19329244      12.10889511      12.50725191      71.30610883     
   11508.500 49.30454834      9.29179206       12.50329047      78.21514486     
   11509.000 59.05747998      9.21027706       12.49938890      83.61382617     
   11509.500 71.54432313      9.17616926       12.49899055      87.74225774     
   11510.000 74.86014764      9.22040740       12.50401339      79.59640360     
   11510.500 65.16912165      13.09409986      12.50895757      69.14453546     
   11511.000 57.62016894      17.84362830      12.51392031      67.71904096     
   11511.500 50.05718250      18.56967986      12.51887829      66.22377622     
   11512.000 42.55196308      18.74271986      12.52383628      65.80419580     
   11512.500 45.25322806      14.96252756      12.52879426      73.35664336     
   11513.000 51.92955319      11.81097989      12.53375225      78.30063270     
   11513.500 64.25517117      9.32324070       12.53871023      81.29990010     
   11514.000 72.82575839      8.51992627       12.54366822      83.43166833     
   11514.500 75.86196197      8.48837500       12.54862620      84.41738262     
   11515.000 82.42551514      8.40221017       12.55358419      85.41958042     
   11515.500 81.14423717      8.36333401       12.55854217      86.30369630     
   11516.000 79.81059802      8.28612049       12.56350016      86.66333666     
   11516.500 77.43379780      8.44126704       12.56845815      85.75704296     
   11517.000 76.45953886      8.44126704       12.57341613      85.10009990     
   11517.500 77.21243176      8.44126704       12.57837412      84.62537463     
   11518.000 77.14619570      8.51992627       12.58333210      84.73166833     
   11518.500 75.88260545      8.59931849       12.58829009      84.93386613     
   11519.000 74.57928322      8.59931849       12.59324807      85.76423576     
   11519.500 74.20956758      8.59931849       12.59820606      86.29410589     
   11520.000 74.01832203      8.67945051       12.60316404      86.49114522     
   11520.500 85.13254102      8.73598681       12.60812203      86.65657978     
   11521.000 86.35262811      10.25651417      12.61308001      87.02537463     
   11521.500 85.77908223      10.35208863      12.61803800      87.56243756     
   11522.000 82.41831325      10.44882590      12.62299598      87.08381618     
   11522.500 76.27115401      10.45133096      12.62795397      85.47850953     
   11523.000 77.01550654      10.44849587      12.63291195      84.32363640     
   11523.500 76.42336464      10.44709261      12.63786994      83.30374236     
   11524.000 77.92132855      10.45222630      12.64282964      83.94481640     
   11524.500 81.52289553      10.07346588      12.64779904      84.93382492     
   11525.000 81.85718133      9.34798077       12.65274339      85.75963013     
   11525.500 82.27107184      9.26167662       12.65680032      85.77737262     
   11526.000 80.09430765      9.26167662       12.65558658      85.06137139     
   11526.500 73.18581887      9.34798077       12.65378008      84.52724792     
   11527.000 70.89260199      9.54954467       12.65196945      83.54108462     
   11527.500 70.82215501      9.70131486       12.65015914      82.84755772     
   11528.000 72.30896057      9.70131486       12.64835015      83.10488042     
   11528.500 75.68460530      9.43508914       12.64654115      83.62740487     
   11529.000 77.64727831      9.26167662       12.64473216      84.74525475     
   11529.500 79.85205416      8.36333401       12.64292316      85.88411588     
   11530.000 81.72662696      8.36333401       12.64111417      86.74475524     
   11530.500 79.87749332      8.36333401       12.63930517      87.07332667     
   11531.000 77.44344060      8.97922906       12.63749618      87.32267732     
   11531.500 73.27812354      9.55786416       12.63568718      86.91508492     
   11532.000 70.55193339      10.15223381      12.63387819      84.86613387     
   11532.500 74.01651840      10.64114994      12.63206919      80.90909091     
   11533.000 77.31974349      10.52637256      12.63026020      81.80819181     
   11533.500 80.94123172      10.25651417      12.62845121      80.36243756     
   11534.000 81.29351163      9.34798077       12.62664221      82.16423576     
   11534.500 81.56119392      8.76032924       12.62483322      91.16579421     
   11535.000 80.51192531      8.51992627       12.62302422      91.74205794     
   11535.500 80.22169940      8.36333401       12.62121523      92.05794206     
