###############################################
##         ENVERUS                           ##
##         ESS - Open Hole                   ##
##         PERMIAN / DELAWARE                ##
##         Nov 04 2023  V4.0                 ##
##         42-389-10119-00-00                ##
###############################################
## Copyright 2017-2023  ENVERUS.  All Rights Reserved. 
## Confidential - Property of ENVERUS, use governed by terms and 
## conditions found within the existing Information Services Subscription Agreement 
## (as may be amended, the “ISSA”) between Customer and ENVERUS. 
## 
~VERSION INFORMATION
# MNEM.UNIT                               DATA : DESCRIPTION OF MNEMONIC
#-----.-----     ----------------------------- : -----------------------------
VERS.                                     2.00 : CWLS LOG ASCII STANDARD - VERSION 2.00
WRAP.                                       NO : MULTIPLE LINES PER DEPTH STEP
VEND.                                  ENVERUS : VENDOR
TYPE.                          ESS - OPEN HOLE : ENVERUS ESSENTIAL CURVES – ACCESSIBLE THROUGH ENVERUS PRISM(TM)
DOC.                                  32008410 : ENVERUS HEADER RAW DOCUMENT ID
#___________________________________________________________________________________________________ 
~WELL INFORMATION 
# X8E3XgEZRMs+LiTqjMYqety/5rGXYLbzRNciiYBq17B6ClLelYcJjKNVvvPfWOVGxhvISow7q4Dbthq8gKP2Nw== 
# MNEM.UNIT                                              DATA : DESCRIPTION OF MNEMONIC 
#-----.-----                    ----------------------------- : ----------------------------- 
CNTY.                                                  REEVES : COUNTY 
STATE.                                                  TEXAS : STATE 
CNTRY.                                                    USA : COUNTRY 
API.                                             42-389-10119 : API (10 Digit) 
API_14.                                    42-389-10119-00-00 : API (14 Digits) 
API_14_std.                                 42-389-10119-0000 : API (14 Digits Standard) 
UWI.                                           42389101190000 : UNIQUE WELL ID 
WELL.                                                   1-40, : WELL NAME
STRT.FT                                                  58.0 : START DEPTH
STOP.FT                                                5338.0 : STOP DEPTH
STEP.FT                                                   0.5 : STEP BETWEEN DEPTHS
NULL.                                                 -999.25 : NULL VALUE
#___________________________________________________________________________________________________ 
~CURVE INFORMATION 
# MNEM.UNIT           : CURVE DESCRIPTION 
#-----.-----          : ----------------------------- 
 DEPT.FT               : MEASURED DEPTH 
 GR.API                : GAMMA RAY (GR) 
 DT.US/FT              : SONIC DELTA TRANSIT TIME (DT) 
 #___________________________________________________________________________________________________ 
~A         DEPT             GR             DT
# ...
         4930.0         10.523         49.302
         4930.5         10.977         49.176
         4931.0         11.431         49.050
         4931.5         11.292         48.924
         4932.0         10.543         48.798
         4932.5          9.794         48.841
         4933.0          9.365         48.917
         4933.5          9.272         48.993
         4934.0          9.179         49.068
         4934.5          9.086         49.144
         4935.0          8.992         49.220
         4935.5          8.899         49.296
         4936.0          9.822         49.372
         4936.5         10.765         49.447
         4937.0         11.709         49.440
         4937.5         12.652         49.226
         4938.0         13.596         49.013
         4938.5         13.221         49.166
         4939.0         12.811         49.424
         4939.5         12.401         49.682
         4940.0         11.991         49.648
         4940.5         11.581         49.522
         4941.0         11.593         49.396
         4941.5         12.088         49.270
         4942.0         12.583         49.144
         4942.5         13.079         49.018
         4943.0         13.574         48.892
         4943.5         14.069         48.832
         4944.0         14.564         49.007
         4944.5         15.059         49.181
         4945.0         14.924         49.355
         4945.5         14.037         49.530
         4946.0         13.149         49.704
         4946.5         12.262         49.878
         4947.0         11.375         49.664
         4947.5         11.987         49.268
         4948.0         12.681         48.872
         4948.5         12.795         48.856
         4949.0         12.184         49.029
         4949.5         11.572         49.201
         4950.0         10.961         49.373
         4950.5         10.350         49.484
         4951.0         11.430         49.223
         4951.5         12.623         48.963
         4952.0         12.934         48.702
         4952.5         12.102         48.441
         4953.0         11.270         48.297
         4953.5         11.522         49.039
         4954.0         13.212         49.733
         4954.5         14.903         50.005
         4955.0         16.594         50.277
         4955.5         18.284         50.549
         4956.0         18.406         50.429
         4956.5         16.414         50.022
         4957.0         14.421         49.615
         4957.5         12.428         49.249
         4958.0         11.578         49.500
         4958.5         12.322         49.751
         4959.0         12.512         50.003
         4959.5         11.921         50.254
         4960.0         11.330         50.291
         4960.5         10.739         50.141
         4961.0         10.147         49.991
         4961.5          9.556         49.840
         4962.0          9.874         49.690
         4962.5         10.286         49.540
         4963.0         10.698         49.843
         4963.5         10.619         50.146
         4964.0         10.487         50.449
         4964.5         10.355         50.752
         4965.0         10.223         51.055
         4965.5         10.091         51.064
         4966.0          9.958         50.738
         4966.5          9.826         50.412
         4967.0          9.694         50.086
         4967.5          9.562         50.000
         4968.0          9.430         50.213
         4968.5          9.298         50.425
         4969.0          9.166         50.637
         4969.5          9.034         50.850
         4970.0          9.585         51.062
         4970.5         11.242         51.275
         4971.0         12.899         51.487
         4971.5         13.644         51.699
         4972.0         12.894         51.912
         4972.5         12.145         52.124
         4973.0         11.395         52.337
         4973.5         10.645         52.073
         4974.0          9.895         51.739
         4974.5          9.772         51.405
         4975.0         10.720         51.071
         4975.5         11.667         50.737
         4976.0         12.614         50.470
         4976.5         13.562         50.331
         4977.0         14.509         50.192
         4977.5         14.476         50.053
         4978.0         14.286         49.914
         4978.5         14.096         49.776
         4979.0         13.906         49.637
         4979.5         13.145         49.498
         4980.0         12.289         49.359
         4980.5         11.433         49.352
         4981.0         10.891         49.381
         4981.5         10.933         49.410
         4982.0         10.975         49.439
         4982.5         11.017         49.468
         4983.0         11.059         49.497
         4983.5         11.101         49.526
         4984.0         11.143         49.555
         4984.5         11.185         49.585
         4985.0         11.227         49.614
         4985.5         11.268         49.666
         4986.0         11.310         49.806
         4986.5         11.700         49.945
         4987.0         12.783         50.085
         4987.5         13.866         50.224
         4988.0         14.948         50.363
         4988.5         16.031         50.503
         4989.0         17.114         50.642
         4989.5         17.052         50.781
         4990.0         16.750         50.921
         4990.5         16.448         51.060
         4991.0         16.146         51.199
         4991.5         15.844         51.296
         4992.0         15.542         51.124
         4992.5         15.240         50.953
         4993.0         14.938         50.781
         4993.5         14.636         50.609
         4994.0         14.334         50.438
         4994.5         14.032         50.266
         4995.0         13.729         50.095
         4995.5         13.708         49.923
         4996.0         14.320         49.752
         4996.5         14.931         49.580
         4997.0         15.543         49.408
         4997.5         16.154         49.237
         4998.0         16.765         49.065
         4998.5         17.377         48.894
         4999.0         17.988         48.722
         4999.5         18.599         48.550
         5000.0         16.216         48.528
         5000.5         14.338         48.647
         5001.0         15.551         48.767
         5001.5         16.765         48.886
         5002.0         17.978         49.006
         5002.5         19.191         49.125
         5003.0         16.453         49.245
         5003.5         13.457         50.948
         5004.0         12.548         59.469
         5004.5         11.639         59.724
         5005.0         10.731         59.979
         5005.5          9.822         60.234
         5006.0          8.914         62.734
         5006.5          8.585         65.331
         5007.0          8.425         65.864
         5007.5          8.266         63.623
         5008.0          8.107         66.122
         5008.5          7.948         67.100
         5009.0          7.789         67.338
         5009.5          7.629         67.577
         5010.0          7.470         64.951
         5010.5          7.505         61.991
         5011.0          7.601         61.104
         5011.5          7.697         63.417
         5012.0          7.792         64.573
         5012.5          7.888         63.821
         5013.0          7.984         63.069
         5013.5          8.080         62.317
         5014.0          8.176         61.565
         5014.5          8.271         62.186
         5015.0          8.367         63.042
         5015.5          7.859         64.392
         5016.0          7.144         65.861
         5016.5          6.429         65.625
