###############################################
##         ENVERUS                           ##
##         ESS - Open Hole                   ##
##         PERMIAN / DELAWARE                ##
##         Nov 04 2023  V4.0                 ##
##         42-389-00931-00-00                ##
###############################################
## Copyright 2017-2023  ENVERUS.  All Rights Reserved. 
## Confidential - Property of ENVERUS, use governed by terms and 
## conditions found within the existing Information Services Subscription Agreement 
## (as may be amended, the “ISSA”) between Customer and ENVERUS. 
## 
~VERSION INFORMATION
# MNEM.UNIT                               DATA : DESCRIPTION OF MNEMONIC
#-----.-----     ----------------------------- : -----------------------------
VERS.                                     2.00 : CWLS LOG ASCII STANDARD - VERSION 2.00
WRAP.                                       NO : MULTIPLE LINES PER DEPTH STEP
VEND.                                  ENVERUS : VENDOR
TYPE.                          ESS - OPEN HOLE : ENVERUS ESSENTIAL CURVES – ACCESSIBLE THROUGH ENVERUS PRISM(TM)
DOC.                                  31935239 : ENVERUS HEADER RAW DOCUMENT ID
#___________________________________________________________________________________________________ 
~WELL INFORMATION 
# S9zL0tdqvH3y2XIpNbXcuKF0SeIoK+7NE6VaQ02nn2+shQHF2oZWL/5TS96hefD+9qjP/MIJWV/WOidK809eGw== 
# MNEM.UNIT                                              DATA : DESCRIPTION OF MNEMONIC 
#-----.-----                    ----------------------------- : ----------------------------- 
CNTY.                                                  REEVES : COUNTY 
STATE.                                                  TEXAS : STATE 
CNTRY.                                                    USA : COUNTRY 
API.                                             42-389-00931 : API (10 Digit) 
API_14.                                    42-389-00931-00-00 : API (14 Digits) 
API_14_std.                                 42-389-00931-0000 : API (14 Digits Standard) 
UWI.                                           42389009310000 : UNIQUE WELL ID 
WELL.                                                      1, : WELL NAME
STRT.FT                                                 101.0 : START DEPTH
STOP.FT                                                5373.0 : STOP DEPTH
STEP.FT                                                   0.5 : STEP BETWEEN DEPTHS
NULL.                                                 -999.25 : NULL VALUE
#___________________________________________________________________________________________________ 
~CURVE INFORMATION 
# MNEM.UNIT           : CURVE DESCRIPTION 
#-----.-----          : ----------------------------- 
 DEPT.FT               : MEASURED DEPTH 
 GR.API                : GAMMA RAY (GR) 
 DT.US/FT              : SONIC DELTA TRANSIT TIME (DT) 
 #___________________________________________________________________________________________________ 
~A         DEPT             GR             DT
# ...
         2189.0          8.478         52.925
         2189.5          8.479         53.458
         2190.0         10.790         54.698
         2190.5         14.621         55.499
         2191.0         15.992         55.119
         2191.5         16.739         54.739
         2192.0         17.485         54.360
         2192.5         17.662         53.980
         2193.0         16.723         53.601
         2193.5         15.784         53.221
         2194.0         14.845         52.842
         2194.5         13.906         52.462
         2195.0         12.967         52.270
         2195.5         12.028         52.292
         2196.0         11.089         52.313
         2196.5         10.150         52.335
         2197.0          9.407         52.357
         2197.5          8.953         52.378
         2198.0          8.500         52.400
         2198.5          8.046         52.422
         2199.0          7.593         52.443
         2199.5          7.139         52.465
         2200.0          8.118         52.487
         2200.5          9.586         52.508
         2201.0         11.054         52.530
         2201.5         12.455         52.419
         2202.0         12.503         52.256
         2202.5         12.551         52.093
         2203.0         12.598         51.930
         2203.5         12.646         51.768
         2204.0         12.694         51.605
         2204.5         12.528         51.632
         2205.0         11.160         51.666
         2205.5          9.791         51.700
         2206.0          9.792         51.734
         2206.5          9.830         51.768
         2207.0          9.868         51.802
         2207.5          9.823         51.836
         2208.0          9.489         51.870
         2208.5          9.155         51.904
         2209.0          8.821         51.883
         2209.5          8.665         51.738
         2210.0          9.290         51.593
         2210.5          9.916         51.448
         2211.0         10.541         51.303
         2211.5         11.166         51.158
         2212.0         11.792         51.013
         2212.5         12.417         50.869
         2213.0         13.042         50.724
         2213.5         13.668         50.683
         2214.0         14.344         50.754
         2214.5         14.700         50.825
         2215.0         14.390         50.896
         2215.5         14.080         50.966
         2216.0         13.769         51.037
         2216.5         13.459         51.108
         2217.0         13.149         51.179
         2217.5         12.838         51.250
         2218.0         12.528         51.320
         2218.5         12.218         51.307
         2219.0         11.907         51.084
         2219.5         11.597         50.861
         2220.0         11.365         50.638
         2220.5         13.650         50.415
         2221.0         15.934         50.193
         2221.5         18.219         49.970
         2222.0         20.504         49.747
         2222.5         22.789         49.524
         2223.0         25.074         49.301
         2223.5         27.359         49.564
         2224.0         27.539         49.928
         2224.5         24.929         50.291
         2225.0         22.318         50.655
         2225.5         19.708         51.019
         2226.0         17.097         51.382
         2226.5         14.486         51.746
         2227.0         11.876         52.109
         2227.5         10.124         52.473
         2228.0         10.712         52.836
         2228.5         11.300         53.200
         2229.0         11.889         53.376
         2229.5         12.477         53.033
         2230.0         13.066         52.690
         2230.5         13.654         52.346
         2231.0         13.489         52.003
         2231.5         11.846         51.660
         2232.0         10.203         51.662
         2232.5          8.560         51.672
         2233.0          8.541         51.683
         2233.5          8.946         51.694
         2234.0          9.350         51.704
         2234.5          9.754         51.715
         2235.0         10.158         51.726
         2235.5         10.563         51.736
         2236.0         10.967         51.747
         2236.5         11.310         51.758
         2237.0         10.460         51.768
         2237.5          9.609         51.779
         2238.0          9.081         51.790
         2238.5          9.167         51.800
         2239.0          9.253         51.811
         2239.5          9.329         51.822
         2240.0          9.031         51.832
         2240.5          8.654         51.843
         2241.0          8.136         51.854
         2241.5          7.597         52.556
         2242.0          7.057         55.425
         2242.5          6.846         58.294
         2243.0          7.920         61.163
         2243.5          8.995         64.032
         2244.0         10.070         66.901
         2244.5         11.145         69.770
         2245.0         12.219         69.590
         2245.5         11.691         69.397
         2246.0         10.980         69.204
         2246.5         10.269         69.011
         2247.0          9.558         69.179
         2247.5          8.848         69.411
         2248.0          8.137         69.644
         2248.5          7.426         69.876
         2249.0          6.715         70.108
         2249.5          6.915         70.340
         2250.0          7.939         70.572
         2250.5          8.962         70.805
         2251.0          9.985         71.037
         2251.5         11.008         71.185
         2252.0         12.031         70.946
         2252.5         12.211         70.707
         2253.0         11.230         70.467
         2253.5         10.249         70.228
         2254.0          9.268         69.989
         2254.5          8.286         69.750
         2255.0          7.305         69.511
         2255.5          6.324         69.272
         2256.0          5.280         69.033
         2256.5          3.734         68.793
         2257.0          2.187         68.028
         2257.5          5.539         66.816
         2258.0         11.427         65.604
         2258.5         17.316         64.392
         2259.0         23.204         64.240
         2259.5         29.857         64.829
         2260.0         43.436         65.418
         2260.5         57.014         65.202
         2261.0         55.968         64.215
         2261.5         54.511         63.229
         2262.0         53.054         62.242
         2262.5         53.778         61.256
         2263.0         65.731         62.637
         2263.5         77.683         64.145
         2264.0         89.636         65.652
         2264.5         91.566         67.160
         2265.0         73.060         68.668
         2265.5         54.555         70.176
         2266.0         20.004         70.845
         2266.5         17.499         70.684
         2267.0         14.994         70.522
         2267.5         13.296         70.361
         2268.0         12.820         70.199
         2268.5         12.343         70.038
         2269.0         11.867         69.877
         2269.5         11.390         69.715
         2270.0         10.914         69.554
         2270.5          9.910         69.393
         2271.0          9.276         69.231
         2271.5          8.643         69.177
         2272.0          8.009         69.476
         2272.5          7.375         69.775
         2273.0          6.741         70.074
         2273.5          6.107         70.372
         2274.0          5.473         70.671
         2274.5          4.840         70.970
         2275.0          5.196         71.269
         2275.5          6.323         71.567
