~VERSION INFORMATION
VERS.           1.2   :CWLS Log ASCII Standard - VERSION 1.2
WRAP.           NO    :One Line per depth step
PROD.  Schlumberger   :LAS Producer
PROG.  DLIS to ASCII 17C0-152                          :LAS Program name and version
CREA.        2014/05/28 16:07                          :LAS Creation date {YYYY/MM/DD hh:mm}
DLIS_CREA.  2014-May-27 22:17                          :DLIS Creation date and time {YYYY-MMM-DD hh:mm}
SOURCE.     db5fefe1-f67d-4e3f-8816-ab53d5f8be46       :DLIS File Name
#--------------------------------------------------
~WELL INFORMATION
#MNEM.UNIT      DATA             DESCRIPTION
#---- ------ --------------   -----------------------------
# Enverus has updated the API/UWI.  The previous names are renamed to  PREV_API / PREV_UWI
API.  API (14 Digits with Dashes) : 42-389-34023-90-00
UWI.              UNIQUE WELL ID : 42389340239000

STRT .F      9586.5000       :START DEPTH     
STOP .F      10811.5000      :STOP DEPTH     
STEP .F       0.5000         :STEP       
NULL .          -999.25      :NULL VALUE
COMP .                 COMPANY:  J. Cleo Thompson                   
WELL .                    WELL:  Okapi State Unit B35 #2H           
FLD  .                   FIELD:  Wolfbone (Trend Area)              
LOC  .                LOCATION:  260' FNL & 500' FEL                
CNTY .                  COUNTY:  Reeves                             
STAT .                   STATE:  Texas                              
CTRY .                 COUNTRY:                                     
SRVC .         SERVICE COMPANY:  Schlumberger                       
LATI .DEG             LATITUDE:  31.112200 degrees                  
LONG .DEG            LONGITUDE:  -103.28900 degrees                 
PREV_API  .              API NUMBER:  42-389-34023                       
DATE .                LOG DATE:  27-May-2014
PREV_UWI  .          UNIQUE WELL ID:                                     
#-----------------------------------------------------------------------------
~PARAMETER INFORMATION
#MNEM.UNIT    VALUE                      DESCRIPTION
#---- -----   --------------------       ------------------------
CN   .        J. Cleo Thompson           :Company Name
WN   .        Okapi State Unit B35 #2H   :Well Name
FN   .        Wolfbone (Trend Area)      :Field Name
FL   .        260' FNL & 500' FEL        :Field Location
FL1  .        Section  35  Block  50 T8S  Abstract 4369 :Field Location, Line 1
COUN .        Reeves                     :County or Parish
STAT .        Texas                      :State or Province
NATI .                                   :Nation
DATE .        27-May-2014                :Tools Above Rotary Table Date
APIN .        42-389-34023               :API Well Number
SECT .        35                         :Section
TOWN .        50 T8S                     :Township
RANG .        4369                       :Range
DMF  .        KB                         :Drilling Measured From (Name of Drilling Elevation Reference)
LMF  .        KB                         :Logging Measured From (Name of Logging Elevation Reference)
PDAT .        GL                         :Permanent Datum
ENGI .        AJ Massis                  :Engineer s Name
WITN .        Bennie McNett              :Witness s Name
LATI .        31.112200 degrees          :Latitude
LONG .        -103.28900 degrees         :Longitude
LUL  .        Midland                    :Logging Unit Location
LUN  .        9105                       :Logging Unit Number
RUN  .        1B                         :Run Number
SON  .                                   :Service Order Number
BHT  .DEGF     162.00000                 :Bottom Hole Temperature
BS   .IN         8.50000                 :Bit Size
MDEN .G/C3       2.71000                 :Matrix Density for Density Porosity
DFD  .LB/G      10.70000                 :Drilling Fluid Density
DFV  .S         46.00000                 :Drilling Fluid Viscosity
DFL  .C3        10.00000                 :Drilling Fluid Loss
RMFS .OHMM       0.30000                 :Resistivity of Mud Filtrate Sample
EKB  .F       2829.00000                 :Elevation of Kelly Bushing
EGL  .F       2807.00000                 :Elevation of Ground Level
BLI  .F       11012.00000                :Bottom Log Interval
BSAL .PPM     132000.00000               :Borehole Salinity
FLEV .F          8.00000                 :Depth of Drilling Fluid Level to LMF (Log Measured From)
MCST .DEGF      68.00000                 :Mudcake Sample Temperature
MFST .DEGF      80.20000                 :Mud Filtrate Sample Temperature
MRT  .DEGF     162.00000                 :Maximum Recorded Temperature
MST  .DEGF      80.20000                 :Mud Sample Temperature
RMCS .OHMM    -999.25000                 :Resistivity of Mud Cake Sample
RMS  .OHMM       0.30000                 :Resistivity of Mud Sample
RW   .OHMM       1.00000                 :Connate Water Resistivity
TDD  .F       11012.00000                :Driller Total Depth
TDL  .F       11012.00000                :Logger Total Depth
TLI  .F       9676.00000                 :Top Log Interval
HIDE .        Wolfbone (Trend Area)      :Header Identifier
MATR .        LIME                       :Rock Matrix for Neutron Porosity Corrections
FNUM .           1.00000                 :F-Numerator for Formation Factor Formula
FEXP .           2.00000                 :Exponent "m" for Formation Factor Formula
DFT  .        Salt Brine                 :Drilling Fluid Type
DFPH .           9.00000                 :Drilling Fluid pH
MCSS .                                   :Mudcake Sample Source
MFSS .                                   :Mud Filtrate Sample Source
FD   .G/C3       1.10000                 :Fluid Density
MSS  .        Active Tank                :Mud Sample Source
OS1  .                                   :Other Services Line 1
OS2  .                                   :Other Services Line 2
OS3  .                                   :Other Services Line 3
OS4  .                                   :Other Services Line 4
OS5  .                                   :Other Services Line 5
R1   .        Tools run as per toolsketch :Remarks Line 1
R2   .        Logs performed on a Limestone matrix (2.71

g/cc  47.6 us/ft ). Mud Properties  MW =

10.7 g/cc  FD = 1.1 g/cc. :Remarks Line 2
R3   .        Max recorded temperature from downhole

thermometer = 162 degF. :Remarks Line 3
R4   .        Logs run from TD to casing. GR & Neutron

logged from casing to 200ft as per client

request. :Remarks Line 4
R5   .        Tools got stuck near TD and calipers had to be closed in order to get free. :Remarks Line 5
R6   .        Well was washed out for many intervals. :Remarks Line 6
R7   .        Repeat done at casing due to getting stuck at TD :Remarks Line 7
R8   .                                   :Remarks Line 8
TCS  .        18 00 00                   :Time Circulation Stopped
TLAB .        16 19 01                   :Time Logger At Bottom
EPD  .C3         2807.000000             :Elevation of Permanent Datum above Mean Sea Level
APD  .F          22.000000               :Elevation of Depth Reference (LMF) above Permanent Datum
#-----------------------------------------------------------------------------
~CURVE INFORMATION
#MNEM.UNIT   API CODE                                  DESCRIPTION
#---- -----  --------                                  -----------------------
DEPT .F                                                :DEPTH (BOREHOLE) {F12.4}
CDF  .LBF                                              :Calibrated Downhole Force {F11.4}
CTEM .DEGF                                             :Cartridge Temperature {F11.4}
DCAL .IN                                               :Differential Caliper {F11.4}
DTCO .US/F                                             :Delta-T Compressional {F11.4}
DTSM .US/F                                             :Delta-T Shear {F11.4}
ED   .F                                                :East Departure {F11.4}
GR_EDTC.GAPI                                           :Gamma Ray {F11.4}
GTEM .DEGF                                             :Generalized Borehole Temperature {F11.4}
HAZI .DEG                                              :Hole Azimuth Relative to True North {F11.4}
HAZIM.DEG                                              :Memorized Hole Azimuth {F11.4}
ITT  .S                                                :Integrated Transit Time {F11.4}
ND   .F                                                :North Departure {F11.4}
P1AZ .DEG                                              :Pad 1 Azimuth in Horizontal Plane (0 = True North) {F11.4}
PR   .                                                 :Poisson s Ratio {F11.4}
RB   .DEG                                              :Relative Bearing {F11.4}
SDEV .DEG                                              :Sonde Deviation {F11.4}
SDEVM.DEG                                              :Memorized Sonde Deviation {F11.4}
SPHI .CFCF                                             :Sonic Porosity {F11.4}
STIT .F                                                :Stuck Tool Indicator, Total {F11.4}
TENS .LBF                                              :Cable Tension {F11.4}
#-----------------------------------------------------------------------------
# 
#      DEPT        CDF        CTEM       DCAL       DTCO       DTSM        ED      GR_EDTC      GTEM       HAZI      HAZIM       ITT         ND        P1AZ        PR         RB        SDEV      SDEVM       SPHI       STIT       TENS
#
~A  
# ...
  10146.5000  1219.7206   165.5529     0.2376    70.6390   117.4113     0.0000    55.7746   154.6120   282.1706   280.9879     0.0486     0.0000   316.2350     0.2163    34.0521     1.7288     1.6277     0.1629     0.0000  4012.6667
  10147.0000  1215.7006   165.5529     0.2466    71.2481   117.8363     0.0000    66.3681   154.6162   281.0072   281.4069     0.0485     0.0000   313.9554     0.2119    32.9370     1.7024     1.6481     0.1672     0.0000  3972.0000
  10147.5000  1214.9375   165.5529     0.2577    72.0834   118.6293     0.0000    80.8759   154.6205   280.3318   282.0032     0.0485     0.0000   311.8120     0.2073    31.4691     1.6835     1.6872     0.1731     0.0000  3997.6667
  10148.0000  1215.8146   165.5529     0.2598    72.7963   119.9482     0.0000    86.6549   154.6248   280.3698   282.5060     0.0485     0.0000   309.6139     0.2085    29.2337     1.6786     1.7321     0.1782     0.0000  4003.6667
  10148.5000  1217.3596   165.5529     0.2577    74.1658   122.2415     0.0000    86.3205   154.6290   281.0891   282.7473     0.0484     0.0000   307.2695     0.2087    26.1705     1.6900     1.7680     0.1879     0.0000  3975.0002
  10149.0000  1219.6886   165.5529     0.2577    75.5160   124.6311     0.0000    88.1864   154.6333   282.2110   282.6845     0.0484     0.0000   304.9034     0.2099    22.6833     1.7155     1.7825     0.1974     0.0000  4021.6670
  10149.5000  1222.6830   165.5529     0.2577    75.9330   125.5012     0.0000    84.6624   154.6376   283.3362   282.3888     0.0484     0.0000   302.4900     0.2113    19.1453     1.7475     1.7695     0.2004     0.0000  4005.6667
  10150.0000  1222.9794   165.5529     0.2577    76.0769   125.6866     0.0000    84.0930   154.6418   284.1090   281.9979     0.0483     0.0000   300.1903     0.2109    16.0737     1.7745     1.7327     0.2014     0.0000  3970.3337
  10150.5000  1226.7667   165.5529     0.2577    75.7170   126.6501     0.0000    80.4021   154.6461   284.3467   281.6804     0.0483     0.0000   297.8790     0.2219    13.5257     1.7859     1.6830     0.1988     0.0000  4011.2502
  10151.0000  1226.9922   165.5529     0.2577    75.3688   125.5233     0.0000    81.1848   154.6504   284.0219   281.5853     0.0482     0.0000   295.5553     0.2181    11.5277     1.7753     1.6357     0.1964     0.0000  3986.3333
  10151.5000  1224.8524   165.5529     0.2466    75.1210   124.6579     0.0000    78.5353   154.6546   283.2650   281.7602     0.0482     0.0000   293.3563     0.2149    10.0870     1.7443     1.6052     0.1946     0.0000  3989.0002
  10152.0000  1225.4408   165.5529     0.2487    74.6852   124.0038     0.0000    74.6218   154.6589   282.3098   282.1104     0.0482     0.0000   291.3620     0.2154     9.0486     1.7015     1.6007     0.1915     0.0000  3980.3333
  10152.5000  1224.9238   165.5529     0.2375    73.6628   122.0668     0.0000    72.8357   154.6632   281.4586   282.4537     0.0481     0.0000   289.3306     0.2136     7.8685     1.6599     1.6221     0.1843     0.0000  3965.6667
  10153.0000  1227.9791   165.5529     0.2375    71.0574   120.4169     0.0000    76.2272   154.6674   280.9738   282.6183     0.0481     0.0000   287.1152     0.2329     6.1385     1.6323     1.6609     0.1659     0.0000  3990.5002
  10153.5000  1231.6111   165.5529     0.2375    68.0303   116.6321     0.0000    84.0134   154.6717   280.9879   282.5336     0.0481     0.0000   284.8401     0.2422     3.8503     1.6277     1.7025     0.1445     0.0000  3958.0002
  10154.0000  1232.5094   165.5529     0.2264    66.6691   115.2989     0.0000    80.2157   154.6760   281.4069   282.3068     0.0480     0.0000   282.6579     0.2489     1.2507     1.6481     1.7280     0.1349     0.0000  3988.9998
  10154.5000  1233.2113   165.5529     0.2153    64.7950   111.6987     0.0000    61.5379   154.6803   282.0032   281.9313     0.0480     0.0000   280.6627     0.2464   358.6603     1.6872     1.7399     0.1216     0.0000  3982.6665
  10155.0000  1230.3400   165.5529     0.2153    64.1942   109.7706     0.0000    38.9902   154.6845   282.5060   281.6046     0.0480     0.0000   278.7813     0.2401   356.2769     1.7321     1.7253     0.1174     0.0000  3964.0000
  10155.5000  1232.4216   165.5529     0.2153    65.5055   109.6531     0.0000    28.3922   154.6888   282.7473   281.4955     0.0479     0.0000   276.8036     0.2225   354.0590     1.7680     1.6885     0.1266     0.0000  3989.3335
  10156.0000  1232.8741   165.5529     0.2153    65.5414   110.4628     0.0000    34.7830   154.6930   282.6845   281.6906     0.0479     0.0000   274.6565     0.2283   351.9754     1.7825     1.6408     0.1269     0.0000  3970.0000
  10156.5000  1232.4958   165.5529     0.2153    67.0991   111.3238     0.0000    51.2467   154.6973   282.3888   282.1524     0.0479     0.0000   272.5579     0.2147   350.1735     1.7695     1.5973     0.1379     0.0000  3984.2502
  10157.0000  1226.3457   165.5529     0.2153    68.5831   112.5709     0.0000    70.6692   154.7016   281.9979   282.7114     0.0478     0.0000   270.6532     0.2049   348.6609     1.7327     1.5715     0.1484     0.0000  3980.6665
  10157.5000  1218.8711   165.5529     0.2466    71.0780   116.4453     0.0000    83.8267   154.7059   281.7282   283.1227     0.0478     0.0000   269.2832     0.2031   347.5606     1.6934     1.5705     0.1660     0.0000  3972.6670
  10158.0000  1219.7479   165.5529     0.2598    71.9572   118.6667     0.0000    88.3796   154.7101   281.5887   283.1888     0.0478     0.0000   267.3433     0.2092   345.7601     1.6441     1.5922     0.1723     0.0000  3967.3335
  10158.5000  1225.8933   165.5529     0.2911    73.5300   120.4448     0.0000    85.7764   154.7144   281.7100   282.8970     0.0477     0.0000   265.1834     0.2029   343.4797     1.6095     1.6272     0.1834     0.0000  3975.0002
  10159.0000  1226.0873   165.5529     0.2911    73.9444   121.8638     0.0000    82.5654   154.7187   282.0309   282.3901     0.0477     0.0000   262.7861     0.2086   340.7620     1.5994     1.6622     0.1863     0.0000  3972.0000
  10159.5000  1227.2645   165.5529     0.2820    74.0722   123.5995     0.0000    78.3963   154.7229   282.3873   281.8965     0.0476     0.0000   260.6031     0.2198   338.2232     1.6160     1.6839     0.1872     0.0000  3948.6667
  10160.0000  1222.2413   165.5529     0.2820    74.0189   123.2574     0.0000    73.2106   154.7272   282.6048   281.6624     0.0476     0.0000   258.6360     0.2180   336.0400     1.6523     1.6835     0.1868     0.0000  3968.3333
  10160.5000  1218.5433   165.5529     0.2709    73.7034   122.9903     0.0000    67.0688   154.7315   282.5732   281.8881     0.0476     0.0000   256.6780     0.2198   334.1145     1.6947     1.6606     0.1846     0.0000  3967.0002
  10161.0000  1220.7963   165.5529     0.2354    73.1794   122.3656     0.0000    63.7721   154.7357   282.3068   282.6174     0.0475     0.0000   254.4514     0.2216   332.1555     1.7280     1.6221     0.1809     0.0000  3953.3333
  10161.5000  1222.4030   165.5529     0.2354    73.4351   121.1318     0.0000    67.3191   154.7400   281.9313   283.7178     0.0475     0.0000   252.1299     0.2095   330.2103     1.7399     1.5808     0.1827     0.0000  3986.3333
  10162.0000  1223.8988   165.5529     0.2465    72.5190   120.8718     0.0000    70.4688   154.7443   281.6046   284.8441     0.0475     0.0000   249.7848     0.2188   328.1917     1.7253     1.5492     0.1762     0.0000  3954.0002
  10162.5000  1226.6228   165.5529     0.2354    72.2185   121.1687     0.0000    72.3265   154.7486   281.4955   285.5756     0.0474     0.0000   247.1223     0.2245   325.6387     1.6885     1.5355     0.1741     0.0000  4017.6670
  10163.0000  1230.8704   165.5529     0.2354    71.9923   119.9490     0.0000    72.2395   154.7528   281.6906   285.5883     0.0474     0.0000   244.3619     0.2185   322.6823     1.6408     1.5411     0.1725     0.0000  4000.3333
  10163.5000  1232.5505   165.5529     0.2375    72.0562   120.1301     0.0000    77.1208   154.7571   282.1524   284.8726     0.0474     0.0000   241.6753     0.2190   319.5336     1.5973     1.5617     0.1730     0.0000  4023.0000
