#--------------------------------------------------#
#-------------------ENVERUS, INC.------------------#
#------------------WWW.ENVERUS.COM-----------------#
#------------------COPYRIGHT 2020------------------#
#--------------------------------------------------#
#THIS FILE MAY BE USED ONLY IN ACCORDANCE WITH A CURRENT SUBSCRIPTION AGREEMENT BETWEEN
#THE USER AND ENVERUS, INC. NO PART OF THIS FILE MAY BE REPRODUCED, USED, COPIED,
#MODIFIED, PROPAGATED, OR DISTRIBUTED EXCEPT IN ACCORDANCE WITH THE SUBSCRIPTION
#AGREEMENT. UNAUTHORIZED USE OR DISTRIBUTION OF ALL OR ANY PART OF THIS FILE MAY VIOLATE
#COPYRIGHT, TRADEMARK, AND/OR OTHER LAWS AND IS SUBJECT TO CIVIL AS WELL AS CRIMINAL
#SANCTIONS.
#--------------------------------------------------#
#THIS FILE IS PROVIDED "AS-IS" AND ALL WARRANTIES ARE EXPRESSLY DISCLAIMED, WHETHER
#EXPRESS, ORAL, IMPLIED, STATUTORY OR OTHERWISE, INCLUDING ANY IMPLIED WARRANTY OF FITNESS
#FOR A PARTICULAR PURPOSE, MERCHANTABILITY, TITLE OR NON-INFRINGEMENT, AND ANY WARRANTIES
#ARISING BY VIRTUE OF CUSTOM OF TRADE OR COURSE OF DEALING.  FURTHER, ENVERUS, INC.
#AND ITS LICENSORS DO NOT REPRESENT OR WARRANT THAT THIS FILE WILL MEET USER'S
#REQUIREMENTS OR ARE SUITABLE FOR USER'S NEEDS OR THAT THE DATA OR RESULTS PROVIDED IN
#CONJUNCTION THEREWITH ARE CORRECT, ACCURATE, TIMELY OR RELIABLE. THESE DISCLAIMERS SHALL
#APPLY REGARDLESS OF ANY FAILURE OF ESSENTIAL PURPOSE OF ANY LIMITED REMEDY.  SOME
#JURISDICTIONS DO NOT ALLOW THE EXCLUSION OF CERTAIN WARRANTIES SO SOME OF THE ABOVE
#EXCLUSIONS MAY NOT APPLY. IN NO EVENT SHALL ENVERUS, INC. OR ANY OF ITS AFFILIATES
#BE LIABLE UNDER ANY LEGAL THEORY, WHETHER IN TORT (INCLUDING WITHOUT LIMITATION
#NEGLIGENCE), CONTRACT, STRICT LIABILITY, STATUTORY OR OTHERWISE, FOR ANY SPECIAL,
#INCIDENTAL, CONSEQUENTIAL, EXEMPLARY, PUNITIVE OR INDIRECT DAMAGE OF ANY KIND, INCLUDING
#WITHOUT LIMITATION LOSS OF REVENUE, PROFITS, GOODWILL, USE, AND/OR DATA OR THE COST OF
#PROCUREMENT OF SUBSTITUTE GOODS OR SERVICES, EVEN IF APPRISED OF THE POSSIBILITY OF SUCH
#DAMAGES IN ADVANCE.
#--------------------------------------------------#

~VERSION INFORMATION
VERS. 2.0 : CWLS LOG ASCII STANDARD - VERSION 2.0
WRAP.  NO : ONE LINE PER DEPTH STEP
~WELL INFORMATION
#MNEMONIC     .UNIT              VALUE :DESCRIPTION
STRT       .FT                102 :START DEPTH
STOP       .FT                5463 :STOP DEPTH
STEP       .FT                   0.500 :STEP
NULL       .                  -999.990 :NULL
UWI        .              42371363560000 :UNIQUE WELL ID
API        .              42371363560000 :API NUMBER
COMP       .         APACHE CORPORATION :COMPANY
WELL       .        SCHLOSSER, FRED ESTATE -B-  11 :WELL
DATE       .                22-JUN-1992 :LOG DATE
~CURVE INFORMATION
#MNEMONIC     .UNIT      API CODE :CURVE DESCRIPTION
DEPTH       .FT                      :MEASURED DEPTH
DT.US/FT        UNKNOWN   :DT
GR.API        UNKNOWN   :GR
~A    DEPTH    DT    GR
# ...
 5070.5     50.715   11.018
 5071     50.563   12.8
 5071.5     50.775   12.767
 5072     51.261   11.5
 5072.5     51.196   10.233
 5073     51.13   8.965
 5073.5     51.065   8.358
 5074     51   8.245
 5074.5     50.934   8.132
 5075     50.869   8.019
 5075.5     50.897   7.915
 5076     50.97   7.813
 5076.5     51.042   7.711
 5077     51.114   7.609
 5077.5     51.187   7.507
 5078     51.207   7.859
 5078.5     51.092   8.594
 5079     50.977   9.33
 5079.5     50.862   10.28
 5080     50.746   12.039
 5080.5     50.631   13.659
 5081     50.625   14.491
 5081.5     50.679   14.477
 5082     50.685   13.571
 5082.5     50.521   13.093
 5083     50.357   13.347
 5083.5     50.193   13.601
 5084     50.029   13.277
 5084.5     50.101   12.855
 5085     50.293   12.255
 5085.5     50.485   11.288
 5086     50.428   10.321
 5086.5     50.357   10.198
 5087     50.287   10.709
 5087.5     50.39   11.625
 5088     50.558   13.064
 5088.5     50.726   12.911
 5089     50.894   12.759
 5089.5     51.062   12.607
 5090     51.252   12.436
 5090.5     51.491   11.886
 5091     51.364   11.337
 5091.5     51.215   10.788
 5092     51.066   10.238
 5092.5     50.956   9.922
 5093     50.894   10.579
 5093.5     50.831   11.237
 5094     50.768   11.548
 5094.5     50.706   10.954
 5095     50.643   10.36
 5095.5     50.58   9.766
 5096     50.795   9.931
 5096.5     51.105   10.441
 5097     51.406   10.952
 5097.5     51.171   11.462
 5098     50.935   11.292
 5098.5     50.7   10.479
 5099     50.469   9.666
 5099.5     50.563   9.087
 5100     50.657   8.581
 5100.5     51.344   8.091
 5101     51.319   8.387
 5101.5     50.882   8.684
 5102     50.683   9.243
 5102.5     50.922   10.054
 5103     51.162   10.85
 5103.5     51.337   10.557
 5104     50.845   10.263
 5104.5     50.353   9.969
 5105     50.162   9.686
 5105.5     50.094   10.087
 5106     50.026   10.487
 5106.5     49.958   11.073
 5107     50.034   12.051
 5107.5     50.312   11.44
 5108     50.591   10.829
 5108.5     50.613   10.218
 5109     50.625   9.763
 5109.5     50.637   9.489
 5110     50.648   9.214
 5110.5     50.66   8.94
 5111     50.635   8.665
 5111.5     50.526   8.614
 5112     50.417   8.877
 5112.5     50.307   9.14
 5113     50.198   9.403
 5113.5     50.089   9.666
 5114     49.979   9.929
 5114.5     49.87   9.906
 5115     49.761   9.348
 5115.5     49.674   8.789
 5116     49.588   8.231
 5116.5     49.501   7.878
 5117     49.415   7.926
 5117.5     49.329   7.974
 5118     49.47   8.022
 5118.5     50.034   8.07
 5119     50.598   7.545
 5119.5     50.325   6.98
 5120     49.927   6.415
 5120.5     49.528   6.3
 5121     48.935   7.027
 5121.5     48.345   7.754
 5122     48.469   8.481
 5122.5     48.592   8.922
 5123     48.715   8.922
 5123.5     48.838   8.922
 5124     48.962   8.921
 5124.5     49.085   8.921
 5125     49.208   10.008
 5125.5     49.332   10.878
 5126     49.455   10.675
 5126.5     49.578   10.472
 5127     49.707   10.474
 5127.5     50.158   11.436
 5128     50.609   12.399
 5128.5     51.06   13.362
 5129     51.511   12.388
 5129.5     51.483   11.086
 5130     51.404   9.784
 5130.5     51.325   9.682
 5131     51.246   10.192
 5131.5     51.168   10.703
 5132     51.089   10.282
 5132.5     50.77   9.812
 5133     50.468   9.343
 5133.5     50.834   8.873
 5134     51.2   8.403
 5134.5     51.567   8.001
 5135     51.352   8.946
 5135.5     50.723   9.891
 5136     50.095   10.835
 5136.5     49.577   11.642
 5137     49.597   11.234
 5137.5     49.617   10.825
 5138     49.638   10.417
 5138.5     49.658   10.009
 5139     49.678   9.601
 5139.5     49.699   9.192
 5140     49.719   9.155
 5140.5     49.739   9.398
 5141     49.759   9.64
 5141.5     50.032   9.882
 5142     50.597   10.03
 5142.5     51.161   9.737
 5143     51.249   9.443
 5143.5     51.085   9.149
 5144     50.492   8.964
 5144.5     49.899   9.283
 5145     49.306   9.601
 5145.5     49.241   9.92
 5146     49.92   9.404
 5146.5     50.6   8.721
 5147     49.882   8.038
 5147.5     49.631   7.511
 5148     49.932   7.475
 5148.5     49.8   7.438
 5149     49.669   7.803
 5149.5     49.715   9.09
 5150     50.15   10.377
 5150.5     50.265   11.664
 5151     50.222   11.345
 5151.5     50.178   11.014
 5152     50.335   10.683
 5152.5     50.53   10.352
 5153     50.204   10.02
 5153.5     50.089   9.893
 5154     50.199   9.953
 5154.5     50.31   10.014
 5155     50.31   10.074
 5155.5     49.957   10.135
 5156     49.603   10.235
 5156.5     49.738   10.439
 5157     49.96   10.419
 5157.5     49.835   9.413
 5158     49.895   8.407
 5158.5     50.09   7.402
 5159     50.285   6.396
 5159.5     50.48   6.093
 5160     50.495   6.046
 5160.5     50.003   7.621
 5161     49.51   11.405
 5161.5     49.71   15.189
 5162     50   17.8
 5162.5     50.071   20.125
 5163     50.137   22.45
 5163.5     50.2   20.279
 5164     49.848   16.476
 5164.5     49.497   12.881
 5165     49.708   10.636
 5165.5     49.859   9.786
 5166     49.885   8.937
 5166.5     49.911   8.231
 5167     49.937   9.44
 5167.5     50.201   10.65
 5168     50.545   11.859
 5168.5     50.716   13.069
 5169     50.461   12.035
 5169.5     50.207   10.831
 5170     50.003   9.627
 5170.5     49.892   10.156
 5171     49.781   11.286
 5171.5     49.687   11.394
 5172     49.697   10.998
 5172.5     49.706   10.602
 5173     49.715   10.206
 5173.5     49.85   9.809
 5174     50.055   10.351
 5174.5     50.008   11.094
 5175     49.869   11.836
 5175.5     49.972   12.579
 5176     50.114   12.829
 5176.5     50.256   12.828
 5177     50.176   12.828
 5177.5     50.066   12.36
 5178     49.956   11.454
 5178.5     50.791   10.548
 5179     51.104   9.643
 5179.5     51.284   8.929
 5180     50.53   8.712
 5180.5     49.44   8.494
 5181     49.856   8.276
 5181.5     50.273   8.059
 5182     50.152   8.828
 5182.5     49.982   9.752
 5183     49.935   10.675
 5183.5     50.276   11.76
 5184     50.427   12.898
 5184.5     50.195   14.036
 5185     49.963   14.249
 5185.5     49.916   14.297
 5186     50.156   14.346
 5186.5     50.395   14.394
 5187     50.138   13.971
 5187.5     50.036   12.966
 5188     50.276   11.96
 5188.5     50.516   10.955
 5189     49.782   10.129
 5189.5     49.442   9.337
 5190     49.102   8.545
 5190.5     49.25   9.425
 5191     49.579   10.532
 5191.5     49.907   11.426
 5192     49.867   11.389
 5192.5     49.393   11.353
 5193     49.6   11.185
 5193.5     50.248   10.62
 5194     50.734   10.055
 5194.5     50.634   9.491
 5195     49.783   9.391
 5195.5     49.731   9.529
 5196     49.952   9.953
 5196.5     50.173   10.894
 5197     50.228   11.835
 5197.5     49.673   12.776
 5198     49.178   12.743
 5198.5     49.193   12.112
 5199     49.208   11.481
 5199.5     49.222   10.849
 5200     49.237   10.569
 5200.5     49.252   10.823
 5201     49.267   11.078
 5201.5     49.282   10.937
 5202     49.297   10.347
 5202.5     49.384   9.757
 5203     49.742   9.915
 5203.5     50.1   10.125
 5204     50.864   10.335
 5204.5     50.843   10.18
 5205     50.816   9.423
 5205.5     50.955   8.666
 5206     51.094   8.377
 5206.5     51.233   8.741
 5207     50.802   9.105
 5207.5     50.22   8.974
 5208     49.874   8.329
 5208.5     49.54   7.683
 5209     49.22   7.038
 5209.5     49.511   8.552
 5210     49.803   11.041
 5210.5     50.094   13.437
 5211     50.386   13.219
 5211.5     50.091   13.002
 5212     49.502   12.784
 5212.5     49.135   12.566
 5213     49.306   13.141
 5213.5     49.477   14.201
 5214     49.648   15.26
 5214.5     49.818   15.662
 5215     50.001   14.547
 5215.5     50.255   13.431
 5216     50.508   12.315
 5216.5     50.762   11.668
 5217     51.016   11.528
 5217.5     51.003   11.387
 5218     50.748   11.247
 5218.5     50.493   11.106
 5219     50.495   10.966
 5219.5     50.676   12.006
 5220     50.856   14.469
 5220.5     51.036   14.889
 5221     50.693   15.308
 5221.5     50.215   15.728
 5222     49.338   16.223
