###############################################
##         ENVERUS                           ##
##         ESS - Open Hole                   ##
##         PERMIAN / DELAWARE                ##
##         Nov 04 2023  V4.0                 ##
##         42-389-10119-00-00                ##
###############################################
## Copyright 2017-2023  ENVERUS.  All Rights Reserved. 
## Confidential - Property of ENVERUS, use governed by terms and 
## conditions found within the existing Information Services Subscription Agreement 
## (as may be amended, the “ISSA”) between Customer and ENVERUS. 
## 
~VERSION INFORMATION
# MNEM.UNIT                               DATA : DESCRIPTION OF MNEMONIC
#-----.-----     ----------------------------- : -----------------------------
VERS.                                     2.00 : CWLS LOG ASCII STANDARD - VERSION 2.00
WRAP.                                       NO : MULTIPLE LINES PER DEPTH STEP
VEND.                                  ENVERUS : VENDOR
TYPE.                          ESS - OPEN HOLE : ENVERUS ESSENTIAL CURVES – ACCESSIBLE THROUGH ENVERUS PRISM(TM)
DOC.                                  32008410 : ENVERUS HEADER RAW DOCUMENT ID
#___________________________________________________________________________________________________ 
~WELL INFORMATION 
# X8E3XgEZRMs+LiTqjMYqety/5rGXYLbzRNciiYBq17B6ClLelYcJjKNVvvPfWOVGxhvISow7q4Dbthq8gKP2Nw== 
# MNEM.UNIT                                              DATA : DESCRIPTION OF MNEMONIC 
#-----.-----                    ----------------------------- : ----------------------------- 
CNTY.                                                  REEVES : COUNTY 
STATE.                                                  TEXAS : STATE 
CNTRY.                                                    USA : COUNTRY 
API.                                             42-389-10119 : API (10 Digit) 
API_14.                                    42-389-10119-00-00 : API (14 Digits) 
API_14_std.                                 42-389-10119-0000 : API (14 Digits Standard) 
UWI.                                           42389101190000 : UNIQUE WELL ID 
WELL.                                                   1-40, : WELL NAME
STRT.FT                                                  58.0 : START DEPTH
STOP.FT                                                5338.0 : STOP DEPTH
STEP.FT                                                   0.5 : STEP BETWEEN DEPTHS
NULL.                                                 -999.25 : NULL VALUE
#___________________________________________________________________________________________________ 
~CURVE INFORMATION 
# MNEM.UNIT           : CURVE DESCRIPTION 
#-----.-----          : ----------------------------- 
 DEPT.FT               : MEASURED DEPTH 
 GR.API                : GAMMA RAY (GR) 
 DT.US/FT              : SONIC DELTA TRANSIT TIME (DT) 
 #___________________________________________________________________________________________________ 
~A         DEPT             GR             DT
# ...
          754.0         68.951        100.719
          754.5         65.767         99.909
          755.0         62.583         99.100
          755.5         59.400         98.291
          756.0         57.417         96.587
          756.5         59.175         83.983
          757.0         60.932         83.021
          757.5         62.689         82.060
          758.0         64.447         81.593
          758.5         66.204         83.296
          759.0         58.323         85.069
          759.5         59.809         87.233
          760.0         61.296         89.413
          760.5         61.141         91.712
          761.0         56.711         94.012
          761.5         56.601         96.175
          762.0         56.490         95.123
          762.5         56.379         94.071
          763.0         56.269         93.019
          763.5         54.830         92.502
          764.0         52.855         99.894
          764.5         50.879        102.600
          765.0         49.315        105.285
          765.5         49.438        104.509
          766.0         49.675        103.549
          766.5         50.390        102.588
          767.0         51.105        101.628
          767.5         51.820        106.643
          768.0         52.535        106.284
          768.5         51.739        106.733
          769.0         50.256        107.247
          769.5         48.773        107.761
          770.0         48.139        107.415
          770.5         51.533        106.976
          771.0         54.927        106.538
          771.5         57.671         91.222
          772.0         57.422         92.167
          772.5         57.174         93.113
          773.0         56.926         94.059
          773.5         56.678         95.004
          774.0         56.930         90.959
          774.5         59.686         90.939
          775.0         62.443         90.919
          775.5         65.200         90.899
          776.0         67.957         90.879
          776.5         68.289         90.859
          777.0         67.424         90.839
          777.5         66.558         88.032
          778.0         65.692         84.968
          778.5         63.128         82.136
          779.0         59.673         82.433
          779.5         63.601         82.731
          780.0         64.812         83.028
          780.5         62.397         89.709
          781.0         59.982         89.981
          781.5         57.567         90.253
          782.0         55.187         90.525
          782.5         53.045         90.796
          783.0         54.045         91.068
          783.5         56.922         87.799
          784.0         59.336         87.952
          784.5         58.558         88.105
          785.0         57.780         88.258
          785.5         57.002         88.411
          786.0         56.224         88.564
          786.5         55.446         82.467
          787.0         54.668         82.136
          787.5         53.960         82.964
          788.0         53.836         83.792
          788.5         53.712         84.620
          789.0         53.587         83.852
          789.5         53.819         83.074
          790.0         57.291         83.980
          790.5         57.646         84.885
          791.0         55.915         85.791
          791.5         54.184         84.715
          792.0         52.453         83.570
          792.5         50.722         88.778
          793.0         51.152         87.520
          793.5         52.815         85.742
          794.0         50.837         83.965
          794.5         48.859         84.666
          795.0         47.128         85.447
          795.5         48.676         86.227
          796.0         50.224         87.007
          796.5         51.772         87.788
          797.0         53.320         82.496
          797.5         54.868         81.897
          798.0         56.416         76.754
          798.5         57.964         72.053
          799.0         59.177         75.056
          799.5         55.351         78.058
          800.0         51.751         81.061
          800.5         52.246         84.064
          801.0         52.741         87.067
          801.5         53.235         62.869
          802.0         52.968         65.008
          802.5         52.068         77.755
          803.0         51.168         78.521
          803.5         50.268         80.641
          804.0         49.368         82.796
          804.5         48.558         82.586
          805.0         50.611         82.187
          805.5         52.664         81.788
          806.0         54.718         81.389
          806.5         55.075         80.990
          807.0         53.920         80.592
          807.5         52.766         81.449
          808.0         52.322         82.393
          808.5         52.533         82.514
          809.0         52.744         82.554
          809.5         52.937         82.593
          810.0         51.617         84.247
          810.5         50.297         86.078
          811.0         48.987         87.910
          811.5         50.142         79.229
          812.0         51.298         81.948
          812.5         52.453         84.667
          813.0         53.608         87.386
          813.5         54.763         87.041
          814.0         55.918         86.057
          814.5         57.074         85.074
          815.0         59.984         84.091
          815.5         63.269         83.108
          816.0         65.085         82.125
          816.5         62.156         75.830
          817.0         59.191         76.321
          817.5         61.639         77.264
          818.0         64.172         78.207
          818.5         66.704         79.151
          819.0         69.237         80.094
          819.5         52.460         78.969
          820.0         51.441         77.556
          820.5         50.422         76.144
          821.0         49.403         74.732
          821.5         48.383         73.319
          822.0         47.364         71.907
          822.5         46.345         74.786
          823.0         45.326         77.852
          823.5         44.306         80.918
          824.0         45.779         79.817
          824.5         47.388         77.930
          825.0         48.998         76.044
          825.5         50.608         74.157
          826.0         54.759         77.445
          826.5         54.405         81.208
          827.0         54.051         81.637
          827.5         53.697         81.339
          828.0         54.785         85.230
          828.5         55.973         90.027
          829.0         56.009         91.065
          829.5         54.524         90.534
          830.0         53.040         90.004
          830.5         53.155         89.473
          831.0         53.402         88.942
          831.5         53.649         88.412
          832.0         52.608         87.881
          832.5         51.453         88.102
          833.0         50.298         88.605
          833.5         53.238         89.109
          834.0         56.584         89.612
          834.5         57.284         88.879
          835.0         57.716         87.598
          835.5         58.149         86.317
          836.0         58.582         85.036
          836.5         56.041         83.755
          837.0         53.172         85.011
          837.5         51.753         87.105
          838.0         52.577         89.199
          838.5         53.402         91.294
          839.0         53.219         93.388
          839.5         51.437         91.453
          840.0         49.656         87.034
          840.5         49.972         82.615
