~Version Information Block
 VERS.                2.00:     CWLS LOG ASCII STANDARD - VERSION 2.000000
 WRAP.                  NO:     One Line Per Depth Step
#
~Well Information Block
#MNEM.UNIT                     Data                         Information
#----------   ------------------------------------------   ----------------
 STRT.FT                                     1000.0000:     START DEPTH
 STOP.FT                                    15733.0000:     STOP DEPTH
 STEP.FT                                        0.5000:     STEP
 NULL.                                       -999.0000:     NULL VALUE
 COMP.                                 MOBIL PRODUCING:     COMPANY
 WELL.                                    IB-WEATHERBY:     WELL
 FLD .                                   ROJO CABALLOS:     FIELD
 LOC .                                         UNKNOWN:     LOCATION
 LONG.                                 -103.1458890000:     LONGITUDE
 LATI.                                   31.1330510000:     LATITUDE
 CNTY.                                           PECOS:     COUNTY
 STAT.                                           TEXAS:     STATE
 CTRY.                                           U.S.A:     COUNTRY
 SRVC.                                         UNKNOWN:     SERVICE COMPANY
 DATE.                                         UNKNOWN:     DATE
 API .                                  42371057360000:     API NUMBER
 UWI .                                  42371057360000:     UWI NUMBER
 SLAT.                                       31.133051:     Surface latitude
 SLON.                                     -103.145889:     surface longitude
 TVD .                                              NO:     TVD flag
 WSTA.                                             LOC:     Well status
#
~Curve Information Block
#MNEM.UNIT       API CODE      Curve Description
#----------    -------------   -------------------
 DEPT.FT                   :   Depth in Feet
 DT  .UNKNOWN          UNKNOWN:   DT-Load
 DTedit.ft/s          UNKNOWN:   DT-Load
 GR  .UNKNOWN          UNKNOWN:   GR-Load
 GR_org.UNKNOWN          UNKNOWN:   GR_org-Load
#
~Parameter Information Block
#MNEM.UNIT            Value               Description
#----------    --------------------    -------------------
 RUN .                         ONE:    Run Number
 PDAT.                          GL:    Permanent Datum
 EPD .FT                          :    Elevation Of Perm. Datum
 LMF .               KELLY BUSHING:    Log Measured From
 EKB .FT                          :    Elevation Of Kelly Bushing
 DF .FT                           :    Elevation Of Derrick Floor
 GL .FT                           :    Elevation Of Ground Level
 TD  .FT                          :    Total Depth
 CSGD.FT                          :    Casing Bottom (Driller) 1
 CSGL.FT                          :    Casing Bottom (Logger) 1
 MUD .                            :    Drilling Fluid Type
 MUDV .CP                         :    Drilling Fluid Viscosity
 MUDD .LB/USG                     :    Drilling Fluid Density
 FL .ML/30MIN                     :    Drilling Fluid Loss
 PH.                              :    Drilling Fluid Ph
 MUDS .                           :    Mud Sample Source
 RM .OHMM                         :    Resistivity Of Mud Sample
 RMT .DEGF                        :    Mud Sample Temperature
 RMF .OHMM                        :    Mud Filtrate Resistivity
 RMFT.DEGF                        :    Mud Filtrate Sample Temperature
 RMC .OHMM                        :    Mud Cake Resistivity
 RMCT.DEGF                        :    Mud Cake Sample Temperature
 RMB .OHMM                        :    Mud Resistivity At Bht
 TMAX .DEGF                       :    Bottom Hole Temperature
#
~Other Information Block
<DescLogPlotStart>   NEURALOG PLOT DEFINITION
PLOTDEFVERSION: 3
LASFILE: E:\Nair Innovations\42_TEXAS\371_Pecos\Mobil_IB-Weatherby 1 Pecos_1.la
DEPTHSCALE: 239.999996
RESOLUTION: 200
DEPTHLABELFREQ: 100.000000
HEAVYGRIDFREQ: 50.000000
MEDIUMGRIDFREQ: 50.000000
LIGHTGRIDFREQ: 10.000000
#
#   TRACK 1
#
STARTTRACK: 
 LEFTX: 0.500000 inch
 RIGHTX: 3.000000 inch
 SCALETYPE: Linear
 NUMCHARTDIVISIONS: 10
CURVE: GR    0.000000   150.000000 (255,0,0)      Short_Dash        4     N    
CURVE: DTedit 6637.927700 24453.046900 (0,131,131)    Solid             2     N
CURVE: GR_org -999.990000 109.000000 (255,0,255)    Solid             2     N  
ENDTRACK: 
#
#   TRACK 2
#
STARTTRACK: 
 LEFTX: 3.750000 inch
 RIGHTX: 6.250000 inch
 SCALETYPE: Linear
 NUMCHARTDIVISIONS: 10
ENDTRACK: 
#
#   TRACK 3
#
STARTTRACK: 
 LEFTX: 6.250000 inch
 RIGHTX: 8.750000 inch
 SCALETYPE: Linear
 NUMCHARTDIVISIONS: 10
CURVE: DT    190.000000 50.000000  (255,0,131)    Solid             2     N    
ENDTRACK: 
<DescLogPlotEnd>
<DepthTrack type='Reference' track='1' Label='0' color='0' hor='0' />
<Reference font='144,0,-900,0,500,0,16777216,Arial' />
~A DEPTH     DT               DTedit             GR               GR_org            
# ...
   10702.000 88.34670000      11319.04200000   28.79500000      28.79500000     
   10702.500 88.34670000      11319.04200000   29.28990000      29.28990000     
   10703.000 95.00100000      10526.20510000   29.82710000      29.82710000     
   10703.500 95.00100000      10526.20510000   30.37810000      30.37810000     
   10704.000 98.09250000      10194.45900000   30.39110000      30.39110000     
   10704.500 98.09250000      10194.45900000   30.29600000      30.29600000     
   10705.000 92.03550000      10865.37300000   31.01720000      31.01720000     
   10705.500 92.03550000      10865.37300000   32.27940000      32.27940000     
   10706.000 87.86630000      11380.92770000   33.78900000      33.78900000     
   10706.500 87.86630000      11380.92770000   35.09220000      35.09220000     
   10707.000 90.57030000      11041.14750000   35.44260000      35.44260000     
   10707.500 90.57030000      11041.14750000   35.12210000      35.12210000     
   10708.000 88.74280000      11268.52050000   32.93350000      32.93350000     
   10708.500 88.74280000      11268.52050000   31.38650000      31.38650000     
   10709.000 89.80830000      11134.82910000   30.74110000      30.74110000     
   10709.500 89.80830000      11134.82910000   30.65470000      30.65470000     
   10710.000 87.14900000      11474.60060000   30.82760000      30.82760000     
   10710.500 87.14900000      11474.60060000   30.91900000      30.91900000     
   10711.000 91.76900000      10896.92680000   30.96870000      30.96870000     
   10711.500 91.76900000      10896.92680000   32.58780000      32.58780000     
   10712.000 92.90140000      10764.10060000   33.32270000      33.32270000     
   10712.500 92.90140000      10764.10060000   33.16600000      33.16600000     
   10713.000 89.85790000      11128.68160000   32.74070000      32.74070000     
   10713.500 89.85790000      11128.68160000   33.34140000      33.34140000     
   10714.000 88.15000000      11344.29880000   34.30380000      34.30380000     
   10714.500 88.15000000      11344.29880000   34.98030000      34.98030000     
   10715.000 99.72530000      10027.54490000   35.63440000      35.63440000     
   10715.500 99.72530000      10027.54490000   36.24990000      36.24990000     
   10716.000 101.09400000     9891.78420000    35.60710000      35.60710000     
   10716.500 101.09400000     9891.78420000    34.67440000      34.67440000     
   10717.000 86.29060000      11588.74710000   33.62240000      33.62240000     
   10717.500 86.29060000      11588.74710000   33.28230000      33.28230000     
   10718.000 90.00650000      11110.30860000   33.37120000      33.37120000     
   10718.500 90.00650000      11110.30860000   33.97060000      33.97060000     
   10719.000 91.32410000      10950.01270000   33.52660000      33.52660000     
   10719.500 91.32410000      10950.01270000   32.89490000      32.89490000     
   10720.000 96.58570000      10353.49900000   31.80440000      31.80440000     
   10720.500 96.58570000      10353.49900000   31.43630000      31.43630000     
   10721.000 85.02990000      11760.56930000   31.94490000      31.94490000     
   10721.500 85.02990000      11760.56930000   32.65240000      32.65240000     
   10722.000 79.32710000      12606.03220000   31.74960000      31.74960000     
   10722.500 79.32710000      12606.03220000   29.17800000      29.17800000     
   10723.000 75.98190000      13161.02830000   28.02150000      28.02150000     
   10723.500 75.98190000      13161.02830000   27.04420000      27.04420000     
   10724.000 83.70320000      11946.97460000   26.39290000      26.39290000     
   10724.500 83.70320000      11946.97460000   29.47900000      29.47900000     
   10725.000 90.18650000      11088.13380000   31.33430000      31.33430000     
   10725.500 90.18650000      11088.13380000   32.55790000      32.55790000     
   10726.000 85.33610000      11718.37010000   33.16910000      33.16910000     
   10726.500 85.33610000      11718.37010000   33.17970000      33.17970000     
   10727.000 91.61520000      10915.21970000   32.89250000      32.89250000     
   10727.500 91.61520000      10915.21970000   33.73550000      33.73550000     
   10728.000 87.13100000      11476.97170000   34.19010000      34.19010000     
   10728.500 87.13100000      11476.97170000   34.57490000      34.57490000     
   10729.000 97.51030000      10255.32710000   34.66980000      34.66980000     
   10729.500 97.51030000      10255.32710000   34.23790000      34.23790000     
   10730.000 86.34610000      11581.29880000   33.28170000      33.28170000     
   10730.500 86.34610000      11581.29880000   33.05020000      33.05020000     
   10731.000 87.79430000      11390.26170000   33.02420000      33.02420000     
   10731.500 87.79430000      11390.26170000   32.78110000      32.78110000     
   10732.000 90.18960000      11087.75290000   32.49140000      32.49140000     
   10732.500 90.18960000      11087.75290000   32.04130000      32.04130000     
   10733.000 86.44670000      11567.82130000   29.77000000      29.77000000     
   10733.500 86.44670000      11567.82130000   28.82860000      28.82860000     
   10734.000 90.45070000      11055.74610000   28.15590000      28.15590000     
   10734.500 90.45070000      11055.74610000   27.56390000      27.56390000     
   10735.000 88.55370000      11292.58200000   27.14740000      27.14740000     
   10735.500 88.55370000      11292.58200000   28.28770000      28.28770000     
   10736.000 81.79430000      12225.79100000   30.27730000      30.27730000     
   10736.500 81.79430000      12225.79100000   32.20480000      32.20480000     
   10737.000 78.76430000      12696.10740000   32.48800000      32.48800000     
   10737.500 78.76430000      12696.10740000   32.51690000      32.51690000     
   10738.000 88.64070000      11281.49900000   32.63870000      32.63870000     
   10738.500 88.64070000      11281.49900000   32.78300000      32.78300000     
   10739.000 92.74380000      10782.39260000   32.85880000      32.85880000     
   10739.500 92.74380000      10782.39260000   31.27460000      31.27460000     
   10740.000 89.46020000      11178.15530000   29.85700000      29.85700000     
   10740.500 89.46020000      11178.15530000   29.02010000      29.02010000     
   10741.000 83.80240000      11932.83300000   28.45430000      28.45430000     
   10741.500 83.80240000      11932.83300000   27.85620000      27.85620000     
   10742.000 93.24510000      10724.42380000   27.85370000      27.85370000     
   10742.500 93.24510000      10724.42380000   28.73780000      28.73780000     
   10743.000 92.77380000      10778.90530000   29.72520000      29.72520000     
   10743.500 92.77380000      10778.90530000   30.34630000      30.34630000     
   10744.000 98.92690000      10108.47360000   30.56420000      30.56420000     
   10744.500 98.92690000      10108.47360000   30.61990000      30.61990000     
   10745.000 84.71180000      11804.73050000   30.74860000      30.74860000     
   10745.500 84.71180000      11804.73050000   31.70740000      31.70740000     
   10746.000 91.38420000      10942.81050000   32.11770000      32.11770000     
   10746.500 91.38420000      10942.81050000   32.04190000      32.04190000     
   10747.000 89.32210000      11195.43750000   31.27460000      31.27460000     
   10747.500 89.32210000      11195.43750000   30.69270000      30.69270000     
   10748.000 85.63620000      11677.30470000   30.35190000      30.35190000     
   10748.500 85.63620000      11677.30470000   29.67670000      29.67670000     
   10749.000 87.88590000      11378.38960000   28.91560000      28.91560000     
   10749.500 87.88590000      11378.38960000   27.88730000      27.88730000     
   10750.000 98.99890000      10101.12210000   27.66840000      27.66840000     
   10750.500 98.99890000      10101.12210000   28.66820000      28.66820000     
   10751.000 81.71030000      12238.35940000   29.73020000      29.73020000     
