#--------------------------------------------------#
#-------------------ENVERUS, INC.------------------#
#------------------WWW.ENVERUS.COM-----------------#
#------------------COPYRIGHT 2020------------------#
#--------------------------------------------------#
#THIS FILE MAY BE USED ONLY IN ACCORDANCE WITH A CURRENT SUBSCRIPTION AGREEMENT BETWEEN
#THE USER AND ENVERUS, INC. NO PART OF THIS FILE MAY BE REPRODUCED, USED, COPIED,
#MODIFIED, PROPAGATED, OR DISTRIBUTED EXCEPT IN ACCORDANCE WITH THE SUBSCRIPTION
#AGREEMENT. UNAUTHORIZED USE OR DISTRIBUTION OF ALL OR ANY PART OF THIS FILE MAY VIOLATE
#COPYRIGHT, TRADEMARK, AND/OR OTHER LAWS AND IS SUBJECT TO CIVIL AS WELL AS CRIMINAL
#SANCTIONS.
#--------------------------------------------------#
#THIS FILE IS PROVIDED "AS-IS" AND ALL WARRANTIES ARE EXPRESSLY DISCLAIMED, WHETHER
#EXPRESS, ORAL, IMPLIED, STATUTORY OR OTHERWISE, INCLUDING ANY IMPLIED WARRANTY OF FITNESS
#FOR A PARTICULAR PURPOSE, MERCHANTABILITY, TITLE OR NON-INFRINGEMENT, AND ANY WARRANTIES
#ARISING BY VIRTUE OF CUSTOM OF TRADE OR COURSE OF DEALING.  FURTHER, ENVERUS, INC.
#AND ITS LICENSORS DO NOT REPRESENT OR WARRANT THAT THIS FILE WILL MEET USER'S
#REQUIREMENTS OR ARE SUITABLE FOR USER'S NEEDS OR THAT THE DATA OR RESULTS PROVIDED IN
#CONJUNCTION THEREWITH ARE CORRECT, ACCURATE, TIMELY OR RELIABLE. THESE DISCLAIMERS SHALL
#APPLY REGARDLESS OF ANY FAILURE OF ESSENTIAL PURPOSE OF ANY LIMITED REMEDY.  SOME
#JURISDICTIONS DO NOT ALLOW THE EXCLUSION OF CERTAIN WARRANTIES SO SOME OF THE ABOVE
#EXCLUSIONS MAY NOT APPLY. IN NO EVENT SHALL ENVERUS, INC. OR ANY OF ITS AFFILIATES
#BE LIABLE UNDER ANY LEGAL THEORY, WHETHER IN TORT (INCLUDING WITHOUT LIMITATION
#NEGLIGENCE), CONTRACT, STRICT LIABILITY, STATUTORY OR OTHERWISE, FOR ANY SPECIAL,
#INCIDENTAL, CONSEQUENTIAL, EXEMPLARY, PUNITIVE OR INDIRECT DAMAGE OF ANY KIND, INCLUDING
#WITHOUT LIMITATION LOSS OF REVENUE, PROFITS, GOODWILL, USE, AND/OR DATA OR THE COST OF
#PROCUREMENT OF SUBSTITUTE GOODS OR SERVICES, EVEN IF APPRISED OF THE POSSIBILITY OF SUCH
#DAMAGES IN ADVANCE.
#--------------------------------------------------#

~VERSION INFORMATION
VERS. 2.0 : CWLS LOG ASCII STANDARD - VERSION 2.0
WRAP.  NO : ONE LINE PER DEPTH STEP
~WELL INFORMATION
#MNEMONIC     .UNIT              VALUE :DESCRIPTION
STRT       .FT                10841 :START DEPTH
STOP       .FT                18209 :STOP DEPTH
STEP       .FT                   0.500 :STEP
NULL       .                  -999.99 :NULL
UWI        .                42371326180000 :UNIQUE WELL ID
API        .                42371326180000 :API NUMBER
COMP       .         :COMPANY
WELL       .        :WELL
DATE       .                 :LOG DATE
FLD       .                 :FIELD NAME
LOC       .                  UNK :LOCATION
CNTY       .                 UNK :COUNTY
STAT       .                 UNK :STATE
CTRY       .                 UNK :COUNTY
SRVC       .                 UNK :SERVICE COMPANY
~CURVE INFORMATION
#MNEMONIC     .UNIT      API CODE :CURVE DESCRIPTION
DEPTH       .FT                      :MEASURED DEPTH
CAL.IN        UNKNOWN   :CAL
DT.MSEC/FT        UNKNOWN   :DT
GR.API        UNKNOWN   :GR
ILD.OHM        UNKNOWN   :ILD
ILS.OHM        UNKNOWN   :ILS
SP.MV        UNKNOWN   :SP
~A    DEPTH    CAL    DT    GR    ILD    ILS    SP
# ...
 13319     13.59511   78.09676   41.27959   5.53814   5.15637   -14.66579
 13319.5     11.11993   92.65275   39.98932   5.26583   7.60044   -14.66869
 13320     11.3602   92.01526   40.46705   5.24217   7.90576   -14.67158
 13320.5     12.2288   78.96198   41.50798   5.44501   6.78102   -14.67448
 13321     12.3299   75.22714   42.5489   5.64784   6.16402   -14.67738
 13321.5     11.94496   75.75699   43.58983   5.79537   5.88216   -14.68027
 13322     11.57175   79.10452   44.63075   5.58963   6.11615   -14.68317
 13322.5     11.57069   85.94728   44.48141   5.38389   6.70849   -14.68607
 13323     11.71223   90.86438   43.09598   5.17816   6.86567   -14.68897
 13323.5     11.99158   88.95033   44.70814   5.18657   6.37508   -14.69186
 13324     12.34603   85.05376   48.15584   5.2141   6.01499   -14.69479
 13324.5     12.51233   83.61027   50.7843   5.14175   6.10896   -14.69773
 13325     12.45642   84.82539   49.9574   5.0694   6.14195   -14.70067
 13325.5     12.13326   84.98657   45.98727   4.99706   5.94374   -14.70361
 13326     12.09058   84.92168   43.35143   4.92471   5.74552   -14.70655
 13326.5     12.16639   84.67039   42.76895   4.85236   5.87184   -14.70949
 13327     12.2422   84.19024   45.05606   4.78001   6.05075   -14.71243
 13327.5     12.79777   84.12225   50.39602   4.70767   6.22834   -14.71537
 13328     13.45802   84.36808   53.982   4.63532   6.04489   -14.71832
 13328.5     13.67758   84.40399   54.60011   4.64077   5.86143   -14.72126
 13329     13.42267   83.40676   50.2589   4.74614   5.67798   -14.64388
 13329.5     13.04978   82.20446   46.76842   4.8515   5.49453   -14.53871
 13330     11.74962   81.20636   44.44419   4.95687   5.31107   -14.43354
 13330.5     11.5375   79.17747   46.6435   4.97693   5.36975   -14.3734
 13331     11.62804   79.50502   51.12911   4.98567   5.56717   -14.37638
 13331.5     11.82811   81.8284   54.23585   4.99441   5.76459   -14.37936
 13332     11.9124   85.18545   56.57843   5.00315   5.96201   -14.38234
 13332.5     11.98358   85.27205   58.97407   5.01189   6.15943   -14.57158
 13333     12.05098   85.06755   62.08074   5.02062   6.28714   -14.87678
 13333.5     12.11842   84.86306   63.41861   5.02936   6.32069   -15.18199
 13334     12.01877   84.72224   61.65292   5.0381   6.35424   -15.4872
 13334.5     11.85699   84.60309   57.08354   5.04271   6.38779   -15.79241
 13335     11.7966   84.42994   53.39374   5.03521   6.45529   -15.58629
 13335.5     11.73621   84.38976   53.33901   5.02772   7.04972   -15.29876
 13336     11.69167   84.48444   52.11114   5.02022   7.61404   -15.01123
 13336.5     11.83328   84.52083   48.263   5.01272   7.45552   -14.7237
 13337     11.97412   84.50263   44.7994   5.00522   7.19457   -14.43617
 13337.5     11.92379   84.47593   47.59696   4.83552   6.50944   -14.14864
 13338     11.65907   84.42869   52.79003   4.63034   5.8243   -14.32057
 13338.5     11.81534   84.38145   59.67934   4.67328   5.13917   -14.70078
 13339     11.97161   84.33421   61.88607   4.64763   4.91057   -15.08098
 13339.5     11.75998   84.46445   60.9284   4.54106   5.11295   -15.46119
 13340     11.48165   84.93439   58.71056   4.45164   5.31533   -15.22603
 13340.5     11.24097   87.49393   57.56382   4.53144   5.45904   -14.91117
 13341     11.24106   89.26432   62.3097   4.61125   5.27578   -14.59632
 13341.5     11.2427   89.51712   65.75401   4.69106   5.09251   -14.28146
 13342     11.26968   91.05209   65.40271   4.76899   5.14864   -14.14185
 13342.5     11.29667   87.76552   62.52902   4.78427   5.47546   -14.29581
 13343     11.32365   83.06069   61.07112   4.79955   5.80229   -14.44976
 13343.5     11.35064   80.55584   62.08629   4.81483   5.9517   -14.60372
 13344     11.37762   79.98532   61.42192   4.83011   5.98748   -14.75767
 13344.5     11.40461   78.64127   58.81386   4.84539   6.02326   -15.09943
 13345     11.41199   79.32921   57.62233   4.86067   6.05903   -15.55583
 13345.5     11.41514   83.06167   60.39418   4.87594   6.25978   -15.83916
 13346     11.41829   83.70025   65.0854   4.78766   6.5164   -15.59066
 13346.5     11.42144   81.02044   69.26358   4.66527   6.67387   -15.34215
 13347     11.4246   81.64118   72.56703   4.54287   6.49236   -15.06006
 13347.5     11.42775   82.04916   72.54168   4.42048   6.31085   -14.72661
 13348     11.4309   82.04886   70.64873   4.60467   5.8614   -14.47992
 13348.5     11.53926   82.05458   67.71889   4.83664   5.30233   -14.48303
 13349     11.71307   82.0806   62.57617   5.06861   4.78854   -14.5401
 13349.5     12.4704   82.10662   57.39103   5.14215   5.61489   -14.69468
 13350     12.64142   82.28121   52.09475   5.21301   7.13335   -14.84926
 13350.5     11.96345   82.57676   46.76581   5.28386   9.30689   -14.73138
 13351     11.30958   82.72492   46.47497   5.35472   10.08323   -14.60833
 13351.5     11.25537   82.84015   50.60392   5.42557   8.17099   -14.48389
 13352     11.40141   82.81563   60.86082   5.49643   7.00466   -14.35031
 13352.5     11.57628   82.98256   67.50185   5.44045   6.56581   -14.21672
 13353     11.48994   83.55851   65.74863   5.2818   7.00864   -14.20582
 13353.5     11.50227   83.73154   62.60426   5.12315   7.47795   -14.30959
 13354     11.57414   83.6844   62.05287   4.9645   7.40123   -14.41336
 13354.5     11.53386   83.42358   64.376   4.91579   7.01388   -14.51713
 13355     11.49631   83.30809   63.76548   4.92257   6.88442   -14.6209
 13355.5     11.53006   83.19261   61.80249   4.92936   6.65986   -14.72467
 13356     11.56382   83.54891   60.3337   4.93615   6.30894   -14.82844
 13356.5     11.60671   84.33231   59.8478   4.94293   6.13719   -14.84948
 13357     11.65727   83.70789   59.3619   4.93305   6.21496   -14.74086
 13357.5     11.69901   82.80699   59.22272   4.87322   6.08426   -14.63224
 13358     11.73064   82.62349   60.69531   4.81338   5.79659   -14.52363
 13358.5     11.76227   82.82552   62.68876   4.75642   5.50891   -14.41501
 13359     11.78815   82.9849   64.61974   4.77251   5.22123   -14.30639
 13359.5     11.77905   82.87322   66.24142   4.78861   5.19655   -14.19777
 13360     11.76994   82.62454   65.22498   4.80471   5.38186   -14.28462
 13360.5     11.76084   82.24282   64.15116   4.82081   5.9803   -14.37633
 13361     11.75174   81.50064   64.24952   4.86196   6.57873   -14.46803
 13361.5     11.74377   80.82765   65.06096   4.93158   7.04619   -14.55974
 13362     11.73668   79.72774   64.50886   5.00119   6.81585   -14.46777
 13362.5     11.72958   79.94828   59.88355   5.0708   6.24624   -14.36356
 13363     11.62544   82.02414   56.05887   5.14042   5.91145   -14.25935
 13363.5     11.47063   83.90587   56.74742   5.21003   5.78418   -14.31304
 13364     11.31582   81.6821   58.06229   5.27964   6.10012   -14.46734
 13364.5     11.30802   79.591   58.75719   5.34926   6.41606   -14.62165
 13365     11.3012   80.53841   57.36808   5.41887   6.732   -14.77596
 13365.5     11.29145   80.24736   54.14917   5.42988   6.88793   -14.93026
 13366     11.2817   78.95965   51.05096   5.42943   6.82715   -15.08457
 13366.5     11.27196   80.35007   49.99737   5.42897   6.59466   -15.23887
 13367     11.26221   82.65465   53.38281   5.4158   6.36217   -15.06231
 13367.5     11.25246   84.07223   55.70533   5.3039   6.18897   -14.53215
 13368     11.24271   84.07193   57.68745   5.192   6.18845   -14.00199
 13368.5     11.23296   84.14671   59.6037   5.0801   6.13398   -13.47184
 13369     11.24133   84.26721   61.10207   4.96821   6.00154   -13.43252
 13369.5     11.33321   84.39209   63.15159   4.89059   5.8691   -14.00212
 13370     11.42509   84.3928   66.21152   4.86884   5.73666   -14.57172
 13370.5     11.44023   84.23836   69.27145   4.84708   5.7265   -15.14133
 13371     11.44624   84.11787   72.31511   4.82532   5.81576   -15.08997
 13371.5     11.45224   83.99738   72.04347   4.80356   5.89964   -14.6952
 13372     11.43591   83.87688   71.77183   4.78181   5.81722   -14.30042
 13372.5     11.38003   83.70006   71.50019   4.76005   5.73481   -13.90565
