~Version Information Block
 VERS.                2.00:     CWLS LOG ASCII STANDARD - VERSION 2.000000
 WRAP.                  NO:     One Line Per Depth Step
#
~Well Information Block
#MNEM.UNIT                     Data                         Information
#----------   ------------------------------------------   ----------------
 STRT.FT                                     5200.0000:     START DEPTH
 STOP.FT                                    11550.0000:     STOP DEPTH
 STEP.FT                                        0.5000:     STEP
 NULL.                                       -999.2500:     NULL VALUE
 COMP.               AMERICAN QUASAR PETROLEUM COMPANY:     COMPANY
 WELL.                               MCCARTER # 1 - 31:     WELL
 FLD .                                         WILDCAT:     FIELD
 LOC .                                                :     LOCATION
 CNTY.                                          REEVES:     COUNTY
 STAT.                                           TEXAS:     STATE
 CTRY.                                             USA:     COUNTRY
 SRVC.                                                :     SERVICE COMPANY
 DATE.                                      08/07/2015:     DATE
 API .                                  42389311800000:     API NUMBER
 UWI .                                  42389311800000:     UWI NUMBER
 TVD .                                              NO:     TVD flag
 WSTA.                                             LOC:     Well status
#
~Curve Information Block
#MNEM.UNIT       API CODE      Curve Description
#----------    -------------   -------------------
 DEPT.FT                   :   Depth in Feet
 GR  .GAPI                 :   Gamma Ray
 LLD .OHMM                 :   Latero-Log Deep (Resistivity)
 CALI.IN                   :   Caliper
 DT  .US/F                 :   Delta-T
#
~Parameter Information Block
#MNEM.UNIT            Value               Description
#----------    --------------------    -------------------
 RUN .                         ONE:    Run Number
 PDAT.                          GL:    Permanent Datum
 EPD .FT                          :    Elevation Of Perm. Datum
 LMF .               KELLY BUSHING:    Log Measured From
 EKB .FT                          :    Elevation Of Kelly Bushing
 DF .FT                           :    Elevation Of Derrick Floor
 GL .FT                           :    Elevation Of Ground Level
 TD  .FT                          :    Total Depth
 CSGD.FT                          :    Casing Bottom (Driller) 1
 CSGL.FT                          :    Casing Bottom (Logger) 1
 MUD .                            :    Drilling Fluid Type
 MUDV .CP                         :    Drilling Fluid Viscosity
 MUDD .LB/USG                     :    Drilling Fluid Density
 FL .ML/30MIN                     :    Drilling Fluid Loss
 PH.                              :    Drilling Fluid Ph
 MUDS .                           :    Mud Sample Source
 RM .OHMM                         :    Resistivity Of Mud Sample
 RMT .DEGF                        :    Mud Sample Temperature
 RMF .OHMM                        :    Mud Filtrate Resistivity
 RMFT.DEGF                        :    Mud Filtrate Sample Temperature
 RMC .OHMM                        :    Mud Cake Resistivity
 RMCT.DEGF                        :    Mud Cake Sample Temperature
 RMB .OHMM                        :    Mud Resistivity At Bht
 TMAX .DEGF                       :    Bottom Hole Temperature    
#
~Other Information Block
<DescLogPlotStart>   NEURALOG PLOT DEFINITION
PLOTDEFVERSION: 3
LASFILE: E:\Nair Innovations\Texas - NII\Shivam\42389311800000\42389311800000_G
DEPTHSCALE: 239.999996
RESOLUTION: 200
DEPTHLABELFREQ: 100.000000
HEAVYGRIDFREQ: 100.000000
MEDIUMGRIDFREQ: 50.000000
LIGHTGRIDFREQ: 10.000000
#
#   TRACK 1
#
STARTTRACK: 
 LEFTX: 0.500000 inch
 RIGHTX: 3.000000 inch
 SCALETYPE: Linear
 NUMCHARTDIVISIONS: 10
CURVE: GR    0.000000   125.000000 (0,0,255)      Solid             2     Y    
BACKUP: 125.000000 250.000000 (0,0,255)      Solid             2    
CURVE: CALI  6.000000   16.000000  (0,0,255)      Solid             2     N    
ENDTRACK: 
#
#   TRACK 2
#
STARTTRACK: 
 LEFTX: 3.500000 inch
 RIGHTX: 8.500000 inch
 SCALETYPE: Log
 NUMCYCLES: 4
 STARTCYCLE: 2
CURVE: LLD   0.200000   2000.000000 (0,131,131)    Solid             2     Y   
BACKUP: 2000.000000 20000000.000000 (0,131,131)    Solid             2    
ENDTRACK: 
#
#   TRACK 3
#
STARTTRACK: 
 LEFTX: 3.500000 inch
 RIGHTX: 8.500000 inch
 SCALETYPE: Linear
 NUMCHARTDIVISIONS: 10
CURVE: DT    100.000000 40.000000  (0,131,131)    Solid             2     Y    
BACKUP: 160.000000 100.000000 (0,131,131)    Solid             2    
BACKUP: 40.000000  -20.000000 (0,131,131)    Solid             2    
ENDTRACK: 
<DescLogPlotEnd>
<DepthTrack type='Reference' track='1' Label='0' color='0' hor='0' />
<Reference font='144,0,-900,0,500,0,16777216,Arial' />
~A DEPTH     GR               LLD              CALI             DT              
# ...
    6883.000 42.68053736      18.87545034      12.73502303      63.46653347     
    6883.500 45.37967932      14.95469261      12.73624884      63.18156694     
    6884.000 50.13636840      14.14911885      12.73068209      66.97111596     
    6884.500 58.24752517      15.13138928      12.72302209      68.31150691     
    6885.000 67.29970023      16.38648151      12.71611586      69.70029970     
    6885.500 72.23684790      18.66219252      12.71662487      69.91338661     
    6886.000 72.13041967      19.92517169      12.71700126      69.26993007     
    6886.500 63.04440385      19.79125718      12.71734805      67.73013022     
    6887.000 55.61002714      18.96154334      12.71769372      66.24657492     
    6887.500 53.73832559      18.83553201      12.71803938      64.84395990     
    6888.000 55.19257373      22.45151371      12.71838504      64.40377804     
    6888.500 58.14945314      32.39210817      12.71873070      64.67759513     
    6889.000 61.09991507      46.73398354      12.71907636      64.96203796     
    6889.500 63.77330179      67.42584354      12.71942202      66.34365634     
    6890.000 67.53855615      97.27919669      12.71976768      66.60339660     
    6890.500 71.71460878      128.71204011     12.72011334      66.77909590     
    6891.000 69.74544317      129.61439653     12.72045900      65.70895771     
    6891.500 66.42466999      105.55790915     12.72080466      62.83083583     
    6892.000 47.64335691      86.74375241      12.72115032      60.89060939     
    6892.500 39.25512575      71.28055253      12.72149598      59.21078921     
    6893.000 38.34139318      58.57352529      12.72184164      59.91558442     
    6893.500 42.90030060      48.11119142      12.72218730      60.16983017     
    6894.000 47.65503416      40.55450219      12.72253296      64.06593407     
    6894.500 52.28444990      36.61052494      12.72287862      64.57486264     
    6895.000 56.91909466      33.93218071      12.72322428      65.08491508     
    6895.500 61.53151751      38.05807104      12.72356994      66.16383616     
    6896.000 68.61101778      42.82440310      12.72391560      67.04700137     
    6896.500 75.70931118      126.07506306     12.72426127      68.41745686     
    6897.000 80.31227479      114.96060316     12.72460693      69.57889089     
    6897.500 80.54080342      392.29716172     12.72495259      69.88011988     
    6898.000 80.63243643      1710.75431584    12.72529825      69.28571429     
    6898.500 82.57870415      2827.03116967    12.72564391      68.40721778     
    6899.000 84.99819327      2869.53357350    12.72598957      67.79015682     
    6899.500 88.71054121      2809.63229200    12.72633523      69.32128315     
    6900.000 95.58411337      2597.75339924    12.72668089      70.76800600     
    6900.500 92.57272526      326.17813511     12.72702655      71.73826174     
    6901.000 88.39934192      216.73437176     12.72737221      68.84904661     
    6901.500 75.21190064      148.97595153     12.72771787      66.63368805     
    6902.000 60.77246767      102.42305071     12.72806353      64.41832950     
    6902.500 50.65555102      70.53942667      12.72840919      62.20297094     
    6903.000 49.78336199      49.33154848      12.72875485      61.42857143     
    6903.500 50.40256661      38.92027615      12.72910051      62.09444521     
    6904.000 52.25545156      32.28441771      12.72944617      63.34578684     
    6904.500 55.80237179      24.75164122      12.72979183      64.58711691     
    6905.000 58.74738461      18.23610797      12.73013749      65.52247752     
    6905.500 60.02522574      16.89549027      12.73048315      65.98401598     
    6906.000 60.12039957      16.46204650      12.73082881      66.25818182     
    6906.500 60.93887400      16.31914233      12.73117448      66.52953047     
    6907.000 61.97882925      16.24986042      12.73152014      66.70329670     
    6907.500 62.20682497      16.40052124      12.73186580      66.72667333     
    6908.000 58.39799490      16.88471881      12.73221146      66.34782123     
    6908.500 53.47630237      19.31822156      12.73255712      64.46675762     
    6909.000 47.14984767      22.23935462      12.73290278      62.59603397     
    6909.500 39.77003955      26.68289219      12.73324844      61.41756415     
    6910.000 38.53151046      35.48763178      12.73359410      58.32067932     
    6910.500 37.78605815      51.79522644      12.73393976      57.41258741     
    6911.000 37.39777097      51.00176866      12.73428542      57.05294705     
    6911.500 37.26051629      62.52014486      12.73463108      56.93306693     
    6912.000 38.24484076      63.68483203      12.73497674      57.71245897     
    6912.500 41.19672608      40.57171160      12.73532027      59.47837876     
    6913.000 48.37124781      27.61050149      12.73566181      61.24429856     
    6913.500 50.21024016      18.78993423      12.73593967      63.01021835     
    6914.000 50.11424456      14.50932571      12.74035368      64.77613815     
    6914.500 47.65577096      14.30925984      12.74621868      66.54205794     
    6915.000 44.69090437      14.14911885      12.75203655      66.61938062     
    6915.500 43.69325504      16.16594653      12.75557731      66.17222777     
    6916.000 43.32337828      19.99745141      12.75418535      64.27764236     
    6916.500 40.13145698      24.77050696      12.75289001      62.52895105     
    6917.000 38.39131142      31.58327076      12.75157952      60.70929071     
    6917.500 40.53790904      36.94562874      12.75027233      59.33066933     
    6918.000 45.29744988      33.64509657      12.74896514      60.72547453     
    6918.500 51.05959903      28.61350619      12.74765795      62.68521479     
    6919.000 58.23759059      23.03591748      12.74635076      64.63862244     
    6919.500 66.72660665      23.56157672      12.74504357      66.51685848     
    6920.000 70.89803721      29.20276286      12.74373638      67.33803340     
    6920.500 72.24646923      33.35009579      12.74242919      67.78791209     
    6921.000 67.51464141      31.95544572      12.74112200      68.26173826     
    6921.500 59.56600173      29.60218737      12.73981481      67.48251748     
    6922.000 55.14278702      26.25829170      12.73850763      67.12087912     
    6922.500 55.16880141      22.75317566      12.73720044      66.82350982     
    6923.000 57.77950675      21.23645882      12.73589325      66.58341658     
    6923.500 59.95430228      20.03556245      12.73458606      66.03296703     
    6924.000 58.25987781      18.49106220      12.73327887      65.64070929     
    6924.500 55.39064419      18.32934547      12.73197168      65.52764735     
    6925.000 53.76353237      18.15289215      12.73066449      65.41458541     
    6925.500 56.21553374      18.53633986      12.72935730      65.38641359     
    6926.000 59.66207951      19.65961849      12.72805011      65.49814186     
    6926.500 63.05552173      20.11987073      12.72674292      65.46799201     
    6927.000 65.61747087      20.65656252      12.72543573      65.46693307     
    6927.500 71.11613309      22.16507852      12.72412854      65.91358641     
    6928.000 79.98378331      30.45033275      12.72282135      67.13306693     
    6928.500 89.06556768      42.85724916      12.72151416      69.09280719     
    6929.000 95.11316149      62.34728852      12.72020697      70.95904096     
    6929.500 90.19068468      96.47098862      12.71889978      71.04348152     
    6930.000 74.83245907      82.00789170      12.71759259      71.07892108     
    6930.500 60.63916881      64.53681832      12.71628540      64.84515485     
    6931.000 56.14329534      50.78780630      12.71497821      64.54545455     
    6931.500 51.73721582      34.13771155      12.71367102      64.27792208     
    6932.000 51.56769470      27.88474447      12.71236383      64.27732268     
