#--------------------------------------------------#
#-------------------ENVERUS, INC.------------------#
#------------------WWW.ENVERUS.COM-----------------#
#------------------COPYRIGHT 2020------------------#
#--------------------------------------------------#
#THIS FILE MAY BE USED ONLY IN ACCORDANCE WITH A CURRENT SUBSCRIPTION AGREEMENT BETWEEN
#THE USER AND ENVERUS, INC. NO PART OF THIS FILE MAY BE REPRODUCED, USED, COPIED,
#MODIFIED, PROPAGATED, OR DISTRIBUTED EXCEPT IN ACCORDANCE WITH THE SUBSCRIPTION
#AGREEMENT. UNAUTHORIZED USE OR DISTRIBUTION OF ALL OR ANY PART OF THIS FILE MAY VIOLATE
#COPYRIGHT, TRADEMARK, AND/OR OTHER LAWS AND IS SUBJECT TO CIVIL AS WELL AS CRIMINAL
#SANCTIONS.
#--------------------------------------------------#
#THIS FILE IS PROVIDED "AS-IS" AND ALL WARRANTIES ARE EXPRESSLY DISCLAIMED, WHETHER
#EXPRESS, ORAL, IMPLIED, STATUTORY OR OTHERWISE, INCLUDING ANY IMPLIED WARRANTY OF FITNESS
#FOR A PARTICULAR PURPOSE, MERCHANTABILITY, TITLE OR NON-INFRINGEMENT, AND ANY WARRANTIES
#ARISING BY VIRTUE OF CUSTOM OF TRADE OR COURSE OF DEALING.  FURTHER, ENVERUS, INC.
#AND ITS LICENSORS DO NOT REPRESENT OR WARRANT THAT THIS FILE WILL MEET USER'S
#REQUIREMENTS OR ARE SUITABLE FOR USER'S NEEDS OR THAT THE DATA OR RESULTS PROVIDED IN
#CONJUNCTION THEREWITH ARE CORRECT, ACCURATE, TIMELY OR RELIABLE. THESE DISCLAIMERS SHALL
#APPLY REGARDLESS OF ANY FAILURE OF ESSENTIAL PURPOSE OF ANY LIMITED REMEDY.  SOME
#JURISDICTIONS DO NOT ALLOW THE EXCLUSION OF CERTAIN WARRANTIES SO SOME OF THE ABOVE
#EXCLUSIONS MAY NOT APPLY. IN NO EVENT SHALL ENVERUS, INC. OR ANY OF ITS AFFILIATES
#BE LIABLE UNDER ANY LEGAL THEORY, WHETHER IN TORT (INCLUDING WITHOUT LIMITATION
#NEGLIGENCE), CONTRACT, STRICT LIABILITY, STATUTORY OR OTHERWISE, FOR ANY SPECIAL,
#INCIDENTAL, CONSEQUENTIAL, EXEMPLARY, PUNITIVE OR INDIRECT DAMAGE OF ANY KIND, INCLUDING
#WITHOUT LIMITATION LOSS OF REVENUE, PROFITS, GOODWILL, USE, AND/OR DATA OR THE COST OF
#PROCUREMENT OF SUBSTITUTE GOODS OR SERVICES, EVEN IF APPRISED OF THE POSSIBILITY OF SUCH
#DAMAGES IN ADVANCE.
#--------------------------------------------------#

~VERSION INFORMATION
VERS. 2.0 : CWLS LOG ASCII STANDARD - VERSION 2.0
WRAP.  NO : ONE LINE PER DEPTH STEP
~WELL INFORMATION
#MNEMONIC     .UNIT              VALUE :DESCRIPTION
STRT       .FT                51 :START DEPTH
STOP       .FT                6194 :STOP DEPTH
STEP       .FT                   0.500 :STEP
NULL       .                  -999.990 :NULL
UWI        .              42389004340000 :UNIQUE WELL ID
API        .              42389004340000 :API NUMBER
COMP       .         :COMPANY
WELL       .         1, :WELL
DATE       .                            :LOG DATE
~CURVE INFORMATION
#MNEMONIC     .UNIT      API CODE :CURVE DESCRIPTION
DEPTH       .FT                      :MEASURED DEPTH
GR.API        UNKNOWN   :GR
DT.US/FT        UNKNOWN   :DT
~A    DEPTH    GR    DT
# ...
 483.5     40.515   -999.990
 484     42.718   -999.990
 484.5     45.429   -999.990
 485     48.14   -999.990
 485.5     50.851   -999.990
 486     53.562   -999.990
 486.5     54.158   -999.990
 487     53.246   -999.990
 487.5     52.334   -999.990
 488     51.119   -999.990
 488.5     49.803   -999.990
 489     48.486   -999.990
 489.5     47.17   -999.990
 490     45.854   -999.990
 490.5     46.318   -999.990
 491     46.901   -999.990
 491.5     47.484   -999.990
 492     48.067   -999.990
 492.5     48.65   -999.990
 493     49.233   -999.990
 493.5     49.816   -999.990
 494     49.253   -999.990
 494.5     47.968   -999.990
 495     46.683   -999.990
 495.5     45.398   -999.990
 496     44.113   -999.990
 496.5     43.602   -999.990
 497     43.642   -999.990
 497.5     43.682   -999.990
 498     43.416   -999.990
 498.5     42.551   -999.990
 499     41.686   -999.990
 499.5     40.821   -999.990
 500     39.957   -999.990
 500.5     39.228   -999.990
 501     39.628   -999.990
 501.5     40.028   -999.990
 502     40.428   -999.990
 502.5     40.828   -999.990
 503     41.228   -999.990
 503.5     41.628   -999.990
 504     42.701   -999.990
 504.5     44.159   -999.990
 505     45.616   -999.990
 505.5     47.073   -999.990
 506     48.53   -999.990
 506.5     48.362   -999.990
 507     48.075   -999.990
 507.5     47.788   -999.990
 508     47.501   -999.990
 508.5     47.215   -999.990
 509     47.09   -999.990
 509.5     48.948   -999.990
 510     50.806   -999.990
 510.5     52.664   -999.990
 511     51.835   -999.990
 511.5     49.651   -999.990
 512     47.467   -999.990
 512.5     45.283   -999.990
 513     45.595   -999.990
 513.5     46.983   -999.990
 514     48.372   -999.990
 514.5     49.76   -999.990
 515     51.149   -999.990
 515.5     52.537   -999.990
 516     52.644   -999.990
 516.5     52.645   -999.990
 517     52.645   -999.990
 517.5     52.188   -999.990
 518     50.317   -999.990
 518.5     48.446   -999.990
 519     46.575   -999.990
 519.5     44.704   -999.990
 520     42.833   -999.990
 520.5     40.962   -999.990
 521     39.09   -999.990
 521.5     39.63   -999.990
 522     40.197   -999.990
 522.5     40.763   -999.990
 523     41.33   -999.990
 523.5     41.896   -999.990
 524     42.462   -999.990
 524.5     43.029   -999.990
 525     43.595   -999.990
 525.5     44.162   -999.990
 526     44.728   -999.990
 526.5     45.294   -999.990
 527     45.861   -999.990
 527.5     46.427   -999.990
 528     46.994   -999.990
 528.5     47.56   -999.990
 529     47.144   -999.990
 529.5     46.635   -999.990
 530     46.125   -999.990
 530.5     45.616   -999.990
 531     45.106   -999.990
 531.5     44.596   -999.990
 532     44.087   -999.990
 532.5     43.945   -999.990
 533     44.639   -999.990
 533.5     45.333   -999.990
 534     46.027   -999.990
 534.5     46.721   -999.990
 535     47.415   -999.990
 535.5     47.025   -999.990
 536     46.2   -999.990
 536.5     45.375   -999.990
 537     44.549   -999.990
 537.5     43.724   -999.990
 538     44.014   -999.990
 538.5     44.78   -999.990
 539     45.546   -999.990
 539.5     46.312   -999.990
 540     47.078   -999.990
 540.5     47.844   -999.990
 541     48.61   -999.990
 541.5     48.16   -999.990
 542     46.924   -999.990
 542.5     45.688   -999.990
 543     44.452   -999.990
 543.5     43.217   -999.990
 544     43.873   -999.990
 544.5     45.016   -999.990
 545     46.16   -999.990
 545.5     47.304   -999.990
 546     47.21   -999.990
 546.5     46.644   -999.990
 547     46.079   -999.990
 547.5     45.513   -999.990
 548     44.948   -999.990
 548.5     44.382   -999.990
 549     43.817   -999.990
 549.5     43.252   -999.990
 550     42.686   -999.990
 550.5     43.097   -999.990
 551     43.739   -999.990
 551.5     44.38   -999.990
 552     45.021   -999.990
 552.5     45.663   -999.990
 553     46.304   -999.990
 553.5     46.362   -999.990
 554     45.355   -999.990
 554.5     44.348   -999.990
 555     43.341   -999.990
 555.5     42.335   -999.990
 556     41.328   -999.990
 556.5     40.321   -999.990
 557     40.427   -999.990
 557.5     40.802   -999.990
 558     41.177   -999.990
 558.5     41.195   -999.990
 559     40.564   -999.990
 559.5     39.933   -999.990
 560     39.302   -999.990
 560.5     40.227   -999.990
 561     41.379   -999.990
 561.5     42.532   -999.990
 562     43.685   -999.990
 562.5     44.838   -999.990
 563     45.991   -999.990
 563.5     47.144   -999.990
 564     46.291   -999.990
 564.5     44.951   -999.990
 565     43.611   -999.990
 565.5     42.271   -999.990
 566     40.931   -999.990
 566.5     39.729   -999.990
 567     39.624   -999.990
 567.5     39.519   -999.990
 568     39.414   -999.990
 568.5     38.551   -999.990
 569     36.684   -999.990
 569.5     34.816   -999.990
 570     32.949   -999.990
 570.5     31.081   -999.990
 571     29.213   -999.990
 571.5     28.241   -999.990
 572     29.718   -999.990
 572.5     31.195   -999.990
 573     32.673   -999.990
 573.5     34.15   -999.990
 574     35.627   -999.990
 574.5     37.104   -999.990
 575     38.582   -999.990
 575.5     40.059   -999.990
 576     41.922   -999.990
 576.5     44.151   -999.990
 577     46.379   -999.990
 577.5     48.608   -999.990
 578     50.837   -999.990
 578.5     53.064   -999.990
 579     52.826   -999.990
 579.5     52.587   -999.990
 580     52.349   -999.990
 580.5     51.076   -999.990
 581     49.457   -999.990
 581.5     47.838   -999.990
 582     46.219   -999.990
 582.5     44.6   -999.990
 583     42.981   -999.990
 583.5     41.361   -999.990
 584     41.38   -999.990
 584.5     42.032   -999.990
 585     42.683   -999.990
 585.5     43.335   -999.990
 586     43.986   -999.990
 586.5     44.638   -999.990
 587     45.289   -999.990
 587.5     45.941   -999.990
 588     46.592   -999.990
 588.5     47.244   -999.990
 589     47.895   -999.990
 589.5     48.547   -999.990
 590     49.198   -999.990
 590.5     48.461   -999.990
 591     47.414   -999.990
 591.5     46.366   -999.990
 592     45.319   -999.990
 592.5     44.272   -999.990
 593     43.445   -999.990
 593.5     44   -999.990
 594     44.555   -999.990
 594.5     44.696   -999.990
 595     44.032   -999.990
 595.5     43.369   -999.990
 596     42.705   -999.990
 596.5     42.826   -999.990
 597     43.392   -999.990
 597.5     43.957   -999.990
 598     44.523   -999.990
 598.5     44.491   -999.990
 599     44.447   -999.990
 599.5     44.402   -999.990
 600     44.358   -999.990
 600.5     44.314   -999.990
 601     44.346   -999.990
 601.5     44.861   -999.990
 602     45.376   -999.990
 602.5     45.891   -999.990
 603     46.406   -999.990
 603.5     46.921   -999.990
 604     47.436   -999.990
 604.5     47.951   -999.990
 605     48.466   -999.990
 605.5     48.886   -999.990
 606     48.405   -999.990
 606.5     47.924   -999.990
 607     47.444   -999.990
 607.5     46.963   -999.990
 608     46.482   -999.990
 608.5     46.736   -999.990
 609     47.899   -999.990
 609.5     49.063   -999.990
 610     50.227   -999.990
 610.5     51.391   -999.990
 611     52.555   -999.990
 611.5     52.033   -999.990
 612     50.676   -999.990
 612.5     49.319   -999.990
 613     47.961   -999.990
 613.5     46.604   -999.990
 614     45.247   -999.990
 614.5     44.277   -999.990
 615     47.014   -999.990
 615.5     49.751   -999.990
 616     51.289   -999.990
 616.5     50.639   -999.990
 617     49.989   -999.990
 617.5     49.339   -999.990
 618     48.689   -999.990
 618.5     48.04   -999.990
 619     47.39   -999.990
 619.5     47.415   -999.990
 620     48.503   -999.990
 620.5     49.59   -999.990
 621     50.677   -999.990
 621.5     51.669   -999.990
 622     51.865   -999.990
 622.5     52.06   -999.990
 623     52.256   -999.990
 623.5     52.452   -999.990
 624     52.647   -999.990
 624.5     52.843   -999.990
 625     53.038   -999.990
 625.5     53.234   -999.990
 626     53.429   -999.990
 626.5     53.625   -999.990
