~Version Information Block
 VERS.                2.00:     CWLS LOG ASCII STANDARD - VERSION 2.000000
 WRAP.                  NO:     One Line Per Depth Step
#
~Well Information Block
#MNEM.UNIT                     Data                         Information
#----------   ------------------------------------------   ----------------
 STRT.FT                                     1000.0000:     START DEPTH
 STOP.FT                                    15733.0000:     STOP DEPTH
 STEP.FT                                        0.5000:     STEP
 NULL.                                       -999.0000:     NULL VALUE
 COMP.                                 MOBIL PRODUCING:     COMPANY
 WELL.                                    IB-WEATHERBY:     WELL
 FLD .                                   ROJO CABALLOS:     FIELD
 LOC .                                         UNKNOWN:     LOCATION
 LONG.                                 -103.1458890000:     LONGITUDE
 LATI.                                   31.1330510000:     LATITUDE
 CNTY.                                           PECOS:     COUNTY
 STAT.                                           TEXAS:     STATE
 CTRY.                                           U.S.A:     COUNTRY
 SRVC.                                         UNKNOWN:     SERVICE COMPANY
 DATE.                                         UNKNOWN:     DATE
 API .                                  42371057360000:     API NUMBER
 UWI .                                  42371057360000:     UWI NUMBER
 SLAT.                                       31.133051:     Surface latitude
 SLON.                                     -103.145889:     surface longitude
 TVD .                                              NO:     TVD flag
 WSTA.                                             LOC:     Well status
#
~Curve Information Block
#MNEM.UNIT       API CODE      Curve Description
#----------    -------------   -------------------
 DEPT.FT                   :   Depth in Feet
 DT  .UNKNOWN          UNKNOWN:   DT-Load
 DTedit.ft/s          UNKNOWN:   DT-Load
 GR  .UNKNOWN          UNKNOWN:   GR-Load
 GR_org.UNKNOWN          UNKNOWN:   GR_org-Load
#
~Parameter Information Block
#MNEM.UNIT            Value               Description
#----------    --------------------    -------------------
 RUN .                         ONE:    Run Number
 PDAT.                          GL:    Permanent Datum
 EPD .FT                          :    Elevation Of Perm. Datum
 LMF .               KELLY BUSHING:    Log Measured From
 EKB .FT                          :    Elevation Of Kelly Bushing
 DF .FT                           :    Elevation Of Derrick Floor
 GL .FT                           :    Elevation Of Ground Level
 TD  .FT                          :    Total Depth
 CSGD.FT                          :    Casing Bottom (Driller) 1
 CSGL.FT                          :    Casing Bottom (Logger) 1
 MUD .                            :    Drilling Fluid Type
 MUDV .CP                         :    Drilling Fluid Viscosity
 MUDD .LB/USG                     :    Drilling Fluid Density
 FL .ML/30MIN                     :    Drilling Fluid Loss
 PH.                              :    Drilling Fluid Ph
 MUDS .                           :    Mud Sample Source
 RM .OHMM                         :    Resistivity Of Mud Sample
 RMT .DEGF                        :    Mud Sample Temperature
 RMF .OHMM                        :    Mud Filtrate Resistivity
 RMFT.DEGF                        :    Mud Filtrate Sample Temperature
 RMC .OHMM                        :    Mud Cake Resistivity
 RMCT.DEGF                        :    Mud Cake Sample Temperature
 RMB .OHMM                        :    Mud Resistivity At Bht
 TMAX .DEGF                       :    Bottom Hole Temperature
#
~Other Information Block
<DescLogPlotStart>   NEURALOG PLOT DEFINITION
PLOTDEFVERSION: 3
LASFILE: E:\Nair Innovations\42_TEXAS\371_Pecos\Mobil_IB-Weatherby 1 Pecos_1.la
DEPTHSCALE: 239.999996
RESOLUTION: 200
DEPTHLABELFREQ: 100.000000
HEAVYGRIDFREQ: 50.000000
MEDIUMGRIDFREQ: 50.000000
LIGHTGRIDFREQ: 10.000000
#
#   TRACK 1
#
STARTTRACK: 
 LEFTX: 0.500000 inch
 RIGHTX: 3.000000 inch
 SCALETYPE: Linear
 NUMCHARTDIVISIONS: 10
CURVE: GR    0.000000   150.000000 (255,0,0)      Short_Dash        4     N    
CURVE: DTedit 6637.927700 24453.046900 (0,131,131)    Solid             2     N
CURVE: GR_org -999.990000 109.000000 (255,0,255)    Solid             2     N  
ENDTRACK: 
#
#   TRACK 2
#
STARTTRACK: 
 LEFTX: 3.750000 inch
 RIGHTX: 6.250000 inch
 SCALETYPE: Linear
 NUMCHARTDIVISIONS: 10
ENDTRACK: 
#
#   TRACK 3
#
STARTTRACK: 
 LEFTX: 6.250000 inch
 RIGHTX: 8.750000 inch
 SCALETYPE: Linear
 NUMCHARTDIVISIONS: 10
CURVE: DT    190.000000 50.000000  (255,0,131)    Solid             2     N    
ENDTRACK: 
<DescLogPlotEnd>
<DepthTrack type='Reference' track='1' Label='0' color='0' hor='0' />
<Reference font='144,0,-900,0,500,0,16777216,Arial' />
~A DEPTH     DT               DTedit             GR               GR_org            
# ...
    2138.500 66.09160000      15130.51660000   -999.00000000    -999.00000000   
    2139.000 69.15470000      14460.33300000   -999.00000000    -999.00000000   
    2139.500 69.15470000      14460.33300000   -999.00000000    -999.00000000   
    2140.000 73.31410000      13639.94040000   -999.00000000    -999.00000000   
    2140.500 73.31410000      13639.94040000   -999.00000000    -999.00000000   
    2141.000 65.28190000      15318.18160000   -999.00000000    -999.00000000   
    2141.500 65.28190000      15318.18160000   -999.00000000    -999.00000000   
    2142.000 64.62760000      15473.26460000   -999.00000000    -999.00000000   
    2142.500 64.62760000      15473.26460000   -999.00000000    -999.00000000   
    2143.000 66.51400000      15034.42870000   -999.00000000    -999.00000000   
    2143.500 66.51400000      15034.42870000   -999.00000000    -999.00000000   
    2144.000 69.81160000      14324.26660000   -999.00000000    -999.00000000   
    2144.500 69.81160000      14324.26660000   -999.00000000    -999.00000000   
    2145.000 69.53490000      14381.26860000   -999.00000000    -999.00000000   
    2145.500 69.53490000      14381.26860000   -999.00000000    -999.00000000   
    2146.000 68.26570000      14648.64450000   -999.00000000    -999.00000000   
    2146.500 68.26570000      14648.64450000   -999.00000000    -999.00000000   
    2147.000 69.16480000      14458.22070000   -999.00000000    -999.00000000   
    2147.500 69.16480000      14458.22070000   -999.00000000    -999.00000000   
    2148.000 67.90320000      14726.84670000   -999.00000000    -999.00000000   
    2148.500 67.90320000      14726.84670000   -999.00000000    -999.00000000   
    2149.000 69.08840000      14474.21000000   -999.00000000    -999.00000000   
    2149.500 69.08840000      14474.21000000   -999.00000000    -999.00000000   
    2150.000 69.20720000      14449.36430000   -999.00000000    -999.00000000   
    2150.500 69.20720000      14449.36430000   -999.00000000    -999.00000000   
    2151.000 60.24570000      16598.69530000   -999.00000000    -999.00000000   
    2151.500 60.24570000      16598.69530000   -999.00000000    -999.00000000   
    2152.000 57.27600000      17459.32030000   -999.00000000    -999.00000000   
    2152.500 57.27600000      17459.32030000   -999.00000000    -999.00000000   
    2153.000 62.53110000      15992.04200000   -999.00000000    -999.00000000   
    2153.500 62.53110000      15992.04200000   -999.00000000    -999.00000000   
    2154.000 59.13860000      16909.42970000   -999.00000000    -999.00000000   
    2154.500 59.13860000      16909.42970000   -999.00000000    -999.00000000   
    2155.000 62.79940000      15923.71880000   -999.00000000    -999.00000000   
    2155.500 62.79940000      15923.71880000   -999.00000000    -999.00000000   
    2156.000 59.43490000      16825.13090000   -999.00000000    -999.00000000   
    2156.500 59.43490000      16825.13090000   -999.00000000    -999.00000000   
    2157.000 68.40300000      14619.24220000   -999.00000000    -999.00000000   
    2157.500 68.40300000      14619.24220000   -999.00000000    -999.00000000   
    2158.000 70.05930000      14273.62210000   -999.00000000    -999.00000000   
    2158.500 70.05930000      14273.62210000   -999.00000000    -999.00000000   
    2159.000 69.39980000      14409.26270000   -999.00000000    -999.00000000   
    2159.500 69.39980000      14409.26270000   -999.00000000    -999.00000000   
    2160.000 68.46310000      14606.40920000   -999.00000000    -999.00000000   
    2160.500 68.46310000      14606.40920000   -999.00000000    -999.00000000   
    2161.000 68.32920000      14635.03120000   -999.00000000    -999.00000000   
    2161.500 68.32920000      14635.03120000   -999.00000000    -999.00000000   
    2162.000 68.86820000      14520.48930000   -999.00000000    -999.00000000   
    2162.500 68.86820000      14520.48930000   -999.00000000    -999.00000000   
    2163.000 69.44180000      14400.54790000   -999.00000000    -999.00000000   
    2163.500 69.44180000      14400.54790000   -999.00000000    -999.00000000   
    2164.000 66.30310000      15082.25100000   -999.00000000    -999.00000000   
    2164.500 66.30310000      15082.25100000   -999.00000000    -999.00000000   
    2165.000 68.60750000      14575.66600000   -999.00000000    -999.00000000   
    2165.500 68.60750000      14575.66600000   -999.00000000    -999.00000000   
    2166.000 68.96200000      14500.74020000   -999.00000000    -999.00000000   
    2166.500 68.96200000      14500.74020000   -999.00000000    -999.00000000   
    2167.000 67.98110000      14709.97070000   -999.00000000    -999.00000000   
    2167.500 67.98110000      14709.97070000   -999.00000000    -999.00000000   
    2168.000 68.07890000      14688.83790000   -999.00000000    -999.00000000   
    2168.500 68.07890000      14688.83790000   -999.00000000    -999.00000000   
    2169.000 67.54130000      14805.75590000   -999.00000000    -999.00000000   
    2169.500 67.54130000      14805.75590000   -999.00000000    -999.00000000   
    2170.000 63.84800000      15662.19820000   -999.00000000    -999.00000000   
    2170.500 63.84800000      15662.19820000   -999.00000000    -999.00000000   
    2171.000 68.80620000      14533.57420000   -999.00000000    -999.00000000   
    2171.500 68.80620000      14533.57420000   -999.00000000    -999.00000000   
    2172.000 69.95800000      14294.29100000   -999.00000000    -999.00000000   
    2172.500 69.95800000      14294.29100000   -999.00000000    -999.00000000   
    2173.000 70.83780000      14116.75680000   -999.00000000    -999.00000000   
    2173.500 70.83780000      14116.75680000   -999.00000000    -999.00000000   
    2174.000 65.99010000      15153.78910000   -999.00000000    -999.00000000   
    2174.500 65.99010000      15153.78910000   -999.00000000    -999.00000000   
    2175.000 66.18240000      15109.75680000   -999.00000000    -999.00000000   
    2175.500 66.18240000      15109.75680000   -999.00000000    -999.00000000   
    2176.000 66.93570000      14939.71090000   -999.00000000    -999.00000000   
    2176.500 66.93570000      14939.71090000   -999.00000000    -999.00000000   
    2177.000 69.75170000      14336.56740000   -999.00000000    -999.00000000   
    2177.500 69.75170000      14336.56740000   -999.00000000    -999.00000000   
    2178.000 65.52590000      15261.14060000   -999.00000000    -999.00000000   
    2178.500 65.52590000      15261.14060000   -999.00000000    -999.00000000   
    2179.000 67.50340000      14814.06840000   -999.00000000    -999.00000000   
    2179.500 67.50340000      14814.06840000   -999.00000000    -999.00000000   
    2180.000 70.33480000      14217.71290000   -999.00000000    -999.00000000   
    2180.500 70.33480000      14217.71290000   -999.00000000    -999.00000000   
    2181.000 68.59400000      14578.53420000   -999.00000000    -999.00000000   
    2181.500 68.59400000      14578.53420000   -999.00000000    -999.00000000   
    2182.000 67.84970000      14738.45800000   -999.00000000    -999.00000000   
    2182.500 67.84970000      14738.45800000   -999.00000000    -999.00000000   
    2183.000 68.22750000      14656.84670000   -999.00000000    -999.00000000   
    2183.500 68.22750000      14656.84670000   -999.00000000    -999.00000000   
    2184.000 68.85160000      14523.99020000   -999.00000000    -999.00000000   
    2184.500 68.85160000      14523.99020000   -999.00000000    -999.00000000   
    2185.000 67.52400000      14809.54880000   -999.00000000    -999.00000000   
    2185.500 67.52400000      14809.54880000   -999.00000000    -999.00000000   
    2186.000 69.72090000      14342.90140000   -999.00000000    -999.00000000   
    2186.500 69.72090000      14342.90140000   -999.00000000    -999.00000000   
    2187.000 65.43540000      15282.24710000   -999.00000000    -999.00000000   
    2187.500 65.43540000      15282.24710000   -999.00000000    -999.00000000   
