#--------------------------------------------------#
#-------------------ENVERUS, INC.------------------#
#------------------WWW.ENVERUS.COM-----------------#
#------------------COPYRIGHT 2020------------------#
#--------------------------------------------------#
#THIS FILE MAY BE USED ONLY IN ACCORDANCE WITH A CURRENT SUBSCRIPTION AGREEMENT BETWEEN
#THE USER AND ENVERUS, INC. NO PART OF THIS FILE MAY BE REPRODUCED, USED, COPIED,
#MODIFIED, PROPAGATED, OR DISTRIBUTED EXCEPT IN ACCORDANCE WITH THE SUBSCRIPTION
#AGREEMENT. UNAUTHORIZED USE OR DISTRIBUTION OF ALL OR ANY PART OF THIS FILE MAY VIOLATE
#COPYRIGHT, TRADEMARK, AND/OR OTHER LAWS AND IS SUBJECT TO CIVIL AS WELL AS CRIMINAL
#SANCTIONS.
#--------------------------------------------------#
#THIS FILE IS PROVIDED "AS-IS" AND ALL WARRANTIES ARE EXPRESSLY DISCLAIMED, WHETHER
#EXPRESS, ORAL, IMPLIED, STATUTORY OR OTHERWISE, INCLUDING ANY IMPLIED WARRANTY OF FITNESS
#FOR A PARTICULAR PURPOSE, MERCHANTABILITY, TITLE OR NON-INFRINGEMENT, AND ANY WARRANTIES
#ARISING BY VIRTUE OF CUSTOM OF TRADE OR COURSE OF DEALING.  FURTHER, ENVERUS, INC.
#AND ITS LICENSORS DO NOT REPRESENT OR WARRANT THAT THIS FILE WILL MEET USER'S
#REQUIREMENTS OR ARE SUITABLE FOR USER'S NEEDS OR THAT THE DATA OR RESULTS PROVIDED IN
#CONJUNCTION THEREWITH ARE CORRECT, ACCURATE, TIMELY OR RELIABLE. THESE DISCLAIMERS SHALL
#APPLY REGARDLESS OF ANY FAILURE OF ESSENTIAL PURPOSE OF ANY LIMITED REMEDY.  SOME
#JURISDICTIONS DO NOT ALLOW THE EXCLUSION OF CERTAIN WARRANTIES SO SOME OF THE ABOVE
#EXCLUSIONS MAY NOT APPLY. IN NO EVENT SHALL ENVERUS, INC. OR ANY OF ITS AFFILIATES
#BE LIABLE UNDER ANY LEGAL THEORY, WHETHER IN TORT (INCLUDING WITHOUT LIMITATION
#NEGLIGENCE), CONTRACT, STRICT LIABILITY, STATUTORY OR OTHERWISE, FOR ANY SPECIAL,
#INCIDENTAL, CONSEQUENTIAL, EXEMPLARY, PUNITIVE OR INDIRECT DAMAGE OF ANY KIND, INCLUDING
#WITHOUT LIMITATION LOSS OF REVENUE, PROFITS, GOODWILL, USE, AND/OR DATA OR THE COST OF
#PROCUREMENT OF SUBSTITUTE GOODS OR SERVICES, EVEN IF APPRISED OF THE POSSIBILITY OF SUCH
#DAMAGES IN ADVANCE.
#--------------------------------------------------#

~VERSION INFORMATION
VERS. 2.0 : CWLS LOG ASCII STANDARD - VERSION 2.0
WRAP.  NO : ONE LINE PER DEPTH STEP
~WELL INFORMATION
#MNEMONIC     .UNIT              VALUE :DESCRIPTION
STRT       .FT                102 :START DEPTH
STOP       .FT                5463 :STOP DEPTH
STEP       .FT                   0.500 :STEP
NULL       .                  -999.990 :NULL
UWI        .              42371363560000 :UNIQUE WELL ID
API        .              42371363560000 :API NUMBER
COMP       .         APACHE CORPORATION :COMPANY
WELL       .        SCHLOSSER, FRED ESTATE -B-  11 :WELL
DATE       .                22-JUN-1992 :LOG DATE
~CURVE INFORMATION
#MNEMONIC     .UNIT      API CODE :CURVE DESCRIPTION
DEPTH       .FT                      :MEASURED DEPTH
DT.US/FT        UNKNOWN   :DT
GR.API        UNKNOWN   :GR
~A    DEPTH    DT    GR
# ...
 3987.5     51.094   8.946
 3988     51.087   9.083
 3988.5     51.08   8.676
 3989     51.073   8.27
 3989.5     51.239   7.863
 3990     51.65   7.456
 3990.5     51.204   7.44
 3991     50.468   7.696
 3991.5     50.043   7.951
 3992     50.01   8.016
 3992.5     49.978   7.515
 3993     49.945   7.013
 3993.5     50.183   6.511
 3994     50.818   6.324
 3994.5     51.314   7.251
 3995     50.995   8.178
 3995.5     50.818   9.053
 3996     50.97   9.829
 3996.5     51.121   10.604
 3997     51.272   10.068
 3997.5     51.154   9.336
 3998     50.03   8.603
 3998.5     50.615   8.78
 3999     51.265   9.407
 3999.5     51.915   10.033
 4000     52.01   9.672
 4000.5     52.01   9.022
 4001     52.01   9.234
 4001.5     51.666   9.922
 4002     50.673   9.474
 4002.5     49.681   8.714
 4003     50.472   7.955
 4003.5     50.581   7.195
 4004     50.342   6.436
 4004.5     50.103   5.975
 4005     49.864   6.133
 4005.5     49.791   6.669
 4006     49.949   7.204
 4006.5     50.106   7.739
 4007     50.263   8.275
 4007.5     50.421   8.598
 4008     50.578   8.632
 4008.5     50.618   8.667
 4009     50.496   8.517
 4009.5     50.047   7.891
 4010     50.207   7.266
 4010.5     53.022   6.641
 4011     52.39   6.033
 4011.5     52.365   6.238
 4012     56.256   6.443
 4012.5     60.148   6.647
 4013     59.69   6.223
 4013.5     55.327   5.721
 4014     51.754   5.219
 4014.5     50.415   5.185
 4015     49.155   5.627
 4015.5     49.622   6.07
 4016     50.09   6.513
 4016.5     50.558   6.956
 4017     50.368   7.399
 4017.5     50.278   8.312
 4018     50.783   9.753
 4018.5     51.288   9.432
 4019     51.157   8.785
 4019.5     51.251   8.137
 4020     51.605   7.489
 4020.5     56.069   6.842
 4021     60.807   6.194
 4021.5     63.064   5.546
 4022     63.405   4.895
 4022.5     63.746   4.241
 4023     65.638   3.587
 4023.5     63.34   3.548
 4024     64.581   3.626
 4024.5     66.311   3.677
 4025     66.911   3.52
 4025.5     67.09   3.362
 4026     67.269   3.204
 4026.5     50.073   3.69
 4027     48.917   4.394
 4027.5     49.353   5.098
 4028     49.634   5.803
 4028.5     49.674   6.532
 4029     49.715   7.36
 4029.5     50.448   8.187
 4030     51.215   8.873
 4030.5     51.826   8.423
 4031     51.101   7.974
 4031.5     50.376   7.524
 4032     48.919   7.242
 4032.5     50.297   8.77
 4033     51.674   10.297
 4033.5     52.772   12.866
 4034     51.399   15.617
 4034.5     50.026   15.209
 4035     48.653   14.349
 4035.5     49.161   11.471
 4036     50.654   8.133
 4036.5     52.146   7.437
 4037     49.952   7.437
 4037.5     50.291   7.438
 4038     50.629   7.438
 4038.5     50.579   8.81
 4039     50.44   10.297
 4039.5     50.301   10.89
 4040     50.163   10.535
 4040.5     49.296   10.18
 4041     49.082   9.824
 4041.5     49.536   9.695
 4042     50.648   9.595
 4042.5     53.134   9.127
 4043     55.619   8.558
 4043.5     66.56   7.99
 4044     68.253   6.413
 4044.5     69.946   4.542
 4045     69.253   3.679
 4045.5     68.459   2.816
 4046     70.419   2.051
 4046.5     72.378   2.715
 4047     58.211   3.378
 4047.5     53.654   4.041
 4048     51.921   4.704
 4048.5     50.321   5.818
 4049     49.367   7.103
 4049.5     49.604   8.351
 4050     49.618   9.082
 4050.5     49.322   9.814
 4051     49.026   9.607
 4051.5     48.973   8.75
 4052     48.992   7.893
 4052.5     49.01   7.036
 4053     49.125   6.18
 4053.5     49.508   5.69
 4054     49.89   6.907
 4054.5     50.273   8.071
 4055     50.757   8.023
 4055.5     51.247   7.975
 4056     51.486   7.927
 4056.5     50.329   7.879
 4057     49.483   8.524
 4057.5     49.645   9.169
 4058     49.946   9.814
 4058.5     50.246   9.538
 4059     50.485   8.851
 4059.5     50.578   8.163
 4060     50.672   7.475
 4060.5     49.598   6.788
 4061     49.509   7.097
 4061.5     49.421   8.136
 4062     49.447   9.031
 4062.5     50.027   8.806
 4063     50.648   8.582
 4063.5     51.08   8.358
 4064     51.092   8.292
 4064.5     51.104   8.565
 4065     50.771   8.838
 4065.5     50.255   8.837
 4066     49.696   7.657
 4066.5     49.062   6.477
 4067     49.473   5.542
 4067.5     49.883   4.989
 4068     49.883   4.798
 4068.5     49.78   5.599
 4069     49.677   6.4
 4069.5     49.878   7.2
 4070     50.732   8.075
 4070.5     51.028   9.407
 4071     50.952   10.738
 4071.5     50.684   10.515
 4072     50.183   10.113
 4072.5     50.5   9.711
 4073     50.919   10.083
 4073.5     50.602   10.758
 4074     50.242   11.366
 4074.5     49.906   9.891
 4075     50.055   8.417
 4075.5     49.826   6.942
 4076     49.579   6.862
 4076.5     49.579   7.868
 4077     50.016   8.874
 4077.5     49.948   9.421
 4078     49.881   8.766
 4078.5     50.169   8.111
 4079     50.564   7.95
 4079.5     50.96   8.263
 4080     50.298   8.576
 4080.5     49.221   8.889
 4081     49.335   8.51
 4081.5     49.498   7.909
 4082     49.66   7.308
 4082.5     49.8   7.007
 4083     49.807   6.991
 4083.5     49.814   7.505
 4084     49.821   8.018
 4084.5     49.828   8.188
 4085     50.282   7.836
 4085.5     51.098   7.483
 4086     51.082   7.131
 4086.5     50.399   6.93
 4087     49.715   7.478
 4087.5     49.85   8.026
 4088     49.976   8.59
 4088.5     49.722   9.417
 4089     49.468   10.245
 4089.5     49.214   11.072
 4090     48.96   12.686
 4090.5     50.028   13.294
 4091     50.446   11.906
 4091.5     50.339   10.518
 4092     50.233   10.046
 4092.5     50.126   9.61
 4093     50.194   9.174
 4093.5     50.581   9.408
 4094     50.457   9.824
 4094.5     49.755   10.241
 4095     49.927   10.041
 4095.5     50.1   9.106
 4096     50.12   8.17
 4096.5     50.069   7.235
 4097     50.018   6.3
 4097.5     49.967   5.524
 4098     49.916   6.142
 4098.5     49.865   6.76
 4099     49.814   7.377
 4099.5     49.763   7.995
 4100     49.402   7.682
 4100.5     48.465   7.329
 4101     48.662   7.955
 4101.5     49.699   8.763
 4102     50.736   9.57
 4102.5     51.773   9.788
 4103     51.005   9.508
 4103.5     49.89   8.833
 4104     50.439   7.936
 4104.5     50.82   7.91
 4105     49.602   8.745
 4105.5     49.027   9.58
 4106     49.625   11.382
 4106.5     49.906   13.394
 4107     50.025   15.407
 4107.5     50.026   14.163
 4108     49.6   12.116
 4108.5     49.615   10.068
 4109     49.759   8.72
 4109.5     49.387   9.098
 4110     50.567   10.242
 4110.5     52.448   10.345
 4111     55.34   9.772
 4111.5     58.737   9.198
 4112     55.664   8.625
 4112.5     52.59   7.953
 4113     53.401   6.703
 4113.5     60.374   5.453
 4114     67.497   4.203
 4114.5     68.496   3.502
 4115     68.668   3.393
 4115.5     67.242   3.285
 4116     61.296   3.557
 4116.5     52.721   4.157
 4117     50.257   4.757
 4117.5     49.114   5.358
 4118     48.903   6.311
 4118.5     48.703   7.349
 4119     48.507   8.247
 4119.5     48.401   8.247
 4120     49.682   8.247
 4120.5     49.963   8.086
 4121     49.534   7.254
 4121.5     49.104   6.628
 4122     49.223   6.55
 4122.5     49.577   6.473
 4123     49.931   7.336
 4123.5     49.876   9
 4124     49.149   10.488
 4124.5     51.704   10.488
 4125     54.406   9.335
 4125.5     57.849   7.525
 4126     61.889   5.715
 4126.5     65.836   3.905
 4127     66.514   3.725
 4127.5     67.04   3.671
 4128     67.019   3.617
 4128.5     66.998   3.563
 4129     66.977   3.509
 4129.5     66.956   3.437
 4130     66.935   2.964
 4130.5     66.914   2.491
 4131     66.893   2.018
 4131.5     67.091   1.794
 4132     67.598   1.887
 4132.5     67.613   2.062
 4133     67.628   2.765
 4133.5     67.85   3.468
 4134     68.069   3.464
 4134.5     68.141   3.345
 4135     68.213   3.226
 4135.5     67.873   3.107
 4136     67.694   2.989
 4136.5     67.738   2.87
 4137     67.782   2.751
 4137.5     67.903   2.974
 4138     68.05   3.34
 4138.5     68.198   3.706
 4139     68.286   4.072
 4139.5     68.147   4.15
 4140     68.008   3.648
 4140.5     67.869   3.146
 4141     67.73   2.914
 4141.5     67.591   3.157
 4142     67.6   3.4
