#--------------------------------------------------#
#-------------------ENVERUS, INC.------------------#
#------------------WWW.ENVERUS.COM-----------------#
#------------------COPYRIGHT 2020------------------#
#--------------------------------------------------#
#THIS FILE MAY BE USED ONLY IN ACCORDANCE WITH A CURRENT SUBSCRIPTION AGREEMENT BETWEEN
#THE USER AND ENVERUS, INC. NO PART OF THIS FILE MAY BE REPRODUCED, USED, COPIED,
#MODIFIED, PROPAGATED, OR DISTRIBUTED EXCEPT IN ACCORDANCE WITH THE SUBSCRIPTION
#AGREEMENT. UNAUTHORIZED USE OR DISTRIBUTION OF ALL OR ANY PART OF THIS FILE MAY VIOLATE
#COPYRIGHT, TRADEMARK, AND/OR OTHER LAWS AND IS SUBJECT TO CIVIL AS WELL AS CRIMINAL
#SANCTIONS.
#--------------------------------------------------#
#THIS FILE IS PROVIDED "AS-IS" AND ALL WARRANTIES ARE EXPRESSLY DISCLAIMED, WHETHER
#EXPRESS, ORAL, IMPLIED, STATUTORY OR OTHERWISE, INCLUDING ANY IMPLIED WARRANTY OF FITNESS
#FOR A PARTICULAR PURPOSE, MERCHANTABILITY, TITLE OR NON-INFRINGEMENT, AND ANY WARRANTIES
#ARISING BY VIRTUE OF CUSTOM OF TRADE OR COURSE OF DEALING.  FURTHER, ENVERUS, INC.
#AND ITS LICENSORS DO NOT REPRESENT OR WARRANT THAT THIS FILE WILL MEET USER'S
#REQUIREMENTS OR ARE SUITABLE FOR USER'S NEEDS OR THAT THE DATA OR RESULTS PROVIDED IN
#CONJUNCTION THEREWITH ARE CORRECT, ACCURATE, TIMELY OR RELIABLE. THESE DISCLAIMERS SHALL
#APPLY REGARDLESS OF ANY FAILURE OF ESSENTIAL PURPOSE OF ANY LIMITED REMEDY.  SOME
#JURISDICTIONS DO NOT ALLOW THE EXCLUSION OF CERTAIN WARRANTIES SO SOME OF THE ABOVE
#EXCLUSIONS MAY NOT APPLY. IN NO EVENT SHALL ENVERUS, INC. OR ANY OF ITS AFFILIATES
#BE LIABLE UNDER ANY LEGAL THEORY, WHETHER IN TORT (INCLUDING WITHOUT LIMITATION
#NEGLIGENCE), CONTRACT, STRICT LIABILITY, STATUTORY OR OTHERWISE, FOR ANY SPECIAL,
#INCIDENTAL, CONSEQUENTIAL, EXEMPLARY, PUNITIVE OR INDIRECT DAMAGE OF ANY KIND, INCLUDING
#WITHOUT LIMITATION LOSS OF REVENUE, PROFITS, GOODWILL, USE, AND/OR DATA OR THE COST OF
#PROCUREMENT OF SUBSTITUTE GOODS OR SERVICES, EVEN IF APPRISED OF THE POSSIBILITY OF SUCH
#DAMAGES IN ADVANCE.
#--------------------------------------------------#

~VERSION INFORMATION
VERS. 2.0 : CWLS LOG ASCII STANDARD - VERSION 2.0
WRAP.  NO : ONE LINE PER DEPTH STEP
~WELL INFORMATION
#MNEMONIC     .UNIT              VALUE :DESCRIPTION
STRT       .FT                2 :START DEPTH
STOP       .FT                6341 :STOP DEPTH
STEP       .FT                   0.500 :STEP
NULL       .                  -999.990 :NULL
UWI        .              42389104050000 :UNIQUE WELL ID
API        .              42389104050000 :API NUMBER
COMP       .         ENDEAVOR ENERGY RESOURCES L.P. :COMPANY
WELL       .        TXL REEVES STATE UNIT  2 :WELL
DATE       .                            :LOG DATE
~CURVE INFORMATION
#MNEMONIC     .UNIT      API CODE :CURVE DESCRIPTION
DEPTH       .FT                      :MEASURED DEPTH
GR.API        UNKNOWN   :GR
DT.US/FT        UNKNOWN   :DT
~A    DEPTH    GR    DT
# ...
 1215     5.023   54.326
 1215.5     5.734   54.891
 1216     6.445   55.455
 1216.5     7.155   56.02
 1217     7.866   56.584
 1217.5     8.577   57.149
 1218     9.03   57.681
 1218.5     7.764   56.852
 1219     6.499   56.024
 1219.5     5.233   55.195
 1220     3.967   54.366
 1220.5     2.9   53.538
 1221     2.846   53.861
 1221.5     2.793   54.661
 1222     2.739   55.017
 1222.5     2.685   54.752
 1223     2.632   54.486
 1223.5     2.578   54.221
 1224     2.785   54.574
 1224.5     3.572   55.32
 1225     4.359   56.067
 1225.5     5.145   56.813
 1226     5.932   57.56
 1226.5     6.719   58.306
 1227     9.184   59.053
 1227.5     17.286   59.8
 1228     25.387   60.546
 1228.5     33.489   61.293
 1229     41.591   62.039
 1229.5     42.963   93.691
 1230     42.126   93.946
 1230.5     41.29   94.202
 1231     40.453   94.457
 1231.5     39.616   94.713
 1232     38.78   93.977
 1232.5     37.943   92.255
 1233     37.106   90.534
 1233.5     36.269   88.813
 1234     35.433   87.092
 1234.5     34.596   85.371
 1235     33.759   83.65
 1235.5     35.119   81.928
 1236     36.662   83.704
 1236.5     38.204   85.739
 1237     39.746   87.774
 1237.5     41.289   89.38
 1238     42.831   87.131
 1238.5     41.306   84.882
 1239     39.251   82.633
 1239.5     37.196   80.384
 1240     35.141   78.134
 1240.5     33.086   75.885
 1241     31.031   73.636
 1241.5     28.975   71.387
 1242     26.92   70.042
 1242.5     24.865   68.954
 1243     24.752   67.866
 1243.5     25.602   68.897
 1244     26.451   70.672
 1244.5     27.3   72.448
 1245     28.15   74.224
 1245.5     28.999   76
 1246     31.728   77.775
 1246.5     35.776   79.551
 1247     39.824   81.327
 1247.5     41.551   83.103
 1248     43.147   84.878
 1248.5     44.742   86.654
 1249     46.337   88.43
 1249.5     46.538   88.43
 1250     44.6   86.65
 1250.5     42.663   84.869
 1251     40.725   83.089
 1251.5     38.788   81.309
 1252     36.851   79.529
 1252.5     34.913   77.749
 1253     33.96   75.969
 1253.5     33.261   72.199
 1254     31.352   71.885
 1254.5     29.53   71.571
 1255     28.865   71.257
 1255.5     28.199   70.115
 1256     27.534   67.528
 1256.5     25.254   65.24
 1257     22.057   65.821
 1257.5     18.86   66.402
 1258     15.664   66.983
 1258.5     12.467   67.564
 1259     10.084   67.405
 1259.5     9.919   66.559
 1260     9.754   66.19
 1260.5     9.589   67.331
 1261     9.424   68.471
 1261.5     10.958   69.281
 1262     12.681   68.637
 1262.5     11.964   67.993
 1263     11.247   67.349
 1263.5     10.529   66.705
 1264     9.812   68.477
 1264.5     9.095   71.217
 1265     8.589   69.038
 1265.5     10.492   66.86
 1266     12.395   64.681
 1266.5     14.299   62.502
 1267     16.202   60.323
 1267.5     18.105   61.13
 1268     20.009   62.754
 1268.5     20.68   64.379
 1269     17.756   66.003
 1269.5     14.833   67.627
 1270     12.305   69.252
 1270.5     11.473   70.876
 1271     10.641   72.5
 1271.5     9.809   74.124
 1272     8.977   75.749
 1272.5     8.145   77.373
 1273     7.836   77.541
 1273.5     8.12   74.666
 1274     8.404   71.792
 1274.5     8.688   68.917
 1275     8.972   66.043
 1275.5     9.256   63.277
 1276     9.614   64.728
 1276.5     10.094   66.179
 1277     10.573   67.63
 1277.5     11.053   69.081
 1278     11.533   70.532
 1278.5     12.013   71.983
 1279     12.493   73.434
 1279.5     12.972   74.885
 1280     14.232   76.336
 1280.5     16.711   75.485
 1281     19.19   74.262
 1281.5     21.668   73.038
 1282     24.147   71.815
 1282.5     26.626   70.592
 1283     29.105   69.369
 1283.5     31.583   71.078
 1284     34.062   73.594
 1284.5     35.059   76.111
 1285     32.568   78.627
 1285.5     30.077   77.42
 1286     28.116   76.047
 1286.5     27.867   74.673
 1287     27.619   73.3
 1287.5     27.37   71.926
 1288     27.121   70.553
 1288.5     26.873   69.18
 1289     24.339   67.806
 1289.5     21.559   68.028
 1290     18.779   69.289
 1290.5     15.998   70.55
 1291     14.804   71.811
 1291.5     17.191   73.003
 1292     19.578   71.456
 1292.5     21.965   69.908
 1293     24.352   68.361
 1293.5     26.739   67.576
 1294     29.127   69.353
 1294.5     31.122   71.129
 1295     29.826   72.906
 1295.5     28.575   73.648
 1296     27.514   72.9
 1296.5     26.453   72.152
 1297     25.461   71.404
 1297.5     24.879   71.565
 1298     24.297   72.317
 1298.5     23.714   73.069
 1299     23.132   69.207
 1299.5     23.526   62.128
 1300     24.657   62.329
 1300.5     25.789   62.529
 1301     25.38   62.729
 1301.5     23.599   62.929
 1302     21.818   62.95
 1302.5     21.822   62.781
 1303     22.133   62.612
 1303.5     22.443   62.443
 1304     22.754   63.401
 1304.5     23.064   64.889
 1305     25.988   66.378
 1305.5     29.184   67.867
 1306     30.868   67.901
 1306.5     31.685   67.699
 1307     32.503   67.498
 1307.5     33.32   67.297
 1308     34.137   67.254
 1308.5     34.955   67.591
 1309     35.047   67.927
 1309.5     34.548   68.263
 1310     34.049   68.961
 1310.5     33.55   70.042
 1311     33.051   71.124
 1311.5     32.552   72.206
 1312     31.945   73.288
 1312.5     29.404   74.259
 1313     26.613   74.572
 1313.5     26.024   74.884
 1314     26.071   75.197
 1314.5     26.119   74.574
 1315     26.166   72.092
 1315.5     25.431   72.518
 1316     24.147   73.586
 1316.5     22.864   74.654
 1317     24.138   75.723
 1317.5     25.647   76.791
 1318     27.156   77.859
 1318.5     28.665   78.928
 1319     30.174   76.991
 1319.5     31.683   74.905
 1320     33.192   72.818
 1320.5     34.701   72.283
 1321     36.21   71.886
 1321.5     36.824   71.49
 1322     36.2   71.093
 1322.5     35.576   70.697
 1323     34.952   69.461
 1323.5     34.328   67.729
 1324     33.81   67.005
 1324.5     33.311   66.281
 1325     32.812   65.557
 1325.5     32.313   64.833
 1326     32.933   64.109
 1326.5     34.148   63.385
 1327     35.364   64.419
 1327.5     36.579   65.474
 1328     37.729   66.529
 1328.5     38.232   67.585
 1329     38.736   68.64
 1329.5     39.239   69.695
 1330     39.743   70.504
 1330.5     39.479   69.569
 1331     38.525   68.633
 1331.5     37.572   67.698
 1332     36.619   66.763
 1332.5     36.521   65.827
 1333     38.155   64.979
 1333.5     39.79   66.212
 1334     40.337   67.445
 1334.5     38.241   68.677
 1335     36.145   68.433
 1335.5     34.048   68.174
 1336     33.947   67.916
 1336.5     36.085   67.657
 1337     38.223   67.398
 1337.5     40.362   69.901
 1338     42.5   73.823
 1338.5     44.639   77.745
 1339     44.969   78.859
 1339.5     42.558   78.074
 1340     40.146   77.29
 1340.5     37.735   76.505
 1341     35.324   75.721
 1341.5     32.913   74.936
 1342     30.501   74.152
 1342.5     29.871   73.367
 1343     30.904   72.583
 1343.5     31.938   72.459
 1344     32.971   73.081
 1344.5     34.005   73.702
 1345     35.038   74.323
 1345.5     36.071   74.944
 1346     36.043   73.991
 1346.5     35.498   72.856
 1347     34.954   71.721
 1347.5     34.409   70.724
 1348     34.757   71.02
 1348.5     36.064   71.317
 1349     37.37   71.614
 1349.5     38.677   71.91
 1350     39.984   72.207
 1350.5     41.291   72.503
 1351     42.598   72.8
 1351.5     43.904   73.097
 1352     43.354   73.393
 1352.5     42.547   73.69
 1353     41.741   73.986
 1353.5     40.934   75.53
 1354     40.127   77.691
 1354.5     43.503   79.852
 1355     47.233   82.013
 1355.5     50.962   84.476
 1356     54.691   86.993
 1356.5     58.421   89.509
 1357     62.15   92.026
 1357.5     65.879   94.23
 1358     67.83   95.527
 1358.5     66.419   96.824
 1359     65.008   98.121
 1359.5     63.597   97.879
 1360     62.186   95.658
 1360.5     60.775   93.438
 1361     59.364   91.217
 1361.5     57.953   88.997
 1362     56.542   86.777
 1362.5     51.196   84.556
 1363     42.851   79.856
 1363.5     34.506   73.625
 1364     26.161   67.394
 1364.5     17.816   62.759
 1365     13.972   59.545
