###############################################
##         ENVERUS                           ##
##         ESS - Open Hole                   ##
##         PERMIAN / DELAWARE                ##
##         Nov 04 2023  V4.0                 ##
##         42-371-36358-00-00                ##
###############################################
## Copyright 2017-2023  ENVERUS.  All Rights Reserved. 
## Confidential - Property of ENVERUS, use governed by terms and 
## conditions found within the existing Information Services Subscription Agreement 
## (as may be amended, the “ISSA”) between Customer and ENVERUS. 
## 
~VERSION INFORMATION
# MNEM.UNIT                               DATA : DESCRIPTION OF MNEMONIC
#-----.-----     ----------------------------- : -----------------------------
VERS.                                     2.00 : CWLS LOG ASCII STANDARD - VERSION 2.00
WRAP.                                       NO : MULTIPLE LINES PER DEPTH STEP
VEND.                                  ENVERUS : VENDOR
TYPE.                          ESS - OPEN HOLE : ENVERUS ESSENTIAL CURVES – ACCESSIBLE THROUGH ENVERUS PRISM(TM)
DOC.                                  32044985 : ENVERUS HEADER RAW DOCUMENT ID
#___________________________________________________________________________________________________ 
~WELL INFORMATION 
# 9/F+NtSLBEAIaZM9LpLMxALTyCH3LMfPBQiNKTeSadJ6NAezaEZy+3+OEP8rVGNvVB4ifWNnxSKvs1BiqqZA9A== 
# MNEM.UNIT                                              DATA : DESCRIPTION OF MNEMONIC 
#-----.-----                    ----------------------------- : ----------------------------- 
CNTY.                                                   PECOS : COUNTY 
STATE.                                                  TEXAS : STATE 
CNTRY.                                                    USA : COUNTRY 
API.                                             42-371-36358 : API (10 Digit) 
API_14.                                    42-371-36358-00-00 : API (14 Digits) 
API_14_std.                                 42-371-36358-0000 : API (14 Digits Standard) 
UWI.                                           42371363580000 : UNIQUE WELL ID 
WELL.                           SCHLOSSER, FRED ESTATE -B-  9 : WELL NAME
STRT.FT                                                 151.0 : START DEPTH
STOP.FT                                                5707.0 : STOP DEPTH
STEP.FT                                                   0.5 : STEP BETWEEN DEPTHS
NULL.                                                 -999.25 : NULL VALUE
COMP.                                      APACHE CORPORATION : COMPANY 
DATE.                                             07-JUN-1992 : LOG DATE
#___________________________________________________________________________________________________ 
~CURVE INFORMATION 
# MNEM.UNIT           : CURVE DESCRIPTION 
#-----.-----          : ----------------------------- 
 DEPT.FT               : MEASURED DEPTH 
 GR.API                : GAMMA RAY (GR) 
 DT.US/FT              : SONIC DELTA TRANSIT TIME (DT) 
 #___________________________________________________________________________________________________ 
~A         DEPT             GR             DT
# ...
          847.0         35.317       -999.250
          847.5         34.576       -999.250
          848.0         35.376       -999.250
          848.5         36.176       -999.250
          849.0         36.977       -999.250
          849.5         38.287       -999.250
          850.0         40.302       -999.250
          850.5         42.317       -999.250
          851.0         44.322       -999.250
          851.5         42.908       -999.250
          852.0         41.493       -999.250
          852.5         40.079       -999.250
          853.0         38.664       -999.250
          853.5         37.250       -999.250
          854.0         35.835       -999.250
          854.5         34.933       -999.250
          855.0         35.931       -999.250
          855.5         36.929       -999.250
          856.0         37.364       -999.250
          856.5         36.389       -999.250
          857.0         35.413       -999.250
          857.5         34.437       -999.250
          858.0         33.461       -999.250
          858.5         32.485       -999.250
          859.0         31.509       -999.250
          859.5         32.217       -999.250
          860.0         34.678       -999.250
          860.5         34.393       -999.250
          861.0         34.109       -999.250
          861.5         33.824       -999.250
          862.0         34.129       -999.250
          862.5         35.126       -999.250
          863.0         36.124       -999.250
          863.5         37.121       -999.250
          864.0         39.388       -999.250
          864.5         38.874       -999.250
          865.0         38.360       -999.250
          865.5         36.105       -999.250
          866.0         34.276       -999.250
          866.5         35.063       -999.250
          867.0         35.849       -999.250
          867.5         36.771       -999.250
          868.0         37.971       -999.250
          868.5         39.172       -999.250
          869.0         40.372       -999.250
          869.5         41.573       -999.250
          870.0         42.170       -999.250
          870.5         41.264       -999.250
          871.0         40.358       -999.250
          871.5         39.451       -999.250
          872.0         38.545       -999.250
          872.5         36.303       -999.250
          873.0         32.406       -999.250
          873.5         28.509       -999.250
          874.0         24.526       -999.250
          874.5         20.409       -999.250
          875.0         18.463       -999.250
          875.5         16.837       -999.250
          876.0         15.211       -999.250
          876.5         13.585       -999.250
          877.0         13.324       -999.250
          877.5         13.231       -999.250
          878.0         13.137       -999.250
          878.5         13.044       -999.250
          879.0         13.222       -999.250
          879.5         13.836       -999.250
          880.0         14.450       -999.250
          880.5         15.064       -999.250
          881.0         14.124       -999.250
          881.5         12.336       -999.250
          882.0         10.548       -999.250
          882.5          8.759       -999.250
          883.0          8.469       -999.250
          883.5          8.893       -999.250
          884.0          9.317       -999.250
          884.5          9.741       -999.250
          885.0         10.166       -999.250
          885.5         10.590       -999.250
          886.0         11.014       -999.250
          886.5         11.438       -999.250
          887.0         11.895       -999.250
          887.5         12.360       -999.250
          888.0         12.825       -999.250
          888.5         13.290       -999.250
          889.0         13.755       -999.250
          889.5         14.379       -999.250
          890.0         15.213       -999.250
          890.5         16.047       -999.250
          891.0         16.881       -999.250
          891.5         17.715       -999.250
          892.0         18.985       -999.250
          892.5         20.836       -999.250
          893.0         22.687       -999.250
          893.5         24.538       -999.250
          894.0         26.389       -999.250
          894.5         28.240       -999.250
          895.0         30.091       -999.250
          895.5         31.942       -999.250
          896.0         33.793       -999.250
          896.5         35.346       -999.250
          897.0         32.952       -999.250
          897.5         30.558       -999.250
          898.0         28.165       -999.250
          898.5         28.800       -999.250
          899.0         29.664       -999.250
          899.5         30.527       -999.250
          900.0         31.391       -999.250
          900.5         30.794       -999.250
          901.0         27.363       -999.250
          901.5         23.931       -999.250
          902.0         20.500       -999.250
          902.5         17.069       -999.250
          903.0         11.555       -999.250
          903.5         10.833       -999.250
          904.0         10.111       -999.250
          904.5          9.389       -999.250
          905.0          9.374       -999.250
          905.5          9.607       -999.250
          906.0          9.840       -999.250
          906.5         10.074       -999.250
          907.0         10.307       -999.250
          907.5         10.405       -999.250
          908.0         10.285       -999.250
          908.5         10.164       -999.250
          909.0         10.044       -999.250
          909.5          9.923       -999.250
          910.0          9.803       -999.250
          910.5          9.683       -999.250
          911.0          9.893       -999.250
          911.5         10.562       -999.250
          912.0         11.231       -999.250
          912.5         11.900       -999.250
          913.0         12.569       -999.250
          913.5         12.839       -999.250
          914.0         12.584       -999.250
          914.5         12.328       -999.250
          915.0         12.072       -999.250
          915.5         12.130       -999.250
          916.0         12.783       -999.250
          916.5         13.435       -999.250
          917.0         14.088       -999.250
          917.5         14.369       -999.250
          918.0         13.087       -999.250
          918.5         11.805       -999.250
          919.0         10.523       -999.250
          919.5          9.241       -999.250
          920.0          7.960       -999.250
          920.5          9.197       -999.250
          921.0         10.487       -999.250
          921.5         10.093       -999.250
          922.0          9.463       -999.250
          922.5          8.834       -999.250
          923.0          8.289       -999.250
          923.5          8.033       -999.250
          924.0          7.777       -999.250
          924.5          7.521       -999.250
          925.0          7.265       -999.250
          925.5          7.140       -999.250
          926.0          7.284       -999.250
          926.5          7.428       -999.250
          927.0          7.858       -999.250
          927.5          8.645       -999.250
          928.0          9.432       -999.250
          928.5          9.507       -999.250
          929.0          8.946       -999.250
          929.5          8.385       -999.250
          930.0          7.824       -999.250
          930.5          7.296       -999.250
          931.0          7.296       -999.250
          931.5          7.295       -999.250
          932.0          8.325       -999.250
          932.5         10.048       -999.250
          933.0         11.618       -999.250
          933.5         10.493       -999.250
