~VERSION INFORMATION
VERS.           1.2   :CWLS Log ASCII Standard - VERSION 1.2
WRAP.           NO    :One Line per depth step
PROD.  Schlumberger   :LAS Producer
PROG.  DLIS to ASCII 17C0-152                          :LAS Program name and version
CREA.        2014/05/28 16:07                          :LAS Creation date {YYYY/MM/DD hh:mm}
DLIS_CREA.  2014-May-27 22:17                          :DLIS Creation date and time {YYYY-MMM-DD hh:mm}
SOURCE.     db5fefe1-f67d-4e3f-8816-ab53d5f8be46       :DLIS File Name
#--------------------------------------------------
~WELL INFORMATION
#MNEM.UNIT      DATA             DESCRIPTION
#---- ------ --------------   -----------------------------
# Enverus has updated the API/UWI.  The previous names are renamed to  PREV_API / PREV_UWI
API.  API (14 Digits with Dashes) : 42-389-34023-90-00
UWI.              UNIQUE WELL ID : 42389340239000

STRT .F      9586.5000       :START DEPTH     
STOP .F      10811.5000      :STOP DEPTH     
STEP .F       0.5000         :STEP       
NULL .          -999.25      :NULL VALUE
COMP .                 COMPANY:  J. Cleo Thompson                   
WELL .                    WELL:  Okapi State Unit B35 #2H           
FLD  .                   FIELD:  Wolfbone (Trend Area)              
LOC  .                LOCATION:  260' FNL & 500' FEL                
CNTY .                  COUNTY:  Reeves                             
STAT .                   STATE:  Texas                              
CTRY .                 COUNTRY:                                     
SRVC .         SERVICE COMPANY:  Schlumberger                       
LATI .DEG             LATITUDE:  31.112200 degrees                  
LONG .DEG            LONGITUDE:  -103.28900 degrees                 
PREV_API  .              API NUMBER:  42-389-34023                       
DATE .                LOG DATE:  27-May-2014
PREV_UWI  .          UNIQUE WELL ID:                                     
#-----------------------------------------------------------------------------
~PARAMETER INFORMATION
#MNEM.UNIT    VALUE                      DESCRIPTION
#---- -----   --------------------       ------------------------
CN   .        J. Cleo Thompson           :Company Name
WN   .        Okapi State Unit B35 #2H   :Well Name
FN   .        Wolfbone (Trend Area)      :Field Name
FL   .        260' FNL & 500' FEL        :Field Location
FL1  .        Section  35  Block  50 T8S  Abstract 4369 :Field Location, Line 1
COUN .        Reeves                     :County or Parish
STAT .        Texas                      :State or Province
NATI .                                   :Nation
DATE .        27-May-2014                :Tools Above Rotary Table Date
APIN .        42-389-34023               :API Well Number
SECT .        35                         :Section
TOWN .        50 T8S                     :Township
RANG .        4369                       :Range
DMF  .        KB                         :Drilling Measured From (Name of Drilling Elevation Reference)
LMF  .        KB                         :Logging Measured From (Name of Logging Elevation Reference)
PDAT .        GL                         :Permanent Datum
ENGI .        AJ Massis                  :Engineer s Name
WITN .        Bennie McNett              :Witness s Name
LATI .        31.112200 degrees          :Latitude
LONG .        -103.28900 degrees         :Longitude
LUL  .        Midland                    :Logging Unit Location
LUN  .        9105                       :Logging Unit Number
RUN  .        1B                         :Run Number
SON  .                                   :Service Order Number
BHT  .DEGF     162.00000                 :Bottom Hole Temperature
BS   .IN         8.50000                 :Bit Size
MDEN .G/C3       2.71000                 :Matrix Density for Density Porosity
DFD  .LB/G      10.70000                 :Drilling Fluid Density
DFV  .S         46.00000                 :Drilling Fluid Viscosity
DFL  .C3        10.00000                 :Drilling Fluid Loss
RMFS .OHMM       0.30000                 :Resistivity of Mud Filtrate Sample
EKB  .F       2829.00000                 :Elevation of Kelly Bushing
EGL  .F       2807.00000                 :Elevation of Ground Level
BLI  .F       11012.00000                :Bottom Log Interval
BSAL .PPM     132000.00000               :Borehole Salinity
FLEV .F          8.00000                 :Depth of Drilling Fluid Level to LMF (Log Measured From)
MCST .DEGF      68.00000                 :Mudcake Sample Temperature
MFST .DEGF      80.20000                 :Mud Filtrate Sample Temperature
MRT  .DEGF     162.00000                 :Maximum Recorded Temperature
MST  .DEGF      80.20000                 :Mud Sample Temperature
RMCS .OHMM    -999.25000                 :Resistivity of Mud Cake Sample
RMS  .OHMM       0.30000                 :Resistivity of Mud Sample
RW   .OHMM       1.00000                 :Connate Water Resistivity
TDD  .F       11012.00000                :Driller Total Depth
TDL  .F       11012.00000                :Logger Total Depth
TLI  .F       9676.00000                 :Top Log Interval
HIDE .        Wolfbone (Trend Area)      :Header Identifier
MATR .        LIME                       :Rock Matrix for Neutron Porosity Corrections
FNUM .           1.00000                 :F-Numerator for Formation Factor Formula
FEXP .           2.00000                 :Exponent "m" for Formation Factor Formula
DFT  .        Salt Brine                 :Drilling Fluid Type
DFPH .           9.00000                 :Drilling Fluid pH
MCSS .                                   :Mudcake Sample Source
MFSS .                                   :Mud Filtrate Sample Source
FD   .G/C3       1.10000                 :Fluid Density
MSS  .        Active Tank                :Mud Sample Source
OS1  .                                   :Other Services Line 1
OS2  .                                   :Other Services Line 2
OS3  .                                   :Other Services Line 3
OS4  .                                   :Other Services Line 4
OS5  .                                   :Other Services Line 5
R1   .        Tools run as per toolsketch :Remarks Line 1
R2   .        Logs performed on a Limestone matrix (2.71

g/cc  47.6 us/ft ). Mud Properties  MW =

10.7 g/cc  FD = 1.1 g/cc. :Remarks Line 2
R3   .        Max recorded temperature from downhole

thermometer = 162 degF. :Remarks Line 3
R4   .        Logs run from TD to casing. GR & Neutron

logged from casing to 200ft as per client

request. :Remarks Line 4
R5   .        Tools got stuck near TD and calipers had to be closed in order to get free. :Remarks Line 5
R6   .        Well was washed out for many intervals. :Remarks Line 6
R7   .        Repeat done at casing due to getting stuck at TD :Remarks Line 7
R8   .                                   :Remarks Line 8
TCS  .        18 00 00                   :Time Circulation Stopped
TLAB .        16 19 01                   :Time Logger At Bottom
EPD  .C3         2807.000000             :Elevation of Permanent Datum above Mean Sea Level
APD  .F          22.000000               :Elevation of Depth Reference (LMF) above Permanent Datum
#-----------------------------------------------------------------------------
~CURVE INFORMATION
#MNEM.UNIT   API CODE                                  DESCRIPTION
#---- -----  --------                                  -----------------------
DEPT .F                                                :DEPTH (BOREHOLE) {F12.4}
CDF  .LBF                                              :Calibrated Downhole Force {F11.4}
CTEM .DEGF                                             :Cartridge Temperature {F11.4}
DCAL .IN                                               :Differential Caliper {F11.4}
DTCO .US/F                                             :Delta-T Compressional {F11.4}
DTSM .US/F                                             :Delta-T Shear {F11.4}
ED   .F                                                :East Departure {F11.4}
GR_EDTC.GAPI                                           :Gamma Ray {F11.4}
GTEM .DEGF                                             :Generalized Borehole Temperature {F11.4}
HAZI .DEG                                              :Hole Azimuth Relative to True North {F11.4}
HAZIM.DEG                                              :Memorized Hole Azimuth {F11.4}
ITT  .S                                                :Integrated Transit Time {F11.4}
ND   .F                                                :North Departure {F11.4}
P1AZ .DEG                                              :Pad 1 Azimuth in Horizontal Plane (0 = True North) {F11.4}
PR   .                                                 :Poisson s Ratio {F11.4}
RB   .DEG                                              :Relative Bearing {F11.4}
SDEV .DEG                                              :Sonde Deviation {F11.4}
SDEVM.DEG                                              :Memorized Sonde Deviation {F11.4}
SPHI .CFCF                                             :Sonic Porosity {F11.4}
STIT .F                                                :Stuck Tool Indicator, Total {F11.4}
TENS .LBF                                              :Cable Tension {F11.4}
#-----------------------------------------------------------------------------
# 
#      DEPT        CDF        CTEM       DCAL       DTCO       DTSM        ED      GR_EDTC      GTEM       HAZI      HAZIM       ITT         ND        P1AZ        PR         RB        SDEV      SDEVM       SPHI       STIT       TENS
#
~A  
# ...
  10549.0000  1258.7222   163.5764     0.1931    70.5449   120.8689     0.0000    62.7739   158.0478   265.2626   261.5936     0.0170     0.0000   310.2029     0.2417    44.9280     1.6830     1.6380     0.1623     0.0000  4180.3335
  10549.5000  1259.3989   163.5764     0.1931    70.0883   119.9289     0.0000    57.7393   158.0520   265.2472   260.6222     0.0169     0.0000   307.9318     0.2407    42.6721     1.6918     1.6040     0.1590     0.0000  4189.0000
  10550.0000  1263.8026   163.5764     0.1931    70.1398   119.1199     0.0000    54.3707   158.0563   264.5532   259.9036     0.0169     0.0000   305.5921     0.2346    41.0265     1.6914     1.5763     0.1594     0.0000  4238.0000
  10550.5000  1268.9847   163.5764     0.1931    70.5540   118.9386     0.0000    56.5568   158.0606   263.3659   259.6157     0.0169     0.0000   302.9554     0.2285    39.5775     1.6807     1.5637     0.1623     0.0000  4201.6670
  10551.0000  1270.4281   163.5764     0.2042    71.3257   118.5336     0.0000    51.7967   158.0648   262.0094   259.7838     0.0168     0.0000   300.0322     0.2162    38.0109     1.6629     1.5696     0.1678     0.0000  4231.0000
  10551.5000  1263.9150   163.5764     0.2042    72.0792   119.1621     0.0000    50.6930   158.0691   260.8652   260.2446     0.0168     0.0000   297.5449     0.2115    36.6686     1.6436     1.5917     0.1731     0.0000  4231.0000
  10552.0000  1260.8641   163.5764     0.2153    73.4475   120.8292     0.0000    47.8369   158.0734   260.2656   260.7564     0.0168     0.0000   295.4077     0.2070    35.1313     1.6295     1.6217     0.1828     0.0000  4229.3335
  10552.5000  1258.9679   163.5764     0.1931    74.5401   121.9414     0.0000    59.6489   158.0776   260.3639   261.0839     0.0167     0.0000   292.8240     0.2017    32.4497     1.6254     1.6485     0.1905     0.0000  4231.0000
  10553.0000  1257.4622   163.5764     0.1931    74.8616   123.4741     0.0000    69.6536   158.0819   261.0536   261.1151     0.0167     0.0000   290.2106     0.2094    29.1473     1.6326     1.6615     0.1928     0.0000  4244.0005
  10553.5000  1258.2181   163.5764     0.1931    76.0796   124.2318     0.0000    73.2768   158.0862   262.0377   260.8674     0.0166     0.0000   287.3908     0.2000    25.3443     1.6496     1.6496     0.2014     0.0000  4203.3330
  10554.0000  1248.8760   163.5764     0.2020    77.1557   125.7416     0.0000    69.3460   158.0905   262.9241   260.4958     0.0166     0.0000   284.6568     0.1981    21.7247     1.6698     1.6179     0.2090     0.0000  4210.0000
  10554.5000  1249.5735   163.5764     0.1931    78.0384   127.1766     0.0000    67.2839   158.0947   263.4043   260.1718     0.0166     0.0000   282.0198     0.1980    18.6081     1.6849     1.5754     0.2153     0.0000  4174.0000
  10555.0000  1252.2061   163.5764     0.2042    78.2378   128.2628     0.0000    66.1164   158.0990   263.3232   260.0049     0.0165     0.0000   279.2512     0.2037    15.9212     1.6870     1.5342     0.2167     0.0000  4177.0000
  10555.5000  1256.4282   163.5764     0.2153    79.1531   128.7196     0.0000    66.1822   158.1032   262.7273   260.0202     0.0165     0.0000   276.4645     0.1960    13.7313     1.6728     1.5065     0.2231     0.0000  4196.6665
  10556.0000  1265.9041   163.5764     0.1931    78.7521   128.8390     0.0000    66.8272   158.1075   261.7922   260.1537     0.0165     0.0000   273.5233     0.2018    11.7268     1.6446     1.5006     0.2203     0.0000  4207.6670
  10556.5000  1267.4761   163.5764     0.2042    79.5748   128.6280     0.0000    72.0748   158.1118   260.6222   260.2986     0.0164     0.0000   269.9047     0.1900     9.2789     1.6040     1.5168     0.2261     0.0000  4195.6670
  10557.0000  1266.6818   163.5764     0.1597    79.2428   129.3152     0.0000    71.2229   158.1161   260.0093   260.3386     0.0164     0.0000   267.6254     0.1993     7.6135     1.5808     1.5486     0.2238     0.0000  4208.6665
  10557.5000  1266.3900   163.5764     0.1597    80.7331   130.0009     0.0000    65.8006   158.1203   259.6157   260.2087     0.0163     0.0000   264.2663     0.1861     4.6486     1.5637     1.5843     0.2343     0.0000  4182.3335
  10558.0000  1277.0316   163.5764     0.1597    82.3349   131.5798     0.0000    62.4616   158.1246   259.7838   259.9373     0.0163     0.0000   261.4822     0.1782     1.6981     1.5696     1.6110     0.2456     0.0000  4187.2500
  10558.5000  1266.4332   163.5764     0.1708    81.7530   131.8006     0.0000    67.6674   158.1288   260.2446   259.6336     0.0163     0.0000   258.7247     0.1873   358.4806     1.5917     1.6188     0.2415     0.0000  4177.6665
  10559.0000  1263.4470   163.5764     0.1708    80.4139   131.5744     0.0000    75.2946   158.1331   260.7564   259.4442     0.0162     0.0000   256.5947     0.2019   355.8401     1.6217     1.6042     0.2321     0.0000  4145.6665
  10559.5000  1262.9430   163.5764     0.1597    78.0840   131.1995     0.0000    79.5311   158.1374   261.0839   259.5602     0.0162     0.0000   254.3873     0.2258   353.3062     1.6485     1.5626     0.2156     0.0000  4169.0000
  10560.0000  1264.3713   163.5764     0.1597    75.3871   129.5368     0.0000    76.3868   158.1416   261.1357   259.9862     0.0161     0.0000   251.7667     0.2439   350.6348     1.6612     1.5201     0.1965     0.0000  4133.6665
  10560.5000  1266.3933   163.5764     0.1597    72.3609   128.3573     0.0000    67.1442   158.1459   260.9297   260.5565     0.0161     0.0000   249.0145     0.2671   348.0899     1.6536     1.4552     0.1751     0.0000  4153.6665
  10561.0000  1274.1166   163.5764     0.1597    72.3494   127.7027     0.0000    53.4327   158.1502   260.5685   261.1701     0.0161     0.0000   246.1799     0.2637   345.6170     1.6253     1.4642     0.1750     0.0000  4162.3330
  10561.5000  1273.2975   163.5764     0.1575    72.7637   127.2481     0.0000    46.8463   158.1545   260.2235   262.2734     0.0160     0.0000   243.3445     0.2571   343.1271     1.5842     1.4325     0.1780     0.0000  4148.6670
  10562.0000  1266.1382   163.5764     0.1597    74.6136   127.2456     0.0000    46.0164   158.1587   260.0182   261.3016     0.0160     0.0000   241.0517     0.2380   341.0396     1.5418     1.4841     0.1910     0.0000  4165.0000
  10562.5000  1262.9430   163.5764     0.1819    76.7529   127.9359     0.0000    53.2056   158.1630   260.0036   261.3568     0.0160     0.0000   238.9581     0.2188   338.9610     1.5108     1.5151     0.2062     0.0000  4141.6665
  10563.0000  1262.8916   163.5764     0.1819    85.1533   128.4022     0.0000    56.9717   158.1673   260.1537   260.1711     0.0159     0.0000   236.3407     0.1075   336.1941     1.5006     1.5407     0.2656     0.0000  4155.6665
  10563.5000  1260.5231   163.5764     0.1931    79.7006   129.0232     0.0000    64.7501   158.1715   260.2986   259.0877     0.0159     0.0000   233.9287     0.1915   333.6377     1.5168     1.5891     0.2270     0.0000  4151.3335
  10564.0000  1257.3992   163.5764     0.1819    81.5368   130.8979     0.0000    69.2292   158.1758   260.3386   259.4484     0.0158     0.0000   231.5146     0.1830   331.1850     1.5486     1.5573     0.2400     0.0000  4163.0000
  10564.5000  1253.7991   163.5764     0.1708    82.2924   133.5739     0.0000    76.5313   158.1801   260.2087   259.7987     0.0158     0.0000   229.2551     0.1941   329.0560     1.5843     1.5404     0.2453     0.0000  4147.3335
  10565.0000  1254.4307   163.5764     0.1708    83.1953   135.7852     0.0000    80.2025   158.1843   259.9373   260.7198     0.0157     0.0000   226.7449     0.1995   326.8178     1.6110     1.5130     0.2517     0.0000  4147.2500
  10565.5000  1261.8918   163.5764     0.1597    83.4761   136.7117     0.0000    87.5494   158.1886   259.6336   262.0201     0.0157     0.0000   223.7656     0.2028   324.1428     1.6188     1.4843     0.2537     0.0000  4165.0000
  10566.0000  1261.8090   163.5764     0.1597    83.5789   138.2920     0.0000    81.5939   158.1929   259.4442   263.3233     0.0157     0.0000   220.6376     0.2123   321.2044     1.6042     1.4628     0.2544     0.0000  4172.5000
