###############################################
##         ENVERUS                           ##
##         ESS - Open Hole                   ##
##         PERMIAN / DELAWARE                ##
##         Nov 04 2023  V4.0                 ##
##         42-389-00931-00-00                ##
###############################################
## Copyright 2017-2023  ENVERUS.  All Rights Reserved. 
## Confidential - Property of ENVERUS, use governed by terms and 
## conditions found within the existing Information Services Subscription Agreement 
## (as may be amended, the “ISSA”) between Customer and ENVERUS. 
## 
~VERSION INFORMATION
# MNEM.UNIT                               DATA : DESCRIPTION OF MNEMONIC
#-----.-----     ----------------------------- : -----------------------------
VERS.                                     2.00 : CWLS LOG ASCII STANDARD - VERSION 2.00
WRAP.                                       NO : MULTIPLE LINES PER DEPTH STEP
VEND.                                  ENVERUS : VENDOR
TYPE.                          ESS - OPEN HOLE : ENVERUS ESSENTIAL CURVES – ACCESSIBLE THROUGH ENVERUS PRISM(TM)
DOC.                                  31935239 : ENVERUS HEADER RAW DOCUMENT ID
#___________________________________________________________________________________________________ 
~WELL INFORMATION 
# S9zL0tdqvH3y2XIpNbXcuKF0SeIoK+7NE6VaQ02nn2+shQHF2oZWL/5TS96hefD+9qjP/MIJWV/WOidK809eGw== 
# MNEM.UNIT                                              DATA : DESCRIPTION OF MNEMONIC 
#-----.-----                    ----------------------------- : ----------------------------- 
CNTY.                                                  REEVES : COUNTY 
STATE.                                                  TEXAS : STATE 
CNTRY.                                                    USA : COUNTRY 
API.                                             42-389-00931 : API (10 Digit) 
API_14.                                    42-389-00931-00-00 : API (14 Digits) 
API_14_std.                                 42-389-00931-0000 : API (14 Digits Standard) 
UWI.                                           42389009310000 : UNIQUE WELL ID 
WELL.                                                      1, : WELL NAME
STRT.FT                                                 101.0 : START DEPTH
STOP.FT                                                5373.0 : STOP DEPTH
STEP.FT                                                   0.5 : STEP BETWEEN DEPTHS
NULL.                                                 -999.25 : NULL VALUE
#___________________________________________________________________________________________________ 
~CURVE INFORMATION 
# MNEM.UNIT           : CURVE DESCRIPTION 
#-----.-----          : ----------------------------- 
 DEPT.FT               : MEASURED DEPTH 
 GR.API                : GAMMA RAY (GR) 
 DT.US/FT              : SONIC DELTA TRANSIT TIME (DT) 
 #___________________________________________________________________________________________________ 
~A         DEPT             GR             DT
# ...
         1841.0         11.591         56.905
         1841.5         12.248         56.905
         1842.0         12.905         56.904
         1842.5         13.563         56.904
         1843.0         13.931         57.504
         1843.5         13.531         59.070
         1844.0         13.131         60.636
         1844.5         13.114         60.829
         1845.0         13.377         60.535
         1845.5         13.640         60.242
         1846.0         13.903         59.948
         1846.5         14.165         59.895
         1847.0         14.428         69.964
         1847.5         14.691         72.783
         1848.0         14.954         70.012
         1848.5         15.217         67.241
         1849.0         15.480         62.802
         1849.5         15.295         56.465
         1850.0         14.900         52.318
         1850.5         14.505         53.594
         1851.0         14.111         54.869
         1851.5         13.716         56.098
         1852.0         13.608         56.217
         1852.5         13.725         56.337
         1853.0         13.842         56.457
         1853.5         13.958         56.577
         1854.0         14.075         56.697
         1854.5         14.192         56.816
         1855.0         14.309         56.936
         1855.5         14.426         57.056
         1856.0         14.374         57.176
         1856.5         13.831         57.295
         1857.0         13.288         57.415
         1857.5         12.745         57.535
         1858.0         12.202         57.515
         1858.5         11.659         57.842
         1859.0         11.116         58.168
         1859.5         10.573         58.495
         1860.0         10.030         58.821
         1860.5          9.487         59.675
         1861.0          9.994         61.094
         1861.5         10.751         62.512
         1862.0         11.508         64.148
         1862.5         12.265         65.815
         1863.0         13.022         67.482
         1863.5         13.779         66.247
         1864.0         14.353         62.712
         1864.5         13.945         61.559
         1865.0         13.538         60.868
         1865.5         13.130         57.151
         1866.0         12.723         55.297
         1866.5         12.315         57.075
         1867.0         11.908         58.852
         1867.5         11.500         60.629
         1868.0         12.081         63.500
         1868.5         12.797         68.564
         1869.0         13.513         67.786
         1869.5         14.229         63.905
         1870.0         14.945         60.024
         1870.5         15.661         56.143
         1871.0         16.010         52.262
         1871.5         15.107         52.193
         1872.0         14.204         53.430
         1872.5         13.301         54.668
         1873.0         12.398         55.905
         1873.5         11.495         57.199
         1874.0         11.633         58.687
         1874.5         12.676         60.175
         1875.0         13.718         61.663
         1875.5         14.761         63.152
         1876.0         15.803         64.640
         1876.5         16.846         66.128
         1877.0         17.888         65.717
         1877.5         18.931         64.415
         1878.0         18.932         63.114
         1878.5         18.183         61.812
         1879.0         17.434         60.532
         1879.5         16.975         59.257
         1880.0         17.098         57.983
         1880.5         17.221         56.709
         1881.0         17.344         55.435
         1881.5         17.467         54.362
         1882.0         17.590         54.232
         1882.5         15.108         54.102
         1883.0         11.551         53.972
         1883.5          8.646         53.843
         1884.0          8.463         53.713
         1884.5          8.279         53.583
         1885.0          8.096         53.453
         1885.5          7.912         53.323
         1886.0          7.738         53.193
         1886.5          7.663         53.076
         1887.0          7.588         53.174
         1887.5          7.512         53.271
         1888.0          7.437         53.368
         1888.5          7.362         53.466
         1889.0          7.287         53.563
         1889.5          7.339         53.661
         1890.0          8.494         53.758
         1890.5          9.648         53.855
         1891.0         10.803         53.953
         1891.5         11.957         53.959
         1892.0         13.112         53.837
         1892.5         13.461         53.714
         1893.0         13.618         53.592
         1893.5         13.774         53.469
         1894.0         13.931         53.346
         1894.5         14.088         53.224
         1895.0         14.244         54.387
         1895.5         15.786         55.758
         1896.0         18.081         56.600
         1896.5         20.376         55.973
         1897.0         22.672         55.345
         1897.5         24.967         54.717
         1898.0         25.431         54.089
         1898.5         24.159         53.461
         1899.0         21.133         53.652
         1899.5         18.108         54.761
         1900.0         16.745         55.871
         1900.5         16.712         56.980
         1901.0         16.680         58.089
         1901.5         16.647         58.875
         1902.0         16.615         59.094
         1902.5         16.582         59.313
         1903.0         16.550         59.532
         1903.5         16.518         59.115
         1904.0         17.832         58.455
         1904.5         19.101         58.279
         1905.0         20.266         58.804
         1905.5         21.670         59.328
         1906.0         22.383         59.852
         1906.5         22.186         60.377
         1907.0         22.697         60.901
         1907.5         23.208         61.426
         1908.0         23.719         60.581
         1908.5         24.229         58.915
         1909.0         24.740         57.249
         1909.5         22.884         55.583
         1910.0         19.451         53.917
         1910.5         16.017         52.460
         1911.0         12.584         52.450
         1911.5         11.240         52.439
         1912.0         10.823         52.429
         1912.5         10.406         52.419
         1913.0          9.989         52.408
         1913.5          9.572         52.398
         1914.0          9.155         52.387
         1914.5          8.738         52.377
         1915.0          8.321         52.366
         1915.5          7.904         52.356
         1916.0          7.487         52.345
         1916.5          8.107         53.230
         1917.0          8.736         54.986
         1917.5          9.365         56.743
         1918.0         10.202         58.499
         1918.5         11.227         59.506
         1919.0         12.252         58.055
         1919.5         13.277         56.603
         1920.0         14.302         55.151
         1920.5         13.921         53.699
         1921.0         12.068         52.247
         1921.5         10.214         52.146
         1922.0          8.360         52.989
         1922.5          6.746         53.831
         1923.0          7.181         54.674
         1923.5          7.615         55.185
         1924.0          8.049         54.310
         1924.5          8.483         53.435
         1925.0          8.917         52.559
         1925.5          9.351         51.684
         1926.0          9.786         50.864
         1926.5         10.220         51.303
         1927.0         10.654         51.742
         1927.5         11.088         52.181
