~Version Information Block
 VERS.                2.00:     CWLS LOG ASCII STANDARD - VERSION 2.000000
 WRAP.                  NO:     One Line Per Depth Step
#
~Well Information Block
#MNEM.UNIT                     Data                         Information
#----------   ------------------------------------------   ----------------
 STRT.FT                                     5200.0000:     START DEPTH
 STOP.FT                                    11550.0000:     STOP DEPTH
 STEP.FT                                        0.5000:     STEP
 NULL.                                       -999.2500:     NULL VALUE
 COMP.               AMERICAN QUASAR PETROLEUM COMPANY:     COMPANY
 WELL.                               MCCARTER # 1 - 31:     WELL
 FLD .                                         WILDCAT:     FIELD
 LOC .                                                :     LOCATION
 CNTY.                                          REEVES:     COUNTY
 STAT.                                           TEXAS:     STATE
 CTRY.                                             USA:     COUNTRY
 SRVC.                                                :     SERVICE COMPANY
 DATE.                                      08/07/2015:     DATE
 API .                                  42389311800000:     API NUMBER
 UWI .                                  42389311800000:     UWI NUMBER
 TVD .                                              NO:     TVD flag
 WSTA.                                             LOC:     Well status
#
~Curve Information Block
#MNEM.UNIT       API CODE      Curve Description
#----------    -------------   -------------------
 DEPT.FT                   :   Depth in Feet
 GR  .GAPI                 :   Gamma Ray
 LLD .OHMM                 :   Latero-Log Deep (Resistivity)
 CALI.IN                   :   Caliper
 DT  .US/F                 :   Delta-T
#
~Parameter Information Block
#MNEM.UNIT            Value               Description
#----------    --------------------    -------------------
 RUN .                         ONE:    Run Number
 PDAT.                          GL:    Permanent Datum
 EPD .FT                          :    Elevation Of Perm. Datum
 LMF .               KELLY BUSHING:    Log Measured From
 EKB .FT                          :    Elevation Of Kelly Bushing
 DF .FT                           :    Elevation Of Derrick Floor
 GL .FT                           :    Elevation Of Ground Level
 TD  .FT                          :    Total Depth
 CSGD.FT                          :    Casing Bottom (Driller) 1
 CSGL.FT                          :    Casing Bottom (Logger) 1
 MUD .                            :    Drilling Fluid Type
 MUDV .CP                         :    Drilling Fluid Viscosity
 MUDD .LB/USG                     :    Drilling Fluid Density
 FL .ML/30MIN                     :    Drilling Fluid Loss
 PH.                              :    Drilling Fluid Ph
 MUDS .                           :    Mud Sample Source
 RM .OHMM                         :    Resistivity Of Mud Sample
 RMT .DEGF                        :    Mud Sample Temperature
 RMF .OHMM                        :    Mud Filtrate Resistivity
 RMFT.DEGF                        :    Mud Filtrate Sample Temperature
 RMC .OHMM                        :    Mud Cake Resistivity
 RMCT.DEGF                        :    Mud Cake Sample Temperature
 RMB .OHMM                        :    Mud Resistivity At Bht
 TMAX .DEGF                       :    Bottom Hole Temperature    
#
~Other Information Block
<DescLogPlotStart>   NEURALOG PLOT DEFINITION
PLOTDEFVERSION: 3
LASFILE: E:\Nair Innovations\Texas - NII\Shivam\42389311800000\42389311800000_G
DEPTHSCALE: 239.999996
RESOLUTION: 200
DEPTHLABELFREQ: 100.000000
HEAVYGRIDFREQ: 100.000000
MEDIUMGRIDFREQ: 50.000000
LIGHTGRIDFREQ: 10.000000
#
#   TRACK 1
#
STARTTRACK: 
 LEFTX: 0.500000 inch
 RIGHTX: 3.000000 inch
 SCALETYPE: Linear
 NUMCHARTDIVISIONS: 10
CURVE: GR    0.000000   125.000000 (0,0,255)      Solid             2     Y    
BACKUP: 125.000000 250.000000 (0,0,255)      Solid             2    
CURVE: CALI  6.000000   16.000000  (0,0,255)      Solid             2     N    
ENDTRACK: 
#
#   TRACK 2
#
STARTTRACK: 
 LEFTX: 3.500000 inch
 RIGHTX: 8.500000 inch
 SCALETYPE: Log
 NUMCYCLES: 4
 STARTCYCLE: 2
CURVE: LLD   0.200000   2000.000000 (0,131,131)    Solid             2     Y   
BACKUP: 2000.000000 20000000.000000 (0,131,131)    Solid             2    
ENDTRACK: 
#
#   TRACK 3
#
STARTTRACK: 
 LEFTX: 3.500000 inch
 RIGHTX: 8.500000 inch
 SCALETYPE: Linear
 NUMCHARTDIVISIONS: 10
CURVE: DT    100.000000 40.000000  (0,131,131)    Solid             2     Y    
BACKUP: 160.000000 100.000000 (0,131,131)    Solid             2    
BACKUP: 40.000000  -20.000000 (0,131,131)    Solid             2    
ENDTRACK: 
<DescLogPlotEnd>
<DepthTrack type='Reference' track='1' Label='0' color='0' hor='0' />
<Reference font='144,0,-900,0,500,0,16777216,Arial' />
~A DEPTH     GR               LLD              CALI             DT              
# ...
    9407.500 47.50074967      39.77655714      12.69796613      68.65359640     
    9408.000 29.81055450      63.09980130      12.69978647      62.20307193     
    9408.500 16.02209273      317.27130670     12.70161602      55.77971999     
    9409.000 16.97082022      314.35674355     12.70344348      51.50755123     
    9409.500 18.09796084      329.20230046     12.70527012      51.85363425     
    9410.000 26.25585255      233.73784201     12.70709676      56.40190579     
    9410.500 39.87798628      98.65143688      12.70892339      61.07741489     
    9411.000 51.55777487      44.43481562      12.71075003      65.87927073     
    9411.500 63.02011331      35.22423898      12.71257667      70.88171828     
    9412.000 72.71210740      29.27797379      12.71440331      73.54029970     
    9412.500 75.90687053      26.25829170      12.71622995      75.58641359     
    9413.000 78.04700706      25.77426612      12.71805659      76.77442557     
    9413.500 77.41995898      25.29916270      12.71988323      77.13286713     
    9414.000 77.61733597      25.07415975      12.72170986      76.89963370     
    9414.500 80.16592623      25.07415975      12.72353650      76.33126873     
    9415.000 83.27062626      25.07415975      12.72536314      76.29970030     
    9415.500 84.26613877      25.07415975      12.72718978      76.65334665     
    9416.000 81.96082294      23.50554235      12.72901642      76.82497515     
    9416.500 74.73104881      22.16456714      12.73084306      74.30058434     
    9417.000 66.05039832      21.40469055      12.73266970      72.23940350     
    9417.500 62.08289142      20.65656252      12.73449634      70.17468246     
    9418.000 56.19766734      24.61020130      12.73632297      68.11137434     
    9418.500 52.90957782      30.42842648      12.73814961      66.04806622     
    9419.000 50.84587706      37.63821631      12.73997625      64.78521479     
    9419.500 54.87869254      42.44885739      12.74180289      64.90509491     
    9420.000 59.24961975      44.48589539      12.74362953      69.14398102     
    9420.500 68.31317468      41.61000533      12.74545617      72.05894106     
    9421.000 73.86644073      37.35223290      12.74728281      74.62417582     
    9421.500 75.17197588      33.86315281      12.74910945      75.96043956     
    9422.000 76.03689342      32.76867291      12.75093608      77.11023976     
    9422.500 76.88367614      34.70010007      12.75276272      77.91313748     
    9423.000 77.45229233      39.16688392      12.75458936      78.51933510     
    9423.500 76.75075145      41.66827164      12.75641600      78.22829359     
    9424.000 75.21652347      41.00280453      12.75824264      75.87412587     
    9424.500 71.93183138      40.55795863      12.76006928      75.82720137     
    9425.000 70.30886535      40.14534607      12.76189592      74.94505495     
    9425.500 71.11045912      44.02662215      12.76372255      73.24356842     
    9426.000 71.84168972      47.83959680      12.76554919      73.11139529     
    9426.500 71.69176789      48.28314232      12.76737583      73.06498921     
    9427.000 71.12387813      43.35928379      12.76920247      73.11688312     
    9427.500 69.90658006      40.14534607      12.77102911      72.99700300     
    9428.000 69.11127162      36.19639061      12.77285575      72.69442557     
    9428.500 70.43687503      33.68152071      12.77468239      72.57406593     
    9429.000 71.83084806      32.02381438      12.77650903      73.00179820     
    9429.500 73.53858806      30.71220621      12.77833566      74.07112887     
    9430.000 74.30003575      30.18474496      12.78016230      75.03659976     
    9430.500 74.83465166      29.02320882      12.78198894      76.37696849     
    9431.000 72.50578475      27.75329582      12.78381558      77.25274725     
    9431.500 67.23460044      29.31663797      12.78564222      75.21478521     
    9432.000 61.51254625      32.02542675      12.78746886      72.04403596     
    9432.500 55.75698946      36.92669117      12.78929550      68.71408591     
    9433.000 50.03485307      51.70536635      12.79105501      65.27176198     
    9433.500 48.09076274      65.80854774      12.79273318      64.88169018     
    9434.000 50.45947063      71.67253778      12.79615771      66.66004226     
    9434.500 68.68652929      63.44431623      12.82516749      70.95904096     
    9435.000 65.85823293      53.91272930      12.85835872      71.67832168     
    9435.500 78.25234468      41.27235536      12.85631370      74.42837163     
    9436.000 82.28487972      32.46764863      12.85626736      76.35088911     
    9436.500 86.54676076      30.35725234      12.85628682      77.59459483     
    9437.000 87.16121578      29.87986927      12.85645738      78.47094569     
    9437.500 80.45571826      31.00350235      12.85678312      78.94206238     
    9438.000 73.14956373      34.63434267      12.85710903      78.43510521     
    9438.500 66.01728153      34.12948624      12.85743529      77.06483404     
    9439.000 62.88564253      33.37912020      12.85776135      75.65188733     
    9439.500 61.34204673      36.26995608      12.85808741      74.59992120     
    9440.000 58.92349708      42.04121766      12.85841347      75.26316514     
    9440.500 53.72116600      60.25428142      12.85873952      68.30385956     
    9441.000 55.72268375      63.68483203      12.85906558      68.82647957     
    9441.500 60.32401065      56.66931524      12.85939164      69.12936467     
    9442.000 60.90820554      43.22145018      12.85971770      69.94781196     
    9442.500 59.24331857      39.48740848      12.86004376      69.47864338     
    9443.000 59.79904660      35.59558871      12.86036981      69.68717577     
    9443.500 63.86702622      34.94195996      12.86069587      68.77875750     
    9444.000 67.60647676      34.94253837      12.86102193      68.80119880     
    9444.500 72.17492954      36.47135001      12.86134799      74.22663051     
    9445.000 71.46642175      38.04659891      12.86167405      76.48851149     
    9445.500 70.83730732      39.41115603      12.86200010      77.49250749     
    9446.000 71.18348399      40.43963848      12.86232616      77.19280719     
    9446.500 72.91367979      40.89321333      12.86265222      78.06961039     
    9447.000 74.93304053      39.21614190      12.86297828      78.63136863     
    9447.500 76.86803009      38.00034248      12.86330434      78.63136863     
    9448.000 78.58561158      35.60664033      12.86363039      78.32860473     
    9448.500 79.07346928      37.26466288      12.86395645      77.89397269     
    9449.000 78.76953753      38.88787668      12.86428251      77.61238761     
    9449.500 76.37933681      39.77655714      12.86460857      77.52879121     
    9450.000 74.99784600      36.27147734      12.86493463      77.44855145     
    9450.500 73.88720704      33.75248264      12.86526068      77.36831169     
    9451.000 72.44897133      30.98188867      12.86558674      77.19280719     
    9451.500 69.65126784      31.01589989      12.86591280      76.73246753     
    9452.000 67.58699831      31.00350235      12.86623886      76.15389488     
    9452.500 67.16487897      30.52440661      12.86656492      74.42749639     
    9453.000 68.34794763      29.60538253      12.86689097      73.05307353     
    9453.500 75.17474907      31.00350235      12.86721703      73.04459150     
    9454.000 79.26595621      31.29095177      12.86754309      74.48258044     
    9454.500 80.43654104      32.49537692      12.86786915      75.78905420     
    9455.000 76.95111639      34.24104652      12.86819521      77.01298701     
    9455.500 72.95444516      36.26995608      12.86852126      76.95304695     
    9456.000 69.72930665      39.77655714      12.86884732      77.16655345     
    9456.500 73.63105464      39.04190476      12.86917338      77.55772228     
