###############################################
##         ENVERUS                           ##
##         ESS - Open Hole                   ##
##         PERMIAN / DELAWARE                ##
##         Nov 04 2023  V4.0                 ##
##         42-389-30075-00-00                ##
###############################################
## Copyright 2017-2023  ENVERUS.  All Rights Reserved. 
## Confidential - Property of ENVERUS, use governed by terms and 
## conditions found within the existing Information Services Subscription Agreement 
## (as may be amended, the “ISSA”) between Customer and ENVERUS. 
## 
~VERSION INFORMATION
# MNEM.UNIT                               DATA : DESCRIPTION OF MNEMONIC
#-----.-----     ----------------------------- : -----------------------------
VERS.                                     2.00 : CWLS LOG ASCII STANDARD - VERSION 2.00
WRAP.                                       NO : MULTIPLE LINES PER DEPTH STEP
VEND.                                  ENVERUS : VENDOR
TYPE.                          ESS - OPEN HOLE : ENVERUS ESSENTIAL CURVES – ACCESSIBLE THROUGH ENVERUS PRISM(TM)
DOC.                                  32306518 : ENVERUS HEADER RAW DOCUMENT ID
#___________________________________________________________________________________________________ 
~WELL INFORMATION 
# kPY+8M9YT4rQMtoZY4hkcKqQFbcx8dAfbukAxGfLCr0mY2TilAra5+x7Ygngqds2nYZXTdz9AGmqNniTAH+qTQ== 
# MNEM.UNIT                                              DATA : DESCRIPTION OF MNEMONIC 
#-----.-----                    ----------------------------- : ----------------------------- 
CNTY.                                                  REEVES : COUNTY 
STATE.                                                  TEXAS : STATE 
CNTRY.                                                    USA : COUNTRY 
API.                                             42-389-30075 : API (10 Digit) 
API_14.                                    42-389-30075-00-00 : API (14 Digits) 
API_14_std.                                 42-389-30075-0000 : API (14 Digits Standard) 
UWI.                                           42389300750000 : UNIQUE WELL ID 
WELL.                                        CAMPBELL STATE 1 : WELL NAME
STRT.FT                                                   5.0 : START DEPTH
STOP.FT                                               20980.0 : STOP DEPTH
STEP.FT                                                   0.5 : STEP BETWEEN DEPTHS
NULL.                                                 -999.25 : NULL VALUE
#___________________________________________________________________________________________________ 
~CURVE INFORMATION 
# MNEM.UNIT           : CURVE DESCRIPTION 
#-----.-----          : ----------------------------- 
 DEPT.FT               : MEASURED DEPTH 
 CALI.IN               : CALIPER (CAL - CAL) 
 GR.API                : GAMMA RAY (GR) 
 DT.US/FT              : SONIC DELTA TRANSIT TIME (DT) 
 NPHI.V/V              : NEUTRON POROSITY (NPHI) 
 #___________________________________________________________________________________________________ 
~A         DEPT           CALI             GR             DT           NPHI
# ...
        17124.0          7.061         83.108       -999.250        0.07097
        17124.5          7.032         87.589       -999.250        0.07337
        17125.0          7.021         92.069       -999.250        0.07577
        17125.5          7.020         96.550       -999.250        0.07817
        17126.0          7.020         94.809       -999.250        0.08057
        17126.5          7.019         92.415       -999.250        0.08297
        17127.0          7.019         90.021       -999.250        0.08035
        17127.5          7.018         87.627       -999.250        0.07542
        17128.0          7.018         85.233       -999.250        0.07050
        17128.5          7.017         81.606       -999.250        0.06557
        17129.0          7.016         77.857       -999.250        0.06065
        17129.5          7.016         74.109       -999.250        0.05720
        17130.0          7.015         70.360       -999.250        0.06152
        17130.5          7.015         69.697       -999.250        0.06583
        17131.0          7.014         70.152       -999.250        0.07015
        17131.5          7.014         70.607       -999.250        0.07446
        17132.0          7.013         71.062       -999.250        0.07877
        17132.5          7.012         71.517       -999.250        0.07809
        17133.0          7.012         80.510       -999.250        0.07387
        17133.5          7.011         80.773       -999.250        0.06964
        17134.0          7.011         81.035       -999.250        0.06542
        17134.5          7.010         81.298       -999.250        0.06307
        17135.0          7.010         81.561       -999.250        0.06637
        17135.5          7.009         81.824       -999.250        0.06966
        17136.0          7.032         82.086       -999.250        0.07296
        17136.5          7.072         82.349       -999.250        0.07626
        17137.0          7.112         82.612       -999.250        0.07956
        17137.5          7.144         83.899       -999.250        0.08286
        17138.0          7.129         85.263       -999.250        0.08616
        17138.5          7.113         86.626       -999.250        0.08941
        17139.0          7.097         87.990       -999.250        0.08679
        17139.5          7.082         89.353       -999.250        0.08417
        17140.0          7.066         90.717       -999.250        0.08155
        17140.5          7.050         91.644       -999.250        0.07893
        17141.0          7.035         86.965       -999.250        0.07631
        17141.5          7.019         82.287       -999.250        0.07369
        17142.0          7.004         77.608       -999.250        0.07107
        17142.5          6.988         77.649       -999.250        0.06957
        17143.0          6.985         79.080       -999.250        0.06965
        17143.5          6.986         80.511       -999.250        0.06973
        17144.0          6.987         81.943       -999.250        0.06980
        17144.5          6.988         83.095       -999.250        0.06988
        17145.0          6.990         79.992       -999.250        0.06996
        17145.5          6.991         76.890       -999.250        0.07004
        17146.0          6.992         73.788       -999.250        0.06865
        17146.5          6.993         70.685       -999.250        0.06702
        17147.0          6.994         71.945       -999.250        0.06538
        17147.5          6.996         73.550       -999.250        0.06376
        17148.0          6.997         75.156       -999.250        0.06368
        17148.5          6.998         76.762       -999.250        0.06360
        17149.0          6.999         78.368       -999.250        0.06352
        17149.5          7.001         78.990       -999.250        0.06343
        17150.0          7.002         77.963       -999.250        0.06335
        17150.5          7.003         76.936       -999.250        0.06327
        17151.0          7.004         75.909       -999.250        0.06392
        17151.5          7.005         74.882       -999.250        0.06541
        17152.0          7.007         77.453       -999.250        0.06691
        17152.5          7.008         80.306       -999.250        0.06841
        17153.0          7.009         83.159       -999.250        0.06990
        17153.5          7.010         86.012       -999.250        0.07140
        17154.0          7.012         88.865       -999.250        0.07289
        17154.5          7.013         89.837       -999.250        0.07439
        17155.0          7.014         90.591       -999.250        0.07506
        17155.5          7.015         91.345       -999.250        0.07462
        17156.0          7.016         92.100       -999.250        0.07418
        17156.5          7.018         92.854       -999.250        0.07374
        17157.0          7.019         93.608       -999.250        0.07330
        17157.5          7.020         94.750       -999.250        0.07286
        17158.0          7.021         95.965       -999.250        0.07242
        17158.5          7.022         97.181       -999.250        0.07206
        17159.0          7.024         98.396       -999.250        0.07195
        17159.5          7.025         95.897       -999.250        0.07183
        17160.0          7.026         90.442       -999.250        0.07171
        17160.5          7.027         86.162       -999.250        0.07160
        17161.0          7.029         81.883       -999.250        0.07148
        17161.5          7.030         77.604       -999.250        0.07136
        17162.0          7.031         73.325       -999.250        0.07125
        17162.5          7.032         73.375       -999.250        0.07113
        17163.0          7.033         73.960       -999.250        0.07094
        17163.5          7.034         74.545       -999.250        0.07006
        17164.0          7.035         75.130       -999.250        0.06919
        17164.5          7.035         75.716       -999.250        0.06831
        17165.0          7.035         72.161       -999.250        0.06743
        17165.5          7.036         66.702       -999.250        0.06655
        17166.0          7.036         65.979       -999.250        0.06568
        17166.5          7.037         66.649       -999.250        0.06480
        17167.0          7.037         66.820       -999.250        0.06408
        17167.5          7.038         64.627       -999.250        0.06367
        17168.0          7.038         62.433       -999.250        0.06327
        17168.5          7.038         60.228       -999.250        0.06287
        17169.0          7.039         50.880       -999.250        0.06246
        17169.5          7.039         50.614       -999.250        0.06206
        17170.0          7.040         50.551       -999.250        0.06166
        17170.5          7.040         50.489       -999.250        0.06125
        17171.0          7.041         53.114       -999.250        0.06190
        17171.5          7.041         58.734       -999.250        0.06357
        17172.0          7.041         64.354       -999.250        0.06524
        17172.5          7.042         69.974       -999.250        0.06691
        17173.0          7.042         72.606       -999.250        0.06858
        17173.5          7.043         71.559       -999.250        0.06727
        17174.0          7.043         70.511       -999.250        0.06526
        17174.5          7.043         68.776       -999.250        0.06325
        17175.0          7.044         65.670       -999.250        0.06125
        17175.5          7.044         62.563       -999.250        0.05924
        17176.0          7.045         59.667       -999.250        0.05736
        17176.5          7.045         58.409       -999.250        0.05713
