###############################################
##         ENVERUS                           ##
##         ESS - Open Hole                   ##
##         PERMIAN / DELAWARE                ##
##         Nov 04 2023  V4.0                 ##
##         42-389-30075-00-00                ##
###############################################
## Copyright 2017-2023  ENVERUS.  All Rights Reserved. 
## Confidential - Property of ENVERUS, use governed by terms and 
## conditions found within the existing Information Services Subscription Agreement 
## (as may be amended, the “ISSA”) between Customer and ENVERUS. 
## 
~VERSION INFORMATION
# MNEM.UNIT                               DATA : DESCRIPTION OF MNEMONIC
#-----.-----     ----------------------------- : -----------------------------
VERS.                                     2.00 : CWLS LOG ASCII STANDARD - VERSION 2.00
WRAP.                                       NO : MULTIPLE LINES PER DEPTH STEP
VEND.                                  ENVERUS : VENDOR
TYPE.                          ESS - OPEN HOLE : ENVERUS ESSENTIAL CURVES – ACCESSIBLE THROUGH ENVERUS PRISM(TM)
DOC.                                  32306518 : ENVERUS HEADER RAW DOCUMENT ID
#___________________________________________________________________________________________________ 
~WELL INFORMATION 
# kPY+8M9YT4rQMtoZY4hkcKqQFbcx8dAfbukAxGfLCr0mY2TilAra5+x7Ygngqds2nYZXTdz9AGmqNniTAH+qTQ== 
# MNEM.UNIT                                              DATA : DESCRIPTION OF MNEMONIC 
#-----.-----                    ----------------------------- : ----------------------------- 
CNTY.                                                  REEVES : COUNTY 
STATE.                                                  TEXAS : STATE 
CNTRY.                                                    USA : COUNTRY 
API.                                             42-389-30075 : API (10 Digit) 
API_14.                                    42-389-30075-00-00 : API (14 Digits) 
API_14_std.                                 42-389-30075-0000 : API (14 Digits Standard) 
UWI.                                           42389300750000 : UNIQUE WELL ID 
WELL.                                        CAMPBELL STATE 1 : WELL NAME
STRT.FT                                                   5.0 : START DEPTH
STOP.FT                                               20980.0 : STOP DEPTH
STEP.FT                                                   0.5 : STEP BETWEEN DEPTHS
NULL.                                                 -999.25 : NULL VALUE
#___________________________________________________________________________________________________ 
~CURVE INFORMATION 
# MNEM.UNIT           : CURVE DESCRIPTION 
#-----.-----          : ----------------------------- 
 DEPT.FT               : MEASURED DEPTH 
 CALI.IN               : CALIPER (CAL - CAL) 
 GR.API                : GAMMA RAY (GR) 
 DT.US/FT              : SONIC DELTA TRANSIT TIME (DT) 
 NPHI.V/V              : NEUTRON POROSITY (NPHI) 
 #___________________________________________________________________________________________________ 
~A         DEPT           CALI             GR             DT           NPHI
# ...
        19403.0          7.184         45.836       -999.250        0.05261
        19403.5          7.172         44.952       -999.250        0.05281
        19404.0          7.160         44.068       -999.250        0.05007
        19404.5          7.148         43.184       -999.250        0.04733
        19405.0          7.135         41.372       -999.250        0.04459
        19405.5          7.123         37.277       -999.250        0.04185
        19406.0          7.111         33.182       -999.250        0.03911
        19406.5          7.099         31.775       -999.250        0.03637
        19407.0          7.087         33.384       -999.250        0.03363
        19407.5          7.075         34.994       -999.250        0.03089
        19408.0          7.063         34.392       -999.250        0.02961
        19408.5          7.051         32.428       -999.250        0.02846
        19409.0          7.051         30.464       -999.250        0.02732
        19409.5          7.053         28.501       -999.250        0.02617
        19410.0          7.054         26.537       -999.250        0.02502
        19410.5          7.055         51.066       -999.250        0.02915
        19411.0          7.057         50.701       -999.250        0.03432
        19411.5          7.058         50.335       -999.250        0.03948
        19412.0          7.060         49.970       -999.250        0.04465
        19412.5          7.061         49.605       -999.250        0.04724
        19413.0          7.062         49.239       -999.250        0.04946
        19413.5          7.064         48.874       -999.250        0.05167
        19414.0          7.065         48.655       -999.250        0.05388
        19414.5          7.067         51.326       -999.250        0.05609
        19415.0          7.068         53.997       -999.250        0.06047
        19415.5          7.069         56.667       -999.250        0.06510
        19416.0          7.071         59.338       -999.250        0.06973
        19416.5          7.072         58.679       -999.250        0.07436
        19417.0          7.074         57.172       -999.250        0.07899
        19417.5          7.075         55.665       -999.250        0.07944
        19418.0          7.077         54.157       -999.250        0.07484
        19418.5          7.078         53.271       -999.250        0.07023
        19419.0          7.079         53.080       -999.250        0.06563
        19419.5          7.081         53.801       -999.250        0.06103
        19420.0          7.082         57.407       -999.250        0.05824
        19420.5          7.084         61.013       -999.250        0.05967
        19421.0          7.085         64.619       -999.250        0.06110
        19421.5          7.086         65.066       -999.250        0.06253
        19422.0          7.088         65.207       -999.250        0.06396
        19422.5          7.089         65.347       -999.250        0.06538
        19423.0          7.091         65.487       -999.250        0.06642
        19423.5          7.092         64.972       -999.250        0.06264
        19424.0          7.093         57.843       -999.250        0.05886
        19424.5          7.095         58.158       -999.250        0.05589
        19425.0          7.096         62.411       -999.250        0.05764
        19425.5          7.098         64.826       -999.250        0.05938
        19426.0          7.099         65.396       -999.250        0.06113
        19426.5          7.101         65.965       -999.250        0.06287
        19427.0          7.145         66.535       -999.250        0.08166
        19427.5          7.255         69.161       -999.250        0.10139
        19428.0          7.365         72.921       -999.250        0.12111
        19428.5          7.475         76.682       -999.250        0.14084
        19429.0          7.585         80.443       -999.250        0.16056
        19429.5          7.655         84.203       -999.250        0.17471
        19430.0          7.655         87.964       -999.250        0.16886
        19430.5          7.564         91.724       -999.250        0.16301
        19431.0          7.366         95.485       -999.250        0.15716
        19431.5          7.287         91.756       -999.250        0.14795
        19432.0          7.277         82.563       -999.250        0.13244
        19432.5          7.268         73.370       -999.250        0.11692
        19433.0          7.259         64.879       -999.250        0.10141
        19433.5          7.249         70.538       -999.250        0.08590
        19434.0          7.273         76.197       -999.250        0.09608
        19434.5          7.328         81.855       -999.250        0.12606
        19435.0          7.382         87.514       -999.250        0.15604
        19435.5          7.437         86.209       -999.250        0.15386
        19436.0          7.492         84.903       -999.250        0.12324
        19436.5          7.477         83.597       -999.250        0.10454
        19437.0          7.455         78.833       -999.250        0.09476
        19437.5          7.433         72.389       -999.250        0.08498
        19438.0          7.410         65.945       -999.250        0.07519
        19438.5          7.388         61.430       -999.250        0.06541
        19439.0          7.366         62.418       -999.250        0.05562
        19439.5          7.256         63.405       -999.250        0.04730
        19440.0          7.121         64.392       -999.250        0.05018
        19440.5          6.986         62.191       -999.250        0.05306
        19441.0          6.936         56.666       -999.250        0.04411
        19441.5          6.934         51.141       -999.250        0.03424
        19442.0          6.933         45.617       -999.250        0.02437
        19442.5          6.932         40.092       -999.250        0.01784
        19443.0          6.931         34.568       -999.250        0.01523
        19443.5          6.929         29.931       -999.250        0.01271
        19444.0          6.928         30.547       -999.250        0.01258
        19444.5          6.927         31.163       -999.250        0.01246
        19445.0          6.925         31.779       -999.250        0.01234
        19445.5          6.924         32.396       -999.250        0.01221
        19446.0          6.923         33.012       -999.250        0.01227
        19446.5          6.921         33.628       -999.250        0.01256
        19447.0          6.920         33.418       -999.250        0.01284
        19447.5          6.919         32.904       -999.250        0.01312
        19448.0          6.917         32.390       -999.250        0.01340
        19448.5          6.916         31.876       -999.250        0.01369
        19449.0          6.915         31.362       -999.250        0.01397
        19449.5          6.914         31.285       -999.250        0.01425
        19450.0          6.912         32.375       -999.250        0.01454
        19450.5          6.911         33.466       -999.250        0.01482
        19451.0          6.910         34.556       -999.250        0.01510
        19451.5          6.908         35.646       -999.250        0.01539
        19452.0          6.907         36.736       -999.250        0.01567
        19452.5          6.906         36.831       -999.250        0.01581
        19453.0          6.904         36.754       -999.250        0.01591
        19453.5          6.903         36.677       -999.250        0.01602
        19454.0          6.902         36.600       -999.250        0.01612
        19454.5          6.900         36.523       -999.250        0.01652
        19455.0          6.899         36.381       -999.250        0.01824
        19455.5          6.898         36.183       -999.250        0.01996
