#--------------------------------------------------#
#-------------------ENVERUS, INC.------------------#
#------------------WWW.ENVERUS.COM-----------------#
#------------------COPYRIGHT 2020------------------#
#--------------------------------------------------#
#THIS FILE MAY BE USED ONLY IN ACCORDANCE WITH A CURRENT SUBSCRIPTION AGREEMENT BETWEEN
#THE USER AND ENVERUS, INC. NO PART OF THIS FILE MAY BE REPRODUCED, USED, COPIED,
#MODIFIED, PROPAGATED, OR DISTRIBUTED EXCEPT IN ACCORDANCE WITH THE SUBSCRIPTION
#AGREEMENT. UNAUTHORIZED USE OR DISTRIBUTION OF ALL OR ANY PART OF THIS FILE MAY VIOLATE
#COPYRIGHT, TRADEMARK, AND/OR OTHER LAWS AND IS SUBJECT TO CIVIL AS WELL AS CRIMINAL
#SANCTIONS.
#--------------------------------------------------#
#THIS FILE IS PROVIDED "AS-IS" AND ALL WARRANTIES ARE EXPRESSLY DISCLAIMED, WHETHER
#EXPRESS, ORAL, IMPLIED, STATUTORY OR OTHERWISE, INCLUDING ANY IMPLIED WARRANTY OF FITNESS
#FOR A PARTICULAR PURPOSE, MERCHANTABILITY, TITLE OR NON-INFRINGEMENT, AND ANY WARRANTIES
#ARISING BY VIRTUE OF CUSTOM OF TRADE OR COURSE OF DEALING.  FURTHER, ENVERUS, INC.
#AND ITS LICENSORS DO NOT REPRESENT OR WARRANT THAT THIS FILE WILL MEET USER'S
#REQUIREMENTS OR ARE SUITABLE FOR USER'S NEEDS OR THAT THE DATA OR RESULTS PROVIDED IN
#CONJUNCTION THEREWITH ARE CORRECT, ACCURATE, TIMELY OR RELIABLE. THESE DISCLAIMERS SHALL
#APPLY REGARDLESS OF ANY FAILURE OF ESSENTIAL PURPOSE OF ANY LIMITED REMEDY.  SOME
#JURISDICTIONS DO NOT ALLOW THE EXCLUSION OF CERTAIN WARRANTIES SO SOME OF THE ABOVE
#EXCLUSIONS MAY NOT APPLY. IN NO EVENT SHALL ENVERUS, INC. OR ANY OF ITS AFFILIATES
#BE LIABLE UNDER ANY LEGAL THEORY, WHETHER IN TORT (INCLUDING WITHOUT LIMITATION
#NEGLIGENCE), CONTRACT, STRICT LIABILITY, STATUTORY OR OTHERWISE, FOR ANY SPECIAL,
#INCIDENTAL, CONSEQUENTIAL, EXEMPLARY, PUNITIVE OR INDIRECT DAMAGE OF ANY KIND, INCLUDING
#WITHOUT LIMITATION LOSS OF REVENUE, PROFITS, GOODWILL, USE, AND/OR DATA OR THE COST OF
#PROCUREMENT OF SUBSTITUTE GOODS OR SERVICES, EVEN IF APPRISED OF THE POSSIBILITY OF SUCH
#DAMAGES IN ADVANCE.
#--------------------------------------------------#

~VERSION INFORMATION
VERS. 2.0 : CWLS LOG ASCII STANDARD - VERSION 2.0
WRAP.  NO : ONE LINE PER DEPTH STEP
~WELL INFORMATION
#MNEMONIC     .UNIT              VALUE :DESCRIPTION
STRT       .FT                51 :START DEPTH
STOP       .FT                6194 :STOP DEPTH
STEP       .FT                   0.500 :STEP
NULL       .                  -999.990 :NULL
UWI        .              42389004340000 :UNIQUE WELL ID
API        .              42389004340000 :API NUMBER
COMP       .         :COMPANY
WELL       .         1, :WELL
DATE       .                            :LOG DATE
~CURVE INFORMATION
#MNEMONIC     .UNIT      API CODE :CURVE DESCRIPTION
DEPTH       .FT                      :MEASURED DEPTH
GR.API        UNKNOWN   :GR
DT.US/FT        UNKNOWN   :DT
~A    DEPTH    GR    DT
# ...
 1925     11.078   67.112
 1925.5     10.504   68.487
 1926     9.929   69.861
 1926.5     9.355   71.235
 1927     9.562   72.61
 1927.5     9.906   73.984
 1928     10.251   75.358
 1928.5     10.595   78.875
 1929     10.321   77.477
 1929.5     9.843   69.806
 1930     9.365   62.134
 1930.5     8.888   54.554
 1931     8.41   58.446
 1931.5     8.515   62.338
 1932     9.036   66.23
 1932.5     9.557   70.122
 1933     10.079   73.079
 1933.5     10.6   73.305
 1934     11.122   73.595
 1934.5     11.643   74.54
 1935     12.165   75.486
 1935.5     12.686   74.728
 1936     13.208   71.319
 1936.5     13.729   74.332
 1937     14.251   77.344
 1937.5     14.28   80.357
 1938     13.807   78.391
 1938.5     13.335   76.414
 1939     12.863   74.437
 1939.5     12.39   72.46
 1940     11.918   72.909
 1940.5     11.446   73.422
 1941     10.974   67.058
 1941.5     10.501   60.694
 1942     10.029   54.329
 1942.5     10.01   50.035
 1943     10.307   51.699
 1943.5     10.604   53.362
 1944     10.817   55.025
 1944.5     10.501   56.688
 1945     10.184   57.124
 1945.5     9.868   57.365
 1946     9.551   57.357
 1946.5     9.235   57.012
 1947     8.919   56.031
 1947.5     8.602   55.165
 1948     8.286   55.044
 1948.5     7.97   54.848
 1949     7.653   54.596
 1949.5     7.337   54.345
 1950     7.02   54.093
 1950.5     6.704   53.842
 1951     6.454   53.59
 1951.5     6.639   53.706
 1952     6.824   56.947
 1952.5     7.009   60.188
 1953     7.193   63.429
 1953.5     7.378   66.67
 1954     7.563   68.095
 1954.5     8.184   66.479
 1955     10.268   64.864
 1955.5     12.352   63.249
 1956     14.437   57.992
 1956.5     16.521   51.683
 1957     15.789   52.876
 1957.5     14.72   54.069
 1958     13.651   55.261
 1958.5     12.582   55.679
 1959     11.513   55.492
 1959.5     10.444   55.305
 1960     9.693   55.118
 1960.5     10.028   54.93
 1961     10.362   54.743
 1961.5     10.697   54.556
 1962     10.356   54.369
 1962.5     9.817   54.797
 1963     9.279   55.448
 1963.5     8.741   59.031
 1964     8.202   63.218
 1964.5     7.664   67.404
 1965     7.796   71.591
 1965.5     8.16   75.777
 1966     8.523   78.591
 1966.5     8.887   76.274
 1967     9.251   73.957
 1967.5     9.614   71.64
 1968     9.978   69.323
 1968.5     10.341   69.599
 1969     9.803   65.616
 1969.5     9.239   60.944
 1970     8.675   56.273
 1970.5     8.111   55.522
 1971     7.547   58.49
 1971.5     6.983   61.457
 1972     6.712   64.425
 1972.5     7.138   67.393
 1973     7.563   70.36
 1973.5     7.988   68.873
 1974     8.413   65.247
 1974.5     8.839   63.058
 1975     9.264   63.938
 1975.5     9.689   64.817
 1976     10.115   65.697
 1976.5     10.443   66.577
 1977     10.44   67.457
 1977.5     10.438   65.203
 1978     10.435   62.469
 1978.5     10.654   59.734
 1979     11.044   57
 1979.5     11.435   55.487
 1980     11.825   55.949
 1980.5     12.216   56.411
 1981     12.606   56.874
 1981.5     12.997   60.744
 1982     12.731   65.207
 1982.5     12.114   69.67
 1983     11.498   74.133
 1983.5     10.881   78.596
 1984     10.264   78.364
 1984.5     9.648   76.743
 1985     9.031   75.123
 1985.5     8.414   73.502
 1986     7.798   71.882
 1986.5     7.435   69.05
 1987     7.464   60.611
 1987.5     7.493   59.719
 1988     7.522   62.478
 1988.5     7.552   65.236
 1989     7.581   67.995
 1989.5     7.61   70.754
 1990     7.639   73.512
 1990.5     7.715   71.391
 1991     7.983   68.365
 1991.5     8.251   65.339
 1992     8.519   62.313
 1992.5     8.788   59.287
 1993     9.056   56.261
 1993.5     9.324   53.235
 1994     9.396   50.21
 1994.5     9.274   50.872
 1995     9.152   51.673
 1995.5     9.026   52.473
 1996     8.89   53.075
 1996.5     8.755   53.398
 1997     8.619   53.722
 1997.5     7.967   54.045
 1998     6.49   54.32
 1998.5     5.014   53.997
 1999     3.537   53.674
 1999.5     2.255   53.352
 2000     2.981   53.947
 2000.5     4.952   54.714
 2001     6.924   55.48
 2001.5     8.896   56.246
 2002     10.868   56.174
 2002.5     12.84   55.83
 2003     14.812   55.485
 2003.5     16.783   55.14
 2004     18.755   54.795
 2004.5     20.727   54.718
 2005     22.699   55.106
 2005.5     24.671   55.493
 2006     24.081   55.881
 2006.5     23.327   56.268
 2007     21.807   56.308
 2007.5     18.903   55.968
 2008     15.999   55.627
 2008.5     13.4   55.287
 2009     12.539   54.947
 2009.5     11.679   54.607
 2010     10.819   54.266
 2010.5     9.959   53.926
 2011     9.098   53.586
 2011.5     8.4   53.581
 2012     8.861   53.631
 2012.5     9.323   53.682
 2013     9.784   53.889
 2013.5     10.246   54.198
 2014     10.707   54.506
 2014.5     11.169   54.815
 2015     11.63   54.971
 2015.5     12.092   54.715
 2016     12.152   54.458
 2016.5     11.775   54.201
 2017     11.398   53.944
 2017.5     11.021   53.687
 2018     10.644   53.431
 2018.5     10.267   53.41
 2019     9.89   53.448
 2019.5     9.513   53.487
 2020     9.136   53.526
 2020.5     8.759   53.565
 2021     8.382   53.604
 2021.5     8.005   53.637
 2022     7.628   53.507
 2022.5     7.251   53.377
 2023     7.872   53.248
 2023.5     8.955   53.653
 2024     10.039   54.541
 2024.5     11.122   55.43
 2025     12.205   56.318
 2025.5     13.289   56.998
 2026     14.372   56.538
 2026.5     15.456   56.082
 2027     16.539   55.628
 2027.5     17.291   55.173
 2028     16.241   54.719
 2028.5     15.191   54.592
 2029     14.141   54.785
 2029.5     13.091   54.977
 2030     12.041   55.17
 2030.5     10.991   55.278
 2031     9.942   55.279
 2031.5     8.892   55.279
 2032     9.181   55.279
 2032.5     9.882   55.28
 2033     10.583   55.28
 2033.5     11.285   57.614
 2034     11.986   62.368
 2034.5     12.687   67.121
 2035     13.388   71.875
 2035.5     14.089   74.444
 2036     14.791   74.739
 2036.5     15.492   75.034
 2037     16.193   73.711
 2037.5     15.649   70.799
 2038     14.655   67.886
 2038.5     13.662   64.973
 2039     12.669   62.06
 2039.5     11.676   59.181
 2040     10.682   61.43
 2040.5     9.689   63.68
 2041     8.696   65.93
 2041.5     7.84   68.18
 2042     7.935   70.43
 2042.5     8.029   72.679
 2043     8.124   74.929
 2043.5     8.218   74.62
 2044     8.313   71.848
 2044.5     8.407   69.076
 2045     8.502   68.476
 2045.5     8.597   69.169
 2046     8.691   69.861
 2046.5     8.786   70.553
 2047     8.88   69.889
 2047.5     8.975   68.905
 2048     9.069   67.921
 2048.5     8.789   67.042
 2049     8.377   67.688
 2049.5     7.965   68.333
 2050     7.553   68.978
 2050.5     7.788   69.624
 2051     8.384   70.098
 2051.5     8.98   69.675
 2052     9.576   69.256
 2052.5     10.171   69.712
 2053     10.767   69.778
 2053.5     11.363   69.631
 2054     11.353   69.552
 2054.5     10.751   69.72
 2055     10.149   69.889
 2055.5     9.547   70.058
 2056     9.111   70.227
 2056.5     9.354   70.395
 2057     9.596   70.226
 2057.5     9.839   69.968
 2058     10.082   69.711
 2058.5     10.074   69.453
 2059     9.751   69.196
 2059.5     9.428   68.938
 2060     9.105   69.253
 2060.5     8.781   69.96
 2061     8.458   70.667
 2061.5     8.352   71.062
 2062     8.565   70.783
 2062.5     8.778   70.504
 2063     8.991   70.225
 2063.5     9.204   70.769
 2064     9.417   71.502
 2064.5     9.63   72.235
 2065     9.843   72.968
 2065.5     10.056   72.31
 2066     9.843   71.104
 2066.5     9.622   69.898
 2067     9.401   68.692
 2067.5     9.18   67.486
 2068     8.959   66.28
 2068.5     8.737   65.074
 2069     8.516   65.405
 2069.5     8.295   67.132
 2070     8.198   68.86
 2070.5     8.913   70.587
 2071     9.629   72.315
 2071.5     10.344   74.042
 2072     10.214   75.298
 2072.5     9.977   74.065
 2073     9.739   72.832
 2073.5     9.502   71.599
 2074     9.265   70.603
 2074.5     9.027   70.801
 2075     9.131   70.999
 2075.5     9.297   71.197
 2076     9.462   71.049
 2076.5     9.628   70.311
 2077     9.794   69.572
 2077.5     9.544   68.834
