#--------------------------------------------------#
#-------------------ENVERUS, INC.------------------#
#------------------WWW.ENVERUS.COM-----------------#
#------------------COPYRIGHT 2020------------------#
#--------------------------------------------------#
#THIS FILE MAY BE USED ONLY IN ACCORDANCE WITH A CURRENT SUBSCRIPTION AGREEMENT BETWEEN
#THE USER AND ENVERUS, INC. NO PART OF THIS FILE MAY BE REPRODUCED, USED, COPIED,
#MODIFIED, PROPAGATED, OR DISTRIBUTED EXCEPT IN ACCORDANCE WITH THE SUBSCRIPTION
#AGREEMENT. UNAUTHORIZED USE OR DISTRIBUTION OF ALL OR ANY PART OF THIS FILE MAY VIOLATE
#COPYRIGHT, TRADEMARK, AND/OR OTHER LAWS AND IS SUBJECT TO CIVIL AS WELL AS CRIMINAL
#SANCTIONS.
#--------------------------------------------------#
#THIS FILE IS PROVIDED "AS-IS" AND ALL WARRANTIES ARE EXPRESSLY DISCLAIMED, WHETHER
#EXPRESS, ORAL, IMPLIED, STATUTORY OR OTHERWISE, INCLUDING ANY IMPLIED WARRANTY OF FITNESS
#FOR A PARTICULAR PURPOSE, MERCHANTABILITY, TITLE OR NON-INFRINGEMENT, AND ANY WARRANTIES
#ARISING BY VIRTUE OF CUSTOM OF TRADE OR COURSE OF DEALING.  FURTHER, ENVERUS, INC.
#AND ITS LICENSORS DO NOT REPRESENT OR WARRANT THAT THIS FILE WILL MEET USER'S
#REQUIREMENTS OR ARE SUITABLE FOR USER'S NEEDS OR THAT THE DATA OR RESULTS PROVIDED IN
#CONJUNCTION THEREWITH ARE CORRECT, ACCURATE, TIMELY OR RELIABLE. THESE DISCLAIMERS SHALL
#APPLY REGARDLESS OF ANY FAILURE OF ESSENTIAL PURPOSE OF ANY LIMITED REMEDY.  SOME
#JURISDICTIONS DO NOT ALLOW THE EXCLUSION OF CERTAIN WARRANTIES SO SOME OF THE ABOVE
#EXCLUSIONS MAY NOT APPLY. IN NO EVENT SHALL ENVERUS, INC. OR ANY OF ITS AFFILIATES
#BE LIABLE UNDER ANY LEGAL THEORY, WHETHER IN TORT (INCLUDING WITHOUT LIMITATION
#NEGLIGENCE), CONTRACT, STRICT LIABILITY, STATUTORY OR OTHERWISE, FOR ANY SPECIAL,
#INCIDENTAL, CONSEQUENTIAL, EXEMPLARY, PUNITIVE OR INDIRECT DAMAGE OF ANY KIND, INCLUDING
#WITHOUT LIMITATION LOSS OF REVENUE, PROFITS, GOODWILL, USE, AND/OR DATA OR THE COST OF
#PROCUREMENT OF SUBSTITUTE GOODS OR SERVICES, EVEN IF APPRISED OF THE POSSIBILITY OF SUCH
#DAMAGES IN ADVANCE.
#--------------------------------------------------#

~VERSION INFORMATION
VERS. 2.0 : CWLS LOG ASCII STANDARD - VERSION 2.0
WRAP.  NO : ONE LINE PER DEPTH STEP
~WELL INFORMATION
#MNEMONIC     .UNIT              VALUE :DESCRIPTION
STRT       .FT                2 :START DEPTH
STOP       .FT                6341 :STOP DEPTH
STEP       .FT                   0.500 :STEP
NULL       .                  -999.990 :NULL
UWI        .              42389104050000 :UNIQUE WELL ID
API        .              42389104050000 :API NUMBER
COMP       .         ENDEAVOR ENERGY RESOURCES L.P. :COMPANY
WELL       .        TXL REEVES STATE UNIT  2 :WELL
DATE       .                            :LOG DATE
~CURVE INFORMATION
#MNEMONIC     .UNIT      API CODE :CURVE DESCRIPTION
DEPTH       .FT                      :MEASURED DEPTH
GR.API        UNKNOWN   :GR
DT.US/FT        UNKNOWN   :DT
~A    DEPTH    GR    DT
# ...
 6242.5     55.185   79.865
 6243     53.706   79.717
 6243.5     52.226   79.689
 6244     50.747   79.85
 6244.5     49.3   80.011
 6245     49.799   80.172
 6245.5     50.297   80.333
 6246     50.796   80.494
 6246.5     50.728   80.655
 6247     48.443   80.816
 6247.5     47.204   80.934
 6248     46.415   80.591
 6248.5     45.626   80.247
 6249     44.837   79.904
 6249.5     44.049   79.561
 6250     43.26   79.218
 6250.5     43.554   78.875
 6251     44.468   78.121
 6251.5     45.381   77.005
 6252     46.295   76.159
 6252.5     47.156   76.922
 6253     47.047   77.685
 6253.5     46.938   78.449
 6254     46.829   77.571
 6254.5     46.719   76.356
 6255     46.61   75.14
 6255.5     48.515   73.925
 6256     51.17   72.71
 6256.5     53.826   72.01
 6257     56.481   72.995
 6257.5     59.136   73.98
 6258     61.791   74.965
 6258.5     64.447   75.95
 6259     65.209   76.935
 6259.5     63.18   77.862
 6260     59.527   76.586
 6260.5     54.381   75.31
 6261     50.695   74.033
 6261.5     50.488   72.757
 6262     50.281   71.481
 6262.5     50.073   70.205
 6263     49.866   69.417
 6263.5     49.659   70.349
 6264     49.451   71.282
 6264.5     49.244   70.536
 6265     49.037   68.913
 6265.5     53.856   67.291
 6266     59.023   65.668
 6266.5     62.747   64.045
 6267     60.84   62.423
 6267.5     58.933   60.607
 6268     57.026   57.859
 6268.5     55.118   55.242
 6269     53.211   55.255
 6269.5     51.304   55.268
 6270     49.751   55.281
 6270.5     48.29   55.295
 6271     46.829   55.308
 6271.5     46.991   55.321
 6272     49.631   55.334
 6272.5     52.271   57.323
 6273     54.911   59.687
 6273.5     54.101   62.051
 6274     53.028   64.414
 6274.5     51.955   66.778
 6275     54.025   69.142
 6275.5     56.44   70.515
 6276     58.856   71.163
 6276.5     57.982   71.811
 6277     56.4   72.362
 6277.5     54.818   72.606
 6278     57.75   72.17
 6278.5     61.783   71.666
 6279     65.816   71.958
 6279.5     69.85   72.25
 6280     67.372   72.543
 6280.5     64.379   72.835
 6281     61.386   72.599
 6281.5     58.394   71.113
 6282     55.401   69.628
 6282.5     52.408   68.143
 6283     50.998   66.657
 6283.5     50.896   65.172
 6284     50.794   65.562
 6284.5     50.691   66.892
 6285     50.589   68.222
 6285.5     50.487   69.552
 6286     50.385   69.292
 6286.5     50.282   68.316
 6287     50.18   67.341
 6287.5     50.293   66.366
 6288     55.099   66.011
 6288.5     59.904   66.784
 6289     64.71   67.557
 6289.5     68.766   68.33
 6290     68.734   67.588
 6290.5     68.703   66.084
 6291     68.671   64.579
 6291.5     68.64   63.075
 6292     68.609   61.571
 6292.5     68.577   60.898
 6293     65.68   61.282
 6293.5     61.507   61.667
 6294     57.334   62.571
 6294.5     53.161   64.122
 6295     49.947   65.672
 6295.5     50.346   67.223
 6296     50.744   68.773
 6296.5     51.143   70.324
 6297     51.541   71.874
 6297.5     51.94   69.943
 6298     52.338   67.942
 6298.5     52.737   65.94
 6299     55.625   63.939
 6299.5     60.259   61.938
 6300     64.892   59.937
 6300.5     64.006   57.992
 6301     62.307   58.728
 6301.5     60.609   59.464
 6302     58.911   60.2
 6302.5     57.213   60.936
 6303     65.389   61.372
 6303.5     75.557   61.594
 6304     77.049   61.816
 6304.5     78.542   62.038
 6305     79.228   62.26
 6305.5     78.05   62.482
 6306     76.872   62.704
 6306.5     75.694   62.926
 6307     70.27   63.148
 6307.5     64.355   63.37
 6308     58.44   64.699
 6308.5     52.525   67.575
 6309     49.447   70.452
 6309.5     49.918   73.328
 6310     50.389   76.205
 6310.5     50.86   79.082
 6311     51.331   79.805
 6311.5     51.801   78.88
 6312     52.272   77.955
 6312.5     51.624   77.03
 6313     50.18   76.418
 6313.5     48.735   76.771
 6314     48.718   77.124
 6314.5     48.793   77.358
 6315     48.869   77.229
 6315.5     48.944   77.099
 6316     49.019   76.969
 6316.5     51.968   76.839
 6317     54.937   76.71
 6317.5     57.906   76.58
 6318     58.219   76.45
 6318.5     56.139   76.321
 6319     54.059   76.191
 6319.5     52.814   73.922
 6320     57.139   70.763
 6320.5     -999.990   68.056
 6321     -999.990   68.016
 6321.5     -999.990   67.976
 6322     -999.990   67.167
 6322.5     -999.990   66.238
 6323     -999.990   65.31
 6323.5     -999.990   64.381
 6324     -999.990   63.452
 6324.5     -999.990   63.214
 6325     -999.990   64.145
 6325.5     -999.990   65.077
 6326     -999.990   66.008
 6326.5     -999.990   66.939
 6327     -999.990   67.87
 6327.5     -999.990   68.801
 6328     -999.990   68.475
 6328.5     -999.990   67.733
 6329     -999.990   66.992
 6329.5     -999.990   66.25
 6330     -999.990   65.508
 6330.5     -999.990   64.923
 6331     -999.990   64.706
 6331.5     -999.990   64.489
 6332     -999.990   64.272
 6332.5     -999.990   64.055
 6333     -999.990   63.839
 6333.5     -999.990   63.622
 6334     -999.990   63.405
 6334.5     -999.990   63.188
 6335     -999.990   62.971
 6335.5     -999.990   63.444
 6336     -999.990   65.168
 6336.5     -999.990   66.892
 6337     -999.990   68.121
 6337.5     -999.990   65.964
 6338     -999.990   63.808
 6338.5     -999.990   61.651
 6339     -999.990   59.589
 6339.5     -999.990   60.2
 6340     -999.990   60.81
 6340.5     -999.990   61.42
 6341     -999.990   62.03
