#--------------------------------------------------#
#-------------------ENVERUS, INC.------------------#
#------------------WWW.ENVERUS.COM-----------------#
#------------------COPYRIGHT 2020------------------#
#--------------------------------------------------#
#THIS FILE MAY BE USED ONLY IN ACCORDANCE WITH A CURRENT SUBSCRIPTION AGREEMENT BETWEEN
#THE USER AND ENVERUS, INC. NO PART OF THIS FILE MAY BE REPRODUCED, USED, COPIED,
#MODIFIED, PROPAGATED, OR DISTRIBUTED EXCEPT IN ACCORDANCE WITH THE SUBSCRIPTION
#AGREEMENT. UNAUTHORIZED USE OR DISTRIBUTION OF ALL OR ANY PART OF THIS FILE MAY VIOLATE
#COPYRIGHT, TRADEMARK, AND/OR OTHER LAWS AND IS SUBJECT TO CIVIL AS WELL AS CRIMINAL
#SANCTIONS.
#--------------------------------------------------#
#THIS FILE IS PROVIDED "AS-IS" AND ALL WARRANTIES ARE EXPRESSLY DISCLAIMED, WHETHER
#EXPRESS, ORAL, IMPLIED, STATUTORY OR OTHERWISE, INCLUDING ANY IMPLIED WARRANTY OF FITNESS
#FOR A PARTICULAR PURPOSE, MERCHANTABILITY, TITLE OR NON-INFRINGEMENT, AND ANY WARRANTIES
#ARISING BY VIRTUE OF CUSTOM OF TRADE OR COURSE OF DEALING.  FURTHER, ENVERUS, INC.
#AND ITS LICENSORS DO NOT REPRESENT OR WARRANT THAT THIS FILE WILL MEET USER'S
#REQUIREMENTS OR ARE SUITABLE FOR USER'S NEEDS OR THAT THE DATA OR RESULTS PROVIDED IN
#CONJUNCTION THEREWITH ARE CORRECT, ACCURATE, TIMELY OR RELIABLE. THESE DISCLAIMERS SHALL
#APPLY REGARDLESS OF ANY FAILURE OF ESSENTIAL PURPOSE OF ANY LIMITED REMEDY.  SOME
#JURISDICTIONS DO NOT ALLOW THE EXCLUSION OF CERTAIN WARRANTIES SO SOME OF THE ABOVE
#EXCLUSIONS MAY NOT APPLY. IN NO EVENT SHALL ENVERUS, INC. OR ANY OF ITS AFFILIATES
#BE LIABLE UNDER ANY LEGAL THEORY, WHETHER IN TORT (INCLUDING WITHOUT LIMITATION
#NEGLIGENCE), CONTRACT, STRICT LIABILITY, STATUTORY OR OTHERWISE, FOR ANY SPECIAL,
#INCIDENTAL, CONSEQUENTIAL, EXEMPLARY, PUNITIVE OR INDIRECT DAMAGE OF ANY KIND, INCLUDING
#WITHOUT LIMITATION LOSS OF REVENUE, PROFITS, GOODWILL, USE, AND/OR DATA OR THE COST OF
#PROCUREMENT OF SUBSTITUTE GOODS OR SERVICES, EVEN IF APPRISED OF THE POSSIBILITY OF SUCH
#DAMAGES IN ADVANCE.
#--------------------------------------------------#

~VERSION INFORMATION
VERS. 2.0 : CWLS LOG ASCII STANDARD - VERSION 2.0
WRAP.  NO : ONE LINE PER DEPTH STEP
~WELL INFORMATION
#MNEMONIC     .UNIT              VALUE :DESCRIPTION
STRT       .FT                51 :START DEPTH
STOP       .FT                6194 :STOP DEPTH
STEP       .FT                   0.500 :STEP
NULL       .                  -999.990 :NULL
UWI        .              42389004340000 :UNIQUE WELL ID
API        .              42389004340000 :API NUMBER
COMP       .         :COMPANY
WELL       .         1, :WELL
DATE       .                            :LOG DATE
~CURVE INFORMATION
#MNEMONIC     .UNIT      API CODE :CURVE DESCRIPTION
DEPTH       .FT                      :MEASURED DEPTH
GR.API        UNKNOWN   :GR
DT.US/FT        UNKNOWN   :DT
~A    DEPTH    GR    DT
# ...
 770.5     55.834   -999.990
 771     55.366   -999.990
 771.5     54.898   -999.990
 772     54.429   -999.990
 772.5     53.961   -999.990
 773     53.493   -999.990
 773.5     53.025   -999.990
 774     53.954   -999.990
 774.5     55.044   -999.990
 775     56.135   -999.990
 775.5     57.994   -999.990
 776     60.189   -999.990
 776.5     62.383   -999.990
 777     64.578   -999.990
 777.5     66.773   -999.990
 778     67.894   -999.990
 778.5     65.179   -999.990
 779     62.465   -999.990
 779.5     59.751   -999.990
 780     59.297   -999.990
 780.5     60.086   -999.990
 781     60.875   -999.990
 781.5     61.664   -999.990
 782     62.454   -999.990
 782.5     63.034   -999.990
 783     61.166   -999.990
 783.5     59.298   -999.990
 784     57.431   -999.990
 784.5     55.563   -999.990
 785     53.695   -999.990
 785.5     51.828   -999.990
 786     49.96   -999.990
 786.5     48.092   -999.990
 787     46.225   -999.990
 787.5     45.979   -999.990
 788     46.146   -999.990
 788.5     46.313   -999.990
 789     46.48   -999.990
 789.5     46.647   -999.990
 790     46.747   -999.990
 790.5     46.746   -999.990
 791     46.745   -999.990
 791.5     46.744   -999.990
 792     46.744   -999.990
 792.5     46.743   -999.990
 793     46.742   -999.990
 793.5     46.937   -999.990
 794     47.656   -999.990
 794.5     48.375   -999.990
 795     49.094   -999.990
 795.5     49.813   -999.990
 796     50.532   -999.990
 796.5     50.455   -999.990
 797     50.039   -999.990
 797.5     49.624   -999.990
 798     49.208   -999.990
 798.5     48.792   -999.990
 799     48.376   -999.990
 799.5     47.961   -999.990
 800     48.317   -999.990
 800.5     49.346   -999.990
 801     50.375   -999.990
 801.5     51.403   -999.990
 802     51.916   -999.990
 802.5     50.991   -999.990
 803     50.065   -999.990
 803.5     49.14   -999.990
 804     48.214   -999.990
 804.5     47.289   -999.990
 805     46.363   -999.990
 805.5     45.438   -999.990
 806     44.512   -999.990
 806.5     43.587   -999.990
 807     42.661   -999.990
 807.5     43.317   -999.990
 808     44.432   -999.990
 808.5     45.547   -999.990
 809     46.662   -999.990
 809.5     47.777   -999.990
 810     47.933   -999.990
 810.5     46.884   -999.990
 811     45.836   -999.990
 811.5     44.788   -999.990
 812     43.74   -999.990
 812.5     43.543   -999.990
 813     43.85   -999.990
 813.5     44.157   -999.990
 814     44.463   -999.990
 814.5     44.77   -999.990
 815     45.077   -999.990
 815.5     45.384   -999.990
 816     45.691   -999.990
 816.5     45.998   -999.990
 817     47.218   -999.990
 817.5     48.664   -999.990
 818     50.11   -999.990
 818.5     51.555   -999.990
 819     53.001   -999.990
 819.5     54.447   -999.990
 820     55.88   -999.990
 820.5     55.79   -999.990
 821     55.701   -999.990
 821.5     55.611   -999.990
 822     55.522   -999.990
 822.5     55.432   -999.990
 823     55.054   -999.990
 823.5     53.229   -999.990
 824     51.404   -999.990
 824.5     49.579   -999.990
 825     49.198   -999.990
 825.5     50.902   -999.990
 826     52.606   -999.990
 826.5     54.309   -999.990
 827     56.013   -999.990
 827.5     57.717   -999.990
 828     59.421   -999.990
 828.5     61.124   -999.990
 829     61.477   -999.990
 829.5     59.511   -999.990
 830     57.544   -999.990
 830.5     55.578   -999.990
 831     53.611   -999.990
 831.5     51.644   -999.990
 832     49.678   -999.990
 832.5     47.711   -999.990
 833     45.745   -999.990
 833.5     44.907   -999.990
 834     46.838   -999.990
 834.5     48.77   -999.990
 835     50.701   -999.990
 835.5     52.633   -999.990
 836     54.564   -999.990
 836.5     54.106   -999.990
 837     53.06   -999.990
 837.5     52.014   -999.990
 838     50.968   -999.990
 838.5     49.921   -999.990
 839     48.875   -999.990
 839.5     47.829   -999.990
 840     46.783   -999.990
 840.5     45.736   -999.990
 841     44.69   -999.990
 841.5     43.644   -999.990
 842     43.021   -999.990
 842.5     42.983   -999.990
 843     42.945   -999.990
 843.5     42.907   -999.990
 844     43.582   -999.990
 844.5     44.285   -999.990
 845     44.989   -999.990
 845.5     45.692   -999.990
 846     46.395   -999.990
 846.5     46.342   -999.990
 847     46.124   -999.990
 847.5     45.906   -999.990
 848     45.687   -999.990
 848.5     45.469   -999.990
 849     45.251   -999.990
 849.5     45.033   -999.990
 850     44.815   -999.990
 850.5     44.597   -999.990
 851     45.061   -999.990
 851.5     47.2   -999.990
 852     49.339   -999.990
 852.5     51.479   -999.990
 853     53.618   -999.990
 853.5     55.757   -999.990
 854     56.109   -999.990
 854.5     55.318   -999.990
 855     54.527   -999.990
 855.5     54.052   -999.990
 856     54.2   -999.990
 856.5     54.349   -999.990
 857     54.498   -999.990
 857.5     50.254   -999.990
 858     45.444   -999.990
 858.5     40.635   -999.990
 859     35.826   -999.990
 859.5     31.016   -999.990
 860     26.207   -999.990
 860.5     21.398   -999.990
 861     19.463   -999.990
 861.5     18.443   -999.990
 862     17.422   -999.990
 862.5     16.401   -999.990
 863     15.381   -999.990
 863.5     14.36   -999.990
 864     13.339   -999.990
 864.5     12.319   -999.990
 865     11.308   -999.990
 865.5     11.952   -999.990
 866     12.596   -999.990
 866.5     13.239   -999.990
 867     13.883   -999.990
 867.5     14.527   -999.990
 868     15.171   -999.990
 868.5     15.12   -999.990
 869     14.884   -999.990
 869.5     14.648   -999.990
 870     14.411   -999.990
 870.5     14.175   -999.990
 871     13.939   -999.990
 871.5     13.702   -999.990
 872     13.87   -999.990
 872.5     14.266   -999.990
 873     14.662   -999.990
 873.5     15.058   -999.990
 874     15.453   -999.990
 874.5     15.849   -999.990
 875     16.245   -999.990
 875.5     16.641   -999.990
 876     17.037   -999.990
 876.5     17.433   -999.990
 877     17.829   -999.990
 877.5     17.856   -999.990
 878     17.838   -999.990
 878.5     17.819   -999.990
 879     17.801   -999.990
 879.5     17.783   -999.990
 880     17.765   -999.990
 880.5     17.746   -999.990
 881     19.041   -999.990
 881.5     23.043   -999.990
 882     27.045   -999.990
 882.5     31.047   -999.990
 883     35.049   -999.990
 883.5     39.051   -999.990
 884     43.053   -999.990
 884.5     47.055   -999.990
 885     47.845   -999.990
 885.5     48.388   -999.990
 886     48.931   -999.990
 886.5     49.475   -999.990
 887     50.018   -999.990
 887.5     50.561   -999.990
 888     50.333   -999.990
 888.5     48.114   -999.990
 889     45.896   -999.990
 889.5     43.677   -999.990
 890     41.459   -999.990
 890.5     39.24   -999.990
 891     37.021   -999.990
 891.5     34.803   -999.990
 892     32.584   -999.990
 892.5     30.366   -999.990
 893     28.147   -999.990
 893.5     24.828   -999.990
 894     20.793   -999.990
 894.5     17.88   -999.990
 895     17.247   -999.990
 895.5     16.613   -999.990
 896     15.98   -999.990
 896.5     15.346   -999.990
 897     14.713   -999.990
 897.5     14.08   -999.990
 898     13.887   -999.990
 898.5     14.015   -999.990
 899     14.143   -999.990
 899.5     14.272   -999.990
 900     14.4   -999.990
 900.5     14.528   -999.990
 901     14.657   -999.990
 901.5     14.785   -999.990
 902     15.894   -999.990
 902.5     17.658   -999.990
 903     19.421   -999.990
 903.5     21.165   -999.990
 904     20.68   -999.990
 904.5     20.195   -999.990
 905     19.71   -999.990
 905.5     19.989   -999.990
 906     20.906   -999.990
 906.5     20.965   -999.990
 907     21.023   -999.990
 907.5     21.082   -999.990
 908     21.141   -999.990
 908.5     22.034   -999.990
 909     23.249   -999.990
 909.5     24.463   -999.990
 910     25.678   -999.990
 910.5     26.893   -999.990
 911     27.46   -999.990
 911.5     27.076   -999.990
 912     26.691   -999.990
 912.5     25.949   -999.990
 913     24.59   -999.990
 913.5     23.231   -999.990
