~VERSION INFORMATION
 VERS.                2.0:   CWLS LOG ASCII STANDARD - VERSION 2.0
 WRAP.                 NO:   ONE LINE PER DEPTH STEP
~WELL INFORMATION
#MNEM.UNIT      DATA TYPE    INFORMATION
#----------   ------------   ------------------------------
 STRT.FT          50.0000:   START DEPTH
 STOP.FT        5375.0000:   STOP DEPTH
 STEP.FT           0.5000:   STEP LENGTH
 NULL.          -999.2500:   NULL VALUE
 COMP.  A.N. NORWOOD, INC:   COMPANY
 WELL.        MCINTYRE #1:   WELL
 FLD .  ROJO CABALLOS, S.:   FIELD
 LOC .                   :   LOCATION
 CNTY.              PECOS:   COUNTY
 STAT.              TEXAS:   STATE
 CTRY. UNITED STATES OF AMERICA:   COUNTRY
 SRVC.              Welex:   SERVICE COMPANY
 DATE.        06-May-1983:   LOGDATE
 API .     42371342980000:   API NUMBER
~CURVE INFORMATION
#MNEM.UNIT       API CODE    CURVE DESCRIPTION
#----------   ------------   ------------------------------
 DEPT.F      0   1   0  0:   1 MEASURED DEPTH
 GRD .GAPI   45 310 01 00:   GAMMA RAY FROM DENSITY LOG
 NPOR_LS.DEC 42 890 01 00:   NEUTRON POROSITY LIMESTONE
 CALD.IN     45 280 60 00:   CALIPER FROM DENSITY LOG
 CORR.G/C3   45 356 01 00:   DENSITY CORRECTION
 RHOB.G/C3   45 350 01 00:   BULK DENSITY
 DPOR_LS.DEC 45 890 10 00:   DENSITY POROSITY LIMESTONE
 DT  .US/F   60 500 00 00:   DELTA-T (INTERVAL TRANSIT TIME)
 SPR .MV     07 010 01 00:   SPONTANEOUS POTENTIAL FROM RESISTIVITY LOG
 ILD .OHMM   07 120 46 00:   INDUCTION DEEP RESISTIVITY
 ILM .OHMM   07 120 44 00:   INDUCTION MEDIUM RESISTIVITY
~PARAMETER INFORMATION
#MNEM.UNIT          VALUE    DESCRIPTION
#----------   ------------   ------------------------------
 PD  .                 GL:   PERMANENT DATUM
 EPD .FT             2768:   ELEVATION PERMANENT DATUM
 LMF .                 KB:   LOG MEASURED FROM
 DAPD.FT               10:   FEET ABOVE PERMANENT DATUM
 DMF .                 KB:   DRILLING MEASURED FROM
 EKB .FT             2778:   KELLY BUSHING
 EDF .FT             2777:   DRILLING FLOOR
 EGL .FT             2768:   GROUND LEVEL
 DATE.           05/06/83:   RUN DATE
 RUN .                  1:   RUN NUMBER
 DD  .FT             5380:   DEPTH DRILLER
 DL  .FT             5377:   DEPTH LOGGER
 BLI .FT             5375:   BOTTOM LOG INTERVAL
 TLI .FT               50:   TOP LOG INTERVAL
 CS  .IN            8.625:   CASING SIZE
 CBD .FT             1596:   CASING BOTTOM DRILLER
 CBL .FT             1613:   CASING BOTTOM LOGGER
 BS  .IN             7.75:   BIT SIZE
 BSD .FT             5380:   BIT SIZE AT DEPTH
 DFT .           SALT GEL:   DRILLING FLUID TYPE
 DFD .               10.2:   DRILLING FLUID DENSITY
 DFV .                 33:   DRILLING FLUID VISCOSITY
 DFPH.                9.5:   DRILLING FLUID PH
 DFL .                 18:   DRILLING FLUID LOSS
 MSS .               CIRC:   MUD SAMPLE SOURCE
 RMS .OHMM           0.09:   RESISTIVITY MUD SAMPLE
 MST .DEGF             72:   MUD SAMPLE TEMPERATURE
 RMF .OHMM           0.08:   RESISTIVITY MUD FILTRATE SAMPLE
 MFST.DEGF             72:   MUD FILTRATE SAMPLE TEMPERATURE
 MFSS.               MEAS:   MUD FILTRATE SAMPLE SOURCE
 MCSS.               MEAS:   MUD CAKE SAMPLE SOURCE
 RMB .OHMM          0.059:   RESISTIVITY MUD AT BHT
 BHT .DEGF            112:   BOTTOM HOLE TEMPERATURE
 TCS .HRS               4:   TIME CIRCULATED STOPPED
 MRT .DEGF            112:   MAXIMUM RECORDED TEMPERATURE
 LUN .               3415:   LOGGING UNIT NUMBER
 LUL .             ODESSA:   LOGGING UNIT LOCATION
 ENGI.             LAWSON:   RECORDING ENGINEER
 WITN.            NORWOOD:   WITNESSED BY
 ORIG.      1" 2.5" PRINT:   ORIGIN OF DATA
 UWI .     42371342980000:   UNIQUE WELL ID
~OTHER INFORMATION
~A    DEPT        GRD      NPOR_LS      CALD        CORR        RHOB       DPOR_LS        DT         SPR         ILD         ILM    
# ...
  4625.0000      6.8932     -0.0082      9.3445      0.0064      2.8742     -0.0958     49.4705    -22.1462    419.2391     21.5346 
  4625.5000      6.4270     -0.0082      9.3302      0.0014      2.8735     -0.0978     49.4736    -22.1952    448.6059     21.7286 
  4626.0000      6.1148     -0.0082      9.3171      0.0025      2.8637     -0.0900     49.5458    -22.2068    466.7180     21.9642 
  4626.5000      6.2634     -0.0082      9.3089      0.0042      2.8605     -0.0900     49.5958    -22.1731    480.8424     22.0655 
  4627.0000      6.1837     -0.0082      9.3118      0.0133      2.8605     -0.0950     49.5988    -22.2053    482.1384     22.1541 
  4627.5000      5.7857     -0.0081      9.3211      0.0224      2.8663     -0.1007     49.6018    -22.2616    464.8796     22.2951 
  4628.0000      5.9639     -0.0079      9.3099      0.0315      2.8746     -0.1008     49.5329    -22.5176    442.0885     22.4043 
  4628.5000      6.1420     -0.0077      9.2963      0.0410      2.8829     -0.1007     49.3823    -22.6097    420.4150     22.4963 
  4629.0000      6.3100     -0.0075      9.2859      0.0519      2.8861     -0.1007     49.2617    -22.6636    399.8040     22.5681 
  4629.5000      6.4599     -0.0074      9.2793      0.0583      2.8865     -0.1000     49.2503    -22.8502    380.2035     22.6402 
  4630.0000      7.0009     -0.0073      9.2728      0.0583      2.8841     -0.0952     49.2775    -23.1227    363.0730     22.7739 
  4630.5000      7.5512     -0.0075      9.2663      0.0430      2.8803     -0.0941     49.3047    -23.3680    363.0415     22.9220 
  4631.0000      7.5789     -0.0078      9.2598      0.0315      2.8765     -0.0943     49.3319    -23.3287    370.1209     23.0712 
  4631.5000      7.6065     -0.0079      9.2532      0.0274      2.8663     -0.0948     49.3592    -23.3203    379.8745     23.2585 
  4632.0000      7.6539     -0.0079      9.2467      0.0228      2.8525     -0.0861     49.3039    -23.5293    381.3254     23.5365 
  4632.5000      7.7422     -0.0078      9.2402      0.0182      2.8429     -0.0783     49.2455    -23.7383    382.7818     23.8178 
  4633.0000      7.7934     -0.0077      9.2216      0.0115      2.8332     -0.0749     49.2455    -23.9142    385.9669     24.0498 
  4633.5000      7.6155     -0.0078      9.2136      0.0025      2.8235     -0.0653     49.2455    -23.9769    389.7206     24.2547 
  4634.0000      7.7783     -0.0078      9.2121     -0.0065      2.8176     -0.0611     49.2195    -23.9570    411.5868     24.5831 
  4634.5000      7.9275     -0.0076      9.2106     -0.0123      2.8155     -0.0621     49.1843    -23.8668    436.5651     24.9381 
  4635.0000      7.8166     -0.0076      9.2092     -0.0098      2.8156     -0.0677     49.1843    -23.7765    463.0595     24.9366 
  4635.5000      7.7056     -0.0075      9.2125     -0.0049      2.8254     -0.0773     49.1843    -23.6221    491.1615     24.9352 
  4636.0000      7.6301     -0.0075      9.2109      0.0022      2.8484     -0.0882     49.1467    -23.3558    520.9690     24.9714 
  4636.5000      7.5543     -0.0075      9.2073      0.0099      2.8655     -0.0912     49.1593    -23.0896    534.2327     24.9504 
  4637.0000      7.1943     -0.0075      9.2068      0.0213      2.8754     -0.0925     49.1843    -22.7546    537.2763     24.9058 
  4637.5000      7.0588     -0.0075      9.2057      0.0252      2.8821     -0.0944     49.1843    -22.3775    520.3967     24.9205 
  4638.0000      7.0488     -0.0074      9.2042      0.0259      2.8851     -0.0963     49.1519    -22.1191    494.7643     24.9428 
  4638.5000      7.0248     -0.0074      9.2045      0.0259      2.8896     -0.0983     49.1188    -21.9740    475.5005     24.9778 
  4639.0000      7.0675     -0.0073      9.2119      0.0338      2.8976     -0.0984     49.1039    -21.8973    475.7094     25.0196 
  4639.5000      6.8326     -0.0068      9.1933      0.0592      2.9056     -0.0985     49.0889    -21.9759    475.9183     25.0951 
  4640.0000      6.6168     -0.0061      9.1833      0.0600      2.9222     -0.0985     49.0740    -22.0939    481.8426     25.2011 
  4640.5000      6.4127     -0.0062      9.1733      0.0604      2.9299     -0.0985     49.0634    -22.3064    488.5417     25.3077 
  4641.0000      6.1932     -0.0066      9.1634      0.0508      2.9278     -0.0976     49.0634    -22.5021    495.3340     25.1448 
  4641.5000      6.2177     -0.0066      9.1528      0.0186      2.8891     -0.0955     49.0634    -22.5650    501.3439     24.9566 
  4642.0000      6.4052     -0.0068      9.1414     -0.0084      2.8596     -0.0794     49.0714    -22.6387    503.4477     24.7699 
  4642.5000      7.0078     -0.0071      9.1300     -0.0073      2.8557     -0.0862     49.0550    -22.7909    505.5606     24.7433 
  4643.0000      7.2090     -0.0069      9.1186     -0.0009      2.8574     -0.0932     49.0797    -22.8550    505.0375     24.9029 
  4643.5000      7.3518     -0.0068      9.1072      0.0104      2.8680     -0.0955     49.1176    -22.8929    502.2408     25.0633 
  4644.0000      7.1067     -0.0069      9.0959      0.0218      2.8868     -0.0975     49.5382    -22.9140    500.8842     25.2148 
  4644.5000      6.7384     -0.0069      9.0845      0.0234      2.9056     -0.0975     49.6634    -22.9351    499.5315     25.3672 
  4645.0000      5.9746     -0.0070      9.0731      0.0218      2.9303     -0.0975     49.6478    -22.9562    504.2933     25.5205 
  4645.5000      5.1969     -0.0070      9.0617      0.0259      2.9385     -0.0975     49.6089    -22.9773    524.5986     25.5244 
  4646.0000      5.0372     -0.0073      9.0503      0.0301      2.9388     -0.0976     49.3552    -23.0555    538.1796     25.6456 
  4646.5000      5.5200     -0.0076      9.0389      0.0342      2.9390     -0.0976     49.0803    -23.0736    526.3558     25.7730 
  4647.0000      6.1768     -0.0077      9.0275      0.0384      2.9389     -0.0976     48.9784    -23.0306    512.6255     25.8006 
  4647.5000      6.8700     -0.0074      9.0370      0.0422      2.9376     -0.0976     48.9689    -22.9875    497.8891     25.5263 
  4648.0000      7.4528     -0.0071      9.0500      0.0433      2.8998     -0.0976     48.9595    -22.9444    515.4404     24.9525 
  4648.5000      7.8823     -0.0069      9.0519      0.0412      2.8789     -0.0865     48.9500    -22.9013    568.0819     24.5042 
  4649.0000      8.0803     -0.0067      9.0538      0.0369      2.8580     -0.0734     48.9406    -22.8583    642.9938     24.4146 
  4649.5000      8.2216     -0.0064      9.0556     -0.0021      2.8442     -0.0716     48.9311    -22.8522    715.9956     24.4777 
  4650.0000      8.4612     -0.0064      9.0575     -0.0003      2.8422     -0.0773     48.9394    -22.8467    715.9956     24.5430 
  4650.5000      8.7009     -0.0065      9.0594      0.0031      2.8489     -0.0852     48.9652    -22.8413    563.0985     24.6379 
  4651.0000      9.0356     -0.0065      9.0612      0.0128      2.8608     -0.0932     48.9911    -22.8359    491.0159     24.8605 
  4651.5000      9.1573     -0.0065      9.0630      0.0226      2.8748     -0.0985     49.0360    -22.8304    446.1284     25.0852 
  4652.0000      9.1531     -0.0066      9.0611      0.0320      2.8842     -0.0978     49.3258    -22.7904    424.2368     25.1628 
  4652.5000      8.7154     -0.0070      9.0378      0.0320      2.8866     -0.0960     49.3867    -22.7845    417.3657     25.2322 
  4653.0000      8.2776     -0.0071      9.0122      0.0202      2.8880     -0.0952     49.4905    -22.8424    412.0853     25.3023 
  4653.5000      7.8399     -0.0071      8.9973     -0.0074      2.8870     -0.0956     49.5046    -22.9004    411.1873     25.4065 
  4654.0000      7.3363     -0.0070      8.9989     -0.0125      2.8861     -0.0964     49.4525    -22.9327    414.2824     25.5255 
  4654.5000      7.0161     -0.0070      9.0004     -0.0125      2.8817     -0.0954     49.2942    -22.9555    417.4008     25.6494 
  4655.0000      7.7105     -0.0070      9.0020     -0.0116      2.8748     -0.0873     49.1695    -22.9682    419.3293     25.6874 
