~VERSION INFORMATION
 VERS.                2.0:   CWLS LOG ASCII STANDARD - VERSION 2.0
 WRAP.                 NO:   ONE LINE PER DEPTH STEP
~WELL INFORMATION
#MNEM.UNIT      DATA TYPE    INFORMATION
#----------   ------------   ------------------------------
 STRT.FT           0.0000:   START DEPTH
 STOP.FT        7147.0000:   STOP DEPTH
 STEP.FT           0.5000:   STEP LENGTH
 NULL.          -999.2500:   NULL VALUE
 COMP. MOBIL PRODUCING TEXAS & NEW MEEXICO INC:   COMPANY
 WELL. SCHLOSER FRED ESTATE B #2:   WELL
 FLD .      ROJO CABALLOS:   FIELD
 LOC .                   :   LOCATION
 CNTY.              PECOS:   COUNTY
 STAT.              TEXAS:   STATE
 CTRY. UNITED STATES OF AMERICA:   COUNTRY
 SRVC.       Schlumberger:   SERVICE COMPANY
 DATE.        10-Jun-1980:   LOGDATE
 API .     42371330900000:   API NUMBER
~CURVE INFORMATION
#MNEM.UNIT       API CODE    CURVE DESCRIPTION
#----------   ------------   ------------------------------
 DEPT.F                  :   
 GRD .GAPI   45 310 01 00:   GAMMA RAY FROM DENSITY LOG
 GRR .GAPI   11 310 01 00:   GAMMA RAY FROM RESISTIVITY LOG
 GRS .GAPI   60 310 01 00:   GAMMA RAY FROM SONIC LOG
 DT  .US/F   60 500 00 00:   DELTA-T (INTERVAL TRANSIT TIME)
 CALD.IN     45 280 60 00:   CALIPER FROM DENSITY LOG
 CORR.G/C3   45 356 01 00:   DENSITY CORRECTION
 RHOB.G/C3   45 350 01 00:   BULK DENSITY
 NPHI_LS.DEC 42 890 01 00:   NEUTRON POROSITY LIMESTONE
 DPHI_LS.DEC 45 890 10 00:   DENSITY POROSITY LIMESTONE
 LLD .OHMM   11 220 10 00:   LATEROLOG DEEP RESISTIVITY
 LLS .OHMM   11 220 09 00:   LATEROLOG SHALLOW RESISTIVITY
~PARAMETER INFORMATION
#MNEM.UNIT          VALUE    DESCRIPTION
#----------   ------------   ------------------------------
 PD  .                 GL:   PERMANENT DATUM
 EPD .FT             2752:   ELEVATION PERMANENT DATUM
 LMF .                 KB:   LOG MEASURED FROM
 DAPD.FT               13:   FEET ABOVE PERMANENT DATUM
 DMF .                 KB:   DRILLING MEASURED FROM
 EKB .FT             2765:   KELLY BUSHING
 EDF .FT             2764:   DRILLING FLOOR
 EGL .FT             2752:   GROUND LEVEL
 DATE.           06/10/80:   RUN DATE
 RUN .                  1:   RUN NUMBER
 DD  .FT             7150:   DEPTH DRILLER
 DL  .FT             7150:   DEPTH LOGGER
 BLI .FT             7147:   BOTTOM LOG INTERVAL
 TLI .FT             5000:   TOP LOG INTERVAL
 CS  .IN            8.625:   CASING SIZE
 CBD .FT             1919:   CASING BOTTOM DRILLER
 CBL .FT             1904:   CASING BOTTOM LOGGER
 BS  .IN            7.875:   BIT SIZE
 BSD .FT             7150:   BIT SIZE AT DEPTH
 DFT .              BRINE:   DRILLING FLUID TYPE
 DFD .                 10:   DRILLING FLUID DENSITY
 DFV .                 35:   DRILLING FLUID VISCOSITY
 DFPH.                9.5:   DRILLING FLUID PH
 DFL .                 20:   DRILLING FLUID LOSS
 MSS .               CIRC:   MUD SAMPLE SOURCE
 RMS .OHMM           .055:   RESISTIVITY MUD SAMPLE
 MST .DEGF             73:   MUD SAMPLE TEMPERATURE
 RMF .OHMM           .055:   RESISTIVITY MUD FILTRATE SAMPLE
 MFST.DEGF             73:   MUD FILTRATE SAMPLE TEMPERATURE
 MFSS.                  M:   MUD FILTRATE SAMPLE SOURCE
 RMB .OHMM            .03:   RESISTIVITY MUD AT BHT
 BHT .DEGF            107:   BOTTOM HOLE TEMPERATURE
 TCS .HRS            1615:   TIME CIRCULATED STOPPED
 TLAB.HRS            0300:   TIME LOGGER AT BOTTOM
 MRT .DEGF            107:   MAXIMUM RECORDED TEMPERATURE
 LUN .               8024:   LOGGING UNIT NUMBER
 LUL .               MONA:   LOGGING UNIT LOCATION
 ENGI.           MC BRIDE:   RECORDING ENGINEER
 CLNT.            :   CLIENT CODE
 ORIG.      1" 2.5" PRINT:   ORIGIN OF DATA
 UWI .     42371330900000:   UNIQUE WELL ID
 
~OTHER INFORMATION
~A    DEPT     GRD        GRR         GRS        DT       CALD       CORR       RHOB      NPHI_LS    DPHI_LS      LLD        LLS   
# ...
 5947.5000    50.7005    45.7381    52.5150    69.6839     9.6308     0.0114     2.4348     0.1886     0.1693     2.6052     2.2537
 5948.0000    51.9933    46.0496    50.5582    69.7848     9.5981     0.0164     2.4644     0.1845     0.1510     2.9102     2.5444
 5948.5000    53.3347    45.1834    49.7096    71.3189     9.5447     0.0197     2.4849     0.1852     0.1304     3.2461     2.8457
 5949.0000    54.4032    44.3171    52.0241    72.8090     9.5008     0.0195     2.5027     0.1865     0.1281     3.3172     2.9924
 5949.5000    54.1815    43.8204    54.7842    73.3495     9.4767     0.0192     2.5031     0.1904     0.1302     3.2869     2.9126
 5950.0000    53.9712    47.2918    56.7598    73.3014     9.4527     0.0189     2.4957     0.1962     0.1396     3.1992     2.7928
 5950.5000    55.0696    51.7100    58.3184    71.3451     9.4286     0.0182     2.4883     0.2260     0.1419     3.2509     2.8580
 5951.0000    60.8300    57.8257    60.2790    69.3134     9.4045     0.0158     2.4926     0.2332     0.1366     4.0753     3.9007
 5951.5000    67.6254    69.4257    63.7622    67.9298     9.3095     0.0132     2.5128     0.2235     0.1260     5.3797     5.1818
 5952.0000    75.9377    82.9506    68.9216    67.8663     9.2779     0.0103     2.5328     0.2076     0.1136     7.2414     8.2245
 5952.5000    83.0292    91.7484    88.9369    68.3669     9.2489     0.0068     2.5502     0.1870     0.0988    12.8389    13.3476
 5953.0000    89.3519    99.4393    95.6661    68.8676     9.2399     0.0045     2.5626     0.1940     0.0883    16.4614    16.7200
 5953.5000    92.1366   102.4323    98.7005    69.3683     9.2310     0.0040     2.5703     0.2056     0.0843    18.4259    18.5418
 5954.0000    94.7700   112.9160   101.2401    70.3179     9.2126     0.0038     2.5686     0.2068     0.0868    19.6082    19.7869
 5954.5000   104.6624   122.7672   117.8926    71.7730     9.1861     0.0039     2.5664     0.1969     0.0896    22.2525    22.6789
 5955.0000   124.4131   134.1082   127.3309    73.7886     9.1589     0.0032     2.5628     0.2054     0.0915    28.8444    29.7701
 5955.5000   139.5521   141.2464   145.7692    74.9699     9.1404     0.0019     2.5507     0.2462     0.1009    40.0713    45.0854
 5956.0000   141.9867   142.9908   151.1038    74.2555     9.1220    -0.0005     2.5335     0.2988     0.1158    57.9288    58.6262
 5956.5000   130.0152   123.4619   129.3685    69.3041     9.1036    -0.0039     2.5198     0.2978     0.1255    64.2476    65.0358
 5957.0000    97.2482    98.7065    95.5672    62.4644     9.0852    -0.0065     2.5362     0.2614     0.1144    68.0351    68.8340
 5957.5000    73.7403    58.5467    62.1496    56.0441     9.0668    -0.0074     2.5615     0.2115     0.0887    80.8420    82.7628
 5958.0000    50.2087    25.1248    34.1829    51.5810     9.0493    -0.0076     2.5868     0.1273     0.0508   166.5615   177.1675
 5958.5000    26.7345    20.7804    25.6665    51.5949     9.0521    -0.0068     2.6181     0.0631     0.0335   271.4472   288.7132
 5959.0000    26.4404    29.1803    26.2421    53.2328     9.0550    -0.0038     2.6529     0.0321     0.0189   381.9623   384.0135
 5959.5000    30.6347    39.4897    31.6693    56.7084     9.0579     0.0078     2.6822     0.0326     0.0140   338.5243   360.0923
 5960.0000    44.1686    55.4006    45.9519    61.0435     9.0607     0.0271     2.6813     0.0476     0.0172   125.0610   169.2374
 5960.5000    60.6537    75.2721    65.9118    63.9583     9.0636     0.0336     2.6601     0.0707     0.0250    50.9782    63.2357
 5961.0000    74.5253    81.1642    80.8616    65.4416     9.0665     0.0327     2.6438     0.0989     0.0401    36.1038    40.8539
 5961.5000    82.8892    78.5264    83.3306    64.4535     9.0694     0.0227     2.6315     0.1299     0.0565    25.9631    26.3940
 5962.0000    79.6766    71.8037    75.6973    62.8852     9.0708     0.0126     2.6179     0.1563     0.0678    22.3706    20.1540
 5962.5000    74.8326    65.1397    65.8264    62.3768     9.0718     0.0107     2.6051     0.1563     0.0729    22.8576    19.5706
 5963.0000    69.9886    66.1933    60.7052    63.2342     9.0727     0.0120     2.6029     0.1405     0.0701    23.7732    19.7218
 5963.5000    65.1446    71.2224    60.7993    64.6034     9.0736     0.0142     2.6022     0.1258     0.0678    25.0151    21.3836
 5964.0000    68.2641    81.1869    69.5138    66.2715     9.0745     0.0092     2.6001     0.1261     0.0700    26.7778    23.8041
 5964.5000    85.4820    94.3429    83.3528    67.9396     9.0754     0.0035     2.5928     0.1395     0.0768    28.6648    26.4986
 5965.0000    99.6994   106.6523   101.0608    69.3228     9.0764     0.0039     2.5829     0.1595     0.0824    32.8218    29.4981
 5965.5000   115.3744   118.4486   117.0121    70.3610     9.0790     0.0049     2.5719     0.1758     0.0876    36.5032    31.6739
 5966.0000   125.0520   116.6085   118.3296    71.3339     9.0826     0.0104     2.5672     0.1874     0.0927    36.6189    31.8845
 5966.5000   125.0520   106.5360   113.7757    71.5163     9.0832     0.0199     2.5520     0.1921     0.0987    20.0244    21.7567
 5967.0000   102.6989    90.8105    98.2743    70.8493     9.0838     0.0243     2.5359     0.1893     0.1061    10.8176    11.5023
 5967.5000    83.0918    72.3956    83.2818    69.6792     9.0843     0.0207     2.5198     0.1857     0.1161     6.0629     6.4450
 5968.0000    65.9751    55.3725    69.8985    65.6278     9.0823     0.0116     2.5042     0.1770     0.1242     4.5904     4.6406
 5968.5000    53.5072    50.2610    56.0085    62.1506     9.0672     0.0025     2.5042     0.1655     0.1241     4.6366     4.9309
 5969.0000    46.7438    45.2679    49.8116    60.1369     9.0691    -0.0027     2.5177     0.1450     0.1152     8.1646     8.8092
 5969.5000    41.4568    40.1530    43.9183    59.9873     9.0726    -0.0035     2.5508     0.1202     0.0986    12.6104    12.4164
 5970.0000    37.9199    41.2668    40.2727    60.8825     9.0702     0.0091     2.5787     0.0954     0.0823    18.8474    15.1802
 5970.5000    37.9294    45.6012    42.8208    62.7574     9.0679     0.0272     2.5976     0.0821     0.0706    16.8376    15.9823
 5971.0000    45.6696    49.9790    50.6040    64.6323     9.0655     0.0317     2.5969     0.0939     0.0719    12.7928    14.2104
 5971.5000    52.5279    54.3569    55.1825    66.3791     9.0688     0.0279     2.5816     0.1078     0.0799     9.7499    10.9209
 5972.0000    57.2700    58.4487    61.6997    67.7784     9.0646     0.0191     2.5662     0.1310     0.0909     7.9057     8.3929
 5972.5000    60.3888    62.1114    67.6438    67.8866     9.0605     0.0104     2.5509     0.1478     0.1086     6.3062     6.4501
 5973.0000    62.2029    63.2794    67.6539    67.8837     9.0563     0.0104     2.5355     0.1575     0.1160     5.5786     5.7530
 5973.5000    63.3854    63.1224    65.9551    67.7387     9.0522     0.0281     2.5274     0.1692     0.1146     5.7146     5.6558
 5974.0000    63.9207    63.6226    65.9196    66.7330     9.0480     0.0191     2.5406     0.1779     0.1030     6.1862     6.2861
 5974.5000    63.2459    62.9656    68.0237    65.6092     9.0438     0.0088     2.5537     0.1765     0.0908     7.0694     7.1775
 5975.0000    62.5669    60.4404    69.3380    64.4854     9.0397     0.0082     2.5654     0.1696     0.0928     8.0786     8.2021
 5975.5000    61.7915    59.5562    66.4025    63.6825     9.0355     0.0081     2.5651     0.1652     0.0960     9.2320     9.3606
 5976.0000    63.8981    66.8736    66.5045    63.9905     9.0313     0.0081     2.5623     0.1600     0.0918    10.5181    10.8607
 5976.5000    70.8792    82.3058    75.7079    66.3327     9.0272     0.0077     2.5605     0.1564     0.0854    14.2204    14.7320
 5977.0000    84.7236    97.7380    96.5016    68.3397     9.0230     0.0065     2.5756     0.1567     0.0865    20.7972    21.6288
 5977.5000   107.8961   113.1149   117.2952    69.1623     9.0220     0.0040     2.5682     0.1671     0.0915    28.0250    30.2412
