~VERSION INFORMATION
 VERS.                2.0:   CWLS LOG ASCII STANDARD - VERSION 2.0
 WRAP.                 NO:   ONE LINE PER DEPTH STEP
~WELL INFORMATION
#MNEM.UNIT      DATA TYPE    INFORMATION
#----------   ------------   ------------------------------
 STRT.FT           0.0000:   START DEPTH
 STOP.FT        7147.0000:   STOP DEPTH
 STEP.FT           0.5000:   STEP LENGTH
 NULL.          -999.2500:   NULL VALUE
 COMP. MOBIL PRODUCING TEXAS & NEW MEEXICO INC:   COMPANY
 WELL. SCHLOSER FRED ESTATE B #2:   WELL
 FLD .      ROJO CABALLOS:   FIELD
 LOC .                   :   LOCATION
 CNTY.              PECOS:   COUNTY
 STAT.              TEXAS:   STATE
 CTRY. UNITED STATES OF AMERICA:   COUNTRY
 SRVC.       Schlumberger:   SERVICE COMPANY
 DATE.        10-Jun-1980:   LOGDATE
 API .     42371330900000:   API NUMBER
~CURVE INFORMATION
#MNEM.UNIT       API CODE    CURVE DESCRIPTION
#----------   ------------   ------------------------------
 DEPT.F                  :   
 GRD .GAPI   45 310 01 00:   GAMMA RAY FROM DENSITY LOG
 GRR .GAPI   11 310 01 00:   GAMMA RAY FROM RESISTIVITY LOG
 GRS .GAPI   60 310 01 00:   GAMMA RAY FROM SONIC LOG
 DT  .US/F   60 500 00 00:   DELTA-T (INTERVAL TRANSIT TIME)
 CALD.IN     45 280 60 00:   CALIPER FROM DENSITY LOG
 CORR.G/C3   45 356 01 00:   DENSITY CORRECTION
 RHOB.G/C3   45 350 01 00:   BULK DENSITY
 NPHI_LS.DEC 42 890 01 00:   NEUTRON POROSITY LIMESTONE
 DPHI_LS.DEC 45 890 10 00:   DENSITY POROSITY LIMESTONE
 LLD .OHMM   11 220 10 00:   LATEROLOG DEEP RESISTIVITY
 LLS .OHMM   11 220 09 00:   LATEROLOG SHALLOW RESISTIVITY
~PARAMETER INFORMATION
#MNEM.UNIT          VALUE    DESCRIPTION
#----------   ------------   ------------------------------
 PD  .                 GL:   PERMANENT DATUM
 EPD .FT             2752:   ELEVATION PERMANENT DATUM
 LMF .                 KB:   LOG MEASURED FROM
 DAPD.FT               13:   FEET ABOVE PERMANENT DATUM
 DMF .                 KB:   DRILLING MEASURED FROM
 EKB .FT             2765:   KELLY BUSHING
 EDF .FT             2764:   DRILLING FLOOR
 EGL .FT             2752:   GROUND LEVEL
 DATE.           06/10/80:   RUN DATE
 RUN .                  1:   RUN NUMBER
 DD  .FT             7150:   DEPTH DRILLER
 DL  .FT             7150:   DEPTH LOGGER
 BLI .FT             7147:   BOTTOM LOG INTERVAL
 TLI .FT             5000:   TOP LOG INTERVAL
 CS  .IN            8.625:   CASING SIZE
 CBD .FT             1919:   CASING BOTTOM DRILLER
 CBL .FT             1904:   CASING BOTTOM LOGGER
 BS  .IN            7.875:   BIT SIZE
 BSD .FT             7150:   BIT SIZE AT DEPTH
 DFT .              BRINE:   DRILLING FLUID TYPE
 DFD .                 10:   DRILLING FLUID DENSITY
 DFV .                 35:   DRILLING FLUID VISCOSITY
 DFPH.                9.5:   DRILLING FLUID PH
 DFL .                 20:   DRILLING FLUID LOSS
 MSS .               CIRC:   MUD SAMPLE SOURCE
 RMS .OHMM           .055:   RESISTIVITY MUD SAMPLE
 MST .DEGF             73:   MUD SAMPLE TEMPERATURE
 RMF .OHMM           .055:   RESISTIVITY MUD FILTRATE SAMPLE
 MFST.DEGF             73:   MUD FILTRATE SAMPLE TEMPERATURE
 MFSS.                  M:   MUD FILTRATE SAMPLE SOURCE
 RMB .OHMM            .03:   RESISTIVITY MUD AT BHT
 BHT .DEGF            107:   BOTTOM HOLE TEMPERATURE
 TCS .HRS            1615:   TIME CIRCULATED STOPPED
 TLAB.HRS            0300:   TIME LOGGER AT BOTTOM
 MRT .DEGF            107:   MAXIMUM RECORDED TEMPERATURE
 LUN .               8024:   LOGGING UNIT NUMBER
 LUL .               MONA:   LOGGING UNIT LOCATION
 ENGI.           MC BRIDE:   RECORDING ENGINEER
 CLNT.            :   CLIENT CODE
 ORIG.      1" 2.5" PRINT:   ORIGIN OF DATA
 UWI .     42371330900000:   UNIQUE WELL ID
 
~OTHER INFORMATION
~A    DEPT     GRD        GRR         GRS        DT       CALD       CORR       RHOB      NPHI_LS    DPHI_LS      LLD        LLS   
# ...
 4941.0000  -999.2500  -999.2500    14.9120    48.8459     9.0598     0.0257     2.9557  -999.2500  -999.2500  -999.2500  -999.2500
 4941.5000  -999.2500  -999.2500    14.3694    48.8758     9.0611     0.0248     2.9525  -999.2500  -999.2500  -999.2500  -999.2500
 4942.0000  -999.2500  -999.2500    13.8268    48.9239     9.0625     0.0218     2.9445  -999.2500  -999.2500  -999.2500  -999.2500
 4942.5000  -999.2500  -999.2500    13.4367    48.9688     9.0639     0.0184     2.9365  -999.2500  -999.2500  -999.2500  -999.2500
 4943.0000  -999.2500  -999.2500    13.7513    49.0138     9.0652     0.0151     2.9285  -999.2500  -999.2500  -999.2500  -999.2500
 4943.5000  -999.2500  -999.2500    14.3906    49.0587     9.0666     0.0117     2.9213  -999.2500  -999.2500  -999.2500  -999.2500
 4944.0000  -999.2500  -999.2500    14.0275    49.1036     9.0700     0.0084     2.9148  -999.2500  -999.2500  -999.2500  -999.2500
 4944.5000  -999.2500  -999.2500    13.3637    49.1486     9.0738     0.0050     2.9172  -999.2500  -999.2500  -999.2500  -999.2500
 4945.0000  -999.2500  -999.2500    13.3888    49.1935     9.0776     0.0022     2.9310  -999.2500  -999.2500  -999.2500  -999.2500
 4945.5000  -999.2500  -999.2500    14.1093    49.1992     9.0814     0.0010     2.9399  -999.2500  -999.2500  -999.2500  -999.2500
 4946.0000    13.4308  -999.2500    14.5136    49.1746     9.1000     0.0005     2.9391     0.0070    -0.1349  -999.2500  -999.2500
 4946.5000    13.0348  -999.2500    14.5835    49.1434     9.1088     0.0008     2.9346     0.0059    -0.1361  -999.2500  -999.2500
 4947.0000    11.8516  -999.2500    14.0609    49.1600     9.1177     0.0015     2.9322     0.0050    -0.1383  -999.2500  -999.2500
 4947.5000    11.2337  -999.2500    13.0350    49.1778     9.1278     0.0039     2.9433     0.0041    -0.1432  -999.2500  -999.2500
 4948.0000    10.6170  -999.2500    12.0446    49.1955     9.1394     0.0056     2.9525     0.0030    -0.1501  -999.2500  -999.2500
 4948.5000    10.4278  -999.2500    10.6364    49.2132     9.1510     0.0072     2.9581     0.0022    -0.1538  -999.2500  -999.2500
 4949.0000    10.4072  -999.2500     8.7940    49.2310     9.1626     0.0088     2.9574     0.0025    -0.1479  -999.2500  -999.2500
 4949.5000     9.6416  -999.2500     7.6031    49.2487     9.1742     0.0097     2.9553     0.0028    -0.1440  -999.2500  -999.2500
 4950.0000     8.8346  -999.2500     7.0815    49.2665     9.1808     0.0064     2.9532     0.0025    -0.1442  -999.2500  -999.2500
 4950.5000     8.1280  -999.2500     6.6088    49.2842     9.1853     0.0009     2.9511     0.0014    -0.1467  -999.2500  -999.2500
 4951.0000     8.0265  -999.2500     6.5973    49.3020     9.2057     0.0004     2.9490     0.0001    -0.1467  -999.2500  -999.2500
 4951.5000     7.9117  -999.2500     6.5850    49.3197     9.2040     0.0031     2.9472    -0.0012    -0.1458  -999.2500  -999.2500
 4952.0000     8.1644  -999.2500     6.6550    49.3375     9.2023     0.0074     2.9470    -0.0017    -0.1462  -999.2500  -999.2500
 4952.5000     8.5770  -999.2500     7.2284    49.3316     9.2006     0.0117     2.9490    -0.0014    -0.1475  -999.2500  -999.2500
 4953.0000     9.3903  -999.2500     8.0543    49.2632     9.1974     0.0145     2.9560    -0.0010    -0.1505  -999.2500  -999.2500
 4953.5000    10.1400  -999.2500     9.0881    49.1930     9.1942     0.0127     2.9630    -0.0007    -0.1557  -999.2500  -999.2500
 4954.0000    11.2360  -999.2500    10.0814    49.1302     9.2028     0.0080     2.9555    -0.0009    -0.1578  -999.2500  -999.2500
 4954.5000    12.2695  -999.2500    10.8278    49.0781     9.2193     0.0033     2.9385    -0.0011    -0.1410  -999.2500  -999.2500
 4955.0000    12.7856  -999.2500    11.3332    48.9547     9.2358    -0.0026     2.9144    -0.0014    -0.1240  -999.2500  -999.2500
 4955.5000    12.5117  -999.2500    11.8386    48.8281     9.2107    -0.0103     2.8971    -0.0021    -0.1152  -999.2500  -999.2500
 4956.0000    11.6514  -999.2500    12.5039    48.7014     9.2060    -0.0167     2.9014    -0.0027    -0.1195  -999.2500  -999.2500
 4956.5000    11.6256  -999.2500    12.9379    48.6204     9.2101    -0.0098     2.9305    -0.0031    -0.1334  -999.2500  -999.2500
 4957.0000    11.5369  -999.2500    12.4920    48.5486     9.2111    -0.0027     2.9596    -0.0031    -0.1472  -999.2500  -999.2500
 4957.5000    11.5111  -999.2500    11.9923    48.4820     9.2103    -0.0026     2.9581    -0.0031    -0.1535  -999.2500  -999.2500
 4958.0000    11.4224  -999.2500    12.4127    48.4155     9.2122    -0.0046     2.9388    -0.0030    -0.1452  -999.2500  -999.2500
 4958.5000    10.7097  -999.2500    13.0194    48.3490     9.2131    -0.0066     2.9208    -0.0034    -0.1276  -999.2500  -999.2500
 4959.0000     9.7984  -999.2500    13.7653    48.2668     9.2160    -0.0086     2.9040    -0.0045    -0.1208  -999.2500  -999.2500
 4959.5000     8.7477  -999.2500    14.3802    48.1535     9.2290    -0.0106     2.9112    -0.0058    -0.1245  -999.2500  -999.2500
 4960.0000     8.4280  -999.2500    13.3832    46.6951     9.2421    -0.0112     2.9505    -0.0063    -0.1365  -999.2500  -999.2500
 4960.5000     9.9248  -999.2500    11.9811    46.7799     9.2572    -0.0113     2.9467    -0.0068    -0.1466  -999.2500  -999.2500
 4961.0000    11.4224  -999.2500    11.5668    47.5992     9.2737    -0.0113     2.9380    -0.0071    -0.1459  -999.2500  -999.2500
 4961.5000    12.9218  -999.2500    11.6155    48.3016     9.2862    -0.0110     2.9299    -0.0068    -0.1390  -999.2500  -999.2500
 4962.0000    13.3101  -999.2500    11.6756    48.2968     9.3049    -0.0098     2.9219    -0.0068    -0.1324  -999.2500  -999.2500
 4962.5000    12.5705  -999.2500    11.4532    47.7450     9.3485    -0.0028     2.9138    -0.0069    -0.1278  -999.2500  -999.2500
 4963.0000    11.7480  -999.2500    11.2055    47.4349     9.3989     0.0238     2.9048    -0.0080    -0.1202  -999.2500  -999.2500
 4963.5000    11.3568  -999.2500    11.5624    49.2156     9.4434     0.0555     2.8958    -0.0094    -0.0899  -999.2500  -999.2500
 4964.0000    11.6961  -999.2500    11.8252    51.8286     9.5669     0.0913     2.8003    -0.0123    -0.0596  -999.2500  -999.2500
 4964.5000    11.8118  -999.2500    11.9813    55.5492     9.7555     0.1211     2.6751    -0.0133     0.0004  -999.2500  -999.2500
 4965.0000    12.0653  -999.2500    11.9478    59.6956    10.2291     0.1208     2.5326    -0.0124     0.0596  -999.2500  -999.2500
 4965.5000    12.3187  -999.2500    11.7565    62.8603    10.5495     0.1204     2.3363    -0.0114     0.1903  -999.2500  -999.2500
 4966.0000    12.5210  -999.2500    11.7462    63.8543    10.9841     0.1127     2.1989    -0.0074     0.3210  -999.2500  -999.2500
 4966.5000    11.1413  -999.2500    11.6009    65.1056    11.6669     0.0935     2.1005     0.0028     0.3677  -999.2500  -999.2500
 4967.0000     9.8887  -999.2500    10.0036    65.4812    12.0007     0.0743     2.1079     0.0141     0.3780  -999.2500  -999.2500
 4967.5000     8.7431  -999.2500     8.4062    64.5160    11.7560     0.0551     2.1425     0.0243     0.3598  -999.2500  -999.2500
 4968.0000     8.5024  -999.2500     7.2029    64.1687    11.5626     0.0468     2.1772     0.0334     0.3328  -999.2500  -999.2500
 4968.5000     8.5209  -999.2500     7.7570    63.9435    11.3637     0.0533     2.2118     0.0339     0.2948  -999.2500  -999.2500
 4969.0000     8.5898  -999.2500     9.2115    63.4293    11.1112     0.0727     2.2499     0.0272     0.2695  -999.2500  -999.2500
 4969.5000     8.6587  -999.2500    10.6659    61.8804    11.1842     0.0726     2.2951     0.0230     0.2584  -999.2500  -999.2500
 4970.0000     9.1010  -999.2500    12.0611    61.2315    11.2700     0.0516     2.3707     0.0229     0.2484  -999.2500  -999.2500
 4970.5000     9.5937  -999.2500    12.2047    61.7064    11.2437     0.0438     2.4056     0.0231     0.2287  -999.2500  -999.2500
 4971.0000    10.0601  -999.2500    10.5218    61.1249    11.2639     0.0653     2.4071     0.0191     0.2016  -999.2500  -999.2500
