#--------------------------------------------------#
#-------------------ENVERUS, INC.------------------#
#------------------WWW.ENVERUS.COM-----------------#
#------------------COPYRIGHT 2020------------------#
#--------------------------------------------------#
#THIS FILE MAY BE USED ONLY IN ACCORDANCE WITH A CURRENT SUBSCRIPTION AGREEMENT BETWEEN
#THE USER AND ENVERUS, INC. NO PART OF THIS FILE MAY BE REPRODUCED, USED, COPIED,
#MODIFIED, PROPAGATED, OR DISTRIBUTED EXCEPT IN ACCORDANCE WITH THE SUBSCRIPTION
#AGREEMENT. UNAUTHORIZED USE OR DISTRIBUTION OF ALL OR ANY PART OF THIS FILE MAY VIOLATE
#COPYRIGHT, TRADEMARK, AND/OR OTHER LAWS AND IS SUBJECT TO CIVIL AS WELL AS CRIMINAL
#SANCTIONS.
#--------------------------------------------------#
#THIS FILE IS PROVIDED "AS-IS" AND ALL WARRANTIES ARE EXPRESSLY DISCLAIMED, WHETHER
#EXPRESS, ORAL, IMPLIED, STATUTORY OR OTHERWISE, INCLUDING ANY IMPLIED WARRANTY OF FITNESS
#FOR A PARTICULAR PURPOSE, MERCHANTABILITY, TITLE OR NON-INFRINGEMENT, AND ANY WARRANTIES
#ARISING BY VIRTUE OF CUSTOM OF TRADE OR COURSE OF DEALING.  FURTHER, ENVERUS, INC.
#AND ITS LICENSORS DO NOT REPRESENT OR WARRANT THAT THIS FILE WILL MEET USER'S
#REQUIREMENTS OR ARE SUITABLE FOR USER'S NEEDS OR THAT THE DATA OR RESULTS PROVIDED IN
#CONJUNCTION THEREWITH ARE CORRECT, ACCURATE, TIMELY OR RELIABLE. THESE DISCLAIMERS SHALL
#APPLY REGARDLESS OF ANY FAILURE OF ESSENTIAL PURPOSE OF ANY LIMITED REMEDY.  SOME
#JURISDICTIONS DO NOT ALLOW THE EXCLUSION OF CERTAIN WARRANTIES SO SOME OF THE ABOVE
#EXCLUSIONS MAY NOT APPLY. IN NO EVENT SHALL ENVERUS, INC. OR ANY OF ITS AFFILIATES
#BE LIABLE UNDER ANY LEGAL THEORY, WHETHER IN TORT (INCLUDING WITHOUT LIMITATION
#NEGLIGENCE), CONTRACT, STRICT LIABILITY, STATUTORY OR OTHERWISE, FOR ANY SPECIAL,
#INCIDENTAL, CONSEQUENTIAL, EXEMPLARY, PUNITIVE OR INDIRECT DAMAGE OF ANY KIND, INCLUDING
#WITHOUT LIMITATION LOSS OF REVENUE, PROFITS, GOODWILL, USE, AND/OR DATA OR THE COST OF
#PROCUREMENT OF SUBSTITUTE GOODS OR SERVICES, EVEN IF APPRISED OF THE POSSIBILITY OF SUCH
#DAMAGES IN ADVANCE.
#--------------------------------------------------#

# EXPORTED FROM DI TRANSFORM
# DI TRANSFORM - A PRODUCT OF DRILLINGINFO, INC. - WWW.DRILLINGINFO.COM
#
~VERSION INFORMATION
 VERS.        2.0 : LAS ASCII STANDARD - VERSION 2.0
 WRAP.         NO : ONE LINE PER DEPTH STEP

~WELL INFORMATION
#MNEM.UNIT       DATA TYPE       INFORMATION
#---------       ---------       -----------
 STRT.FT           190 : START DEPTH
 STOP.FT         12010 : STOP DEPTH
 STEP.FT           0.5 : STEP LENGTH
 NULL.         -999.25 : NULL VALUE
 UWI.   42389335580000 : UNIQUE WELL ID
 API.   42389335580000 : WELL IDENTIFIER
 COMP.                 : COMPANY
 WELL.          DRD_55 : WELL NAME
 FLD.                  : FIELD NAME
 LOC.                  : WELL LOCATION
 CNTY.                 : COUNTY
 STAT.                 : STATE OR PROVINCE
 CTRY.                 : COUNTRY
 SRVC.                 : SERVICE COMPANY
 DATE.                 : DATE

~CURVE INFORMATION
#MNEM.UNIT       API CODE       CURVE DESCRIPTION
#---------       --------       -----------------
 DEPT.FT          : <MEASURED DEPTH>
 CAL.IN           : CALIPER
 DPHI.%           : DENSITY POROSITY
 DT.US/FT         : SONIC
 GR.GAPI          : GAMMA RAY
 NPHI.%           : NEUTRON POROSITY
 RHOB.G/CM3       : DENSITY

~PARAMETER INFORMATION
#MNEM.UNIT       VALUE       DESCRIPTION
#---------       -----       -----------
 EKB.FT      2793 : ELEVATION ABOVE MSL

~A      DEPT         CAL        DPHI          DT          GR        NPHI        RHOB
# ...
      7552.5      9.5223     20.3519     -999.25     71.1111     26.8045      2.4697
        7553      9.5659     15.8857     -999.25     86.6734     20.4209      2.5055
      7553.5      9.6721     12.2717     -999.25     79.3094     30.5109      2.4459
        7554      9.6328     18.9562     -999.25     80.3673     30.6738      2.3871
      7554.5      9.4549     14.9458     -999.25     85.5213     23.1367      2.2155
        7555      9.0735       25.39     -999.25     94.7724      26.944      2.0475
      7555.5      8.9555      35.024     -999.25     88.9818     31.4477      2.0645
        7556      8.9555     50.2684     -999.25     91.3222     34.0219      2.3242
      7556.5      8.9555     23.6077     -999.25     90.0128     31.4215      2.5482
        7557      8.9555     16.0541     -999.25     88.7324      22.489      2.5526
      7557.5      8.9555     15.5195     -999.25     86.4309     20.6937      2.4787
        7558       8.996     11.8387     -999.25     83.6101     21.4144      2.5149
      7558.5       8.996     10.7051     -999.25     99.7469     16.9697      2.5173
        7559       8.996     11.6465     -999.25     98.9879     16.2351      2.5287
      7559.5       8.996     12.2384     -999.25    100.3952     18.9203       2.557
        7560       8.996      9.8563     -999.25     96.5882     19.4646      2.5692
      7560.5       8.996      8.3772     -999.25      83.751     13.5758      2.5577
        7561       8.996      9.3559     -999.25     77.2646     14.9166       2.554
      7561.5       8.996      9.6232     -999.25     75.4416     14.0749      2.5473
        7562       8.996      9.2739     -999.25      79.919     14.6822      2.5333
      7562.5       8.996     10.5436     -999.25     88.2624     13.3065      2.5189
        7563       8.996     11.4703     -999.25    113.0303     16.9984      2.5096
      7563.5       8.996     12.3004     -999.25    131.2971     18.5747      2.5108
        7564       8.996     12.2096     -999.25    122.7461     20.5046      2.5194
      7564.5       8.996     11.5618     -999.25    107.5875     20.0837      2.5097
        7565       8.996     12.1704     -999.25    107.4319     19.3661      2.4883
      7565.5       8.996     13.6681     -999.25    128.6214     16.6663      2.4728
        7566       8.996     14.1967     -999.25    158.4985      21.712      2.4597
      7566.5       8.996     14.9568     -999.25    184.0701     27.2604      2.4621
        7567       8.996     15.3829     -999.25    201.0399     25.0443      2.4751
      7567.5       8.996     14.8565     -999.25    178.3647     24.4047       2.495
        7568       8.996     14.2746     -999.25    170.5121     27.7858      2.5185
      7568.5      8.9555     11.7556     -999.25    156.9385     23.3584      2.5215
        7569      8.9555     10.4546     -999.25    138.4373     19.7089      2.5142
      7569.5      8.9555     12.5186     -999.25    132.2043     20.7976      2.5278
        7570      8.9555     10.4539     -999.25    130.5275     18.0854       2.539
      7570.5      8.9555     10.6467     -999.25    132.9447     19.8115      2.5376
        7571      8.9555     10.4198     -999.25    117.0782     19.1522      2.5318
      7571.5      8.9555     10.1149     -999.25    102.6989     21.8012      2.5223
        7572      8.9555     12.0024     -999.25     92.0225     18.7832      2.5161
      7572.5      8.9555     11.7243     -999.25    100.6798     18.1022      2.5216
        7573      8.9555     11.4335     -999.25     98.8427     17.9906      2.5328
      7573.5      8.9555      11.589     -999.25     98.5214     18.5056      2.5468
        7574      8.9555      9.4491     -999.25     92.3339      19.464      2.5678
      7574.5      8.9555     10.2027     -999.25     75.1714     17.4348      2.5998
        7575      8.9555      6.8223     -999.25      66.265     16.0451      2.6261
      7575.5      8.9913      5.0694     -999.25     71.5193     13.3386      2.5393
        7576       8.996      9.1623     -999.25     76.0768     15.0971      2.4832
      7576.5       8.996     14.4515     -999.25    140.7872     21.4745      2.4681
        7577       8.996     14.1163     -999.25    150.7469     20.3789      2.4931
      7577.5       8.996     13.6807     -999.25    129.9568     21.3073      2.5184
        7578       8.996     12.4708     -999.25    118.6526     17.5447      2.5577
      7578.5       8.996     11.3116     -999.25     93.0507     21.2385      2.5931
        7579       8.996      8.2494     -999.25     98.1456     18.6063      2.5505
      7579.5       8.996      4.8364     -999.25     116.594     15.9554      2.5148
        7580       8.996     11.6236     -999.25    133.7527     22.9617      2.4977
      7580.5       8.996     11.4078     -999.25    129.4369     21.6108      2.4824
        7581       8.996     14.8719     -999.25    128.1715       22.23      2.4749
      7581.5       8.996     13.8073     -999.25    130.6872     20.2228      2.5041
        7582       8.996     13.9294     -999.25    129.4358     18.9133      2.4884
      7582.5       8.996     12.1413     -999.25    137.9161     20.1855      2.4688
        7583       8.996     13.6998     -999.25    114.4558     22.0686      2.4534
      7583.5       8.996     15.0584     -999.25    114.3963     15.4764      2.4665
        7584       8.996     15.0863     -999.25    131.6002     13.4717      2.4711
      7584.5       8.996     14.6083     -999.25     124.385     22.2659      2.4789
        7585       8.996     14.9336     -999.25    119.2736     20.5078      2.4862
      7585.5       8.996     13.4935     -999.25    113.5628     19.1758      2.4782
        7586      8.9555     14.7204     -999.25    115.0757      19.168      2.4756
      7586.5      8.9555     14.5575     -999.25    119.1065     18.5287      2.4736
        7587      8.9555     14.2988     -999.25    110.7765     19.4369      2.4718
      7587.5      8.9555     14.4581     -999.25    113.8805      20.729      2.4904
        7588      8.9555     14.0355     -999.25    126.9883     18.5079      2.5201
      7588.5      8.9555     12.5544     -999.25     132.663     19.1045       2.536
        7589      8.9555     10.7835     -999.25    112.7631     22.0544      2.4834
      7589.5      8.9555     10.3069     -999.25    118.8092     21.0848      2.4632
        7590      8.9555     15.3139     -999.25    124.4215     20.1983      2.4829
      7590.5      8.9555     14.3526     -999.25    116.6527     21.0418       2.489
        7591      8.9555     13.6228     -999.25    112.7396     18.5162       2.491
      7591.5      8.9591     12.7356     -999.25    117.8555     19.9776      2.4518
        7592      8.9555     15.6231     -999.25     122.273      20.531      2.4702
      7592.5      8.9555     15.8078     -999.25    125.7398      19.114      2.4802
        7593      8.9555     14.4494     -999.25    123.4613     23.2852      2.4861
      7593.5      8.9555     13.8094     -999.25    122.6721     20.9146      2.4902
        7594      8.9555     13.7098     -999.25    128.5935     18.4609      2.4898
      7594.5      8.9555     12.8529     -999.25    134.5323     22.3814      2.4671
        7595      8.9555     14.5369     -999.25    161.5753     23.1298      2.4612
      7595.5      8.9555     15.2723     -999.25    169.5103     23.5592      2.4721
        7596      8.9555     14.8895     -999.25    161.1269      28.087      2.4778
      7596.5      8.9555     14.3507     -999.25    163.2782     24.2338      2.4916
        7597      8.9555     13.6006     -999.25    160.6056     23.0355      2.5052
      7597.5      8.9555     12.8906     -999.25    138.4281     22.3913      2.5065
        7598      8.9555     12.1369     -999.25    128.3562     20.4643      2.4899
      7598.5      8.9555     13.1695     -999.25    163.0207     20.5912      2.4731
        7599      8.9555     15.7376     -999.25      167.61     29.3925      2.4774
      7599.5      8.9555     13.1054     -999.25    165.9025     21.8324      2.5168
