~VERSION INFORMATION
 VERS.                2.0:   CWLS LOG ASCII STANDARD - VERSION 2.0
 WRAP.                 NO:   ONE LINE PER DEPTH STEP
~WELL INFORMATION
#MNEM.UNIT      DATA TYPE    INFORMATION
#----------   ------------   ------------------------------
 STRT.FT           0.0000:   START DEPTH
 STOP.FT        7147.0000:   STOP DEPTH
 STEP.FT           0.5000:   STEP LENGTH
 NULL.          -999.2500:   NULL VALUE
 COMP. MOBIL PRODUCING TEXAS & NEW MEEXICO INC:   COMPANY
 WELL. SCHLOSER FRED ESTATE B #2:   WELL
 FLD .      ROJO CABALLOS:   FIELD
 LOC .                   :   LOCATION
 CNTY.              PECOS:   COUNTY
 STAT.              TEXAS:   STATE
 CTRY. UNITED STATES OF AMERICA:   COUNTRY
 SRVC.       Schlumberger:   SERVICE COMPANY
 DATE.        10-Jun-1980:   LOGDATE
 API .     42371330900000:   API NUMBER
~CURVE INFORMATION
#MNEM.UNIT       API CODE    CURVE DESCRIPTION
#----------   ------------   ------------------------------
 DEPT.F                  :   
 GRD .GAPI   45 310 01 00:   GAMMA RAY FROM DENSITY LOG
 GRR .GAPI   11 310 01 00:   GAMMA RAY FROM RESISTIVITY LOG
 GRS .GAPI   60 310 01 00:   GAMMA RAY FROM SONIC LOG
 DT  .US/F   60 500 00 00:   DELTA-T (INTERVAL TRANSIT TIME)
 CALD.IN     45 280 60 00:   CALIPER FROM DENSITY LOG
 CORR.G/C3   45 356 01 00:   DENSITY CORRECTION
 RHOB.G/C3   45 350 01 00:   BULK DENSITY
 NPHI_LS.DEC 42 890 01 00:   NEUTRON POROSITY LIMESTONE
 DPHI_LS.DEC 45 890 10 00:   DENSITY POROSITY LIMESTONE
 LLD .OHMM   11 220 10 00:   LATEROLOG DEEP RESISTIVITY
 LLS .OHMM   11 220 09 00:   LATEROLOG SHALLOW RESISTIVITY
~PARAMETER INFORMATION
#MNEM.UNIT          VALUE    DESCRIPTION
#----------   ------------   ------------------------------
 PD  .                 GL:   PERMANENT DATUM
 EPD .FT             2752:   ELEVATION PERMANENT DATUM
 LMF .                 KB:   LOG MEASURED FROM
 DAPD.FT               13:   FEET ABOVE PERMANENT DATUM
 DMF .                 KB:   DRILLING MEASURED FROM
 EKB .FT             2765:   KELLY BUSHING
 EDF .FT             2764:   DRILLING FLOOR
 EGL .FT             2752:   GROUND LEVEL
 DATE.           06/10/80:   RUN DATE
 RUN .                  1:   RUN NUMBER
 DD  .FT             7150:   DEPTH DRILLER
 DL  .FT             7150:   DEPTH LOGGER
 BLI .FT             7147:   BOTTOM LOG INTERVAL
 TLI .FT             5000:   TOP LOG INTERVAL
 CS  .IN            8.625:   CASING SIZE
 CBD .FT             1919:   CASING BOTTOM DRILLER
 CBL .FT             1904:   CASING BOTTOM LOGGER
 BS  .IN            7.875:   BIT SIZE
 BSD .FT             7150:   BIT SIZE AT DEPTH
 DFT .              BRINE:   DRILLING FLUID TYPE
 DFD .                 10:   DRILLING FLUID DENSITY
 DFV .                 35:   DRILLING FLUID VISCOSITY
 DFPH.                9.5:   DRILLING FLUID PH
 DFL .                 20:   DRILLING FLUID LOSS
 MSS .               CIRC:   MUD SAMPLE SOURCE
 RMS .OHMM           .055:   RESISTIVITY MUD SAMPLE
 MST .DEGF             73:   MUD SAMPLE TEMPERATURE
 RMF .OHMM           .055:   RESISTIVITY MUD FILTRATE SAMPLE
 MFST.DEGF             73:   MUD FILTRATE SAMPLE TEMPERATURE
 MFSS.                  M:   MUD FILTRATE SAMPLE SOURCE
 RMB .OHMM            .03:   RESISTIVITY MUD AT BHT
 BHT .DEGF            107:   BOTTOM HOLE TEMPERATURE
 TCS .HRS            1615:   TIME CIRCULATED STOPPED
 TLAB.HRS            0300:   TIME LOGGER AT BOTTOM
 MRT .DEGF            107:   MAXIMUM RECORDED TEMPERATURE
 LUN .               8024:   LOGGING UNIT NUMBER
 LUL .               MONA:   LOGGING UNIT LOCATION
 ENGI.           MC BRIDE:   RECORDING ENGINEER
 CLNT.            :   CLIENT CODE
 ORIG.      1" 2.5" PRINT:   ORIGIN OF DATA
 UWI .     42371330900000:   UNIQUE WELL ID
 
~OTHER INFORMATION
~A    DEPT     GRD        GRR         GRS        DT       CALD       CORR       RHOB      NPHI_LS    DPHI_LS      LLD        LLS   
# ...
 5795.0000    59.8437    50.8200    58.4591    72.6673    10.8111     0.0139     2.4533     0.1959     0.1623     2.9973     3.0153
 5795.5000    60.0383    54.2032    56.7325    71.9220    10.8289     0.0128     2.4465     0.1952     0.1650     2.9597     2.9746
 5796.0000    58.2939    55.8547    53.7632    70.8763    10.8467     0.0116     2.4554     0.1944     0.1604     2.9750     2.9899
 5796.5000    52.7864    53.4725    50.6427    69.7565    10.8567     0.0073     2.4659     0.1895     0.1493     3.1019     3.1377
 5797.0000    49.0520    49.6278    47.4961    69.7130    10.8528     0.0026     2.4764     0.1740     0.1449     3.4162     3.4557
 5797.5000    46.7428    46.2350    46.1646    70.2379    10.8740     0.0011     2.4701     0.1658     0.1495     3.5579     3.5750
 5798.0000    45.6650    43.7048    45.9244    72.0187    10.8952     0.0018     2.4601     0.1632     0.1581     3.2919     3.3402
 5798.5000    44.8011    41.9352    45.9076    73.6300    10.9165     0.0069     2.4489     0.1697     0.1667     2.7209     2.7657
 5799.0000    43.9373    42.4354    45.0330    74.7009    10.9352     0.0072     2.4382     0.1776     0.1688     2.3579     2.3965
 5799.5000    42.9715    43.9048    43.5743    74.2459    10.9452     0.0075     2.4427     0.1853     0.1690     2.1502     2.1699
 5800.0000    41.8443    45.3741    42.0174    71.5922    10.9552     0.0078     2.4634     0.1911     0.1613     2.1503     2.1606
 5800.5000    41.1535    45.5636    40.4868    69.0698    10.9652     0.0081     2.4841     0.1903     0.1486     2.4953     2.5436
 5801.0000    41.3396    44.5678    39.8541    68.3436    10.9752     0.0084     2.4991     0.1605     0.1410     2.9735     3.0311
 5801.5000    43.8131    44.3687    40.3345    68.9879    10.9852     0.0087     2.4977     0.1451     0.1301     3.4905     3.5502
 5802.0000    48.9133    47.3273    42.4023    69.9277    10.9901     0.0087     2.4892     0.1425     0.1337     3.7502     3.7682
 5802.5000    54.2343    50.2860    47.4800    70.7624    10.9917     0.0087     2.4807     0.1671     0.1427     3.7433     3.7614
 5803.0000    56.9185    53.2902    51.0467    70.5852    10.9934     0.0032     2.4763     0.1789     0.1455     3.7305     3.7486
 5803.5000    58.9849    53.1454    54.9619    70.2587    10.9950    -0.0007     2.4898     0.1730     0.1393     3.7595     3.7820
 5804.0000    63.2501    53.0006    58.0660    69.9082    10.9966     0.0061     2.5045     0.1640     0.1306     4.4074     4.4353
 5804.5000    68.8529    56.3702    62.8035    69.7351    10.9983     0.0077     2.5174     0.1592     0.1196     5.7205     5.4066
 5805.0000    77.1675    64.8670    67.0296    69.6970    10.9999     0.0039     2.5250     0.1613     0.1149     7.4127     6.5907
 5805.5000    82.9848    73.3637    70.7651    69.8250    11.0015     0.0011     2.5307     0.1643     0.1115     9.6056     7.9303
 5806.0000    85.5167    78.4618    74.9285    70.2736    11.0251     0.0011     2.5362     0.1676     0.1097    11.8978     8.5357
 5806.5000    81.9754    78.1431    76.0938    70.8321    11.0496     0.0195     2.5338     0.1837     0.1093    11.9576     9.0770
 5807.0000    76.5320    69.5030    75.7058    71.5973    11.0814     0.0352     2.5260     0.1870     0.1145     9.6212     9.0907
 5807.5000    70.3330    60.8629    73.1362    73.1965    11.1244     0.0348     2.5106     0.1868     0.1265     6.4045     6.5690
 5808.0000    62.1106    50.8431    64.3430    74.7998    11.1674     0.0263     2.4739     0.1867     0.1543     4.2717     4.4683
 5808.5000    53.3908    45.2512    51.9914    75.9186    11.2104     0.0131     2.4423     0.1878     0.1843     2.7796     2.8446
 5809.0000    47.4694    41.5960    44.9116    76.3111    11.2511     0.0015     2.4164     0.2031     0.1906     2.2666     2.1518
 5809.5000    43.8218    40.5804    41.2056    76.1440    11.2717     0.0014     2.3905     0.2015     0.1928     1.8483     1.6115
 5810.0000    41.4216    41.5751    38.5718    75.0038    11.2923     0.0045     2.3938     0.2126     0.1940     1.6869     1.6759
 5810.5000    39.5838    40.8109    37.5851    72.5651    11.3088     0.0096     2.4070     0.2251     0.1950     1.9340     1.8479
 5811.0000    39.1642    39.6062    37.1650    71.8436    11.3089     0.0147     2.4202     0.2197     0.1869     2.2943     2.0345
 5811.5000    40.1407    38.4015    37.0880    72.5109    11.3090     0.0198     2.4334     0.1983     0.1714     2.6753     2.1128
 5812.0000    41.6229    37.6786    37.1002    73.9184    11.3090     0.0247     2.4290     0.1855     0.1709     2.6757     2.0659
 5812.5000    42.8712    37.6786    39.2319    75.6635    11.3091     0.0237     2.4133     0.1850     0.1819     2.4176     1.8118
 5813.0000    44.2822    39.3142    40.5314    76.6573    11.3091     0.0183     2.3974     0.2041     0.1943     2.1307     1.7077
 5813.5000    46.1927    41.8098    43.1075    76.9722    11.3101     0.0129     2.3935     0.2211     0.1975     1.9450     1.5301
 5814.0000    47.9528    44.3055    46.4520    76.8125    11.3179     0.0051     2.3974     0.2397     0.1957     1.9081     1.4295
 5814.5000    49.3389    46.7604    49.2458    76.0345    11.3180    -0.0013     2.4012     0.2413     0.1925     1.9271     1.4861
 5815.0000    50.6171    48.5301    50.6164    75.0541    11.3096     0.0041     2.4074     0.2349     0.1880     2.0492     1.5648
 5815.5000    51.8404    49.1712    50.8145    74.0738    11.3119     0.0111     2.4235     0.2261     0.1779     2.2514     1.6595
 5816.0000    53.5033    48.9284    50.5442    73.7588    11.3158     0.0187     2.4327     0.2142     0.1714     2.4371     1.7836
 5816.5000    54.2472    48.4723    49.9995    74.5770    11.3194     0.0249     2.4378     0.2095     0.1712     2.5785     1.8506
 5817.0000    52.5318    47.3604    50.2407    75.4947    11.3206     0.0438     2.4355     0.2069     0.1729     2.5505     1.7905
 5817.5000    49.9842    45.0067    50.1698    76.3357    11.3218     0.0438     2.4321     0.2027     0.1720     2.4280     1.6872
 5818.0000    47.4335    41.1554    47.4147    77.6308    11.3231     0.0396     2.4271     0.1978     0.1765     2.2426     1.4611
 5818.5000    45.1369    39.8818    42.6390    78.2515    11.3243     0.0325     2.4152     0.2119     0.1898     1.7711     1.2460
 5819.0000    42.9109    40.6479    39.7155    77.8955    11.3255     0.0261     2.3965     0.2278     0.2096     1.7245     1.2008
 5819.5000    40.9667    42.4806    38.5658    77.5480    11.3174     0.0197     2.3738     0.2335     0.2142     1.7254     1.1850
 5820.0000    39.9887    41.7031    39.2043    77.2030    11.3132     0.0133     2.3621     0.2272     0.2186     1.8595     1.2430
 5820.5000    40.0612    38.8239    39.9036    76.6809    11.3106     0.0068     2.3590     0.2265     0.2223     2.0025     1.3178
 5821.0000    40.0587    37.6679    40.9519    76.7961    11.2994     0.0017     2.3558     0.2342     0.2220     2.1124     1.3456
 5821.5000    39.7679    37.7218    41.8676    77.2130    11.3006     0.0020     2.3527     0.2427     0.2216     2.0889     1.3073
 5822.0000    40.1562    36.2685    41.2611    78.0387    11.3071     0.0059     2.3464     0.2471     0.2245     1.9939     1.2270
 5822.5000    40.0990    34.8898    40.3137    79.2696    11.3119     0.0129     2.3401     0.2502     0.2329     1.8216     1.1645
 5823.0000    39.5977    35.2547    40.3674    79.6289    11.3126     0.0199     2.3338     0.2548     0.2358     1.7144     1.1028
 5823.5000    38.9999    37.0276    41.0712    79.6852    11.3061     0.0189     2.3360     0.2622     0.2353     1.6769     1.0444
 5824.0000    38.4021    38.8709    42.7298    79.3306    11.2996     0.0170     2.3410     0.2745     0.2312     1.6761     1.0442
 5824.5000    37.5148    39.1978    44.5042    78.5896    11.2931     0.0151     2.3460     0.2810     0.2260     1.6752     1.0736
 5825.0000    37.8002    38.5462    45.1171    78.0753    11.2820     0.0133     2.3510     0.2761     0.2228     1.6649     1.0716
