###############################################
##         ENVERUS                           ##
##         ESS - Open Hole                   ##
##         PERMIAN / DELAWARE                ##
##         Nov 04 2023  V4.0                 ##
##         42-389-00802-00-00                ##
###############################################
## Copyright 2017-2023  ENVERUS.  All Rights Reserved. 
## Confidential - Property of ENVERUS, use governed by terms and 
## conditions found within the existing Information Services Subscription Agreement 
## (as may be amended, the “ISSA”) between Customer and ENVERUS. 
## 
~VERSION INFORMATION
# MNEM.UNIT                               DATA : DESCRIPTION OF MNEMONIC
#-----.-----     ----------------------------- : -----------------------------
VERS.                                     2.00 : CWLS LOG ASCII STANDARD - VERSION 2.00
WRAP.                                       NO : MULTIPLE LINES PER DEPTH STEP
VEND.                                  ENVERUS : VENDOR
TYPE.                          ESS - OPEN HOLE : ENVERUS ESSENTIAL CURVES – ACCESSIBLE THROUGH ENVERUS PRISM(TM)
DOC.                                  31817456 : ENVERUS HEADER RAW DOCUMENT ID
#___________________________________________________________________________________________________ 
~WELL INFORMATION 
# RyAIq6UWQPnCIzV1aSVljU5sZzU8mzXCuHzh8Tf3VVfaeSb2oya67RMqigcBPLsftsjdPp3J13KbDcbgGgUr7w== 
# MNEM.UNIT                                              DATA : DESCRIPTION OF MNEMONIC 
#-----.-----                    ----------------------------- : ----------------------------- 
CNTY.                                                  REEVES : COUNTY 
STATE.                                                  TEXAS : STATE 
CNTRY.                                                    USA : COUNTRY 
API.                                             42-389-00802 : API (10 Digit) 
API_14.                                    42-389-00802-00-00 : API (14 Digits) 
API_14_std.                                 42-389-00802-0000 : API (14 Digits Standard) 
UWI.                                           42389008020000 : UNIQUE WELL ID 
WELL.                                                      1, : WELL NAME
STRT.FT                                                 103.0 : START DEPTH
STOP.FT                                                5419.0 : STOP DEPTH
STEP.FT                                                   0.5 : STEP BETWEEN DEPTHS
NULL.                                                 -999.25 : NULL VALUE
#___________________________________________________________________________________________________ 
~CURVE INFORMATION 
# MNEM.UNIT           : CURVE DESCRIPTION 
#-----.-----          : ----------------------------- 
 DEPT.FT               : MEASURED DEPTH 
 GR.API                : GAMMA RAY (GR) 
 DT.US/FT              : SONIC DELTA TRANSIT TIME (DT) 
 #___________________________________________________________________________________________________ 
~A         DEPT             GR             DT
# ...
         1495.0         10.971         57.712
         1495.5         10.099         61.438
         1496.0          9.228         65.164
         1496.5          8.357         68.890
         1497.0          8.890         72.615
         1497.5         11.940         72.401
         1498.0         14.990         69.214
         1498.5         18.040         66.026
         1499.0         21.091         62.839
         1499.5         22.110         59.799
         1500.0         23.055         57.399
         1500.5         24.000         54.999
         1501.0         24.434         52.599
         1501.5         17.346         57.040
         1502.0         10.259         55.156
         1502.5          7.631         55.452
         1503.0          6.901         55.749
         1503.5          6.171         56.045
         1504.0          5.441         56.342
         1504.5          4.711         56.638
         1505.0          3.981         56.935
         1505.5          3.251         57.231
         1506.0          3.833         57.528
         1506.5          6.650         57.824
         1507.0          9.466         58.096
         1507.5         12.283         57.937
         1508.0         15.099         57.476
         1508.5         13.475         56.509
         1509.0         11.707         55.805
         1509.5          9.939         56.500
         1510.0          8.172         57.194
         1510.5         11.727         57.889
         1511.0         15.322         58.583
         1511.5         18.918         59.157
         1512.0         22.514         57.572
         1512.5         21.847         56.799
         1513.0         18.495         57.214
         1513.5         15.144         57.628
         1514.0         11.793         58.043
         1514.5          8.494         58.457
         1515.0          8.019         58.318
         1515.5          7.544         58.109
         1516.0          7.069         57.899
         1516.5          6.595         57.690
         1517.0          6.120         59.718
         1517.5          6.246         64.985
         1518.0          7.321         67.122
         1518.5          8.396         66.983
         1519.0          9.471         66.843
         1519.5         10.546         65.758
         1520.0         11.621         61.237
         1520.5         12.696         62.845
         1521.0         13.771         60.114
         1521.5         12.991         57.382
         1522.0         10.933         63.128
         1522.5          8.875         63.167
         1523.0          7.307         63.207
         1523.5          8.028         63.246
         1524.0          8.749         58.426
         1524.5          9.470         58.026
         1525.0         10.191         57.626
         1525.5         10.912         57.226
         1526.0         10.403         56.826
         1526.5          9.052         56.909
         1527.0          7.702         57.964
         1527.5          6.352         58.941
         1528.0          6.513         58.380
         1528.5          7.566         58.198
         1529.0          8.619         58.642
         1529.5          9.672         58.973
         1530.0         10.391         58.444
         1530.5          9.502         57.915
         1531.0          8.613         57.386
         1531.5          7.725         56.857
         1532.0          6.836         56.328
         1532.5          7.921         56.645
         1533.0         10.041         57.661
         1533.5         12.161         58.676
         1534.0         14.282         59.574
         1534.5         16.237         59.621
         1535.0         17.643         59.669
         1535.5         19.050         59.539
         1536.0         20.457         59.018
         1536.5         21.864         58.497
         1537.0         22.280         57.976
         1537.5         19.356         58.405
         1538.0         16.432         58.863
         1538.5         13.508         59.321
         1539.0         10.584         59.779
         1539.5         11.001         59.989
         1540.0         13.224         59.886
         1540.5         15.447         59.784
         1541.0         16.482         59.681
         1541.5         15.139         59.776
         1542.0         13.796         60.052
         1542.5         12.453         60.329
         1543.0         11.109         60.551
         1543.5          9.766         60.422
         1544.0          8.627         60.294
         1544.5          9.227         60.165
         1545.0          9.827         60.036
         1545.5         10.428         59.907
         1546.0         11.028         59.778
         1546.5         11.628         59.650
         1547.0         12.228         58.656
         1547.5         12.828         57.509
         1548.0         13.429         56.362
         1548.5         13.417         55.215
         1549.0         10.264         54.853
         1549.5          7.111         54.493
         1550.0          4.894         54.391
         1550.5          4.895         55.205
         1551.0          4.896         55.096
         1551.5          4.897         54.987
         1552.0          4.898         54.878
         1552.5          4.801         54.770
         1553.0          4.405         54.661
         1553.5          4.010         54.552
         1554.0          3.614         55.624
         1554.5          4.314         56.823
         1555.0          5.176         58.022
         1555.5          6.038         59.221
         1556.0          6.901         60.690
         1556.5          7.763         61.944
         1557.0          8.625         61.776
         1557.5          9.487         61.609
         1558.0         10.349         61.441
         1558.5         11.211         61.274
         1559.0         12.073         61.106
         1559.5         12.935         60.344
         1560.0         13.798         59.100
         1560.5         14.589         57.856
         1561.0         13.579         55.475
         1561.5         12.569         55.937
         1562.0         11.559         56.399
         1562.5         10.549         56.860
         1563.0          9.538         57.322
         1563.5          8.528         57.784
         1564.0          7.518         58.970
         1564.5          6.508         68.884
         1565.0          5.498         72.175
         1565.5          6.747         75.466
         1566.0         10.939         78.757
         1566.5         15.130         77.579
         1567.0         19.257         74.606
         1567.5         23.037         71.937
         1568.0         26.817         74.321
         1568.5         30.598         76.704
         1569.0         34.378         79.087
         1569.5         38.158         81.471
         1570.0         40.857         81.549
         1570.5         36.509         77.149
         1571.0         32.160         72.748
         1571.5         33.653         73.176
         1572.0         30.974         75.177
         1572.5         28.296         77.177
         1573.0         25.617         79.178
         1573.5         25.191         81.178
         1574.0         30.481         83.178
         1574.5         35.771         79.055
         1575.0         41.060         74.255
         1575.5         42.963         73.821
         1576.0         41.253         74.152
         1576.5         39.542         74.397
         1577.0         37.832         70.821
         1577.5         36.121         67.245
         1578.0         34.411         64.539
         1578.5         14.553         64.091
         1579.0         12.867         63.643
         1579.5         11.182         63.194
         1580.0         11.060         62.746
         1580.5         14.816         62.298
         1581.0         18.571         65.779
         1581.5         22.326         69.984
