#--------------------------------------------------#
#-------------------ENVERUS, INC.------------------#
#------------------WWW.ENVERUS.COM-----------------#
#------------------COPYRIGHT 2020------------------#
#--------------------------------------------------#
#THIS FILE MAY BE USED ONLY IN ACCORDANCE WITH A CURRENT SUBSCRIPTION AGREEMENT BETWEEN
#THE USER AND ENVERUS, INC. NO PART OF THIS FILE MAY BE REPRODUCED, USED, COPIED,
#MODIFIED, PROPAGATED, OR DISTRIBUTED EXCEPT IN ACCORDANCE WITH THE SUBSCRIPTION
#AGREEMENT. UNAUTHORIZED USE OR DISTRIBUTION OF ALL OR ANY PART OF THIS FILE MAY VIOLATE
#COPYRIGHT, TRADEMARK, AND/OR OTHER LAWS AND IS SUBJECT TO CIVIL AS WELL AS CRIMINAL
#SANCTIONS.
#--------------------------------------------------#
#THIS FILE IS PROVIDED "AS-IS" AND ALL WARRANTIES ARE EXPRESSLY DISCLAIMED, WHETHER
#EXPRESS, ORAL, IMPLIED, STATUTORY OR OTHERWISE, INCLUDING ANY IMPLIED WARRANTY OF FITNESS
#FOR A PARTICULAR PURPOSE, MERCHANTABILITY, TITLE OR NON-INFRINGEMENT, AND ANY WARRANTIES
#ARISING BY VIRTUE OF CUSTOM OF TRADE OR COURSE OF DEALING.  FURTHER, ENVERUS, INC.
#AND ITS LICENSORS DO NOT REPRESENT OR WARRANT THAT THIS FILE WILL MEET USER'S
#REQUIREMENTS OR ARE SUITABLE FOR USER'S NEEDS OR THAT THE DATA OR RESULTS PROVIDED IN
#CONJUNCTION THEREWITH ARE CORRECT, ACCURATE, TIMELY OR RELIABLE. THESE DISCLAIMERS SHALL
#APPLY REGARDLESS OF ANY FAILURE OF ESSENTIAL PURPOSE OF ANY LIMITED REMEDY.  SOME
#JURISDICTIONS DO NOT ALLOW THE EXCLUSION OF CERTAIN WARRANTIES SO SOME OF THE ABOVE
#EXCLUSIONS MAY NOT APPLY. IN NO EVENT SHALL ENVERUS, INC. OR ANY OF ITS AFFILIATES
#BE LIABLE UNDER ANY LEGAL THEORY, WHETHER IN TORT (INCLUDING WITHOUT LIMITATION
#NEGLIGENCE), CONTRACT, STRICT LIABILITY, STATUTORY OR OTHERWISE, FOR ANY SPECIAL,
#INCIDENTAL, CONSEQUENTIAL, EXEMPLARY, PUNITIVE OR INDIRECT DAMAGE OF ANY KIND, INCLUDING
#WITHOUT LIMITATION LOSS OF REVENUE, PROFITS, GOODWILL, USE, AND/OR DATA OR THE COST OF
#PROCUREMENT OF SUBSTITUTE GOODS OR SERVICES, EVEN IF APPRISED OF THE POSSIBILITY OF SUCH
#DAMAGES IN ADVANCE.
#--------------------------------------------------#

~VERSION INFORMATION
VERS. 2.0 : CWLS LOG ASCII STANDARD - VERSION 2.0
WRAP. NO : ONE LINE PER DEPTH STEP
~WELL INFORMATION
#MNEMONIC     .UNIT              VALUE :DESCRIPTION
STRT       .FT                101.00000 :START DEPTH
STOP       .FT                5802.00000 :STOP DEPTH
STEP       .FT                0.50000 :STEP
NULL       .                -999.25000 :NULL VALUE
UWI       .                42389010150000 :UNIQUE WELL ID
API       .                42389010150000 :API NUMBER
COMP       .                 :COMPANY
WELL       .                 :WELL
FLD       .                 :FIELD
LOC       .                 :LOCATION
CNTY       .                 :COUNTY
STAT       .                 :STATE
CTRY       .                 :COUNTRY
SRVC       .                 :SERVICE COMPANY
DATE       .                 :DATE
~CURVE INFORMATION
#MNEMONIC     .UNIT      API CODE :CURVE DESCRIPTION
DEPTH       .FT                      :MEASURED DEPTH
DT       .US/FT        UNKNOWN   :DT
GR       .GAPI        UNKNOWN   :GR
~A    DEPTH    DT    GR
101.00000    -999.25000    33.05035
101.50000    -999.25000    32.29959
102.00000    -999.25000    30.95516
102.50000    -999.25000    29.61111
103.00000    -999.25000    28.26722
103.50000    -999.25000    27.07807
104.00000    -999.25000    27.78584
104.50000    -999.25000    28.49360
105.00000    -999.25000    28.89303
105.50000    -999.25000    27.93960
106.00000    -999.25000    27.18295
106.50000    -999.25000    26.75180
107.00000    -999.25000    26.33869
107.50000    -999.25000    25.94106
108.00000    -999.25000    25.55353
108.50000    -999.25000    23.79205
109.00000    -999.25000    22.88717
109.50000    -999.25000    22.57662
110.00000    -999.25000    22.26606
110.50000    -999.25000    22.06437
111.00000    -999.25000    21.97617
111.50000    -999.25000    22.50350
112.00000    -999.25000    25.01967
112.50000    -999.25000    28.02314
113.00000    -999.25000    31.02220
113.50000    -999.25000    33.55412
114.00000    -999.25000    34.71572
114.50000    -999.25000    34.75032
115.00000    -999.25000    34.55890
115.50000    -999.25000    34.36747
116.00000    -999.25000    34.10620
116.50000    -999.25000    33.79560
117.00000    -999.25000    33.49743
117.50000    -999.25000    33.35249
118.00000    -999.25000    33.20755
118.50000    -999.25000    33.06261
119.00000    -999.25000    32.05628
119.50000    -999.25000    30.62644
120.00000    -999.25000    30.49361
120.50000    -999.25000    30.77382
121.00000    -999.25000    31.35280
121.50000    -999.25000    34.55310
122.00000    -999.25000    35.00653
122.50000    -999.25000    35.45995
123.00000    -999.25000    35.10267
123.50000    -999.25000    33.70672
124.00000    -999.25000    32.22097
124.50000    -999.25000    31.81816
125.00000    -999.25000    31.41536
125.50000    -999.25000    31.19146
126.00000    -999.25000    31.07540
126.50000    -999.25000    31.23634
127.00000    -999.25000    31.55891
127.50000    -999.25000    31.88147
128.00000    -999.25000    32.20404
128.50000    -999.25000    32.95123
129.00000    -999.25000    33.86531
129.50000    -999.25000    37.98963
130.00000    -999.25000    38.74585
130.50000    -999.25000    38.94697
131.00000    -999.25000    38.75567
131.50000    -999.25000    38.56436
132.00000    -999.25000    38.44742
132.50000    -999.25000    38.51605
133.00000    -999.25000    38.58468
133.50000    -999.25000    38.65331
134.00000    -999.25000    38.72194
134.50000    -999.25000    38.54019
135.00000    -999.25000    38.18560
135.50000    -999.25000    37.63961
136.00000    -999.25000    37.05472
136.50000    -999.25000    36.48307
137.00000    -999.25000    35.94371
137.50000    -999.25000    35.40434
138.00000    -999.25000    34.79928
138.50000    -999.25000    33.99471
139.00000    -999.25000    33.19014
139.50000    -999.25000    33.29983
140.00000    -999.25000    34.63819
140.50000    -999.25000    35.97656
141.00000    -999.25000    37.04209
141.50000    -999.25000    36.42699
142.00000    -999.25000    35.81189
142.50000    -999.25000    35.19679
143.00000    -999.25000    34.05466
143.50000    -999.25000    32.80765
144.00000    -999.25000    31.56064
144.50000    -999.25000    31.63707
145.00000    -999.25000    32.05272
145.50000    -999.25000    32.42584
146.00000    -999.25000    32.47803
146.50000    -999.25000    32.53023
147.00000    -999.25000    32.58242
147.50000    -999.25000    32.63462
148.00000    -999.25000    32.68050
148.50000    -999.25000    32.64921
149.00000    -999.25000    32.61792
149.50000    -999.25000    32.58663
150.00000    -999.25000    32.55534
150.50000    -999.25000    32.37850
151.00000    -999.25000    31.94246
151.50000    -999.25000    31.50643
152.00000    -999.25000    31.07040
152.50000    -999.25000    30.63437
153.00000    -999.25000    30.19834
153.50000    -999.25000    32.08189
154.00000    -999.25000    34.51033
154.50000    -999.25000    34.59136
155.00000    -999.25000    34.64746
155.50000    -999.25000    33.87191
156.00000    -999.25000    33.09636
156.50000    -999.25000    32.32080
157.00000    -999.25000    31.71817
157.50000    -999.25000    31.18968
158.00000    -999.25000    32.75477
158.50000    -999.25000    34.48718
159.00000    -999.25000    35.46808
159.50000    -999.25000    35.97767
160.00000    -999.25000    37.31142
160.50000    -999.25000    38.72061
161.00000    -999.25000    39.73848
161.50000    -999.25000    40.46770
162.00000    -999.25000    41.19693
162.50000    -999.25000    41.39853
163.00000    -999.25000    40.95066
163.50000    -999.25000    40.44306
164.00000    -999.25000    39.76193
164.50000    -999.25000    39.08079
165.00000    -999.25000    38.39965
165.50000    -999.25000    37.91911
166.00000    -999.25000    37.54727
166.50000    -999.25000    37.17543
167.00000    -999.25000    36.80359
167.50000    -999.25000    37.23173
168.00000    -999.25000    38.01319
168.50000    -999.25000    38.79466
169.00000    -999.25000    39.57612
169.50000    -999.25000    40.35759
170.00000    -999.25000    40.22472
170.50000    -999.25000    39.85663
171.00000    -999.25000    39.48855
171.50000    -999.25000    39.12046
172.00000    -999.25000    38.75238
172.50000    -999.25000    38.38429
173.00000    -999.25000    39.22179
173.50000    -999.25000    41.42933
174.00000    -999.25000    43.63687
174.50000    -999.25000    43.91150
175.00000    -999.25000    43.00075
175.50000    -999.25000    42.09000
176.00000    -999.25000    41.17925
176.50000    -999.25000    40.26849
177.00000    -999.25000    39.35774
177.50000    -999.25000    38.44699
178.00000    -999.25000    37.53624
178.50000    -999.25000    37.47122
179.00000    -999.25000    37.47308
179.50000    -999.25000    37.47495
180.00000    -999.25000    37.47681
180.50000    -999.25000    37.47868
181.00000    -999.25000    37.48054
181.50000    -999.25000    37.14963
182.00000    -999.25000    36.67600
182.50000    -999.25000    36.20238
183.00000    -999.25000    35.72875
183.50000    -999.25000    35.25512
184.00000    -999.25000    34.78149
184.50000    -999.25000    35.18400
185.00000    -999.25000    35.89177
185.50000    -999.25000    36.59955
186.00000    -999.25000    37.30732
186.50000    -999.25000    37.63292
187.00000    -999.25000    36.48078
187.50000    -999.25000    35.32864
188.00000    -999.25000    35.11334
188.50000    -999.25000    35.20860
189.00000    -999.25000    35.30387
189.50000    -999.25000    35.39913
190.00000    -999.25000    35.49440
190.50000    -999.25000    35.58966
191.00000    -999.25000    35.26439
191.50000    -999.25000    32.72725
192.00000    -999.25000    32.48420
192.50000    -999.25000    32.64528
193.00000    -999.25000    32.80636
193.50000    -999.25000    32.96744
194.00000    -999.25000    32.11590
194.50000    -999.25000    31.24749
195.00000    -999.25000    30.71905
195.50000    -999.25000    32.02787
196.00000    -999.25000    32.72788
196.50000    -999.25000    33.42789
197.00000    -999.25000    34.12790
197.50000    -999.25000    34.82791
198.00000    -999.25000    35.52792
198.50000    -999.25000    36.44886
199.00000    -999.25000    37.43999
199.50000    -999.25000    38.43112
200.00000    -999.25000    39.42224
200.50000    -999.25000    40.41337
201.00000    -999.25000    39.46847
201.50000    -999.25000    38.31769
202.00000    -999.25000    37.51351
202.50000    -999.25000    37.13849
203.00000    -999.25000    36.76347
203.50000    -999.25000    36.38846
204.00000    -999.25000    36.01344
204.50000    -999.25000    35.63842
205.00000    -999.25000    35.26341
205.50000    -999.25000    34.88839
206.00000    -999.25000    37.26329
206.50000    -999.25000    38.00522
207.00000    -999.25000    38.74715
207.50000    -999.25000    39.48908
208.00000    -999.25000    40.23101
208.50000    -999.25000    40.97295
209.00000    -999.25000    41.12732
209.50000    -999.25000    40.87151
210.00000    -999.25000    40.61571
210.50000    -999.25000    40.35990
211.00000    -999.25000    40.10410
211.50000    -999.25000    39.84830
212.00000    -999.25000    39.59249
