#--------------------------------------------------#
#-------------------ENVERUS, INC.------------------#
#------------------WWW.ENVERUS.COM-----------------#
#------------------COPYRIGHT 2020------------------#
#--------------------------------------------------#
#THIS FILE MAY BE USED ONLY IN ACCORDANCE WITH A CURRENT SUBSCRIPTION AGREEMENT BETWEEN
#THE USER AND ENVERUS, INC. NO PART OF THIS FILE MAY BE REPRODUCED, USED, COPIED,
#MODIFIED, PROPAGATED, OR DISTRIBUTED EXCEPT IN ACCORDANCE WITH THE SUBSCRIPTION
#AGREEMENT. UNAUTHORIZED USE OR DISTRIBUTION OF ALL OR ANY PART OF THIS FILE MAY VIOLATE
#COPYRIGHT, TRADEMARK, AND/OR OTHER LAWS AND IS SUBJECT TO CIVIL AS WELL AS CRIMINAL
#SANCTIONS.
#--------------------------------------------------#
#THIS FILE IS PROVIDED "AS-IS" AND ALL WARRANTIES ARE EXPRESSLY DISCLAIMED, WHETHER
#EXPRESS, ORAL, IMPLIED, STATUTORY OR OTHERWISE, INCLUDING ANY IMPLIED WARRANTY OF FITNESS
#FOR A PARTICULAR PURPOSE, MERCHANTABILITY, TITLE OR NON-INFRINGEMENT, AND ANY WARRANTIES
#ARISING BY VIRTUE OF CUSTOM OF TRADE OR COURSE OF DEALING.  FURTHER, ENVERUS, INC.
#AND ITS LICENSORS DO NOT REPRESENT OR WARRANT THAT THIS FILE WILL MEET USER'S
#REQUIREMENTS OR ARE SUITABLE FOR USER'S NEEDS OR THAT THE DATA OR RESULTS PROVIDED IN
#CONJUNCTION THEREWITH ARE CORRECT, ACCURATE, TIMELY OR RELIABLE. THESE DISCLAIMERS SHALL
#APPLY REGARDLESS OF ANY FAILURE OF ESSENTIAL PURPOSE OF ANY LIMITED REMEDY.  SOME
#JURISDICTIONS DO NOT ALLOW THE EXCLUSION OF CERTAIN WARRANTIES SO SOME OF THE ABOVE
#EXCLUSIONS MAY NOT APPLY. IN NO EVENT SHALL ENVERUS, INC. OR ANY OF ITS AFFILIATES
#BE LIABLE UNDER ANY LEGAL THEORY, WHETHER IN TORT (INCLUDING WITHOUT LIMITATION
#NEGLIGENCE), CONTRACT, STRICT LIABILITY, STATUTORY OR OTHERWISE, FOR ANY SPECIAL,
#INCIDENTAL, CONSEQUENTIAL, EXEMPLARY, PUNITIVE OR INDIRECT DAMAGE OF ANY KIND, INCLUDING
#WITHOUT LIMITATION LOSS OF REVENUE, PROFITS, GOODWILL, USE, AND/OR DATA OR THE COST OF
#PROCUREMENT OF SUBSTITUTE GOODS OR SERVICES, EVEN IF APPRISED OF THE POSSIBILITY OF SUCH
#DAMAGES IN ADVANCE.
#--------------------------------------------------#

~VERSION INFORMATION
VERS. 2.0 : CWLS LOG ASCII STANDARD - VERSION 2.0
WRAP.  NO : ONE LINE PER DEPTH STEP
~WELL INFORMATION
#MNEMONIC     .UNIT              VALUE :DESCRIPTION
STRT       .FT                101 :START DEPTH
STOP       .FT                5444 :STOP DEPTH
STEP       .FT                   0.500 :STEP
NULL       .                  -999.99 :NULL
UWI        .                42389004350000 :UNIQUE WELL ID
API        .                42389004350000 :API NUMBER
COMP       .         :COMPANY
WELL       .        :WELL
DATE       .                 :LOG DATE
FLD       .                 :FIELD NAME
LOC       .                  UNK :LOCATION
CNTY       .                 UNK :COUNTY
STAT       .                 UNK :STATE
CTRY       .                 UNK :COUNTY
SRVC       .                 UNK :SERVICE COMPANY
~CURVE INFORMATION
#MNEMONIC     .UNIT      API CODE :CURVE DESCRIPTION
DEPTH       .FT                      :MEASURED DEPTH
DT.MSEC/FT        UNKNOWN   :DT
GR.API        UNKNOWN   :GR
~A    DEPTH    DT    GR
# ...
 4956.5     48.38455   9.88037
 4957     48.50546   9.96357
 4957.5     48.62636   9.69788
 4958     48.74727   9.43219
 4958.5     48.86818   9.16649
 4959     48.98909   11.57597
 4959.5     48.97709   11.52523
 4960     48.82971   11.47449
 4960.5     48.68234   11.42375
 4961     48.53496   11.37301
 4961.5     48.38759   11.32227
 4962     48.46096   11.27153
 4962.5     48.59908   10.69662
 4963     48.7372   9.95116
 4963.5     48.85526   9.20569
 4964     48.7617   9.1602
 4964.5     48.66814   9.58049
 4965     48.57458   10.00077
 4965.5     48.48102   10.42105
 4966     48.44678   10.84133
 4966.5     48.51754   11.26162
 4967     48.5883   11.34644
 4967.5     48.65906   10.60098
 4968     48.72982   9.85551
 4968.5     48.80058   9.11004
 4969     48.85761   8.36457
 4969.5     48.63104   7.6191
 4970     48.40447   6.87364
 4970.5     48.1779   6.12817
 4971     47.95133   5.3827
 4971.5     48.06243   5.65841
 4972     48.2314   6.07874
 4972.5     48.40037   6.49908
 4973     48.56934   6.91941
 4973.5     48.73831   7.33975
 4974     48.66746   7.76008
 4974.5     48.42573   7.76526
 4975     48.18401   7.44778
 4975.5     47.94229   7.13031
 4976     48.16098   6.81284
 4976.5     48.42192   6.49536
 4977     48.68286   6.17789
 4977.5     48.64939   5.86041
 4978     48.51791   5.54294
 4978.5     48.38643   5.37516
 4979     48.25495   6.06817
 4979.5     48.12348   6.76118
 4980     47.992   7.45419
 4980.5     48.17011   8.14719
 4981     48.35511   8.8402
 4981.5     48.54011   9.53321
 4982     48.72511   8.49738
 4982.5     48.91011   7.11887
 4983     49.09511   5.74035
 4983.5     49.28012   4.36184
 4984     49.41662   4.39474
 4984.5     48.93104   5.25912
 4985     48.79428   6.12349
 4985.5     48.99834   6.98786
 4986     49.2024   7.85224
 4986.5     49.40646   8.71661
 4987     49.61051   8.35073
 4987.5     49.81457   7.75415
 4988     50.01863   8.14641
 4988.5     49.07659   8.88905
 4989     47.52287   9.63169
 4989.5     46.15693   9.16188
 4990     46.94503   7.82104
 4990.5     47.73314   7.44173
 4991     47.94899   8.11007
 4991.5     47.38165   8.77841
 4992     46.81432   9.44675
 4992.5     46.49693   9.81321
 4993     46.78146   9.36545
 4993.5     47.066   8.91768
 4994     47.35053   8.46991
 4994.5     47.63507   8.02215
 4995     47.9196   7.57438
 4995.5     47.98301   7.12662
 4996     47.81407   6.67885
 4996.5     47.64513   6.95169
 4997     48.10182   7.29768
 4997.5     48.65607   7.64367
 4998     49.21033   7.98966
 4998.5     49.76458   8.33565
 4999     49.24916   8.68164
 4999.5     48.09634   8.57869
 5000     47.02697   8.17147
 5000.5     47.90903   7.76424
 5001     48.79109   7.35701
 5001.5     49.33237   6.94979
 5002     49.31422   6.54256
 5002.5     49.29606   6.79627
 5003     49.2779   7.20421
 5003.5     49.25975   7.61214
 5004     49.24159   8.02007
 5004.5     49.22344   7.85254
 5005     49.16254   7.3055
 5005.5     49.06628   6.75846
 5006     48.97001   6.63256
 5006.5     48.87375   7.02814
 5007     48.77748   7.42373
 5007.5     48.73109   7.62797
 5008     48.80242   7.36613
 5008.5     48.87375   7.1043
 5009     48.94507   6.84246
 5009.5     49.0164   6.58062
 5010     49.08773   6.31878
 5010.5     49.15906   6.05695
 5011     49.23039   5.79511
 5011.5     49.30172   5.53327
 5012     49.26695   6.02118
 5012.5     49.03729   6.61533
 5013     48.80764   7.20949
 5013.5     48.57799   7.80365
 5014     48.34834   8.3978
 5014.5     48.1584   8.99196
 5015     48.27929   9.58612
 5015.5     48.40018   10.18027
 5016     48.52107   9.50062
 5016.5     48.64196   8.80469
 5017     48.76285   8.10876
 5017.5     48.88375   7.41283
 5018     48.36647   6.98471
 5018.5     47.6841   7.34728
 5019     47.23429   7.70985
 5019.5     47.75869   8.07242
 5020     48.2831   8.43499
 5020.5     48.8075   8.41917
 5021     49.3319   8.05393
 5021.5     46.83226   7.68868
 5022     46.7269   7.32344
 5022.5     46.62153   6.9582
 5023     46.51616   7.08533
 5023.5     45.88545   7.34672
 5024     43.8187   7.60812
 5024.5     41.75195   7.86952
 5025     42.57489   8.13092
 5025.5     44.51918   8.39232
 5026     46.44056   8.65372
 5026.5     46.3892   8.91511
 5027     46.33784   9.17651
 5027.5     46.28648   9.02679
 5028     46.55437   8.80207
 5028.5     47.45642   8.57736
 5029     48.35846   8.35265
 5029.5     49.2605   8.12794
 5030     48.70458   7.90323
 5030.5     47.19932   7.67851
 5031     45.75637   7.4538
 5031.5     46.01139   7.22909
 5032     46.26641   7.00438
 5032.5     46.52143   7.05808
 5033     46.77645   7.68981
 5033.5     47.03147   8.32155
 5034     47.28649   8.95329
 5034.5     47.54152   9.58502
 5035     47.79654   10.21676
 5035.5     47.98186   10.84849
 5036     47.17573   11.48023
 5036.5     46.3696   12.11197
 5037     46.0314   12.07457
 5037.5     46.22092   11.97395
 5038     46.41043   11.87334
 5038.5     46.59994   11.77272
 5039     46.26262   11.67211
 5039.5     45.77659   11.57149
 5040     47.47312   11.82964
 5040.5     49.9614   12.32484
 5041     49.0643   12.82004
 5041.5     48.16719   13.31524
 5042     47.27009   13.81044
 5042.5     46.37298   14.30564
 5043     45.78725   14.80084
 5043.5     45.70133   15.29604
 5044     45.6154   14.79597
 5044.5     45.52947   13.90165
 5045     46.27466   13.00734
 5045.5     47.36003   12.11303
 5046     48.4454   11.21871
 5046.5     49.53078   10.3244
 5047     48.82813   9.43009
 5047.5     48.0651   9.12099
 5048     48.49237   8.89616
 5048.5     49.06691   8.67133
 5049     49.19714   8.44651
 5049.5     47.90451   13.26483
 5050     46.61189   16.00507
 5050.5     45.73975   15.93755
 5051     47.30989   15.87004
 5051.5     47.94672   15.80252
 5052     47.75686   15.735
 5052.5     47.567   15.10939
 5053     47.37714   14.41332
 5053.5     47.18729   13.71725
 5054     46.99743   13.02118
 5054.5     46.80757   12.32511
 5055     46.90773   11.62904
 5055.5     48.20893   11.1724
 5056     49.51013   10.89439
 5056.5     49.68124   10.61638
 5057     48.77592   10.33836
 5057.5     47.87061   10.06035
 5058     48.00204   9.78234
 5058.5     48.22296   9.50433
 5059     48.44387   9.71668
 5059.5     48.66479   11.8059
 5060     48.8857   13.89512
 5060.5     49.10662   15.86128
 5061     48.89875   15.85994
 5061.5     48.39499   15.85859
 5062     47.89124   15.85725
 5062.5     47.38748   15.8559
 5063     48.17221   15.67434
 5063.5     49.03562   15.11988
 5064     49.06861   14.56542
 5064.5     48.90765   14.01096
 5065     48.74669   13.45649
 5065.5     48.97226   12.90203
 5066     49.39225   12.34757
 5066.5     49.24759   11.79311
 5067     48.6385   12.7906
 5067.5     48.02941   13.85521
 5068     47.42032   14.91982
 5068.5     47.23056   15.47976
 5069     47.71009   14.75873
 5069.5     48.18962   14.0377
 5070     48.66915   13.31668
 5070.5     49.14868   12.59565
 5071     49.62821   11.87462
 5071.5     49.70413   11.1536
 5072     49.46215   12.30733
 5072.5     49.22018   13.52728
 5073     48.9782   14.74724
 5073.5     48.73622   15.9672
 5074     48.49425   17.18716
 5074.5     48.36122   18.04273
 5075     48.51213   17.34654
 5075.5     48.66304   16.65035
 5076     48.81395   15.95416
 5076.5     48.96486   15.25797
 5077     49.11577   15.14626
 5077.5     49.26668   15.74166
 5078     49.15827   16.33706
 5078.5     49.0377   16.93246
 5079     48.91714   17.52786
 5079.5     48.79657   16.82983
 5080     48.67601   15.63804
 5080.5     48.55544   14.59337
 5081     48.43488   15.03954
 5081.5     48.31431   15.4857
 5082     48.20408   15.93186
 5082.5     48.34897   15.65183
 5083     48.49386   15.3227
 5083.5     48.63876   14.99356
 5084     48.78365   14.66442
 5084.5     48.92854   14.33529
 5085     48.74708   14.99341
 5085.5     48.46854   16.12726
 5086     48.18999   17.21218
 5086.5     47.91144   17.37659
 5087     47.63289   17.541
 5087.5     47.65389   17.70542
 5088     47.93068   17.86983
 5088.5     48.20747   17.60172
