#--------------------------------------------------#
#-------------------ENVERUS, INC.------------------#
#------------------WWW.ENVERUS.COM-----------------#
#------------------COPYRIGHT 2020------------------#
#--------------------------------------------------#
#THIS FILE MAY BE USED ONLY IN ACCORDANCE WITH A CURRENT SUBSCRIPTION AGREEMENT BETWEEN
#THE USER AND ENVERUS, INC. NO PART OF THIS FILE MAY BE REPRODUCED, USED, COPIED,
#MODIFIED, PROPAGATED, OR DISTRIBUTED EXCEPT IN ACCORDANCE WITH THE SUBSCRIPTION
#AGREEMENT. UNAUTHORIZED USE OR DISTRIBUTION OF ALL OR ANY PART OF THIS FILE MAY VIOLATE
#COPYRIGHT, TRADEMARK, AND/OR OTHER LAWS AND IS SUBJECT TO CIVIL AS WELL AS CRIMINAL
#SANCTIONS.
#--------------------------------------------------#
#THIS FILE IS PROVIDED "AS-IS" AND ALL WARRANTIES ARE EXPRESSLY DISCLAIMED, WHETHER
#EXPRESS, ORAL, IMPLIED, STATUTORY OR OTHERWISE, INCLUDING ANY IMPLIED WARRANTY OF FITNESS
#FOR A PARTICULAR PURPOSE, MERCHANTABILITY, TITLE OR NON-INFRINGEMENT, AND ANY WARRANTIES
#ARISING BY VIRTUE OF CUSTOM OF TRADE OR COURSE OF DEALING.  FURTHER, ENVERUS, INC.
#AND ITS LICENSORS DO NOT REPRESENT OR WARRANT THAT THIS FILE WILL MEET USER'S
#REQUIREMENTS OR ARE SUITABLE FOR USER'S NEEDS OR THAT THE DATA OR RESULTS PROVIDED IN
#CONJUNCTION THEREWITH ARE CORRECT, ACCURATE, TIMELY OR RELIABLE. THESE DISCLAIMERS SHALL
#APPLY REGARDLESS OF ANY FAILURE OF ESSENTIAL PURPOSE OF ANY LIMITED REMEDY.  SOME
#JURISDICTIONS DO NOT ALLOW THE EXCLUSION OF CERTAIN WARRANTIES SO SOME OF THE ABOVE
#EXCLUSIONS MAY NOT APPLY. IN NO EVENT SHALL ENVERUS, INC. OR ANY OF ITS AFFILIATES
#BE LIABLE UNDER ANY LEGAL THEORY, WHETHER IN TORT (INCLUDING WITHOUT LIMITATION
#NEGLIGENCE), CONTRACT, STRICT LIABILITY, STATUTORY OR OTHERWISE, FOR ANY SPECIAL,
#INCIDENTAL, CONSEQUENTIAL, EXEMPLARY, PUNITIVE OR INDIRECT DAMAGE OF ANY KIND, INCLUDING
#WITHOUT LIMITATION LOSS OF REVENUE, PROFITS, GOODWILL, USE, AND/OR DATA OR THE COST OF
#PROCUREMENT OF SUBSTITUTE GOODS OR SERVICES, EVEN IF APPRISED OF THE POSSIBILITY OF SUCH
#DAMAGES IN ADVANCE.
#--------------------------------------------------#

~VERSION INFORMATION
VERS. 2.0 : CWLS LOG ASCII STANDARD - VERSION 2.0
WRAP.  NO : ONE LINE PER DEPTH STEP
~WELL INFORMATION
#MNEMONIC     .UNIT              VALUE :DESCRIPTION
STRT       .FT                75 :START DEPTH
STOP       .FT                5648 :STOP DEPTH
STEP       .FT                   0.500 :STEP
NULL       .                  -999.990 :NULL
UWI        .              42371363570000 :UNIQUE WELL ID
API        .              42371363570000 :API NUMBER
COMP       .         APACHE CORPORATION :COMPANY
WELL       .        SCHLOSSER, FRED ESTATE -B-  13 :WELL
DATE       .                16-MAY-1992 :LOG DATE
~CURVE INFORMATION
#MNEMONIC     .UNIT      API CODE :CURVE DESCRIPTION
DEPTH       .FT                      :MEASURED DEPTH
DT.US/FT        UNKNOWN   :DT
GR.API        UNKNOWN   :GR
~A    DEPTH    DT    GR
# ...
 4477     49.694   4.8
 4477.5     49.523   7.392
 4478     49.353   10.326
 4478.5     49.182   13.259
 4479     48.844   13.404
 4479.5     48.859   13.53
 4480     49.108   13.657
 4480.5     49.358   7.894
 4481     49.608   7.446
 4481.5     49.846   6.998
 4482     50.039   6.55
 4482.5     50.232   6.774
 4483     50.425   7.914
 4483.5     50.472   9.055
 4484     50.518   10.195
 4484.5     50.565   10.572
 4485     50.612   9.849
 4485.5     50.537   9.126
 4486     49.957   8.403
 4486.5     49.377   7.68
 4487     49.238   7.65
 4487.5     49.299   7.716
 4488     49.359   7.783
 4488.5     49.066   7.849
 4489     48.424   7.915
 4489.5     47.967   7.982
 4490     47.975   8.048
 4490.5     48.49   8.114
 4491     49.005   7.949
 4491.5     49.113   7.706
 4492     49.102   7.463
 4492.5     49.092   7.22
 4493     49.034   6.977
 4493.5     48.848   6.734
 4494     48.663   6.491
 4494.5     48.478   6.249
 4495     48.292   6.006
 4495.5     48.261   6.768
 4496     48.382   7.894
 4496.5     48.289   9.019
 4497     48.047   10.145
 4497.5     47.805   11.11
 4498     48.947   10.387
 4498.5     49.138   9.665
 4499     49.329   8.942
 4499.5     49.52   8.219
 4500     49.504   10.187
 4500.5     48.866   11.011
 4501     49.014   10.651
 4501.5     49.175   10.291
 4502     49.318   9.93
 4502.5     49.318   9.57
 4503     49.318   9.418
 4503.5     49.318   9.417
 4504     49.274   9.416
 4504.5     49.129   9.415
 4505     49.241   9.414
 4505.5     49.353   9.413
 4506     49.465   9.412
 4506.5     49.578   10.906
 4507     49.58   12.486
 4507.5     49.496   14.067
 4508     49.411   15.647
 4508.5     49.121   19.058
 4509     48.49   24.091
 4509.5     48.646   29.124
 4510     49.007   35.072
 4510.5     49.277   41.945
 4511     49.25   38.036
 4511.5     49.224   33.062
 4512     49.198   28.088
 4512.5     49.172   23.129
 4513     49.146   18.467
 4513.5     49.12   13.839
 4514     49.094   11.548
 4514.5     49.139   9.258
 4515     49.191   7.35
 4515.5     49.208   7.506
 4516     49.208   7.662
 4516.5     49.208   8.787
 4517     49.208   11.097
 4517.5     49.208   10.779
 4518     49.209   10.461
 4518.5     49.007   10.143
 4519     48.362   9.576
 4519.5     47.718   8.901
 4520     48.29   8.242
 4520.5     49.376   7.712
 4521     48.912   7.183
 4521.5     48.449   6.654
 4522     48.077   6.124
 4522.5     47.902   5.731
 4523     47.726   6.077
 4523.5     47.55   6.423
 4524     47.152   6.77
 4524.5     47.322   7.116
 4525     47.58   7.462
 4525.5     47.621   7.919
 4526     47.539   8.866
 4526.5     47.457   9.813
 4527     47.374   10.76
 4527.5     47.292   11.707
 4528     47.21   12.653
 4528.5     47.128   10.887
 4529     49.313   8.791
 4529.5     53.563   6.695
 4530     58.246   6.118
 4530.5     62.914   5.872
 4531     66.327   5.627
 4531.5     66.338   5.381
 4532     66.349   5.136
 4532.5     66.36   4.904
 4533     60.85   5.182
 4533.5     54.078   5.46
 4534     49.887   5.738
 4534.5     47.833   6.016
 4535     47.007   6.294
 4535.5     46.638   6.572
 4536     46.919   6.85
 4536.5     47.12   7.382
 4537     47.174   7.919
 4537.5     47.227   8.455
 4538     47.502   8.992
 4538.5     47.9   9.219
 4539     47.857   9.16
 4539.5     47.813   9.101
 4540     47.769   9.042
 4540.5     47.539   8.983
 4541     47.23   8.924
 4541.5     46.92   8.865
 4542     48.282   8.78
 4542.5     49.952   7.607
 4543     65.773   6.434
 4543.5     69.624   5.261
 4544     57.91   4.909
 4544.5     49.904   4.806
 4545     46.572   8.513
 4545.5     46.206   9.872
 4546     48.089   10.243
 4546.5     48.549   9.634
 4547     49.299   7.958
 4547.5     49.489   6.283
 4548     49.456   4.607
 4548.5     49.077   5.008
 4549     48.698   6.039
 4549.5     48.671   6.771
 4550     48.704   6.507
 4550.5     48.736   6.243
 4551     48.768   5.979
 4551.5     48.794   5.714
 4552     48.743   5.45
 4552.5     48.691   5.607
 4553     48.493   6.316
 4553.5     48.268   7.025
 4554     48.204   7.734
 4554.5     48.238   8.443
 4555     48.271   9.24
 4555.5     48.304   9.925
 4556     48.337   9.053
 4556.5     48.37   8.181
 4557     48.403   7.31
 4557.5     48.472   6.438
 4558     48.562   5.78
 4558.5     48.653   5.599
 4559     48.744   5.418
 4559.5     48.834   5.237
 4560     48.925   5.055
 4560.5     48.99   4.874
 4561     48.975   4.693
 4561.5     48.959   5.333
 4562     48.943   6.396
 4562.5     48.928   7.46
 4563     48.912   8.724
 4563.5     48.897   10.506
 4564     48.881   9.913
 4564.5     49.174   8.763
 4565     49.495   7.614
 4565.5     49.819   6.464
 4566     50.24   5.518
 4566.5     49.913   5.168
 4567     49.345   4.818
 4567.5     48.778   4.468
 4568     48.654   4.862
 4568.5     48.574   5.423
 4569     48.497   5.985
 4569.5     48.497   6.546
 4570     48.497   7.108
 4570.5     48.498   7.669
 4571     48.498   8.052
 4571.5     48.491   7.812
 4572     48.464   7.571
 4572.5     48.437   7.33
 4573     48.49   7.09
 4573.5     48.659   6.849
 4574     48.828   6.608
 4574.5     48.997   6.367
 4575     49.165   5.937
 4575.5     49.08   5.314
 4576     48.838   4.69
 4576.5     48.596   5.333
 4577     48.391   6.538
 4577.5     48.442   7.744
 4578     48.494   8.77
 4578.5     48.545   9.636
 4579     48.596   10.502
 4579.5     48.648   11.368
 4580     48.699   11.195
 4580.5     48.751   9.989
 4581     48.802   8.782
 4581.5     48.853   7.733
 4582     48.905   7.17
 4582.5     48.971   6.869
 4583     49.046   7.164
 4583.5     49.122   7.46
 4584     49.198   7.755
 4584.5     49.273   7.823
 4585     49.274   7.215
 4585.5     49.201   6.649
 4586     49.129   6.478
 4586.5     49.056   6.308
 4587     48.984   6.137
 4587.5     48.985   6.147
 4588     49.012   6.738
 4588.5     49.039   7.329
 4589     48.937   7.39
 4589.5     48.817   6.858
 4590     48.696   6.325
 4590.5     48.575   5.793
 4591     48.454   5.597
 4591.5     48.472   7.121
 4592     48.509   8.644
 4592.5     48.547   10.168
 4593     48.584   11.267
 4593.5     48.622   12.26
 4594     48.762   13.254
 4594.5     48.919   11.905
 4595     49.231   10.111
 4595.5     49.363   9.131
 4596     49.307   8.588
 4596.5     49.25   8.044
 4597     49.193   8.412
 4597.5     49.136   9.301
 4598     49.093   9.702
 4598.5     49.205   9.002
 4599     49.317   8.302
 4599.5     49.43   8.338
 4600     49.542   9.108
 4600.5     49.551   9.877
 4601     49.497   9.781
 4601.5     49.442   8.916
 4602     49.401   8.051
 4602.5     49.47   7.482
 4603     49.539   7.208
 4603.5     49.609   6.934
 4604     49.678   7.827
 4604.5     49.571   9.195
 4605     49.369   10.563
 4605.5     49.167   11.06
 4606     48.966   11.286
 4606.5     49.127   10.266
 4607     49.358   9.011
 4607.5     49.589   8.233
 4608     49.813   9.021
 4608.5     48.958   9.808
 4609     48.981   10.538
 4609.5     49.302   10.252
 4610     49.2   9.966
 4610.5     49.01   9.68
 4611     48.977   9.907
 4611.5     49.047   10.453
 4612     49.117   10.999
 4612.5     49.187   10.907
 4613     49.257   9.952
 4613.5     49.327   8.998
 4614     49.365   8.044
 4614.5     49.376   7.09
 4615     49.387   6.136
 4615.5     49.396   5.98
 4616     49.356   7.22
 4616.5     49.316   8.149
 4617     49.276   8.169
 4617.5     49.236   8.19
 4618     49.196   8.21
 4618.5     49.176   8.23
 4619     49.2   8.203
 4619.5     49.225   7.816
 4620     49.323   7.429
 4620.5     49.921   7.042
 4621     50.52   6.655
 4621.5     50.785   6.61
 4622     50.785   6.792
 4622.5     50.36   6.974
 4623     49.919   7.493
 4623.5     49.518   8.226
 4624     49.167   8.959
 4624.5     48.817   9.118
 4625     48.901   8.955
 4625.5     49.295   8.793
 4626     49.52   8.63
 4626.5     49.417   8.468
 4627     49.342   8.865
 4627.5     49.484   9.308
 4628     49.627   9.751
 4628.5     49.77   9.642
 4629     49.624   9.329
 4629.5     49.291   9.016
 4630     48.983   8.703
 4630.5     49.029   8.39
 4631     49.074   8.154
