###############################################
##         ENVERUS                           ##
##         ESS - Open Hole                   ##
##         PERMIAN / DELAWARE                ##
##         Nov 04 2023  V4.0                 ##
##         42-371-32680-00-00                ##
###############################################
## Copyright 2017-2023  ENVERUS.  All Rights Reserved. 
## Confidential - Property of ENVERUS, use governed by terms and 
## conditions found within the existing Information Services Subscription Agreement 
## (as may be amended, the “ISSA”) between Customer and ENVERUS. 
## 
~VERSION INFORMATION
# MNEM.UNIT                               DATA : DESCRIPTION OF MNEMONIC
#-----.-----     ----------------------------- : -----------------------------
VERS.                                     2.00 : CWLS LOG ASCII STANDARD - VERSION 2.00
WRAP.                                       NO : MULTIPLE LINES PER DEPTH STEP
VEND.                                  ENVERUS : VENDOR
TYPE.                          ESS - OPEN HOLE : ENVERUS ESSENTIAL CURVES – ACCESSIBLE THROUGH ENVERUS PRISM(TM)
DOC.                                  31991434 : ENVERUS HEADER RAW DOCUMENT ID
#___________________________________________________________________________________________________ 
~WELL INFORMATION 
# uAv5E/S3ZwrMaovXfwZJbnQ+z8RwnTA5GIEFL0LfM7mdkMX/8iXP+LiYgCnT3sJm4ejuYgXNUZeSPI/Yhcow4w== 
# MNEM.UNIT                                              DATA : DESCRIPTION OF MNEMONIC 
#-----.-----                    ----------------------------- : ----------------------------- 
CNTY.                                                   PECOS : COUNTY 
STATE.                                                  TEXAS : STATE 
CNTRY.                                                    USA : COUNTRY 
API.                                             42-371-32680 : API (10 Digit) 
API_14.                                    42-371-32680-00-00 : API (14 Digits) 
API_14_std.                                 42-371-32680-0000 : API (14 Digits Standard) 
UWI.                                           42371326800000 : UNIQUE WELL ID 
WELL.                                     MARALO - STEWART  1 : WELL NAME
STRT.FT                                                  21.0 : START DEPTH
STOP.FT                                               21630.0 : STOP DEPTH
STEP.FT                                                   0.5 : STEP BETWEEN DEPTHS
NULL.                                                 -999.25 : NULL VALUE
COMP.                                            MARALO, INC. : COMPANY 
DATE.                                             11-DEC-1978 : LOG DATE
#___________________________________________________________________________________________________ 
~CURVE INFORMATION 
# MNEM.UNIT           : CURVE DESCRIPTION 
#-----.-----          : ----------------------------- 
 DEPT.FT               : MEASURED DEPTH 
 GR__D.API             : GAMMA RAY (GR) 
 DT__D.US/FT           : SONIC DELTA TRANSIT TIME (DT) 
 RESD__D.OHMM          : DEEP INDUCTION RESISTIVITY (ILD - ILD) 
 #___________________________________________________________________________________________________ 
~A         DEPT          GR__D          DT__D        RESD__D
# ...
        12825.0         62.788         74.140       -999.250
        12825.5         61.360         73.506       -999.250
        12826.0         60.960         73.085       -999.250
        12826.5         60.560         73.904       -999.250
        12827.0         60.161         75.688       -999.250
        12827.5         63.703         77.352       -999.250
        12828.0         67.823         77.666       -999.250
        12828.5         71.943         77.207       -999.250
        12829.0         72.894         77.104       -999.250
        12829.5         71.123         77.296       -999.250
        12830.0         69.351         77.600       -999.250
        12830.5         68.084         78.546       -999.250
        12831.0         69.647         79.538       -999.250
        12831.5         71.209         80.220       -999.250
        12832.0         72.771         80.177       -999.250
        12832.5         74.334         79.108       -999.250
        12833.0         75.896         77.246       -999.250
        12833.5         76.304         75.019       -999.250
        12834.0         71.898         73.127       -999.250
        12834.5         67.492         74.232       -999.250
        12835.0         66.237         75.384       -999.250
        12835.5         66.589         76.344       -999.250
        12836.0         66.941         76.214       -999.250
        12836.5         67.293         74.630       -999.250
        12837.0         68.900         73.168       -999.250
        12837.5         76.903         73.737       -999.250
        12838.0         76.038         74.861       -999.250
        12838.5         73.272         75.379       -999.250
        12839.0         73.641         74.922       -999.250
        12839.5         74.519         74.844       -999.250
        12840.0         75.396         75.234       -999.250
        12840.5         76.274         76.899       -999.250
        12841.0         76.819         78.563         64.893
        12841.5         76.957         79.536         62.527
        12842.0         76.457         79.308         60.161
        12842.5         74.804         78.086         60.326
        12843.0         73.151         77.657         63.406
        12843.5         71.497         77.708         66.486
        12844.0         69.844         77.602         64.062
        12844.5         74.670         77.570         58.125
        12845.0         75.443         78.170         52.187
        12845.5         74.182         78.607         55.349
        12846.0         72.921         78.607         67.789
        12846.5         76.127         78.588         85.928
        12847.0         80.678         78.100        104.068
        12847.5         79.676         76.615        101.904
        12848.0         78.539         75.091         87.928
        12848.5         77.402         73.814         70.575
        12849.0         76.265         74.005         60.825
        12849.5         75.128         74.120         59.846
        12850.0         73.991         74.656         58.866
        12850.5         72.854         76.447         57.887
        12851.0         71.717         78.926         55.354
        12851.5         70.580         81.284         51.615
        12852.0         72.037         82.037         50.682
        12852.5         74.105         81.911         52.564
        12853.0         76.174         80.984         52.232
        12853.5         74.461       -999.250         50.774
        12854.0         69.733       -999.250         49.316
        12854.5         65.005       -999.250         50.581
        12855.0         41.829       -999.250         54.824
        12855.5         43.902       -999.250         59.067
        12856.0         45.183       -999.250         63.310
        12856.5         42.659       -999.250         64.364
        12857.0         40.135       -999.250         62.382
        12857.5         37.611       -999.250         64.588
        12858.0         35.087       -999.250         68.920
        12858.5         32.564       -999.250         73.251
        12859.0         32.892       -999.250         78.621
        12859.5         37.160       -999.250         84.230
        12860.0         40.013       -999.250         87.386
        12860.5         39.082       -999.250         87.816
        12861.0         38.150       -999.250         93.900
        12861.5         37.219       -999.250        105.060
        12862.0         36.287       -999.250        113.880
        12862.5         35.356       -999.250        100.592
        12863.0         36.968       -999.250         87.559
        12863.5         41.115       -999.250         86.805
        12864.0         43.150       -999.250         86.052
        12864.5         41.144       -999.250         82.371
        12865.0         39.137       -999.250         70.071
        12865.5         37.131       -999.250         57.772
        12866.0         35.521       -999.250         50.358
        12866.5         36.401       -999.250         47.087
        12867.0         37.282       -999.250         43.815
        12867.5         38.163       -999.250         41.123
        12868.0         39.043       -999.250         42.043
        12868.5         39.924       -999.250         42.963
        12869.0         40.805       -999.250         43.883
        12869.5         41.685       -999.250         45.913
        12870.0         42.566       -999.250         49.959
        12870.5         43.158       -999.250         54.005
        12871.0         41.734       -999.250         58.052
        12871.5         40.310       -999.250         62.098
        12872.0         38.885       -999.250         66.144
        12872.5         37.461       -999.250         74.633
        12873.0         36.572       -999.250         79.312
        12873.5         39.467       -999.250         78.991
        12874.0         42.362       -999.250         78.670
        12874.5         41.089       -999.250         78.349
        12875.0         39.141       -999.250         75.357
        12875.5         38.312       -999.250         72.260
        12876.0         38.482       -999.250         69.164
        12876.5         38.652       -999.250         63.948
        12877.0         38.822       -999.250         57.693
        12877.5         38.993       -999.250         54.338
        12878.0         32.717       -999.250         51.664
        12878.5         33.252       -999.250         48.990
        12879.0         33.788       -999.250         46.316
        12879.5         34.323       -999.250         43.642
        12880.0         34.858       -999.250         40.967
        12880.5         35.344       -999.250         41.529
        12881.0         35.614       -999.250         43.986
        12881.5         35.885       -999.250         46.443
        12882.0         36.155       -999.250         46.669
        12882.5         36.425       -999.250         44.393
        12883.0         36.695       -999.250         43.936
        12883.5         36.965       -999.250         43.863
        12884.0         37.235       -999.250         43.791
        12884.5         36.824       -999.250         39.873
        12885.0         35.982       -999.250         38.224
        12885.5         35.140       -999.250         36.574
        12886.0         34.299       -999.250         34.925
        12886.5         33.457       -999.250         33.275
        12887.0         32.615       -999.250         31.625
        12887.5         31.774       -999.250         30.252
        12888.0         34.449       -999.250         30.329
        12888.5         37.202       -999.250         31.501
        12889.0         39.955       -999.250         35.038
        12889.5         38.903       -999.250         38.575
        12890.0         34.920       -999.250         42.112
        12890.5         30.936       -999.250         44.001
