#--------------------------------------------------#
#-------------------ENVERUS, INC.------------------#
#------------------WWW.ENVERUS.COM-----------------#
#------------------COPYRIGHT 2020------------------#
#--------------------------------------------------#
#THIS FILE MAY BE USED ONLY IN ACCORDANCE WITH A CURRENT SUBSCRIPTION AGREEMENT BETWEEN
#THE USER AND ENVERUS, INC. NO PART OF THIS FILE MAY BE REPRODUCED, USED, COPIED,
#MODIFIED, PROPAGATED, OR DISTRIBUTED EXCEPT IN ACCORDANCE WITH THE SUBSCRIPTION
#AGREEMENT. UNAUTHORIZED USE OR DISTRIBUTION OF ALL OR ANY PART OF THIS FILE MAY VIOLATE
#COPYRIGHT, TRADEMARK, AND/OR OTHER LAWS AND IS SUBJECT TO CIVIL AS WELL AS CRIMINAL
#SANCTIONS.
#--------------------------------------------------#
#THIS FILE IS PROVIDED "AS-IS" AND ALL WARRANTIES ARE EXPRESSLY DISCLAIMED, WHETHER
#EXPRESS, ORAL, IMPLIED, STATUTORY OR OTHERWISE, INCLUDING ANY IMPLIED WARRANTY OF FITNESS
#FOR A PARTICULAR PURPOSE, MERCHANTABILITY, TITLE OR NON-INFRINGEMENT, AND ANY WARRANTIES
#ARISING BY VIRTUE OF CUSTOM OF TRADE OR COURSE OF DEALING.  FURTHER, ENVERUS, INC.
#AND ITS LICENSORS DO NOT REPRESENT OR WARRANT THAT THIS FILE WILL MEET USER'S
#REQUIREMENTS OR ARE SUITABLE FOR USER'S NEEDS OR THAT THE DATA OR RESULTS PROVIDED IN
#CONJUNCTION THEREWITH ARE CORRECT, ACCURATE, TIMELY OR RELIABLE. THESE DISCLAIMERS SHALL
#APPLY REGARDLESS OF ANY FAILURE OF ESSENTIAL PURPOSE OF ANY LIMITED REMEDY.  SOME
#JURISDICTIONS DO NOT ALLOW THE EXCLUSION OF CERTAIN WARRANTIES SO SOME OF THE ABOVE
#EXCLUSIONS MAY NOT APPLY. IN NO EVENT SHALL ENVERUS, INC. OR ANY OF ITS AFFILIATES
#BE LIABLE UNDER ANY LEGAL THEORY, WHETHER IN TORT (INCLUDING WITHOUT LIMITATION
#NEGLIGENCE), CONTRACT, STRICT LIABILITY, STATUTORY OR OTHERWISE, FOR ANY SPECIAL,
#INCIDENTAL, CONSEQUENTIAL, EXEMPLARY, PUNITIVE OR INDIRECT DAMAGE OF ANY KIND, INCLUDING
#WITHOUT LIMITATION LOSS OF REVENUE, PROFITS, GOODWILL, USE, AND/OR DATA OR THE COST OF
#PROCUREMENT OF SUBSTITUTE GOODS OR SERVICES, EVEN IF APPRISED OF THE POSSIBILITY OF SUCH
#DAMAGES IN ADVANCE.
#--------------------------------------------------#

~VERSION INFORMATION
VERS. 2.0 : CWLS LOG ASCII STANDARD - VERSION 2.0
WRAP. NO : ONE LINE PER DEPTH STEP
~WELL INFORMATION
#MNEMONIC     .UNIT              VALUE :DESCRIPTION
STRT       .FT                7.00000 :START DEPTH
STOP       .FT                16581.00000 :STOP DEPTH
STEP       .FT                0.50000 :STEP
NULL       .                -999.25000 :NULL VALUE
UWI       .                42389300260000 :UNIQUE WELL ID
API       .                42389300260000 :API NUMBER
COMP       .                 :COMPANY
WELL       .                 :WELL
FLD       .                 :FIELD
LOC       .                 :LOCATION
CNTY       .                 :COUNTY
STAT       .                 :STATE
CTRY       .                 :COUNTRY
SRVC       .                 :SERVICE COMPANY
DATE       .                 :DATE
~CURVE INFORMATION
#MNEMONIC     .UNIT      API CODE :CURVE DESCRIPTION
DEPTH       .FT                      :MEASURED DEPTH
CAL       .IN        UNKNOWN   :CAL
DT       .US/FT        UNKNOWN   :DT
GR       .GAPI        UNKNOWN   :GR
~A    DEPTH    CAL    DT    GR
# ...
14892.50000    9.51389    80.59738    131.28008
14893.00000    9.46541    79.03833    133.25334
14893.50000    9.41692    77.29109    135.22659
14894.00000    9.36843    75.54385    137.19985
14894.50000    9.31994    74.53306    138.96612
14895.00000    9.29126    74.86470    139.23929
14895.50000    9.30070    75.19635    139.51245
14896.00000    9.31014    75.52799    139.78562
14896.50000    9.31958    75.85964    138.60936
14897.00000    9.32902    78.98229    131.87785
14897.50000    9.33846    80.64039    126.22920
14898.00000    9.34790    80.02342    126.84407
14898.50000    9.35734    79.40645    127.45894
14899.00000    9.36678    78.78948    130.75586
14899.50000    9.37181    78.17252    133.73172
14900.00000    9.30791    77.55555    136.70757
14900.50000    9.24401    78.04962    139.68343
14901.00000    9.19251    78.82378    138.69207
14901.50000    9.28400    79.59794    136.08974
14902.00000    9.37548    80.14704    134.02304
14902.50000    9.46697    79.19808    138.33680
14903.00000    9.55846    78.24912    136.92389
14903.50000    9.49003    77.30016    135.51098
14904.00000    9.40484    76.35119    115.68416
14904.50000    9.31964    75.85185    115.17690
14905.00000    9.23445    77.27759    114.66964
14905.50000    9.24061    78.70334    114.16238
14906.00000    9.29909    79.04085    113.65512
14906.50000    9.35758    79.08551    111.74635
14907.00000    9.41606    79.49993    108.03253
14907.50000    9.47455    79.91434    108.19643
14908.00000    9.53303    80.32876    108.36034
14908.50000    9.59152    80.74317    108.52424
14909.00000    9.61523    81.14477    113.40238
14909.50000    9.60509    81.54632    119.50024
14910.00000    9.59494    81.94786    125.59810
14910.50000    9.58480    82.34940    131.44835
14911.00000    9.57466    77.28049    130.10279
14911.50000    9.56451    76.72736    128.75723
14912.00000    9.55437    76.35521    127.41167
14912.50000    9.54423    75.98306    126.06611
14913.00000    9.53408    75.61091    124.72055
14913.50000    9.52394    76.18834    123.52430
14914.00000    9.53519    79.00116    123.79770
14914.50000    9.58485    78.56170    124.07109
14915.00000    9.63452    77.98430    124.34449
14915.50000    9.68418    77.40690    124.90242
14916.00000    9.71023    76.82951    126.78208
14916.50000    9.61191    76.25212    128.66174
14917.00000    9.51358    76.27633    130.54140
14917.50000    9.43898    77.45958    132.42106
14918.00000    9.48413    78.64284    134.30072
14918.50000    9.52929    78.93790    136.18038
14919.00000    9.57444    78.63985    137.65333
14919.50000    9.61960    78.34180    134.46512
14920.00000    9.62853    78.04376    131.27691
14920.50000    9.60719    77.74571    128.08871
14921.00000    9.58586    76.38028    124.90050
14921.50000    9.56452    74.97378    124.88201
14922.00000    9.54319    74.25307    129.65796
14922.50000    9.52185    73.53236    131.04653
14923.00000    9.50052    73.36219    128.40952
14923.50000    9.47918    75.03401    122.76892
14924.00000    9.45785    76.70584    117.12832
14924.50000    9.53069    78.37766    111.48771
14925.00000    9.65401    79.61803    110.95086
14925.50000    9.77732    80.66746    111.93717
14926.00000    9.90064    81.71689    112.92348
14926.50000    10.02395    82.76632    113.09157
14927.00000    10.14727    83.80643    112.51253
14927.50000    10.27058    83.23499    111.93349
14928.00000    10.39390    82.66355    111.35445
14928.50000    10.51721    82.09211    110.77542
14929.00000    10.68445    81.52067    114.46482
14929.50000    10.69140    80.94923    118.49345
14930.00000    10.60163    80.37779    122.52208
14930.50000    10.51186    81.30211    122.32955
14931.00000    10.42210    82.34685    120.71810
14931.50000    10.33233    83.39158    119.10664
14932.00000    10.24256    82.35099    117.49519
14932.50000    10.23602    80.45907    117.51519
14933.00000    10.26558    78.56716    117.99358
14933.50000    10.29514    76.67524    118.47196
14934.00000    10.21148    77.59938    118.95035
14934.50000    10.09036    78.78689    119.42874
14935.00000    9.96924    79.18401    119.90712
14935.50000    9.91010    79.10105    120.38551
14936.00000    9.98391    79.01809    120.86390
14936.50000    10.05772    78.93512    123.76157
14937.00000    10.13153    79.25135    126.76227
14937.50000    10.10516    80.08111    129.76298
14938.00000    9.99734    80.91087    128.36554
14938.50000    9.88952    81.74062    132.04195
14939.00000    9.78169    82.57038    131.94159
14939.50000    9.74535    81.54035    131.84122
14940.00000    9.74035    80.13204    131.74086
14940.50000    9.73535    78.72372    131.64049
14941.00000    9.73035    77.31541    134.24328
14941.50000    9.72535    75.90709    146.00999
14942.00000    9.72034    78.69914    151.75701
14942.50000    9.71534    81.60326    149.00316
14943.00000    9.68247    79.95199    146.24931
14943.50000    9.64759    79.17796    143.49546
14944.00000    9.61271    79.46369    140.74161
14944.50000    9.57782    79.74942    137.98776
14945.00000    9.54294    78.74171    137.51133
14945.50000    9.50806    76.73484    129.31405
14946.00000    9.53163    75.30490    121.11677
14946.50000    9.55579    74.56134    112.91949
14947.00000    9.57995    73.81778    104.72220
14947.50000    9.60410    71.05541    102.12929
14948.00000    9.62825    68.20728    108.27430
14948.50000    9.54636    68.51750    114.41930
14949.00000    9.45721    69.42878    120.56431
14949.50000    9.36805    70.34006    126.70932
14950.00000    9.27890    71.25133    132.85432
14950.50000    9.28996    72.16261    138.99932
14951.00000    9.35218    73.07388    139.74315
14951.50000    9.41440    73.98516    140.05130
14952.00000    9.45253    74.89644    140.35945
14952.50000    9.43691    75.56841    140.66760
14953.00000    9.42129    76.10031    140.97575
14953.50000    9.40568    76.63221    141.28390
14954.00000    9.39006    77.16411    143.05731
14954.50000    9.37444    77.69601    144.91859
14955.00000    9.40471    77.92044    146.77986
14955.50000    9.44613    78.00363    145.21892
14956.00000    9.48755    78.08682    143.60768
14956.50000    9.52896    78.17001    141.49487
14957.00000    9.57038    78.25320    139.17823
14957.50000    9.61180    78.33639    136.86158
14958.00000    9.65321    78.41958    134.54494
14958.50000    9.69463    78.47175    132.22829
14959.00000    9.73605    78.42651    129.91165
14959.50000    9.72353    78.38128    127.59500
14960.00000    9.71002    78.33604    130.67840
14960.50000    9.69651    78.29081    134.66018
14961.00000    9.68301    77.60670    138.64196
14961.50000    9.66950    76.63315    135.88346
14962.00000    9.65599    75.65959    132.69622
14962.50000    9.64248    74.68604    129.50897
14963.00000    9.62897    73.71249    126.32173
14963.50000    9.61546    72.73894    123.13449
14964.00000    9.60195    72.75482    119.94724
14964.50000    9.58844    72.92968    119.17284
14965.00000    9.57493    73.59193    118.97087
14965.50000    9.57106    74.37862    118.76889
14966.00000    9.59179    75.16532    121.03449
14966.50000    9.61251    75.51976    123.88829
14967.00000    9.63324    75.83247    126.74210
14967.50000    9.65396    76.14518    129.59590
14968.00000    9.67469    76.45789    132.44971
14968.50000    9.69541    76.77060    131.54657
14969.00000    9.71614    76.82290    128.75028
14969.50000    9.73686    76.33790    125.95399
14970.00000    9.75647    75.85291    123.15770
14970.50000    9.69054    75.36792    120.36141
14971.00000    9.62460    74.88293    117.56512
14971.50000    9.55867    74.98373    117.52205
14972.00000    9.55730    75.36956    119.73184
14972.50000    9.59871    75.75540    121.94162
14973.00000    9.64013    76.14123    124.15140
14973.50000    9.68154    76.52707    126.36119
14974.00000    9.67699    76.14366    128.57097
14974.50000    9.60328    75.18550    130.78075
14975.00000    9.52957    74.22734    146.85179
14975.50000    9.45586    74.49727    146.76309
