#--------------------------------------------------#
#-------------------ENVERUS, INC.------------------#
#------------------WWW.ENVERUS.COM-----------------#
#------------------COPYRIGHT 2020------------------#
#--------------------------------------------------#
#THIS FILE MAY BE USED ONLY IN ACCORDANCE WITH A CURRENT SUBSCRIPTION AGREEMENT BETWEEN
#THE USER AND ENVERUS, INC. NO PART OF THIS FILE MAY BE REPRODUCED, USED, COPIED,
#MODIFIED, PROPAGATED, OR DISTRIBUTED EXCEPT IN ACCORDANCE WITH THE SUBSCRIPTION
#AGREEMENT. UNAUTHORIZED USE OR DISTRIBUTION OF ALL OR ANY PART OF THIS FILE MAY VIOLATE
#COPYRIGHT, TRADEMARK, AND/OR OTHER LAWS AND IS SUBJECT TO CIVIL AS WELL AS CRIMINAL
#SANCTIONS.
#--------------------------------------------------#
#THIS FILE IS PROVIDED "AS-IS" AND ALL WARRANTIES ARE EXPRESSLY DISCLAIMED, WHETHER
#EXPRESS, ORAL, IMPLIED, STATUTORY OR OTHERWISE, INCLUDING ANY IMPLIED WARRANTY OF FITNESS
#FOR A PARTICULAR PURPOSE, MERCHANTABILITY, TITLE OR NON-INFRINGEMENT, AND ANY WARRANTIES
#ARISING BY VIRTUE OF CUSTOM OF TRADE OR COURSE OF DEALING.  FURTHER, ENVERUS, INC.
#AND ITS LICENSORS DO NOT REPRESENT OR WARRANT THAT THIS FILE WILL MEET USER'S
#REQUIREMENTS OR ARE SUITABLE FOR USER'S NEEDS OR THAT THE DATA OR RESULTS PROVIDED IN
#CONJUNCTION THEREWITH ARE CORRECT, ACCURATE, TIMELY OR RELIABLE. THESE DISCLAIMERS SHALL
#APPLY REGARDLESS OF ANY FAILURE OF ESSENTIAL PURPOSE OF ANY LIMITED REMEDY.  SOME
#JURISDICTIONS DO NOT ALLOW THE EXCLUSION OF CERTAIN WARRANTIES SO SOME OF THE ABOVE
#EXCLUSIONS MAY NOT APPLY. IN NO EVENT SHALL ENVERUS, INC. OR ANY OF ITS AFFILIATES
#BE LIABLE UNDER ANY LEGAL THEORY, WHETHER IN TORT (INCLUDING WITHOUT LIMITATION
#NEGLIGENCE), CONTRACT, STRICT LIABILITY, STATUTORY OR OTHERWISE, FOR ANY SPECIAL,
#INCIDENTAL, CONSEQUENTIAL, EXEMPLARY, PUNITIVE OR INDIRECT DAMAGE OF ANY KIND, INCLUDING
#WITHOUT LIMITATION LOSS OF REVENUE, PROFITS, GOODWILL, USE, AND/OR DATA OR THE COST OF
#PROCUREMENT OF SUBSTITUTE GOODS OR SERVICES, EVEN IF APPRISED OF THE POSSIBILITY OF SUCH
#DAMAGES IN ADVANCE.
#--------------------------------------------------#

~VERSION INFORMATION
VERS. 2.0 : CWLS LOG ASCII STANDARD - VERSION 2.0
WRAP.  NO : ONE LINE PER DEPTH STEP
~WELL INFORMATION
#MNEMONIC     .UNIT              VALUE :DESCRIPTION
STRT       .FT                10841 :START DEPTH
STOP       .FT                18209 :STOP DEPTH
STEP       .FT                   0.500 :STEP
NULL       .                  -999.99 :NULL
UWI        .                42371326180000 :UNIQUE WELL ID
API        .                42371326180000 :API NUMBER
COMP       .         :COMPANY
WELL       .        :WELL
DATE       .                 :LOG DATE
FLD       .                 :FIELD NAME
LOC       .                  UNK :LOCATION
CNTY       .                 UNK :COUNTY
STAT       .                 UNK :STATE
CTRY       .                 UNK :COUNTY
SRVC       .                 UNK :SERVICE COMPANY
~CURVE INFORMATION
#MNEMONIC     .UNIT      API CODE :CURVE DESCRIPTION
DEPTH       .FT                      :MEASURED DEPTH
CAL.IN        UNKNOWN   :CAL
DT.MSEC/FT        UNKNOWN   :DT
GR.API        UNKNOWN   :GR
ILD.OHM        UNKNOWN   :ILD
ILS.OHM        UNKNOWN   :ILS
SP.MV        UNKNOWN   :SP
~A    DEPTH    CAL    DT    GR    ILD    ILS    SP
# ...
 16182     10.18896   73.98999   64.45283   7.38724   9.17915   -18.23434
 16182.5     10.16172   73.63341   60.08911   7.23578   9.99027   -18.0646
 16183     10.13448   72.23515   57.83337   7.08433   10.56791   -17.89485
 16183.5     10.12314   71.27082   58.85176   7.16765   10.13332   -17.7251
 16184     10.11657   71.43418   60.68455   7.32849   9.70548   -17.55536
 16184.5     10.11001   72.25458   62.24066   7.48933   9.66361   -17.38561
 16185     10.10344   72.92053   63.3221   7.61059   9.62175   -17.28193
 16185.5     10.09688   73.1296   62.77649   7.56439   9.57988   -17.23058
 16186     10.09032   73.16297   61.90025   7.51819   9.7167   -17.17923
 16186.5     10.08375   73.458   63.67897   7.43219   10.03627   -17.12788
 16187     10.07719   73.79103   65.6299   7.3253   10.35584   -17.07653
 16187.5     10.07062   73.87661   65.32896   7.21841   10.67541   -17.02518
 16188     10.06406   73.71638   64.20908   7.11151   10.6842   -16.97384
 16188.5     10.05749   73.6254   65.17415   7.00462   9.91062   -16.94418
 16189     10.05093   73.90095   66.32834   6.89773   9.13705   -16.94326
 16189.5     10.04437   74.91601   67.20434   6.79083   8.36348   -16.94233
 16190     10.0378   75.8431   66.69677   6.87627   7.90906   -16.94141
 16190.5     10.03124   76.1478   65.99728   6.98204   8.21376   -16.94049
 16191     10.02337   76.07405   64.62094   7.08782   8.47083   -16.88371
 16191.5     10.00875   75.32789   62.49638   7.1936   8.6678   -16.75594
 16192     9.99413   74.61056   59.4994   7.29938   9.52406   -16.62817
 16192.5     9.9795   73.90089   56.21407   7.36976   10.58802   -16.5004
 16193     9.96488   73.27414   54.68745   7.22895   11.65198   -16.37263
 16193.5     9.95026   72.46382   55.11743   7.08813   10.94092   -16.24486
 16194     9.93563   71.68412   57.56538   6.94732   9.90644   -16.52255
 16194.5     9.92385   71.52967   62.15967   6.80651   8.62852   -16.94359
 16195     9.94238   72.50434   66.11709   6.66569   7.35061   -17.36462
 16195.5     9.9609   74.03679   69.71969   6.52488   6.90862   -17.78566
 16196     9.97943   75.20743   68.60807   6.38406   7.08975   -17.93266
 16196.5     9.99796   77.53974   66.69982   6.24325   7.27087   -17.75647
 16197     10.01649   78.00839   66.70107   6.38022   7.30837   -17.58027
 16197.5     10.03502   78.05845   67.89646   6.75122   7.22495   -17.40408
 16198     10.05355   77.93986   69.13244   7.18241   7.14154   -17.22789
 16198.5     10.07207   77.64226   69.22474   7.73637   8.31363   -17.05169
 16199     10.0906   77.31634   66.5489   8.29033   9.68651   -17.01099
 16199.5     10.10913   76.95309   61.87815   8.8443   14.06418   -17.31332
 16200     10.08157   76.16797   52.2543   9.05809   19.91904   -17.61564
 16200.5     10.0483   74.83005   46.29095   9.15526   21.99662   -17.91797
 16201     10.01502   73.22727   45.34546   9.00469   23.93973   -18.2203
 16201.5     9.98174   71.66353   49.75494   8.64643   17.97564   -18.11615
 16202     9.94846   70.8315   57.53698   8.28817   12.91092   -17.64797
 16202.5     9.97496   70.89304   64.25013   7.92991   7.8462   -17.1798
 16203     10.00847   73.10241   67.43917   7.57165   6.56694   -17.07572
 16203.5     10.04198   75.77918   65.48025   7.4649   7.23004   -17.43153
 16204     10.07008   77.12063   61.75007   7.40784   8.31714   -17.78734
 16204.5     10.06716   77.14521   54.05001   7.60191   10.8207   -18.14315
 16205     10.06424   74.8732   51.3184   7.85576   13.25613   -18.28533
 16205.5     10.06132   71.61392   49.73066   8.10961   14.97307   -18.10592
 16206     10.05841   69.28447   48.81452   8.36346   16.02353   -17.92651
 16206.5     10.05549   66.84395   48.45182   8.6173   14.78565   -17.7471
 16207     10.05257   66.05554   50.22745   8.8868   13.06739   -17.56769
 16207.5     10.04965   66.26474   52.5896   8.93647   11.34913   -17.38829
 16208     10.04673   67.05803   53.97209   8.58344   10.72684   -17.20888
 16208.5     10.04382   69.09824   53.61485   8.23041   11.15468   -17.02947
 16209     10.0409   70.50397   53.20768   7.87738   11.98495   -16.94545
 16209.5     10.03798   70.5788   54.36798   7.78642   12.29836   -17.0609
 16210     10.03506   70.14165   58.1834   7.75207   11.47084   -17.17634
 16210.5     10.03214   69.42301   62.65994   7.71772   10.64332   -17.22527
 16211     10.05645   69.79744   64.27149   7.68337   9.81581   -17.05583
 16211.5     10.11922   71.15908   61.81303   7.64903   10.05954   -16.88639
 16212     10.13503   72.53896   58.58916   7.61468   10.32056   -16.71694
 16212.5     10.12101   73.28878   56.42137   7.58033   10.58158   -16.5475
 16213     10.10571   72.97005   56.30673   7.86296   10.45869   -16.83039
 16213.5     10.09029   72.32383   56.19208   8.18332   10.31796   -17.13336
 16214     10.07435   72.13355   57.27423   8.50369   10.31206   -17.43633
 16214.5     10.05841   72.23295   58.44024   8.82405   11.42744   -17.7393
 16215     10.04248   72.03686   59.32841   9.14442   12.62496   -17.88278
 16215.5     10.02654   71.60424   59.20218   9.43242   14.91255   -17.40208
 16216     10.01062   71.13075   59.07595   9.47263   17.20015   -16.92138
 16216.5     9.99643   70.46974   57.43559   9.39157   18.02992   -16.44069
 16217     9.98223   70.653   55.52499   8.95627   18.16997   -15.95999
 16217.5     9.96804   71.02433   54.78144   8.52097   16.48257   -16.04419
 16218     9.95384   70.20175   57.46473   8.08567   13.87248   -16.38034
 16218.5     9.93965   69.90463   60.30029   7.67588   11.26239   -16.7165
 16219     9.94641   70.28998   63.01149   7.30599   8.74418   -17.05265
 16219.5     9.99079   71.70853   63.50809   6.9361   7.74261   -17.04121
 16220     10.01718   73.31403   64.0047   6.67329   7.51296   -16.53434
 16220.5     10.03499   75.83794   66.39894   6.84148   7.87031   -16.02747
 16221     10.05281   76.46925   68.95088   7.00967   8.22765   -16.01064
 16221.5     10.07062   76.62796   71.01142   7.28648   9.04429   -16.37411
 16222     10.04222   76.32695   70.81729   7.6209   9.92995   -16.73759
 16222.5     10.00012   75.63339   68.5239   7.95531   10.81561   -17.10106
 16223     9.95803   74.6851   66.39187   8.27013   11.61575   -17.46454
 16223.5     9.91594   73.68673   64.85202   8.36735   12.32225   -17.82801
 16224     9.91421   73.15122   67.19479   8.46457   12.3144   -17.78679
 16224.5     9.9215   72.79859   71.79201   8.56178   12.113   -17.49646
 16225     9.9288   72.76883   75.62024   8.47081   11.58969   -17.20613
 16225.5     9.92721   73.87502   73.55842   8.29738   10.66008   -16.9158
 16226     9.92469   74.66932   70.2636   8.12395   9.73048   -16.62547
 16226.5     9.92216   75.00885   67.10815   7.95051   8.80088   -16.51788
 16227     9.91964   75.26944   63.28449   8.10466   8.93385   -16.51712
 16227.5     9.91711   75.53541   59.46083   8.26377   9.35075   -16.51635
 16228     9.91459   75.50686   55.17971   8.42288   9.76764   -16.51558
 16228.5     9.91206   75.01285   51.97199   8.83572   10.18454   -16.51482
 16229     9.90953   74.39269   52.40455   9.32734   12.10917   -16.51405
 16229.5     9.92244   73.98484   51.63997   9.81896   15.15858   -16.51328
 16230     9.93541   73.79965   50.87538   9.53953   18.20799   -16.53214
 16230.5     9.94838   73.79925   52.02495   8.92602   19.4219   -16.57041
 16231     9.96135   73.58556   56.24526   8.31251   17.58356   -16.60868
 16231.5     9.97432   72.87122   60.38777   7.70727   14.02061   -16.64695
 16232     9.98729   72.68988   62.88202   7.76152   10.45765   -16.68522
 16232.5     10.00026   72.90155   61.98913   7.81577   6.8947   -16.7235
 16233     10.01323   73.93332   57.15206   7.87003   7.03801   -16.76177
 16233.5     10.01049   76.28087   50.28315   8.16256   8.3499   -16.80004
 16234     10.00561   78.63382   40.30009   8.59677   23.64865   -16.83831
 16234.5     10.00073   79.88615   31.30318   9.03099   41.15059   -16.83989
 16235     9.99586   78.22791   33.61608   9.76129   49.85506   -16.72206
 16235.5     9.98016   73.35141   41.62   10.95114   53.84325   -16.60423
