#--------------------------------------------------#
#-------------------ENVERUS, INC.------------------#
#------------------WWW.ENVERUS.COM-----------------#
#------------------COPYRIGHT 2020------------------#
#--------------------------------------------------#
#THIS FILE MAY BE USED ONLY IN ACCORDANCE WITH A CURRENT SUBSCRIPTION AGREEMENT BETWEEN
#THE USER AND ENVERUS, INC. NO PART OF THIS FILE MAY BE REPRODUCED, USED, COPIED,
#MODIFIED, PROPAGATED, OR DISTRIBUTED EXCEPT IN ACCORDANCE WITH THE SUBSCRIPTION
#AGREEMENT. UNAUTHORIZED USE OR DISTRIBUTION OF ALL OR ANY PART OF THIS FILE MAY VIOLATE
#COPYRIGHT, TRADEMARK, AND/OR OTHER LAWS AND IS SUBJECT TO CIVIL AS WELL AS CRIMINAL
#SANCTIONS.
#--------------------------------------------------#
#THIS FILE IS PROVIDED "AS-IS" AND ALL WARRANTIES ARE EXPRESSLY DISCLAIMED, WHETHER
#EXPRESS, ORAL, IMPLIED, STATUTORY OR OTHERWISE, INCLUDING ANY IMPLIED WARRANTY OF FITNESS
#FOR A PARTICULAR PURPOSE, MERCHANTABILITY, TITLE OR NON-INFRINGEMENT, AND ANY WARRANTIES
#ARISING BY VIRTUE OF CUSTOM OF TRADE OR COURSE OF DEALING.  FURTHER, ENVERUS, INC.
#AND ITS LICENSORS DO NOT REPRESENT OR WARRANT THAT THIS FILE WILL MEET USER'S
#REQUIREMENTS OR ARE SUITABLE FOR USER'S NEEDS OR THAT THE DATA OR RESULTS PROVIDED IN
#CONJUNCTION THEREWITH ARE CORRECT, ACCURATE, TIMELY OR RELIABLE. THESE DISCLAIMERS SHALL
#APPLY REGARDLESS OF ANY FAILURE OF ESSENTIAL PURPOSE OF ANY LIMITED REMEDY.  SOME
#JURISDICTIONS DO NOT ALLOW THE EXCLUSION OF CERTAIN WARRANTIES SO SOME OF THE ABOVE
#EXCLUSIONS MAY NOT APPLY. IN NO EVENT SHALL ENVERUS, INC. OR ANY OF ITS AFFILIATES
#BE LIABLE UNDER ANY LEGAL THEORY, WHETHER IN TORT (INCLUDING WITHOUT LIMITATION
#NEGLIGENCE), CONTRACT, STRICT LIABILITY, STATUTORY OR OTHERWISE, FOR ANY SPECIAL,
#INCIDENTAL, CONSEQUENTIAL, EXEMPLARY, PUNITIVE OR INDIRECT DAMAGE OF ANY KIND, INCLUDING
#WITHOUT LIMITATION LOSS OF REVENUE, PROFITS, GOODWILL, USE, AND/OR DATA OR THE COST OF
#PROCUREMENT OF SUBSTITUTE GOODS OR SERVICES, EVEN IF APPRISED OF THE POSSIBILITY OF SUCH
#DAMAGES IN ADVANCE.
#--------------------------------------------------#

~VERSION INFORMATION
VERS. 2.0 : CWLS LOG ASCII STANDARD - VERSION 2.0
WRAP.  NO : ONE LINE PER DEPTH STEP
~WELL INFORMATION
#MNEMONIC     .UNIT              VALUE :DESCRIPTION
STRT       .FT                50 :START DEPTH
STOP       .FT                6118 :STOP DEPTH
STEP       .FT                   0.500 :STEP
NULL       .                  -999.990 :NULL
UWI        .              42389003090000 :UNIQUE WELL ID
API        .              42389003090000 :API NUMBER
COMP       .         :COMPANY
WELL       .         1, :WELL
DATE       .                            :LOG DATE
~CURVE INFORMATION
#MNEMONIC     .UNIT      API CODE :CURVE DESCRIPTION
DEPTH       .FT                      :MEASURED DEPTH
NEUT.API        UNKNOWN   :NEUT
GR.API        UNKNOWN   :GR
DT.US/FT        UNKNOWN   :DT
~A    DEPTH    NEUT    GR    DT
# ...
 1701.5     -999.990   13.104   54.75
 1702     -999.990   12.99   58.627
 1702.5     -999.990   16.187   62.504
 1703     -999.990   19.384   66.381
 1703.5     -999.990   18.933   70.259
 1704     -999.990   18.186   74.136
 1704.5     -999.990   17.439   82.742
 1705     -999.990   16.692   82.76
 1705.5     -999.990   15.946   82.777
 1706     -999.990   15.199   72.313
 1706.5     -999.990   14.452   53.266
 1707     -999.990   13.706   53.625
 1707.5     -999.990   12.959   53.983
 1708     -999.990   12.875   54.342
 1708.5     -999.990   13.751   54.701
 1709     -999.990   14.627   55.059
 1709.5     -999.990   15.503   58.523
 1710     -999.990   16.38   60.437
 1710.5     -999.990   17.152   59.905
 1711     -999.990   17.248   59.374
 1711.5     -999.990   17.345   58.842
 1712     -999.990   17.441   58.311
 1712.5     -999.990   17.537   57.779
 1713     -999.990   17.633   72.98
 1713.5     -999.990   18.184   72.742
 1714     -999.990   24.318   69.975
 1714.5     -999.990   30.452   67.208
 1715     -999.990   36.218   64.156
 1715.5     -999.990   40.032   56.143
 1716     -999.990   43.845   48.13
 1716.5     -999.990   39.837   51.042
 1717     -999.990   35.324   54.062
 1717.5     -999.990   30.811   56.397
 1718     -999.990   26.299   56.518
 1718.5     -999.990   21.786   56.639
 1719     -999.990   20.058   59.9
 1719.5     -999.990   18.75   60.165
 1720     -999.990   17.442   60.43
 1720.5     -999.990   16.271   60.695
 1721     -999.990   17.781   67.412
 1721.5     -999.990   19.291   74.582
 1722     -999.990   20.801   74.16
 1722.5     -999.990   22.311   62.068
 1723     -999.990   23.821   67.073
 1723.5     -999.990   25.331   72.079
 1724     -999.990   25.969   50.197
 1724.5     -999.990   24.508   53.951
 1725     -999.990   23.047   58.806
 1725.5     -999.990   21.586   57.771
 1726     -999.990   20.125   56.737
 1726.5     -999.990   18.665   56.15
 1727     -999.990   17.204   59.226
 1727.5     -999.990   15.743   58.951
 1728     -999.990   14.282   49.888
 1728.5     -999.990   12.822   48.884
 1729     -999.990   11.361   50.196
 1729.5     -999.990   9.9   51.508
 1730     -999.990   8.505   52.819
 1730.5     -999.990   8.168   53.099
 1731     -999.990   7.831   52.914
 1731.5     -999.990   7.495   52.729
 1732     -999.990   7.158   52.544
 1732.5     -999.990   6.821   52.507
 1733     -999.990   6.484   53.081
 1733.5     -999.990   6.148   53.656
 1734     -999.990   5.926   54.23
 1734.5     -999.990   6.949   54.804
 1735     -999.990   7.972   55.378
 1735.5     -999.990   8.995   55.106
 1736     -999.990   10.018   54.506
 1736.5     -999.990   11.041   53.906
 1737     -999.990   12.064   54.741
 1737.5     -999.990   13.087   55.949
 1738     -999.990   14.11   57.157
 1738.5     -999.990   14.362   58.365
 1739     -999.990   13.583   65.764
 1739.5     -999.990   12.803   89.356
 1740     -999.990   12.023   88.981
 1740.5     -999.990   11.71   88.607
 1741     -999.990   12.88   76.734
 1741.5     -999.990   14.049   71.727
 1742     -999.990   15.219   74.399
 1742.5     -999.990   16.388   77.071
 1743     -999.990   17.558   56.496
 1743.5     -999.990   17.099   53.019
 1744     -999.990   16.594   51.663
 1744.5     -999.990   16.089   59.602
 1745     -999.990   17.176   70.01
 1745.5     -999.990   19.554   80.418
 1746     -999.990   21.932   87.468
 1746.5     -999.990   24.31   83.743
 1747     -999.990   26.687   80.019
 1747.5     -999.990   26.853   51.087
 1748     -999.990   26.06   46.258
 1748.5     -999.990   25.151   49.854
 1749     -999.990   20.947   55.591
 1749.5     -999.990   16.744   61.328
 1750     -999.990   12.541   58.321
 1750.5     -999.990   8.928   52.379
 1751     -999.990   8.777   51.899
 1751.5     -999.990   8.626   51.418
 1752     -999.990   8.475   50.938
 1752.5     -999.990   8.175   50.594
 1753     -999.990   7.602   50.852
 1753.5     -999.990   7.03   51.11
 1754     -999.990   6.458   51.368
 1754.5     -999.990   5.885   51.627
 1755     -999.990   5.313   51.885
 1755.5     -999.990   9.529   57.093
 1756     -999.990   16.307   65.869
 1756.5     -999.990   24.238   75.385
 1757     -999.990   33.487   58.112
 1757.5     -999.990   42.736   49.253
 1758     -999.990   51.985   50.696
 1758.5     -999.990   61.235   52.14
 1759     -999.990   86.196   53.584
 1759.5     -999.990   105.848   61.046
 1760     -999.990   106.674   78.193
 1760.5     -999.990   87.871   78.152
 1761     -999.990   69.068   78.112
 1761.5     -999.990   50.344   63.736
 1762     -999.990   33.364   46.182
 1762.5     -999.990   16.384   41.158
 1763     -999.990   14.544   39.151
 1763.5     -999.990   13.716   39.069
 1764     -999.990   12.887   38.987
 1764.5     -999.990   12.058   38.905
 1765     -999.990   11.229   54.479
 1765.5     -999.990   11.301   70.803
 1766     -999.990   11.958   69.476
 1766.5     -999.990   12.614   68.149
 1767     -999.990   18.51   66.822
 1767.5     -999.990   17.359   65.494
 1768     -999.990   16.207   74.29
 1768.5     -999.990   15.056   70.103
 1769     -999.990   13.904   65.916
 1769.5     -999.990   12.753   69.755
 1770     -999.990   13.135   69.572
 1770.5     -999.990   13.679   68.312
 1771     -999.990   14.223   67.051
 1771.5     -999.990   14.767   65.791
 1772     -999.990   15.311   68.552
 1772.5     -999.990   15.471   70.765
 1773     -999.990   14.407   69.374
 1773.5     -999.990   13.343   67.984
 1774     -999.990   12.279   66.593
 1774.5     -999.990   12.575   73.285
 1775     -999.990   13.195   70.3
 1775.5     -999.990   13.814   64.845
 1776     -999.990   14.434   66.251
 1776.5     -999.990   15.053   67.657
 1777     -999.990   15.673   69.063
 1777.5     -999.990   16.292   70.469
 1778     -999.990   16.912   69.2
 1778.5     -999.990   17.532   67.81
 1779     -999.990   18.151   66.42
 1779.5     -999.990   18.551   68.489
 1780     -999.990   18.248   72.573
 1780.5     -999.990   17.945   69.932
 1781     -999.990   17.642   67.292
 1781.5     -999.990   17.339   67.05
 1782     -999.990   17.036   68.31
 1782.5     -999.990   16.733   69.569
 1783     -999.990   16.43   69.572
 1783.5     -999.990   16.127   67.548
 1784     -999.990   15.824   67.12
 1784.5     -999.990   15.521   69.994
 1785     -999.990   15.218   63.822
 1785.5     -999.990   14.915   67.064
 1786     -999.990   14.612   70.307
 1786.5     -999.990   15.146   73.55
 1787     -999.990   15.72   72.114
 1787.5     -999.990   16.293   67.421
 1788     -999.990   16.867   62.728
 1788.5     -999.990   17.441   58.035
 1789     -999.990   18.015   76.022
 1789.5     -999.990   15.111   76.063
 1790     -999.990   11.874   75.127
 1790.5     -999.990   10.501   73.142
 1791     -999.990   10.389   71.156
 1791.5     -999.990   10.278   70.739
 1792     -999.990   11.709   70.891
 1792.5     -999.990   19.944   71.043
 1793     -999.990   28.179   62.213
 1793.5     -999.990   36.414   64.123
 1794     -999.990   44.649   46.101
 1794.5     -999.990   53.81   42.567
 1795     -999.990   69.957   43.614
 1795.5     -999.990   85.212   53.9
 1796     -999.990   74.26   54.494
 1796.5     -999.990   63.307   55.912
 1797     -999.990   52.354   61.429
 1797.5     -999.990   41.401   66.083
 1798     -999.990   30.449   61.695
 1798.5     -999.990   19.496   57.307
 1799     -999.990   14.89   52.919
 1799.5     -999.990   10.438   51.356
 1800     -999.990   9.375   54.959
 1800.5     -999.990   10.181   58.562
 1801     -999.990   10.987   62.165
 1801.5     -999.990   11.793   67.101
 1802     -999.990   12.599   72.664
 1802.5     -999.990   13.405   63.399
 1803     -999.990   14.211   60.512
 1803.5     -999.990   14.269   61.259
 1804     -999.990   13.512   53.221
 1804.5     -999.990   12.755   46.391
 1805     -999.990   11.998   40.589
 1805.5     -999.990   11.241   44.058
 1806     -999.990   10.698   50.307
 1806.5     -999.990   11.354   56.556
 1807     -999.990   12.01   62.806
 1807.5     -999.990   12.666   84.048
