###############################################
##         ENVERUS                           ##
##         ESS - Open Hole                   ##
##         PERMIAN / DELAWARE                ##
##         Nov 04 2023  V4.0                 ##
##         42-389-10119-00-00                ##
###############################################
## Copyright 2017-2023  ENVERUS.  All Rights Reserved. 
## Confidential - Property of ENVERUS, use governed by terms and 
## conditions found within the existing Information Services Subscription Agreement 
## (as may be amended, the “ISSA”) between Customer and ENVERUS. 
## 
~VERSION INFORMATION
# MNEM.UNIT                               DATA : DESCRIPTION OF MNEMONIC
#-----.-----     ----------------------------- : -----------------------------
VERS.                                     2.00 : CWLS LOG ASCII STANDARD - VERSION 2.00
WRAP.                                       NO : MULTIPLE LINES PER DEPTH STEP
VEND.                                  ENVERUS : VENDOR
TYPE.                          ESS - OPEN HOLE : ENVERUS ESSENTIAL CURVES – ACCESSIBLE THROUGH ENVERUS PRISM(TM)
DOC.                                  32008410 : ENVERUS HEADER RAW DOCUMENT ID
#___________________________________________________________________________________________________ 
~WELL INFORMATION 
# X8E3XgEZRMs+LiTqjMYqety/5rGXYLbzRNciiYBq17B6ClLelYcJjKNVvvPfWOVGxhvISow7q4Dbthq8gKP2Nw== 
# MNEM.UNIT                                              DATA : DESCRIPTION OF MNEMONIC 
#-----.-----                    ----------------------------- : ----------------------------- 
CNTY.                                                  REEVES : COUNTY 
STATE.                                                  TEXAS : STATE 
CNTRY.                                                    USA : COUNTRY 
API.                                             42-389-10119 : API (10 Digit) 
API_14.                                    42-389-10119-00-00 : API (14 Digits) 
API_14_std.                                 42-389-10119-0000 : API (14 Digits Standard) 
UWI.                                           42389101190000 : UNIQUE WELL ID 
WELL.                                                   1-40, : WELL NAME
STRT.FT                                                  58.0 : START DEPTH
STOP.FT                                                5338.0 : STOP DEPTH
STEP.FT                                                   0.5 : STEP BETWEEN DEPTHS
NULL.                                                 -999.25 : NULL VALUE
#___________________________________________________________________________________________________ 
~CURVE INFORMATION 
# MNEM.UNIT           : CURVE DESCRIPTION 
#-----.-----          : ----------------------------- 
 DEPT.FT               : MEASURED DEPTH 
 GR.API                : GAMMA RAY (GR) 
 DT.US/FT              : SONIC DELTA TRANSIT TIME (DT) 
 #___________________________________________________________________________________________________ 
~A         DEPT             GR             DT
           58.0         34.004       -999.250
           58.5         35.099       -999.250
           59.0         35.849       -999.250
           59.5         33.901       -999.250
           60.0         31.953       -999.250
           60.5         31.726       -999.250
           61.0         32.783       -999.250
           61.5         33.840       -999.250
           62.0         34.897       -999.250
           62.5         34.047       -999.250
           63.0         31.907       -999.250
           63.5         29.952       -999.250
           64.0         31.312       -999.250
           64.5         32.671       -999.250
           65.0         34.031       -999.250
           65.5         35.391       -999.250
           66.0         36.750       -999.250
           66.5         37.173       -999.250
           67.0         36.965       -999.250
           67.5         36.756       -999.250
           68.0         36.548       -999.250
           68.5         36.340       -999.250
           69.0         36.132       -999.250
           69.5         35.923       -999.250
           70.0         35.715       -999.250
           70.5         35.507       -999.250
           71.0         35.333       -999.250
           71.5         35.629       -999.250
           72.0         35.925       -999.250
           72.5         36.222       -999.250
           73.0         36.518       -999.250
           73.5         36.814       -999.250
           74.0         37.111       -999.250
           74.5         37.407       -999.250
           75.0         37.234       -999.250
           75.5         36.709       -999.250
           76.0         36.183       -999.250
           76.5         35.658       -999.250
           77.0         35.132       -999.250
           77.5         34.607       -999.250
           78.0         34.082       -999.250
           78.5         33.538       -999.250
           79.0         32.411       -999.250
           79.5         31.284       -999.250
           80.0         30.156       -999.250
           80.5         29.029       -999.250
           81.0         27.902       -999.250
           81.5         28.999       -999.250
           82.0         30.141       -999.250
           82.5         31.283       -999.250
           83.0         32.425       -999.250
           83.5         33.567       -999.250
           84.0         34.708       -999.250
           84.5         35.850       -999.250
           85.0         36.992       -999.250
           85.5         36.734       -999.250
           86.0         35.268       -999.250
           86.5         33.801       -999.250
           87.0         32.335       -999.250
           87.5         30.868       -999.250
           88.0         32.432       -999.250
           88.5         34.053       -999.250
           89.0         32.297       -999.250
           89.5         30.541       -999.250
           90.0         30.374       -999.250
           90.5         32.039       -999.250
           91.0         33.704       -999.250
           91.5         34.424       -999.250
           92.0         34.176       -999.250
           92.5         33.929       -999.250
           93.0         33.682       -999.250
           93.5         33.435       -999.250
           94.0         33.861       -999.250
           94.5         35.022       -999.250
           95.0         36.183       -999.250
           95.5         36.210       -999.250
           96.0         35.089       -999.250
           96.5         33.969       -999.250
           97.0         32.848       -999.250
           97.5         33.765       -999.250
           98.0         34.760       -999.250
           98.5         35.754       -999.250
           99.0         36.748       -999.250
           99.5         37.742       -999.250
          100.0         37.087       -999.250
          100.5         34.739       -999.250
          101.0         32.391       -999.250
          101.5         30.042       -999.250
          102.0         27.694       -999.250
          102.5         25.346       -999.250
          103.0         23.895       -999.250
          103.5         23.894       -999.250
          104.0         23.893       -999.250
          104.5         24.744       -999.250
          105.0         27.001       -999.250
          105.5         29.259       -999.250
          106.0         31.517       -999.250
          106.5         33.775       -999.250
          107.0         34.845       -999.250
          107.5         34.450       -999.250
          108.0         34.056       -999.250
          108.5         33.661       -999.250
          109.0         33.266       -999.250
          109.5         32.872       -999.250
          110.0         32.477       -999.250
          110.5         32.082       -999.250
          111.0         32.440       -999.250
          111.5         32.869       -999.250
          112.0         33.298       -999.250
          112.5         33.727       -999.250
          113.0         34.155       -999.250
          113.5         34.584       -999.250
          114.0         35.013       -999.250
          114.5         34.490       -999.250
          115.0         32.678       -999.250
          115.5         30.866       -999.250
          116.0         29.054       -999.250
          116.5         29.186       -999.250
          117.0         29.598       -999.250
          117.5         30.010       -999.250
          118.0         29.370       -999.250
          118.5         28.583       -999.250
          119.0         28.179       -999.250
          119.5         28.453       -999.250
          120.0         28.728       -999.250
          120.5         29.002       -999.250
          121.0         29.276       -999.250
          121.5         27.946       -999.250
          122.0         26.357       -999.250
          122.5         26.465       -999.250
          123.0         26.904       -999.250
          123.5         27.344       -999.250
          124.0         27.784       -999.250
          124.5         27.925       -999.250
          125.0         27.494       -999.250
          125.5         27.062       -999.250
          126.0         26.631       -999.250
          126.5         26.968       -999.250
          127.0         28.907       -999.250
          127.5         30.846       -999.250
          128.0         32.785       -999.250
          128.5         34.725       -999.250
          129.0         36.664       -999.250
          129.5         38.603       -999.250
          130.0         40.542       -999.250
          130.5         40.924       -999.250
          131.0         39.135       -999.250
          131.5         37.346       -999.250
          132.0         36.268       -999.250
          132.5         36.377       -999.250
          133.0         36.487       -999.250
          133.5         36.596       -999.250
          134.0         36.705       -999.250
          134.5         38.170       -999.250
          135.0         39.834       -999.250
          135.5         41.499       -999.250
          136.0         40.310       -999.250
          136.5         38.805       -999.250
          137.0         37.300       -999.250
          137.5         35.796       -999.250
          138.0         34.291       -999.250
          138.5         32.786       -999.250
          139.0         32.264       -999.250
          139.5         33.817       -999.250
          140.0         35.370       -999.250
          140.5         36.922       -999.250
          141.0         38.475       -999.250
          141.5         40.028       -999.250
          142.0         41.581       -999.250
          142.5         43.133       -999.250
          143.0         44.686       -999.250
          143.5         46.471       -999.250
          144.0         48.600       -999.250
          144.5         50.730       -999.250
