###############################################
##         ENVERUS                           ##
##         EPlus - Open Hole                 ##
##         PERMIAN / DELAWARE                ##
##         Copyright ©                       ##
##         Enverus Version - V4.0            ##
##         Nov 19 2023                       ##
##         42-371-10615-00-00                ##
###############################################
## Copyright 2017-2023  ENVERUS.  All Rights Reserved. 
## Confidential - Property of ENVERUS, use governed by terms and 
## conditions found within the existing Information Services Subscription Agreement 
## (as may be amended, the “ISSA”) between Customer and ENVERUS. 
## 
#___________________________________________________________________________________________________
~VERSION INFORMATION
# MNEM.UNIT                               DATA : DESCRIPTION OF MNEMONIC
#-----.-----     ----------------------------- : -----------------------------
VERS.                                     2.00 : CWLS LOG ASCII STANDARD - VERSION 2.00
WRAP.                                       NO : MULTIPLE LINES PER DEPTH STEP
VEND.                                  ENVERUS : VENDOR
ENV_TYPE.                    EPLUS - OPEN HOLE : Enverus Essential Plus Curves – Accessible through Enverus Core(TM)
ENV_VERS.                                 V4.0 : EPlus - Open Hole Version number 
ENV_DOC.                              32912129 : ENVERUS Header Document id
ENV_REF.                               PERMIAN : ENVERUS BASIN OR PLAY APPLIED REFERENCE LIMITS 
#___________________________________________________________________________________________________ 
~WELL INFORMATION 
# uyaQ8P8kQDJ9DXFS5hR1PxmExEOYaAUkY5f3/tnOS+scoPAUWgXA1zCIHGRbWCuSuUcwDzaESCjqjWQ81XhadA== 
# MNEM.UNIT                                              DATA : DESCRIPTION OF MNEMONIC 
#-----.-----                    ----------------------------- : ----------------------------- 
CNTY.                                                   PECOS : COUNTY 
STATE.                                                  TEXAS : STATE 
CNTRY.                                                    USA : COUNTRY 
API.                                             42-371-10615 : API (10 Digit) 
API_14.                                    42-371-10615-00-00 : API (14 Digits) 
API_14_std.                                 42-371-10615-0000 : API (14 Digits Standard) 
UWI.                                           42371106150000 : UNIQUE WELL ID
STRT.FT                                                    88 : START DEPTH
STOP.FT                                                  6434 : STOP DEPTH
STEP.FT                                                   0.5 : STEP DEPTH
NULL.                                               -999.2500 : NULL VALUE
WELL.                                               MCCARTY 1 : WELL NAME 
GR_ELEV.                                                 2761 : GROUND ELEVATION 
SLAT.                                                 31.1448 : SURFACE LATITUDE 
SLONG.                                              -103.1919 : SURFACE LONGITUDE
#___________________________________________________________________________________________________ 
~CURVE INFORMATION 
# MNEM.UNIT           : CURVE DESCRIPTION 
#-----.-----          : ----------------------------- 
DEPT.FT               : MEASURED DEPTH 
GR_E.API              : ENVERUS GAMMA RAY - CLEANED BLENDED AND LUMPED 
GR_F.                 : ENVERUS GAMMA RAY - OUTLIER INDICATOR - 0=(IN BOUNDS) 1=(OUT OF BOUNDS) 2=(REPEATING) 
GR_S.                 : ENVERUS GAMMA RAY - SOURCE INDICATOR 
GR_U.                 : ENVERUS GAMMA RAY - OPTION INDICATOR - 0=(NO OPTION) 1=(OTHER OPTIONS) 
DT_E.US/FT            : ENVERUS SONIC TRAVEL TIME - CLEANED BLENDED AND LUMPED 
DT_F.                 : ENVERUS SONIC TRAVEL TIME - OUTLIER INDICATOR - 0=(IN BOUNDS) 1=(OUT OF BOUNDS) 2=(REPEATING) 
DT_S.                 : ENVERUS SONIC TRAVEL TIME - SOURCE INDICATOR 
DT_U.                 : ENVERUS SONIC TRAVEL TIME - OPTION INDICATOR - 0=(NO OPTION) 1=(OTHER OPTIONS)
#___________________________________________________________________________________________________ 
~A         DEPT           GR_E           GR_F           GR_S           GR_U           DT_E           DT_F           DT_S           DT_U
# ...
         501.00         35.144           0.00           0.00           0.00     -999.25000        -999.25        -999.25        -999.25
         501.50         36.785           0.00           0.00           0.00     -999.25000        -999.25        -999.25        -999.25
         502.00         38.931           0.00           0.00           0.00     -999.25000        -999.25        -999.25        -999.25
         502.50         41.077           0.00           0.00           0.00     -999.25000        -999.25        -999.25        -999.25
         503.00         42.579           0.00           0.00           0.00     -999.25000        -999.25        -999.25        -999.25
         503.50         42.983           0.00           0.00           0.00     -999.25000        -999.25        -999.25        -999.25
         504.00         43.387           0.00           0.00           0.00     -999.25000        -999.25        -999.25        -999.25
         504.50         43.791           0.00           0.00           0.00     -999.25000        -999.25        -999.25        -999.25
         505.00         44.194           0.00           0.00           0.00     -999.25000        -999.25        -999.25        -999.25
         505.50         43.947           0.00           0.00           0.00     -999.25000        -999.25        -999.25        -999.25
         506.00         42.594           0.00           0.00           0.00     -999.25000        -999.25        -999.25        -999.25
         506.50         43.274           0.00           0.00           0.00     -999.25000        -999.25        -999.25        -999.25
         507.00         44.489           0.00           0.00           0.00     -999.25000        -999.25        -999.25        -999.25
         507.50         45.129           0.00           0.00           0.00     -999.25000        -999.25        -999.25        -999.25
         508.00         45.725           0.00           0.00           0.00     -999.25000        -999.25        -999.25        -999.25
         508.50         46.320           0.00           0.00           0.00     -999.25000        -999.25        -999.25        -999.25
         509.00         46.915           0.00           0.00           0.00     -999.25000        -999.25        -999.25        -999.25
         509.50         47.510           0.00           0.00           0.00     -999.25000        -999.25        -999.25        -999.25
         510.00         48.106           0.00           0.00           0.00     -999.25000        -999.25        -999.25        -999.25
         510.50         43.327           0.00           0.00           0.00     -999.25000        -999.25        -999.25        -999.25
         511.00         43.266           0.00           0.00           0.00     -999.25000        -999.25        -999.25        -999.25
         511.50         43.205           0.00           0.00           0.00     -999.25000        -999.25        -999.25        -999.25
         512.00         43.145           0.00           0.00           0.00     -999.25000        -999.25        -999.25        -999.25
         512.50         43.084           0.00           0.00           0.00     -999.25000        -999.25        -999.25        -999.25
         513.00         43.810           0.00           0.00           0.00     -999.25000        -999.25        -999.25        -999.25
         513.50         44.574           0.00           0.00           0.00     -999.25000        -999.25        -999.25        -999.25
         514.00         45.045           0.00           0.00           0.00     -999.25000        -999.25        -999.25        -999.25
         514.50         43.849           0.00           0.00           0.00     -999.25000        -999.25        -999.25        -999.25
         515.00         42.654           0.00           0.00           0.00     -999.25000        -999.25        -999.25        -999.25
         515.50         42.703           0.00           0.00           0.00     -999.25000        -999.25        -999.25        -999.25
         516.00         42.830           0.00           0.00           0.00     -999.25000        -999.25        -999.25        -999.25
         516.50         42.957           0.00           0.00           0.00     -999.25000        -999.25        -999.25        -999.25
         517.00         43.083           0.00           0.00           0.00     -999.25000        -999.25        -999.25        -999.25
         517.50         43.210           0.00           0.00           0.00     -999.25000        -999.25        -999.25        -999.25
         518.00         46.898           0.00           0.00           0.00     -999.25000        -999.25        -999.25        -999.25
         518.50         47.590           0.00           0.00           0.00     -999.25000        -999.25        -999.25        -999.25
         519.00         48.283           0.00           0.00           0.00     -999.25000        -999.25        -999.25        -999.25
         519.50         48.976           0.00           0.00           0.00     -999.25000        -999.25        -999.25        -999.25
         520.00         49.079           0.00           0.00           0.00     -999.25000        -999.25        -999.25        -999.25
         520.50         48.769           0.00           0.00           0.00     -999.25000        -999.25        -999.25        -999.25
         521.00         48.458           0.00           0.00           0.00     -999.25000        -999.25        -999.25        -999.25
         521.50         48.749           0.00           0.00           0.00     -999.25000        -999.25        -999.25        -999.25
         522.00         49.226           0.00           0.00           0.00     -999.25000        -999.25        -999.25        -999.25
         522.50         49.703           0.00           0.00           0.00     -999.25000        -999.25        -999.25        -999.25
         523.00         49.876           0.00           0.00           0.00     -999.25000        -999.25        -999.25        -999.25
         523.50         49.427           0.00           0.00           0.00     -999.25000        -999.25        -999.25        -999.25
         524.00         48.978           0.00           0.00           0.00     -999.25000        -999.25        -999.25        -999.25
         524.50         49.224           0.00           0.00           0.00     -999.25000        -999.25        -999.25        -999.25
         525.00         49.628           0.00           0.00           0.00     -999.25000        -999.25        -999.25        -999.25
         525.50         50.032           0.00           0.00           0.00     -999.25000        -999.25        -999.25        -999.25
         526.00         49.765           0.00           0.00           0.00     -999.25000        -999.25        -999.25        -999.25
         526.50         48.401           0.00           0.00           0.00     -999.25000        -999.25        -999.25        -999.25
         527.00         47.037           0.00           0.00           0.00     -999.25000        -999.25        -999.25        -999.25
         527.50         45.673           0.00           0.00           0.00     -999.25000        -999.25        -999.25        -999.25
         528.00         44.309           0.00           0.00           0.00     -999.25000        -999.25        -999.25        -999.25
         528.50         44.299           0.00           0.00           0.00     -999.25000        -999.25        -999.25        -999.25
         529.00         44.350           0.00           0.00           0.00     -999.25000        -999.25        -999.25        -999.25
         529.50         45.228           0.00           0.00           0.00     -999.25000        -999.25        -999.25        -999.25
         530.00         47.109           0.00           0.00           0.00     -999.25000        -999.25        -999.25        -999.25
