###############################################
##         ENVERUS                           ##
##         ESS - Open Hole                   ##
##         PERMIAN / DELAWARE                ##
##         Nov 04 2023  V4.0                 ##
##         42-389-00931-00-00                ##
###############################################
## Copyright 2017-2023  ENVERUS.  All Rights Reserved. 
## Confidential - Property of ENVERUS, use governed by terms and 
## conditions found within the existing Information Services Subscription Agreement 
## (as may be amended, the “ISSA”) between Customer and ENVERUS. 
## 
~VERSION INFORMATION
# MNEM.UNIT                               DATA : DESCRIPTION OF MNEMONIC
#-----.-----     ----------------------------- : -----------------------------
VERS.                                     2.00 : CWLS LOG ASCII STANDARD - VERSION 2.00
WRAP.                                       NO : MULTIPLE LINES PER DEPTH STEP
VEND.                                  ENVERUS : VENDOR
TYPE.                          ESS - OPEN HOLE : ENVERUS ESSENTIAL CURVES – ACCESSIBLE THROUGH ENVERUS PRISM(TM)
DOC.                                  31935239 : ENVERUS HEADER RAW DOCUMENT ID
#___________________________________________________________________________________________________ 
~WELL INFORMATION 
# S9zL0tdqvH3y2XIpNbXcuKF0SeIoK+7NE6VaQ02nn2+shQHF2oZWL/5TS96hefD+9qjP/MIJWV/WOidK809eGw== 
# MNEM.UNIT                                              DATA : DESCRIPTION OF MNEMONIC 
#-----.-----                    ----------------------------- : ----------------------------- 
CNTY.                                                  REEVES : COUNTY 
STATE.                                                  TEXAS : STATE 
CNTRY.                                                    USA : COUNTRY 
API.                                             42-389-00931 : API (10 Digit) 
API_14.                                    42-389-00931-00-00 : API (14 Digits) 
API_14_std.                                 42-389-00931-0000 : API (14 Digits Standard) 
UWI.                                           42389009310000 : UNIQUE WELL ID 
WELL.                                                      1, : WELL NAME
STRT.FT                                                 101.0 : START DEPTH
STOP.FT                                                5373.0 : STOP DEPTH
STEP.FT                                                   0.5 : STEP BETWEEN DEPTHS
NULL.                                                 -999.25 : NULL VALUE
#___________________________________________________________________________________________________ 
~CURVE INFORMATION 
# MNEM.UNIT           : CURVE DESCRIPTION 
#-----.-----          : ----------------------------- 
 DEPT.FT               : MEASURED DEPTH 
 GR.API                : GAMMA RAY (GR) 
 DT.US/FT              : SONIC DELTA TRANSIT TIME (DT) 
 #___________________________________________________________________________________________________ 
~A         DEPT             GR             DT
# ...
         5321.0         63.036         66.792
         5321.5         64.349         66.449
         5322.0         65.663         66.106
         5322.5         66.976         65.763
         5323.0         68.289         65.420
         5323.5         69.353         65.077
         5324.0         68.398         64.735
         5324.5         67.443         64.956
         5325.0         66.488         65.739
         5325.5         66.404         66.522
         5326.0         67.564         67.305
         5326.5         68.725         68.088
         5327.0         69.885         68.076
         5327.5         71.045         67.835
         5328.0         72.206         67.593
         5328.5         70.803         67.489
         5329.0         69.196         68.023
         5329.5         67.590         68.556
         5330.0         65.983         69.090
         5330.5         64.377         69.624
         5331.0         63.261         70.157
         5331.5         64.384         70.284
         5332.0         65.507         70.090
         5332.5         66.365         69.896
         5333.0         65.876         69.701
         5333.5         65.387         69.507
         5334.0         64.898         69.313
         5334.5         64.409         69.119
         5335.0         63.920         68.925
         5335.5         63.432         68.731
         5336.0         62.943         68.536
         5336.5         62.454         68.342
         5337.0         61.965         68.148
         5337.5         61.476         67.954
         5338.0         60.987         67.760
         5338.5         60.499         67.565
         5339.0         62.784         67.371
         5339.5         65.329         67.211
         5340.0         67.875         67.629
         5340.5         70.420         68.047
         5341.0         70.608         68.465
         5341.5         73.010         68.883
         5342.0         75.674         69.302
         5342.5         78.337         69.720
         5343.0         81.001         70.138
         5343.5         83.664         70.556
         5344.0         86.328         70.974
         5344.5         88.509         71.392
         5345.0         87.421         71.810
         5345.5         86.333         71.399
         5346.0         85.245         70.744
         5346.5         84.157         70.090
         5347.0         84.564         69.435
         5347.5         87.366         68.781
         5348.0         90.169         68.126
         5348.5         92.971         67.471
         5349.0         87.262         66.817
         5349.5         78.049         66.162
         5350.0         68.835         65.939
         5350.5         63.210         66.077
         5351.0         62.957         66.215
         5351.5         62.920         66.353
         5352.0         62.882         66.491
         5352.5         62.844         66.629
         5353.0         62.806         66.767
         5353.5         62.769         66.905
         5354.0         62.731         66.458
         5354.5         53.062         65.984
         5355.0         31.324         65.510
         5355.5       -999.250         65.036
         5356.0       -999.250         64.561
         5356.5       -999.250         64.087
         5357.0       -999.250         63.613
         5357.5       -999.250         63.139
         5358.0       -999.250         62.665
         5358.5       -999.250         62.190
         5359.0       -999.250         61.988
         5359.5       -999.250         63.917
         5360.0       -999.250         65.847
         5360.5       -999.250         67.776
         5361.0       -999.250         69.567
         5361.5       -999.250         68.956
         5362.0       -999.250         68.346
         5362.5       -999.250         67.735
         5363.0       -999.250         67.124
         5363.5       -999.250         66.514
         5364.0       -999.250         65.903
         5364.5       -999.250         65.888
         5365.0       -999.250         66.722
         5365.5       -999.250         67.555
         5366.0       -999.250         68.388
         5366.5       -999.250         69.222
         5367.0       -999.250         69.932
         5367.5       -999.250         69.588
         5368.0       -999.250         69.244
         5368.5       -999.250         68.900
         5369.0       -999.250         68.556
         5369.5       -999.250         68.830
         5370.0       -999.250         69.175
         5370.5       -999.250         69.519
         5371.0       -999.250         69.864
         5371.5       -999.250         70.209
         5372.0       -999.250         70.554
         5372.5       -999.250         70.898
         5373.0       -999.250         71.243
