###############################################
##         ENVERUS                           ##
##         EPlus - Open Hole                 ##
##         PERMIAN / DELAWARE                ##
##         Copyright ©                       ##
##         Enverus Version - V4.0            ##
##         Nov 20 2023                       ##
##         42-389-10253-00-00                ##
###############################################
## Copyright 2017-2023  ENVERUS.  All Rights Reserved. 
## Confidential - Property of ENVERUS, use governed by terms and 
## conditions found within the existing Information Services Subscription Agreement 
## (as may be amended, the “ISSA”) between Customer and ENVERUS. 
## 
#___________________________________________________________________________________________________
~VERSION INFORMATION
# MNEM.UNIT                               DATA : DESCRIPTION OF MNEMONIC
#-----.-----     ----------------------------- : -----------------------------
VERS.                                     2.00 : CWLS LOG ASCII STANDARD - VERSION 2.00
WRAP.                                       NO : MULTIPLE LINES PER DEPTH STEP
VEND.                                  ENVERUS : VENDOR
ENV_TYPE.                    EPLUS - OPEN HOLE : Enverus Essential Plus Curves – Accessible through Enverus Core(TM)
ENV_VERS.                                 V4.0 : EPlus - Open Hole Version number 
ENV_DOC.                              44178784 : ENVERUS Header Document id
ENV_REF.                               PERMIAN : ENVERUS BASIN OR PLAY APPLIED REFERENCE LIMITS 
#___________________________________________________________________________________________________ 
~WELL INFORMATION 
# uyaQ8P8kQDJ9DXFS5hR1PxmExEOYaAUkY5f3/tnOS+scoPAUWgXA1zCIHGRbWCuSuUcwDzaESCjqjWQ81XhadA== 
# MNEM.UNIT                                              DATA : DESCRIPTION OF MNEMONIC 
#-----.-----                    ----------------------------- : ----------------------------- 
CNTY.                                                  REEVES : COUNTY 
STATE.                                                  TEXAS : STATE 
CNTRY.                                                    USA : COUNTRY 
API.                                             42-389-10253 : API (10 Digit) 
API_14.                                    42-389-10253-00-00 : API (14 Digits) 
API_14_std.                                 42-389-10253-0000 : API (14 Digits Standard) 
UWI.                                           42389102530000 : UNIQUE WELL ID
STRT.FT                                                   108 : START DEPTH
STOP.FT                                                  5248 : STOP DEPTH
STEP.FT                                                   0.5 : STEP DEPTH
NULL.                                               -999.2500 : NULL VALUE
WELL.                                       A O  REEVES FEE 1 : WELL NAME 
GR_ELEV.                                                 2779 : GROUND ELEVATION 
SLAT.                                                 31.1575 : SURFACE LATITUDE 
SLONG.                                              -103.3573 : SURFACE LONGITUDE
#___________________________________________________________________________________________________ 
~CURVE INFORMATION 
# MNEM.UNIT           : CURVE DESCRIPTION 
#-----.-----          : ----------------------------- 
DEPT.FT               : MEASURED DEPTH 
GR_E.API              : ENVERUS GAMMA RAY - CLEANED BLENDED AND LUMPED 
GR_F.                 : ENVERUS GAMMA RAY - OUTLIER INDICATOR - 0=(IN BOUNDS) 1=(OUT OF BOUNDS) 2=(REPEATING) 
GR_S.                 : ENVERUS GAMMA RAY - SOURCE INDICATOR 
GR_U.                 : ENVERUS GAMMA RAY - OPTION INDICATOR - 0=(NO OPTION) 1=(OTHER OPTIONS) 
DT_E.US/FT            : ENVERUS SONIC TRAVEL TIME - CLEANED BLENDED AND LUMPED 
DT_F.                 : ENVERUS SONIC TRAVEL TIME - OUTLIER INDICATOR - 0=(IN BOUNDS) 1=(OUT OF BOUNDS) 2=(REPEATING) 
DT_S.                 : ENVERUS SONIC TRAVEL TIME - SOURCE INDICATOR 
DT_U.                 : ENVERUS SONIC TRAVEL TIME - OPTION INDICATOR - 0=(NO OPTION) 1=(OTHER OPTIONS)
#___________________________________________________________________________________________________ 
~A         DEPT           GR_E           GR_F           GR_S           GR_U           DT_E           DT_F           DT_S           DT_U
# ...
         786.50         19.953           0.00           0.00           0.00     -999.25000        -999.25        -999.25        -999.25
         787.00         19.897           0.00           0.00           0.00     -999.25000        -999.25        -999.25        -999.25
         787.50         19.841           0.00           0.00           0.00     -999.25000        -999.25        -999.25        -999.25
         788.00         19.785           0.00           0.00           0.00     -999.25000        -999.25        -999.25        -999.25
         788.50         19.730           0.00           0.00           0.00     -999.25000        -999.25        -999.25        -999.25
         789.00         19.674           0.00           0.00           0.00     -999.25000        -999.25        -999.25        -999.25
         789.50         20.167           0.00           0.00           0.00     -999.25000        -999.25        -999.25        -999.25
         790.00         21.353           0.00           0.00           0.00     -999.25000        -999.25        -999.25        -999.25
         790.50         22.539           0.00           0.00           0.00     -999.25000        -999.25        -999.25        -999.25
         791.00         23.725           0.00           0.00           0.00     -999.25000        -999.25        -999.25        -999.25
         791.50         24.911           0.00           0.00           0.00     -999.25000        -999.25        -999.25        -999.25
         792.00         26.097           0.00           0.00           0.00     -999.25000        -999.25        -999.25        -999.25
         792.50         27.283           0.00           0.00           0.00     -999.25000        -999.25        -999.25        -999.25
         793.00         28.260           0.00           0.00           0.00     -999.25000        -999.25        -999.25        -999.25
         793.50         25.347           0.00           0.00           0.00     -999.25000        -999.25        -999.25        -999.25
         794.00         22.434           0.00           0.00           0.00     -999.25000        -999.25        -999.25        -999.25
         794.50         19.522           0.00           0.00           0.00     -999.25000        -999.25        -999.25        -999.25
         795.00         16.609           0.00           0.00           0.00     -999.25000        -999.25        -999.25        -999.25
         795.50         13.696           0.00           0.00           0.00     -999.25000        -999.25        -999.25        -999.25
         796.00         11.173           0.00           0.00           0.00     -999.25000        -999.25        -999.25        -999.25
         796.50         11.290           0.00           0.00           0.00     -999.25000        -999.25        -999.25        -999.25
         797.00         11.408           0.00           0.00           0.00     -999.25000        -999.25        -999.25        -999.25
         797.50         11.525           0.00           0.00           0.00     -999.25000        -999.25        -999.25        -999.25
         798.00         11.642           0.00           0.00           0.00     -999.25000        -999.25        -999.25        -999.25
         798.50         11.759           0.00           0.00           0.00     -999.25000        -999.25        -999.25        -999.25
         799.00         11.877           0.00           0.00           0.00     -999.25000        -999.25        -999.25        -999.25
         799.50         11.994           0.00           0.00           0.00     -999.25000        -999.25        -999.25        -999.25
         800.00         12.111           0.00           0.00           0.00     -999.25000        -999.25        -999.25        -999.25
         800.50         12.228           0.00           0.00           0.00     -999.25000        -999.25        -999.25        -999.25
         801.00         12.429           0.00           0.00           0.00     -999.25000        -999.25        -999.25        -999.25
         801.50         13.348           0.00           0.00           0.00     -999.25000        -999.25        -999.25        -999.25
         802.00         14.267           0.00           0.00           0.00     -999.25000        -999.25        -999.25        -999.25
         802.50         15.186           0.00           0.00           0.00     -999.25000        -999.25        -999.25        -999.25
         803.00         16.105           0.00           0.00           0.00     -999.25000        -999.25        -999.25        -999.25
         803.50         17.024           0.00           0.00           0.00     -999.25000        -999.25        -999.25        -999.25
         804.00         17.785           0.00           0.00           0.00     -999.25000        -999.25        -999.25        -999.25
         804.50         18.386           0.00           0.00           0.00     -999.25000        -999.25        -999.25        -999.25
         805.00         18.987           0.00           0.00           0.00     -999.25000        -999.25        -999.25        -999.25
         805.50         17.718           0.00           0.00           0.00     -999.25000        -999.25        -999.25        -999.25
         806.00         16.981           0.00           0.00           0.00     -999.25000        -999.25        -999.25        -999.25
         806.50         17.732           0.00           0.00           0.00     -999.25000        -999.25        -999.25        -999.25
         807.00         18.483           0.00           0.00           0.00     -999.25000        -999.25        -999.25        -999.25
         807.50         19.234           0.00           0.00           0.00     -999.25000        -999.25        -999.25        -999.25
         808.00         19.986           0.00           0.00           0.00     -999.25000        -999.25        -999.25        -999.25
         808.50         20.737           0.00           0.00           0.00     -999.25000        -999.25        -999.25        -999.25
         809.00         20.449           0.00           0.00           0.00     -999.25000        -999.25        -999.25        -999.25
         809.50         19.870           0.00           0.00           0.00     -999.25000        -999.25        -999.25        -999.25
         810.00         19.290           0.00           0.00           0.00     -999.25000        -999.25        -999.25        -999.25
         810.50         18.711           0.00           0.00           0.00     -999.25000        -999.25        -999.25        -999.25
         811.00         18.131           0.00           0.00           0.00     -999.25000        -999.25        -999.25        -999.25
         811.50         17.551           0.00           0.00           0.00     -999.25000        -999.25        -999.25        -999.25
         812.00         16.972           0.00           0.00           0.00     -999.25000        -999.25        -999.25        -999.25
         812.50         16.713           0.00           0.00           0.00     -999.25000        -999.25        -999.25        -999.25
         813.00         16.662           0.00           0.00           0.00     -999.25000        -999.25        -999.25        -999.25
         813.50         16.611           0.00           0.00           0.00     -999.25000        -999.25        -999.25        -999.25
         814.00         16.561           0.00           0.00           0.00     -999.25000        -999.25        -999.25        -999.25
         814.50         16.510           0.00           0.00           0.00     -999.25000        -999.25        -999.25        -999.25
         815.00         16.459           0.00           0.00           0.00     -999.25000        -999.25        -999.25        -999.25
         815.50         16.409           0.00           0.00           0.00     -999.25000        -999.25        -999.25        -999.25
