###############################################
##         ENVERUS                           ##
##         ESS - Open Hole                   ##
##         PERMIAN / DELAWARE                ##
##         Nov 04 2023  V4.0                 ##
##         42-389-00802-00-00                ##
###############################################
## Copyright 2017-2023  ENVERUS.  All Rights Reserved. 
## Confidential - Property of ENVERUS, use governed by terms and 
## conditions found within the existing Information Services Subscription Agreement 
## (as may be amended, the “ISSA”) between Customer and ENVERUS. 
## 
~VERSION INFORMATION
# MNEM.UNIT                               DATA : DESCRIPTION OF MNEMONIC
#-----.-----     ----------------------------- : -----------------------------
VERS.                                     2.00 : CWLS LOG ASCII STANDARD - VERSION 2.00
WRAP.                                       NO : MULTIPLE LINES PER DEPTH STEP
VEND.                                  ENVERUS : VENDOR
TYPE.                          ESS - OPEN HOLE : ENVERUS ESSENTIAL CURVES – ACCESSIBLE THROUGH ENVERUS PRISM(TM)
DOC.                                  31817456 : ENVERUS HEADER RAW DOCUMENT ID
#___________________________________________________________________________________________________ 
~WELL INFORMATION 
# RyAIq6UWQPnCIzV1aSVljU5sZzU8mzXCuHzh8Tf3VVfaeSb2oya67RMqigcBPLsftsjdPp3J13KbDcbgGgUr7w== 
# MNEM.UNIT                                              DATA : DESCRIPTION OF MNEMONIC 
#-----.-----                    ----------------------------- : ----------------------------- 
CNTY.                                                  REEVES : COUNTY 
STATE.                                                  TEXAS : STATE 
CNTRY.                                                    USA : COUNTRY 
API.                                             42-389-00802 : API (10 Digit) 
API_14.                                    42-389-00802-00-00 : API (14 Digits) 
API_14_std.                                 42-389-00802-0000 : API (14 Digits Standard) 
UWI.                                           42389008020000 : UNIQUE WELL ID 
WELL.                                                      1, : WELL NAME
STRT.FT                                                 103.0 : START DEPTH
STOP.FT                                                5419.0 : STOP DEPTH
STEP.FT                                                   0.5 : STEP BETWEEN DEPTHS
NULL.                                                 -999.25 : NULL VALUE
#___________________________________________________________________________________________________ 
~CURVE INFORMATION 
# MNEM.UNIT           : CURVE DESCRIPTION 
#-----.-----          : ----------------------------- 
 DEPT.FT               : MEASURED DEPTH 
 GR.API                : GAMMA RAY (GR) 
 DT.US/FT              : SONIC DELTA TRANSIT TIME (DT) 
 #___________________________________________________________________________________________________ 
~A         DEPT             GR             DT
          103.0         76.573       -999.250
          103.5         77.911       -999.250
          104.0         79.062       -999.250
          104.5         76.083       -999.250
          105.0         74.935       -999.250
          105.5         77.017       -999.250
          106.0         79.099       -999.250
          106.5         81.181       -999.250
          107.0         83.263       -999.250
          107.5         83.212       -999.250
          108.0         82.853       -999.250
          108.5         82.753       -999.250
          109.0         86.085       -999.250
          109.5         89.417       -999.250
          110.0         91.912       -999.250
          110.5         92.089       -999.250
          111.0         92.267       -999.250
          111.5         92.445       -999.250
          112.0         92.622       -999.250
          112.5         92.800       -999.250
          113.0         84.869       -999.250
          113.5         72.723       -999.250
          114.0         60.577       -999.250
          114.5         58.636       -999.250
          115.0         58.436       -999.250
          115.5         58.237       -999.250
          116.0         60.837       -999.250
          116.5         66.355       -999.250
          117.0         71.874       -999.250
          117.5         77.392       -999.250
          118.0         82.910       -999.250
          118.5         88.428       -999.250
          119.0         92.475       -999.250
          119.5         93.394       -999.250
          120.0         94.313       -999.250
          120.5         95.232       -999.250
          121.0         96.151       -999.250
          121.5         97.070       -999.250
          122.0         97.397       -999.250
          122.5         94.420       -999.250
          123.0         91.443       -999.250
          123.5         90.213       -999.250
          124.0         92.262       -999.250
          124.5         94.312       -999.250
          125.0         96.362       -999.250
          125.5         98.412       -999.250
          126.0         97.650       -999.250
          126.5         90.362       -999.250
          127.0         83.074       -999.250
          127.5         75.786       -999.250
          128.0         68.498       -999.250
          128.5         67.122       -999.250
          129.0         67.121       -999.250
          129.5         67.120       -999.250
          130.0         67.970       -999.250
          130.5         69.874       -999.250
          131.0         71.778       -999.250
          131.5         69.524       -999.250
          132.0         64.962       -999.250
          132.5         60.399       -999.250
          133.0         57.796       -999.250
          133.5         60.326       -999.250
          134.0         62.856       -999.250
          134.5         65.386       -999.250
          135.0         67.915       -999.250
          135.5         70.445       -999.250
          136.0         72.975       -999.250
          136.5         74.353       -999.250
          137.0         74.785       -999.250
          137.5         75.217       -999.250
          138.0         75.649       -999.250
          138.5         76.081       -999.250
          139.0         76.513       -999.250
          139.5         84.159       -999.250
          140.0         97.441       -999.250
          140.5         93.493       -999.250
          141.0         89.544       -999.250
          141.5         85.596       -999.250
          142.0         81.647       -999.250
          142.5         77.699       -999.250
          143.0         74.179       -999.250
          143.5         75.038       -999.250
          144.0         75.897       -999.250
          144.5         76.756       -999.250
          145.0         77.615       -999.250
          145.5         78.485       -999.250
          146.0         79.590       -999.250
          146.5         80.695       -999.250
          147.0         81.799       -999.250
          147.5         82.904       -999.250
          148.0         84.009       -999.250
          148.5         85.114       -999.250
          149.0         86.219       -999.250
          149.5         85.332       -999.250
          150.0         76.131       -999.250
          150.5         66.929       -999.250
          151.0         68.444       -999.250
          151.5         70.602       -999.250
          152.0         72.761       -999.250
          152.5         74.920       -999.250
          153.0         75.059       -999.250
          153.5         72.827       -999.250
          154.0         71.875       -999.250
          154.5         75.600       -999.250
          155.0         79.325       -999.250
          155.5         74.930       -999.250
          156.0         70.323       -999.250
          156.5         68.092       -999.250
          157.0         66.753       -999.250
          157.5         65.413       -999.250
          158.0         64.073       -999.250
          158.5         64.426       -999.250
          159.0         70.195       -999.250
          159.5         75.964       -999.250
          160.0         81.733       -999.250
          160.5         83.359       -999.250
          161.0         84.430       -999.250
          161.5         85.501       -999.250
          162.0         86.572       -999.250
          162.5         87.644       -999.250
          163.0         87.891       -999.250
          163.5         85.978       -999.250
          164.0         84.065       -999.250
          164.5         82.152       -999.250
          165.0         80.239       -999.250
          165.5         78.327       -999.250
          166.0         76.414       -999.250
          166.5         74.501       -999.250
          167.0         74.479       -999.250
          167.5         77.102       -999.250
          168.0         79.725       -999.250
          168.5         80.360       -999.250
          169.0         79.764       -999.250
          169.5         79.168       -999.250
          170.0         78.887       -999.250
          170.5         79.548       -999.250
          171.0         80.209       -999.250
          171.5         80.869       -999.250
          172.0         81.530       -999.250
          172.5         81.770       -999.250
          173.0         80.381       -999.250
          173.5         78.991       -999.250
          174.0         77.602       -999.250
          174.5         77.251       -999.250
          175.0         77.102       -999.250
          175.5         76.952       -999.250
          176.0         76.802       -999.250
          176.5         77.171       -999.250
          177.0         78.499       -999.250
          177.5         79.828       -999.250
          178.0         81.156       -999.250
          178.5         82.484       -999.250
          179.0         83.813       -999.250
          179.5         85.141       -999.250
          180.0         86.275       -999.250
          180.5         84.688       -999.250
          181.0         83.101       -999.250
          181.5         81.514       -999.250
          182.0         79.927       -999.250
          182.5         78.385       -999.250
          183.0         80.053       -999.250
          183.5         81.721       -999.250
          184.0         83.008       -999.250
          184.5         82.888       -999.250
          185.0         82.768       -999.250
          185.5         83.470       -999.250
          186.0         85.356       -999.250
          186.5         87.243       -999.250
          187.0         88.948       -999.250
          187.5         87.104       -999.250
          188.0         85.259       -999.250
          188.5         83.415       -999.250
          189.0         81.570       -999.250
          189.5         79.726       -999.250
