#--------------------------------------------------#
#-------------------ENVERUS, INC.------------------#
#------------------WWW.ENVERUS.COM-----------------#
#------------------COPYRIGHT 2020------------------#
#--------------------------------------------------#
#THIS FILE MAY BE USED ONLY IN ACCORDANCE WITH A CURRENT SUBSCRIPTION AGREEMENT BETWEEN
#THE USER AND ENVERUS, INC. NO PART OF THIS FILE MAY BE REPRODUCED, USED, COPIED,
#MODIFIED, PROPAGATED, OR DISTRIBUTED EXCEPT IN ACCORDANCE WITH THE SUBSCRIPTION
#AGREEMENT. UNAUTHORIZED USE OR DISTRIBUTION OF ALL OR ANY PART OF THIS FILE MAY VIOLATE
#COPYRIGHT, TRADEMARK, AND/OR OTHER LAWS AND IS SUBJECT TO CIVIL AS WELL AS CRIMINAL
#SANCTIONS.
#--------------------------------------------------#
#THIS FILE IS PROVIDED "AS-IS" AND ALL WARRANTIES ARE EXPRESSLY DISCLAIMED, WHETHER
#EXPRESS, ORAL, IMPLIED, STATUTORY OR OTHERWISE, INCLUDING ANY IMPLIED WARRANTY OF FITNESS
#FOR A PARTICULAR PURPOSE, MERCHANTABILITY, TITLE OR NON-INFRINGEMENT, AND ANY WARRANTIES
#ARISING BY VIRTUE OF CUSTOM OF TRADE OR COURSE OF DEALING.  FURTHER, ENVERUS, INC.
#AND ITS LICENSORS DO NOT REPRESENT OR WARRANT THAT THIS FILE WILL MEET USER'S
#REQUIREMENTS OR ARE SUITABLE FOR USER'S NEEDS OR THAT THE DATA OR RESULTS PROVIDED IN
#CONJUNCTION THEREWITH ARE CORRECT, ACCURATE, TIMELY OR RELIABLE. THESE DISCLAIMERS SHALL
#APPLY REGARDLESS OF ANY FAILURE OF ESSENTIAL PURPOSE OF ANY LIMITED REMEDY.  SOME
#JURISDICTIONS DO NOT ALLOW THE EXCLUSION OF CERTAIN WARRANTIES SO SOME OF THE ABOVE
#EXCLUSIONS MAY NOT APPLY. IN NO EVENT SHALL ENVERUS, INC. OR ANY OF ITS AFFILIATES
#BE LIABLE UNDER ANY LEGAL THEORY, WHETHER IN TORT (INCLUDING WITHOUT LIMITATION
#NEGLIGENCE), CONTRACT, STRICT LIABILITY, STATUTORY OR OTHERWISE, FOR ANY SPECIAL,
#INCIDENTAL, CONSEQUENTIAL, EXEMPLARY, PUNITIVE OR INDIRECT DAMAGE OF ANY KIND, INCLUDING
#WITHOUT LIMITATION LOSS OF REVENUE, PROFITS, GOODWILL, USE, AND/OR DATA OR THE COST OF
#PROCUREMENT OF SUBSTITUTE GOODS OR SERVICES, EVEN IF APPRISED OF THE POSSIBILITY OF SUCH
#DAMAGES IN ADVANCE.
#--------------------------------------------------#

~VERSION INFORMATION
VERS. 2.0 : CWLS LOG ASCII STANDARD - VERSION 2.0
WRAP.  NO : ONE LINE PER DEPTH STEP
~WELL INFORMATION
#MNEMONIC     .UNIT              VALUE :DESCRIPTION
STRT       .FT                101 :START DEPTH
STOP       .FT                5444 :STOP DEPTH
STEP       .FT                   0.500 :STEP
NULL       .                  -999.99 :NULL
UWI        .                42389004350000 :UNIQUE WELL ID
API        .                42389004350000 :API NUMBER
COMP       .         :COMPANY
WELL       .        :WELL
DATE       .                 :LOG DATE
FLD       .                 :FIELD NAME
LOC       .                  UNK :LOCATION
CNTY       .                 UNK :COUNTY
STAT       .                 UNK :STATE
CTRY       .                 UNK :COUNTY
SRVC       .                 UNK :SERVICE COMPANY
~CURVE INFORMATION
#MNEMONIC     .UNIT      API CODE :CURVE DESCRIPTION
DEPTH       .FT                      :MEASURED DEPTH
DT.MSEC/FT        UNKNOWN   :DT
GR.API        UNKNOWN   :GR
~A    DEPTH    DT    GR
# ...
 2539.5     68.13941   2.2866
 2540     68.55908   2.66056
 2540.5     68.97876   3.07319
 2541     69.24937   3.48581
 2541.5     68.87204   3.89843
 2542     68.49471   4.31105
 2542.5     68.11738   4.72367
 2543     67.74004   5.13629
 2543.5     67.7711   5.54891
 2544     68.25015   5.96153
 2544.5     68.7292   6.35919
 2545     68.41456   5.80343
 2545.5     67.92843   5.24767
 2546     68.14973   4.69192
 2546.5     68.62884   4.13616
 2547     68.48225   3.58041
 2547.5     67.93497   3.02465
 2548     67.38769   2.46889
 2548.5     67.48563   2.59118
 2549     68.28969   3.13879
 2549.5     68.4922   3.68641
 2550     67.54328   4.23403
 2550.5     67.00965   4.78164
 2551     67.60747   5.32926
 2551.5     68.20529   5.87687
 2552     68.80311   6.42449
 2552.5     68.96854   6.78088
 2553     68.77529   6.59543
 2553.5     68.58204   6.40997
 2554     68.94015   6.22452
 2554.5     69.34509   6.03907
 2555     69.75004   5.85362
 2555.5     70.15498   5.66817
 2556     68.47392   5.62252
 2556.5     65.81872   5.77232
 2557     63.16353   5.92211
 2557.5     60.50833   6.07191
 2558     57.85313   6.13841
 2558.5     55.19794   5.91264
 2559     52.17741   5.68686
 2559.5     50.31236   5.46109
 2560     51.08704   5.23532
 2560.5     51.86173   5.00954
 2561     52.63642   4.78377
 2561.5     53.02102   4.55799
 2562     52.69841   4.33222
 2562.5     52.37581   4.31947
 2563     52.0532   4.36167
 2563.5     51.7306   4.40386
 2564     51.408   4.44606
 2564.5     51.08539   4.48826
 2565     50.76279   4.53046
 2565.5     50.82514   4.57266
 2566     51.28946   4.51957
 2566.5     51.75378   4.34723
 2567     52.2181   4.17489
 2567.5     52.48837   4.00255
 2568     52.15848   3.83022
 2568.5     51.82858   3.65788
 2569     51.49869   3.48554
 2569.5     51.1688   3.3132
 2570     50.83891   3.14086
 2570.5     50.67573   2.96852
 2571     50.6968   2.79619
 2571.5     50.71788   2.78924
 2572     50.73895   3.03973
 2572.5     50.76003   3.29022
 2573     50.7811   3.54072
 2573.5     50.80218   3.79121
 2574     50.82325   4.0417
 2574.5     50.84433   4.23962
 2575     50.86541   3.98889
 2575.5     50.88648   3.73816
 2576     50.90756   3.48743
 2576.5     50.92863   3.2367
 2577     50.94971   2.98597
 2577.5     50.97078   2.73524
 2578     50.99186   3.1846
 2578.5     51.01293   3.8275
 2579     51.03401   4.47039
 2579.5     51.05171   5.11329
 2580     50.93812   5.1277
 2580.5     50.82452   4.74187
 2581     50.71093   4.35603
 2581.5     50.59734   3.97019
 2582     50.48374   4.30016
 2582.5     50.37015   4.6944
 2583     50.25655   5.08863
 2583.5     50.14296   5.48286
 2584     50.02936   5.8771
 2584.5     50.00227   6.27133
 2585     50.04485   6.48942
 2585.5     50.08744   5.39913
 2586     50.13003   4.94666
 2586.5     50.17262   5.07492
 2587     50.2152   5.20318
 2587.5     50.25779   5.33143
 2588     50.30038   5.15829
 2588.5     50.34297   4.93243
 2589     50.38555   4.70657
 2589.5     50.42566   4.48071
 2590     50.16005   4.96519
 2590.5     49.89443   5.85214
 2591     49.62882   6.73908
 2591.5     49.3632   7.62603
 2592     49.09758   8.51298
 2592.5     49.14107   9.39992
 2593     49.28436   10.28687
 2593.5     49.42764   9.83687
 2594     49.57093   9.19599
 2594.5     49.71422   8.55511
 2595     49.8575   8.59506
 2595.5     50.00079   11.91008
 2596     50.14408   15.22509
 2596.5     50.28737   18.54011
 2597     50.43065   21.85512
 2597.5     50.57394   25.17014
 2598     50.71723   25.27885
 2598.5     50.86051   23.22033
 2599     51.0038   21.16181
 2599.5     51.14709   14.8358
 2600     51.29037   8.08331
 2600.5     51.43366   5.57315
 2601     51.50574   5.45966
 2601.5     51.56637   5.34616
 2602     51.627   5.23267
 2602.5     51.68764   5.5776
 2603     51.62086   6.52661
 2603.5     51.48334   7.47562
 2604     51.34582   8.42462
 2604.5     51.2083   9.15102
 2605     51.07078   8.80062
 2605.5     50.93326   8.45022
 2606     50.79573   8.09982
 2606.5     50.87035   7.74942
 2607     51.49892   7.39901
 2607.5     52.12749   7.70667
 2608     52.75605   8.74906
 2608.5     53.45528   9.79144
 2609     56.42344   10.83382
 2609.5     59.39159   10.14114
 2610     62.35974   9.11078
 2610.5     65.32789   8.08042
 2611     68.29604   7.05006
 2611.5     71.10246   6.01969
 2612     69.7818   4.98933
 2612.5     68.46114   3.95897
 2613     68.49025   3.94834
 2613.5     70.22743   4.01438
 2614     69.65641   4.08042
 2614.5     68.62025   4.14646
 2615     67.58409   3.87454
 2615.5     68.56371   2.29687
 2616     70.10903   2.05646
 2616.5     69.13487   2.69934
 2617     68.16071   3.34222
 2617.5     68.36184   3.9851
 2618     68.97875   4.2713
 2618.5     68.48077   4.08283
 2619     67.98279   3.89436
 2619.5     67.48481   3.70589
 2620     66.98683   3.6352
 2620.5     67.12272   3.9866
 2621     67.52352   4.33801
 2621.5     67.92432   4.66007
 2622     67.97235   4.63611
 2622.5     67.71075   4.61215
 2623     67.44915   4.58819
 2623.5     67.57023   4.56424
 2624     68.31295   4.54028
 2624.5     69.05568   4.51632
 2625     69.08127   4.28941
 2625.5     68.8399   3.44391
 2626     68.59854   2.59841
 2626.5     68.35717   1.84082
 2627     68.11616   2.32381
 2627.5     68.83516   2.80679
 2628     69.13956   3.28977
 2628.5     68.84627   3.77275
 2629     68.55298   4.25574
 2629.5     68.25969   4.04906
 2630     69.11391   3.71097
 2630.5     70.00616   3.37287
 2631     68.45682   3.03478
 2631.5     68.258   2.69668
 2632     69.04867   2.35859
 2632.5     69.83935   2.02049
 2633     69.24584   1.6824
 2633.5     68.54015   1.67974
 2634     67.83445   2.17031
 2634.5     67.12875   2.66088
 2635     66.42305   3.15145
 2635.5     66.41446   3.64202
 2636     69.84431   4.13258
 2636.5     70.89568   4.62315
 2637     69.91183   5.11372
 2637.5     68.92799   5.54842
 2638     67.94414   4.75217
 2638.5     66.9603   3.95592
 2639     65.97645   3.15967
 2639.5     66.7159   3.24654
 2640     67.89687   3.47188
 2640.5     69.07784   3.69722
 2641     70.25881   3.92256
 2641.5     70.4276   3.5939
 2642     69.98414   2.99516
 2642.5     69.54067   2.39642
 2643     69.09721   2.15409
 2643.5     68.65374   2.26798
 2644     68.44216   2.38186
 2644.5     68.28156   2.49574
 2645     68.12096   2.60963
 2645.5     67.96035   2.72351
 2646     67.84661   2.83739
 2646.5     68.22776   2.95128
 2647     68.6089   3.06516
 2647.5     68.99004   3.17905
 2648     68.96664   3.29293
 2648.5     68.90671   3.23402
 2649     68.84678   2.98933
 2649.5     68.78685   2.74464
 2650     69.29483   2.49995
 2650.5     70.03855   2.25525
 2651     70.71229   2.01056
 2651.5     70.25059   1.76587
 2652     69.78889   1.52118
 2652.5     69.32719   1.3126
 2653     68.86549   1.72728
 2653.5     68.40379   2.14197
 2654     68.2802   2.55665
 2654.5     69.00041   2.97134
 2655     69.72063   3.38602
 2655.5     69.88145   3.8007
 2656     69.72664   4.21539
 2656.5     69.57182   4.63007
 2657     69.417   4.32819
 2657.5     69.73703   3.69969
 2658     70.0783   3.07118
 2658.5     70.41958   2.44268
 2659     70.1913   1.81418
 2659.5     69.81169   1.72573
 2660     69.43208   2.45258
 2660.5     69.1448   3.17942
 2661     69.57812   3.01342
 2661.5     70.01144   2.61305
 2662     69.9966   2.21269
 2662.5     69.48269   1.81232
 2663     68.96877   1.47815
 2663.5     68.45486   2.57272
 2664     68.24782   3.66729
 2664.5     68.84887   4.02373
 2665     69.44992   3.46723
 2665.5     70.05098   2.91073
 2666     70.65203   2.35422
 2666.5     71.25309   2.2388
 2667     71.85414   2.27139
 2667.5     69.67156   2.30397
 2668     67.28493   2.33656
 2668.5     64.8983   2.37861
 2669     62.51168   2.83122
 2669.5     60.12505   3.28383
 2670     57.73842   3.73644
 2670.5     54.77905   4.18905
 2671     56.29515   4.64166
 2671.5     57.81124   5.09427
 2672     59.32734   5.54688
 2672.5     60.84343   5.99949
 2673     61.08205   6.4521
 2673.5     59.47269   6.42669
