#--------------------------------------------------#
#-------------------ENVERUS, INC.------------------#
#------------------WWW.ENVERUS.COM-----------------#
#------------------COPYRIGHT 2020------------------#
#--------------------------------------------------#
#THIS FILE MAY BE USED ONLY IN ACCORDANCE WITH A CURRENT SUBSCRIPTION AGREEMENT BETWEEN
#THE USER AND ENVERUS, INC. NO PART OF THIS FILE MAY BE REPRODUCED, USED, COPIED,
#MODIFIED, PROPAGATED, OR DISTRIBUTED EXCEPT IN ACCORDANCE WITH THE SUBSCRIPTION
#AGREEMENT. UNAUTHORIZED USE OR DISTRIBUTION OF ALL OR ANY PART OF THIS FILE MAY VIOLATE
#COPYRIGHT, TRADEMARK, AND/OR OTHER LAWS AND IS SUBJECT TO CIVIL AS WELL AS CRIMINAL
#SANCTIONS.
#--------------------------------------------------#
#THIS FILE IS PROVIDED "AS-IS" AND ALL WARRANTIES ARE EXPRESSLY DISCLAIMED, WHETHER
#EXPRESS, ORAL, IMPLIED, STATUTORY OR OTHERWISE, INCLUDING ANY IMPLIED WARRANTY OF FITNESS
#FOR A PARTICULAR PURPOSE, MERCHANTABILITY, TITLE OR NON-INFRINGEMENT, AND ANY WARRANTIES
#ARISING BY VIRTUE OF CUSTOM OF TRADE OR COURSE OF DEALING.  FURTHER, ENVERUS, INC.
#AND ITS LICENSORS DO NOT REPRESENT OR WARRANT THAT THIS FILE WILL MEET USER'S
#REQUIREMENTS OR ARE SUITABLE FOR USER'S NEEDS OR THAT THE DATA OR RESULTS PROVIDED IN
#CONJUNCTION THEREWITH ARE CORRECT, ACCURATE, TIMELY OR RELIABLE. THESE DISCLAIMERS SHALL
#APPLY REGARDLESS OF ANY FAILURE OF ESSENTIAL PURPOSE OF ANY LIMITED REMEDY.  SOME
#JURISDICTIONS DO NOT ALLOW THE EXCLUSION OF CERTAIN WARRANTIES SO SOME OF THE ABOVE
#EXCLUSIONS MAY NOT APPLY. IN NO EVENT SHALL ENVERUS, INC. OR ANY OF ITS AFFILIATES
#BE LIABLE UNDER ANY LEGAL THEORY, WHETHER IN TORT (INCLUDING WITHOUT LIMITATION
#NEGLIGENCE), CONTRACT, STRICT LIABILITY, STATUTORY OR OTHERWISE, FOR ANY SPECIAL,
#INCIDENTAL, CONSEQUENTIAL, EXEMPLARY, PUNITIVE OR INDIRECT DAMAGE OF ANY KIND, INCLUDING
#WITHOUT LIMITATION LOSS OF REVENUE, PROFITS, GOODWILL, USE, AND/OR DATA OR THE COST OF
#PROCUREMENT OF SUBSTITUTE GOODS OR SERVICES, EVEN IF APPRISED OF THE POSSIBILITY OF SUCH
#DAMAGES IN ADVANCE.
#--------------------------------------------------#

~VERSION INFORMATION
VERS. 2.0 : CWLS LOG ASCII STANDARD - VERSION 2.0
WRAP.  NO : ONE LINE PER DEPTH STEP
~WELL INFORMATION
#MNEMONIC     .UNIT              VALUE :DESCRIPTION
STRT       .FT                10841 :START DEPTH
STOP       .FT                18209 :STOP DEPTH
STEP       .FT                   0.500 :STEP
NULL       .                  -999.99 :NULL
UWI        .                42371326180000 :UNIQUE WELL ID
API        .                42371326180000 :API NUMBER
COMP       .         :COMPANY
WELL       .        :WELL
DATE       .                 :LOG DATE
FLD       .                 :FIELD NAME
LOC       .                  UNK :LOCATION
CNTY       .                 UNK :COUNTY
STAT       .                 UNK :STATE
CTRY       .                 UNK :COUNTY
SRVC       .                 UNK :SERVICE COMPANY
~CURVE INFORMATION
#MNEMONIC     .UNIT      API CODE :CURVE DESCRIPTION
DEPTH       .FT                      :MEASURED DEPTH
CAL.IN        UNKNOWN   :CAL
DT.MSEC/FT        UNKNOWN   :DT
GR.API        UNKNOWN   :GR
ILD.OHM        UNKNOWN   :ILD
ILS.OHM        UNKNOWN   :ILS
SP.MV        UNKNOWN   :SP
~A    DEPTH    CAL    DT    GR    ILD    ILS    SP
# ...
 13803.5     10.35573   86.74088   36.25764   10.90956   51.53754   -15.05866
 13804     10.35253   86.67029   43.64329   8.57037   9.16872   -14.81653
 13804.5     10.34585   86.5997   53.34192   6.23118   6.86711   -14.82149
 13805     10.33918   86.49319   58.72318   5.72953   5.75532   -14.82644
 13805.5     10.35865   86.34004   63.648   5.2932   6.03434   -14.8314
 13806     10.42393   86.09296   67.55376   4.85686   6.31335   -14.83636
 13806.5     10.48922   85.9293   70.82715   4.42053   6.32856   -14.86044
 13807     10.5545   85.84366   70.19815   4.341   5.99361   -14.96619
 13807.5     10.29743   85.86531   68.38349   4.37442   5.65866   -15.07193
 13808     10.25724   85.88049   66.78467   4.40785   5.32371   -15.17767
 13808.5     10.24997   85.88042   67.06223   4.44127   5.33345   -15.45727
 13809     10.30933   85.83675   68.20301   4.47469   5.45773   -15.8401
 13809.5     10.36869   85.74267   70.332   4.52528   5.51075   -16.22293
 13810     10.42804   85.40556   72.46098   4.58387   5.45549   -16.60576
 13810.5     10.31922   84.52603   72.49871   4.64245   5.41457   -16.67383
 13811     10.16554   85.11701   69.75092   4.70104   5.65617   -16.67879
 13811.5     9.99014   88.74106   67.05911   4.75963   5.89776   -16.68374
 13812     9.81473   89.40913   64.87269   4.81821   5.8725   -16.54758
 13812.5     9.75903   86.49417   64.76453   4.8768   5.80398   -16.40875
 13813     9.77539   85.20339   66.13211   4.93539   5.73545   -16.26993
 13813.5     9.79176   84.89481   67.92786   4.99397   5.74464   -16.1311
 13814     9.80812   84.76877   69.25376   4.87119   5.82986   -15.99228
 13814.5     9.82448   84.82806   70.07514   4.72336   5.91507   -16.24442
 13815     9.84085   84.99886   68.37717   4.57552   6.00029   -16.50155
 13815.5     9.85721   85.05426   67.44878   4.42768   6.08551   -16.75868
 13816     9.87358   85.00319   68.09429   4.27984   6.13934   -17.01581
 13816.5     9.87828   79.98326   69.30732   4.132   5.97943   -16.85268
 13817     9.88218   75.36306   67.78073   3.98416   5.81952   -16.52306
 13817.5     9.88608   75.78176   66.26988   4.05657   5.65961   -16.19344
 13818     9.88998   79.69859   67.51424   4.13898   5.60092   -15.86381
 13818.5     9.89388   82.35025   70.82644   4.29781   5.54818   -15.77127
 13819     9.94388   82.73479   70.26899   4.69028   5.53627   -15.99187
 13819.5     10.03474   82.8283   66.4778   5.08276   5.57871   -16.21247
 13820     10.13791   82.85679   63.21401   5.47524   5.62114   -16.43307
 13820.5     10.25579   82.79124   59.20511   5.86771   7.58315   -16.65368
 13821     10.37367   82.72569   53.55617   6.26019   11.98975   -16.6657
 13821.5     10.37732   82.66015   47.30563   6.6297   14.74969   -16.41953
 13822     10.37733   82.70063   44.70333   6.99868   15.47769   -16.17337
 13822.5     10.37735   82.87546   47.33161   7.35755   11.21993   -15.92721
 13823     10.37784   83.41613   57.19796   7.61725   10.18757   -15.68105
 13823.5     10.40303   83.63662   64.88286   7.49304   9.15522   -15.43488
 13824     10.42822   83.67003   70.48336   7.23119   9.38469   -15.18872
 13824.5     10.45341   83.65513   71.60543   6.96934   9.72649   -15.04722
 13825     10.42942   83.64023   70.99873   6.70749   10.69099   -15.14111
 13825.5     10.27518   83.62534   69.2298   6.44564   11.20297   -15.235
 13826     10.12095   83.61044   67.98795   6.51861   10.59414   -15.32889
 13826.5     10.02339   83.13295   68.60952   6.75412   9.64385   -15.37924
 13827     10.0287   82.20927   69.00716   6.98963   8.47916   -15.31229
 13827.5     10.03401   82.08478   69.91644   7.22514   7.31447   -15.24534
 13828     10.03932   80.1005   71.00541   7.45503   7.0324   -15.17839
 13828.5     10.04463   76.60863   72.85561   7.63124   8.13955   -15.11144
 13829     10.04995   74.68368   68.23163   7.80746   10.68693   -15.13456
 13829.5     10.05526   75.88466   59.326   7.70309   16.47969   -15.39114
 13830     10.06057   77.08565   47.65727   7.49122   23.45214   -15.64773
 13830.5     10.04479   76.78584   43.45285   7.27935   19.47475   -15.90432
 13831     10.00384   76.44992   48.22459   7.06748   14.22826   -16.15659
 13831.5     9.96288   76.28234   54.85787   6.67354   8.98177   -15.8198
 13832     9.92192   76.20354   62.21248   6.24493   7.30587   -15.483
 13832.5     9.88097   76.09888   68.70644   5.81633   7.41894   -15.14621
 13833     9.84001   75.99422   75.93817   5.38772   7.53201   -14.80941
 13833.5     9.87961   75.88956   83.26993   4.9946   7.64507   -14.47262
 13834     9.93509   75.7849   84.29724   4.84937   7.75814   -14.54971
 13834.5     9.99057   75.67315   81.54198   4.77943   7.87121   -14.75155
 13835     10.04605   75.51195   78.96376   4.91594   7.61101   -14.95339
 13835.5     10.09806   75.35075   78.35885   5.05245   6.99281   -15.15523
 13836     10.14848   75.23559   77.32984   5.18896   6.37461   -15.35707
 13836.5     10.19889   75.14555   72.5372   5.32547   7.05685   -15.43714
 13837     10.09337   75.08887   65.77556   5.45908   8.36978   -15.24574
 13837.5     9.86096   75.07712   59.36755   5.39816   9.68272   -15.05434
 13838     8.72311   75.06536   56.95599   5.33725   9.62666   -14.86294
 13838.5     8.06843   75.05243   58.20311   5.27634   7.89101   -14.67154
 13839     7.54497   74.98808   61.25066   5.21543   6.51569   -14.48014
 13839.5     7.54633   74.92372   64.55243   5.15452   5.99811   -14.79037
 13840     7.65748   74.84785   67.99023   5.09361   6.11426   -15.19851
 13840.5     7.75294   74.76214   70.24291   5.0327   6.25647   -15.60664
 13841     7.83947   74.67643   71.29596   4.97179   6.57303   -15.82867
 13841.5     7.926   74.6251   70.6783   4.91087   7.35885   -15.57389
 13842     8.01254   74.66573   68.62988   4.84996   8.14468   -15.31911
 13842.5     8.09918   74.66478   66.48831   4.78905   7.98639   -15.06434
 13843     8.18611   74.56924   64.42587   4.72814   7.48572   -14.80956
 13843.5     8.27305   74.50804   62.56147   4.66723   6.98505   -14.55478
 13844     8.35998   74.57136   61.29901   4.69997   6.73446   -14.30001
 13844.5     8.44692   74.63468   58.36685   4.75187   6.51007   -14.2319
 13845     8.53385   74.67814   55.17062   4.80377   6.14694   -14.46955
 13845.5     8.62078   74.34921   53.82357   4.96156   5.88239   -14.70721
 13846     8.70772   72.57732   56.29835   5.39716   5.83965   -14.82117
 13846.5     8.79694   71.41636   59.72594   5.83277   7.40636   -14.63755
 13847     8.88669   70.79226   59.6332   6.21612   14.2429   -14.45393
 13847.5     8.97644   70.61976   54.1312   6.40878   19.89743   -14.2703
 13848     9.11973   70.61972   50.6774   6.60144   23.50222   -14.24321
 13848.5     9.7148   70.68611   54.66414   6.72966   19.79182   -14.3813
 13849     9.89702   70.82121   60.39754   6.72871   15.14206   -14.51939
 13849.5     10.0445   70.96794   64.44521   6.72776   11.84635   -14.65748
 13850     10.05225   71.19529   64.39063   6.72682   8.87167   -14.79558
 13850.5     10.06   71.37232   64.33606   7.25176   8.27998   -14.93367
 13851     10.06776   71.62955   64.19398   8.11121   8.16262   -15.07176
 13851.5     10.07551   72.10034   62.41636   8.97067   8.63161   -15.20985
 13852     10.08326   72.5706   58.331   9.83012   25.01966   -15.2334
 13852.5     10.09152   73.06691   52.23456   10.68957   39.86531   -15.09508
 13853     10.09992   74.08307   45.52241   11.09967   55.08235   -14.95676
 13853.5     10.10831   74.96472   41.31036   11.06609   70.72705   -14.81844
 13854     10.11671   75.67441   37.65008   11.03251   74.55498   -14.68012
 13854.5     10.1251   76.38411   37.97303   10.2285   41.51461   -14.66214
 13855     10.13689   77.09381   42.24415   9.22827   18.3533   -14.81063
 13855.5     10.14949   77.8035   48.74759   8.22805   9.40804   -14.95912
 13856     10.16209   78.5132   51.84468   7.22782   6.8982   -15.10761
 13856.5     10.17469   79.22289   51.26889   6.22759   7.90488   -15.2561
 13857     10.18729   79.93259   50.76791   5.75872   8.91157   -15.29019
