#--------------------------------------------------#
#-------------------ENVERUS, INC.------------------#
#------------------WWW.ENVERUS.COM-----------------#
#------------------COPYRIGHT 2020------------------#
#--------------------------------------------------#
#THIS FILE MAY BE USED ONLY IN ACCORDANCE WITH A CURRENT SUBSCRIPTION AGREEMENT BETWEEN
#THE USER AND ENVERUS, INC. NO PART OF THIS FILE MAY BE REPRODUCED, USED, COPIED,
#MODIFIED, PROPAGATED, OR DISTRIBUTED EXCEPT IN ACCORDANCE WITH THE SUBSCRIPTION
#AGREEMENT. UNAUTHORIZED USE OR DISTRIBUTION OF ALL OR ANY PART OF THIS FILE MAY VIOLATE
#COPYRIGHT, TRADEMARK, AND/OR OTHER LAWS AND IS SUBJECT TO CIVIL AS WELL AS CRIMINAL
#SANCTIONS.
#--------------------------------------------------#
#THIS FILE IS PROVIDED "AS-IS" AND ALL WARRANTIES ARE EXPRESSLY DISCLAIMED, WHETHER
#EXPRESS, ORAL, IMPLIED, STATUTORY OR OTHERWISE, INCLUDING ANY IMPLIED WARRANTY OF FITNESS
#FOR A PARTICULAR PURPOSE, MERCHANTABILITY, TITLE OR NON-INFRINGEMENT, AND ANY WARRANTIES
#ARISING BY VIRTUE OF CUSTOM OF TRADE OR COURSE OF DEALING.  FURTHER, ENVERUS, INC.
#AND ITS LICENSORS DO NOT REPRESENT OR WARRANT THAT THIS FILE WILL MEET USER'S
#REQUIREMENTS OR ARE SUITABLE FOR USER'S NEEDS OR THAT THE DATA OR RESULTS PROVIDED IN
#CONJUNCTION THEREWITH ARE CORRECT, ACCURATE, TIMELY OR RELIABLE. THESE DISCLAIMERS SHALL
#APPLY REGARDLESS OF ANY FAILURE OF ESSENTIAL PURPOSE OF ANY LIMITED REMEDY.  SOME
#JURISDICTIONS DO NOT ALLOW THE EXCLUSION OF CERTAIN WARRANTIES SO SOME OF THE ABOVE
#EXCLUSIONS MAY NOT APPLY. IN NO EVENT SHALL ENVERUS, INC. OR ANY OF ITS AFFILIATES
#BE LIABLE UNDER ANY LEGAL THEORY, WHETHER IN TORT (INCLUDING WITHOUT LIMITATION
#NEGLIGENCE), CONTRACT, STRICT LIABILITY, STATUTORY OR OTHERWISE, FOR ANY SPECIAL,
#INCIDENTAL, CONSEQUENTIAL, EXEMPLARY, PUNITIVE OR INDIRECT DAMAGE OF ANY KIND, INCLUDING
#WITHOUT LIMITATION LOSS OF REVENUE, PROFITS, GOODWILL, USE, AND/OR DATA OR THE COST OF
#PROCUREMENT OF SUBSTITUTE GOODS OR SERVICES, EVEN IF APPRISED OF THE POSSIBILITY OF SUCH
#DAMAGES IN ADVANCE.
#--------------------------------------------------#

~VERSION INFORMATION
VERS. 2.0 : CWLS LOG ASCII STANDARD - VERSION 2.0
WRAP.  NO : ONE LINE PER DEPTH STEP
~WELL INFORMATION
#MNEMONIC     .UNIT              VALUE :DESCRIPTION
STRT       .FT                86 :START DEPTH
STOP       .FT                5215 :STOP DEPTH
STEP       .FT                   0.500 :STEP
NULL       .                  -999.990 :NULL
UWI        .              42389101440000 :UNIQUE WELL ID
API        .              42389101440000 :API NUMBER
COMP       .         :COMPANY
WELL       .         1, :WELL
DATE       .                            :LOG DATE
~CURVE INFORMATION
#MNEMONIC     .UNIT      API CODE :CURVE DESCRIPTION
DEPTH       .FT                      :MEASURED DEPTH
DT.US/FT        UNKNOWN   :DT
GR.API        UNKNOWN   :GR
~A    DEPTH    DT    GR
# ...
 2736     52.55   11.61
 2736.5     52.174   10.352
 2737     51.798   9.971
 2737.5     52.113   11.225
 2738     52.645   12.479
 2738.5     53.178   13.733
 2739     53.381   14.987
 2739.5     53.139   16.241
 2740     52.896   17.495
 2740.5     53.428   9.886
 2741     54.507   10.905
 2741.5     54.614   9.935
 2742     54.25   8.595
 2742.5     53.886   7.254
 2743     53.819   5.918
 2743.5     54.271   6.486
 2744     54.248   7.054
 2744.5     53.672   7.622
 2745     54.634   8.19
 2745.5     56.75   8.617
 2746     58.866   8.707
 2746.5     60.982   8.798
 2747     63.097   8.888
 2747.5     65.213   8.943
 2748     66.93   8.088
 2748.5     68.547   7.233
 2749     70.165   6.378
 2749.5     70.072   8.725
 2750     69.854   9.03
 2750.5     69.636   8.363
 2751     69.418   7.697
 2751.5     69.304   7.031
 2752     69.614   6.365
 2752.5     69.924   5.819
 2753     70.234   7.147
 2753.5     70.062   8.104
 2754     69.819   7.504
 2754.5     69.577   6.904
 2755     69.335   6.304
 2755.5     69.092   6.225
 2756     69.152   6.993
 2756.5     69.364   7.761
 2757     69.575   8.528
 2757.5     69.786   9.069
 2758     69.567   8.359
 2758.5     69.285   7.649
 2759     69.017   6.938
 2759.5     69.247   6.228
 2760     69.476   6.586
 2760.5     69.705   7.116
 2761     69.935   7.647
 2761.5     70.043   8.177
 2762     69.846   8.707
 2762.5     69.649   9.237
 2763     69.452   8.884
 2763.5     69.255   8.218
 2764     69.058   7.551
 2764.5     68.861   6.885
 2765     68.664   6.287
 2765.5     68.812   5.772
 2766     69.102   5.257
 2766.5     69.392   4.856
 2767     69.681   5.301
 2767.5     69.971   5.747
 2768     69.842   6.193
 2768.5     69.696   6.638
 2769     69.551   6.856
 2769.5     69.406   6.736
 2770     69.342   6.616
 2770.5     69.556   6.496
 2771     69.771   6.376
 2771.5     69.985   6.256
 2772     70.2   6.136
 2772.5     69.804   6.016
 2773     69.38   5.896
 2773.5     68.955   5.775
 2774     68.531   5.984
 2774.5     68.353   6.221
 2775     69.023   6.457
 2775.5     69.693   6.693
 2776     70.362   6.929
 2776.5     71.032   7.048
 2777     70.608   6.826
 2777.5     70.123   6.603
 2778     69.739   6.38
 2778.5     70.173   6.157
 2779     70.608   6.369
 2779.5     70.429   6.587
 2780     70.029   6.805
 2780.5     69.629   7.023
 2781     69.229   7.241
 2781.5     68.831   7.459
 2782     69.036   7.203
 2782.5     69.242   6.86
 2783     69.447   6.516
 2783.5     69.652   6.173
 2784     69.735   5.829
 2784.5     69.468   5.486
 2785     69.202   5.272
 2785.5     70.64   5.601
 2786     70.975   5.93
 2786.5     69.79   6.259
 2787     69.585   6.589
 2787.5     70.102   6.918
 2788     70.619   7.247
 2788.5     70.969   7.576
 2789     70.821   7.028
 2789.5     70.673   5.991
 2790     70.524   5.222
 2790.5     70.376   5.25
 2791     69.909   5.277
 2791.5     69.437   5.305
 2792     68.966   5.332
 2792.5     68.495   5.36
 2793     68.743   5.387
 2793.5     69.256   5.472
 2794     68.939   5.877
 2794.5     68.454   6.283
 2795     68.292   6.688
 2795.5     68.5   7.093
 2796     68.708   7.205
 2796.5     68.916   6.938
 2797     69.124   6.671
 2797.5     69.332   6.403
 2798     69.54   6.136
 2798.5     69.748   5.869
 2799     69.956   6.03
 2799.5     69.59   6.341
 2800     69.181   6.653
 2800.5     68.772   6.964
 2801     68.457   7.276
 2801.5     68.699   7.588
 2802     68.94   7.296
 2802.5     68.994   6.611
 2803     68.606   5.925
 2803.5     68.218   5.513
 2804     68.713   5.844
 2804.5     69.271   6.176
 2805     69.829   6.507
 2805.5     70.268   6.838
 2806     69.934   7.11
 2806.5     69.601   6.669
 2807     69.268   6.229
 2807.5     68.935   5.788
 2808     68.602   5.348
 2808.5     68.62   5.612
 2809     69.063   7.353
 2809.5     69.506   8.017
 2810     69.949   7.416
 2810.5     70.249   6.816
 2811     69.916   6.216
 2811.5     69.583   6.477
 2812     69.25   7.199
 2812.5     68.916   7.921
 2813     68.583   8.643
 2813.5     68.684   8.956
 2814     69.212   8.705
 2814.5     69.74   8.455
 2815     70.268   8.204
 2815.5     70.017   8.703
 2816     69.441   9.125
 2816.5     69.711   7.636
 2817     70.173   6.775
 2817.5     70.636   7.413
 2818     69.124   8.05
 2818.5     68.246   8.684
 2819     67.937   7.097
 2819.5     67.629   5.511
 2820     67.321   5.452
 2820.5     67.012   6.418
 2821     66.902   7.384
 2821.5     67.169   8.351
 2822     67.436   8.049
 2822.5     67.703   7.515
 2823     67.97   6.981
 2823.5     68.237   6.447
 2824     68.504   5.913
 2824.5     68.771   5.476
 2825     69.038   5.655
 2825.5     69.264   5.833
 2826     69.406   6.011
 2826.5     69.549   6.189
 2827     69.692   6.367
 2827.5     69.835   6.546
 2828     69.923   6.724
 2828.5     69.615   6.902
 2829     69.308   7.08
 2829.5     69   7.259
 2830     68.693   7.437
 2830.5     68.385   7.504
 2831     68.078   7.337
 2831.5     68.373   7.171
 2832     68.689   7.004
 2832.5     69.005   6.837
 2833     69.321   6.67
 2833.5     69.637   6.791
 2834     69.953   7.08
 2834.5     69.835   7.37
 2835     69.61   7.659
 2835.5     69.385   7.948
 2836     69.52   8.237
 2836.5     70.033   8.527
 2837     69.929   8.816
 2837.5     69.396   9.105
 2838     69.081   9.394
 2838.5     69.524   9.117
 2839     69.967   8.616
 2839.5     69.993   8.116
 2840     69.336   7.615
 2840.5     68.678   7.114
 2841     68.09   6.614
 2841.5     68.483   6.113
 2842     68.78   5.723
 2842.5     68.61   6.25
 2843     68.441   6.778
 2843.5     68.271   7.305
 2844     68.101   7.832
 2844.5     68.442   8.077
 2845     69.43   7.895
 2845.5     68.663   7.712
 2846     68.467   7.53
 2846.5     68.666   7.348
 2847     68.866   7.337
 2847.5     69.066   8.091
 2848     69.265   8.845
 2848.5     69.465   9.599
 2849     69.665   8.675
 2849.5     69.864   7.545
 2850     70.064   6.456
 2850.5     70.264   7.21
 2851     70.463   7.965
 2851.5     70.367   8.719
 2852     70.138   8.532
 2852.5     69.909   7.998
 2853     69.681   7.464
 2853.5     69.586   6.93
 2854     69.671   6.636
 2854.5     69.757   6.637
 2855     69.842   6.638
 2855.5     69.927   6.639
 2856     70.012   6.639
 2856.5     70.098   6.64
 2857     70.183   6.641
 2857.5     70.137   6.641
 2858     69.87   6.642
 2858.5     69.604   6.643
 2859     69.337   6.987
 2859.5     69.07   7.663
 2860     69.707   8.34
 2860.5     69.789   8.121
 2861     69.391   7.492
 2861.5     68.993   6.863
 2862     68.827   6.62
 2862.5     69.049   7.083
 2863     69.271   7.546
 2863.5     69.302   7.949
 2864     69.165   7.299
 2864.5     69.029   6.648
 2865     68.893   5.998
 2865.5     68.997   5.532
 2866     69.185   5.634
 2866.5     69.373   5.735
 2867     69.562   5.837
 2867.5     69.75   5.938
 2868     69.938   6.04
 2868.5     70.126   6.141
 2869     70.314   6.243
 2869.5     70.391   7.012
 2870     70.069   8.098
 2870.5     69.746   9.184
 2871     69.647   8.706
 2871.5     69.923   7.986
 2872     70.2   7.266
 2872.5     70.451   6.546
 2873     70.304   5.95
 2873.5     70.157   6.451
 2874     70.01   6.952
 2874.5     69.863   7.452
 2875     69.716   7.953
 2875.5     69.569   8.454
 2876     69.549   8.954
 2876.5     69.7   9.455
 2877     69.851   9.834
 2877.5     70.002   8.998
 2878     69.947   8.162
 2878.5     69.773   7.327
 2879     69.6   6.491
 2879.5     69.427   5.656
 2880     69.254   6.022
 2880.5     69.081   6.608
 2881     68.911   7.194
 2881.5     69.125   7.78
 2882     69.339   7.867
 2882.5     69.553   7.633
 2883     69.767   7.399
 2883.5     69.98   7.166
 2884     70.194   6.932
 2884.5     70.053   6.698
 2885     69.848   6.996
 2885.5     69.643   7.343
 2886     69.438   7.69
 2886.5     69.233   7.498
 2887     69.028   6.963
 2887.5     69.107   6.429
 2888     69.314   7.096
 2888.5     69.52   8.142
 2889     69.726   9.189
 2889.5     69.932   9.482
 2890     70.139   8.948
 2890.5     70.345   8.414
