~Version Information Block
 VERS.                2.00:     CWLS LOG ASCII STANDARD - VERSION 2.000000
 WRAP.                  NO:     One Line Per Depth Step
#
~Well Information Block
#MNEM.UNIT                     Data                         Information
#----------   ------------------------------------------   ----------------
 STRT.FT                                     5200.0000:     START DEPTH
 STOP.FT                                    11550.0000:     STOP DEPTH
 STEP.FT                                        0.5000:     STEP
 NULL.                                       -999.2500:     NULL VALUE
 COMP.               AMERICAN QUASAR PETROLEUM COMPANY:     COMPANY
 WELL.                               MCCARTER # 1 - 31:     WELL
 FLD .                                         WILDCAT:     FIELD
 LOC .                                                :     LOCATION
 CNTY.                                          REEVES:     COUNTY
 STAT.                                           TEXAS:     STATE
 CTRY.                                             USA:     COUNTRY
 SRVC.                                                :     SERVICE COMPANY
 DATE.                                      08/07/2015:     DATE
 API .                                  42389311800000:     API NUMBER
 UWI .                                  42389311800000:     UWI NUMBER
 TVD .                                              NO:     TVD flag
 WSTA.                                             LOC:     Well status
#
~Curve Information Block
#MNEM.UNIT       API CODE      Curve Description
#----------    -------------   -------------------
 DEPT.FT                   :   Depth in Feet
 GR  .GAPI                 :   Gamma Ray
 LLD .OHMM                 :   Latero-Log Deep (Resistivity)
 CALI.IN                   :   Caliper
 DT  .US/F                 :   Delta-T
#
~Parameter Information Block
#MNEM.UNIT            Value               Description
#----------    --------------------    -------------------
 RUN .                         ONE:    Run Number
 PDAT.                          GL:    Permanent Datum
 EPD .FT                          :    Elevation Of Perm. Datum
 LMF .               KELLY BUSHING:    Log Measured From
 EKB .FT                          :    Elevation Of Kelly Bushing
 DF .FT                           :    Elevation Of Derrick Floor
 GL .FT                           :    Elevation Of Ground Level
 TD  .FT                          :    Total Depth
 CSGD.FT                          :    Casing Bottom (Driller) 1
 CSGL.FT                          :    Casing Bottom (Logger) 1
 MUD .                            :    Drilling Fluid Type
 MUDV .CP                         :    Drilling Fluid Viscosity
 MUDD .LB/USG                     :    Drilling Fluid Density
 FL .ML/30MIN                     :    Drilling Fluid Loss
 PH.                              :    Drilling Fluid Ph
 MUDS .                           :    Mud Sample Source
 RM .OHMM                         :    Resistivity Of Mud Sample
 RMT .DEGF                        :    Mud Sample Temperature
 RMF .OHMM                        :    Mud Filtrate Resistivity
 RMFT.DEGF                        :    Mud Filtrate Sample Temperature
 RMC .OHMM                        :    Mud Cake Resistivity
 RMCT.DEGF                        :    Mud Cake Sample Temperature
 RMB .OHMM                        :    Mud Resistivity At Bht
 TMAX .DEGF                       :    Bottom Hole Temperature    
#
~Other Information Block
<DescLogPlotStart>   NEURALOG PLOT DEFINITION
PLOTDEFVERSION: 3
LASFILE: E:\Nair Innovations\Texas - NII\Shivam\42389311800000\42389311800000_G
DEPTHSCALE: 239.999996
RESOLUTION: 200
DEPTHLABELFREQ: 100.000000
HEAVYGRIDFREQ: 100.000000
MEDIUMGRIDFREQ: 50.000000
LIGHTGRIDFREQ: 10.000000
#
#   TRACK 1
#
STARTTRACK: 
 LEFTX: 0.500000 inch
 RIGHTX: 3.000000 inch
 SCALETYPE: Linear
 NUMCHARTDIVISIONS: 10
CURVE: GR    0.000000   125.000000 (0,0,255)      Solid             2     Y    
BACKUP: 125.000000 250.000000 (0,0,255)      Solid             2    
CURVE: CALI  6.000000   16.000000  (0,0,255)      Solid             2     N    
ENDTRACK: 
#
#   TRACK 2
#
STARTTRACK: 
 LEFTX: 3.500000 inch
 RIGHTX: 8.500000 inch
 SCALETYPE: Log
 NUMCYCLES: 4
 STARTCYCLE: 2
CURVE: LLD   0.200000   2000.000000 (0,131,131)    Solid             2     Y   
BACKUP: 2000.000000 20000000.000000 (0,131,131)    Solid             2    
ENDTRACK: 
#
#   TRACK 3
#
STARTTRACK: 
 LEFTX: 3.500000 inch
 RIGHTX: 8.500000 inch
 SCALETYPE: Linear
 NUMCHARTDIVISIONS: 10
CURVE: DT    100.000000 40.000000  (0,131,131)    Solid             2     Y    
BACKUP: 160.000000 100.000000 (0,131,131)    Solid             2    
BACKUP: 40.000000  -20.000000 (0,131,131)    Solid             2    
ENDTRACK: 
<DescLogPlotEnd>
<DepthTrack type='Reference' track='1' Label='0' color='0' hor='0' />
<Reference font='144,0,-900,0,500,0,16777216,Arial' />
~A DEPTH     GR               LLD              CALI             DT              
# ...
    6041.500 99.04021715      79.49661433      12.97313515      69.34065934     
    6042.000 98.57730909      73.14021762      12.97359319      69.72464459     
    6042.500 92.37409498      63.59673286      12.97405122      69.79401368     
    6043.000 86.01502168      51.98279837      12.97450926      69.86338277     
    6043.500 79.49834405      48.97415367      12.97496730      68.71413586     
    6044.000 73.28339020      44.04162098      12.97542533      66.73926074     
    6044.500 65.16002086      44.33292142      12.97588337      64.19572735     
    6045.000 56.20847009      45.03579182      12.97634141      61.65219396     
    6045.500 49.54258946      47.78534424      12.97679945      60.98205544     
    6046.000 47.18598529      50.18279176      12.97725748      60.86801199     
    6046.500 55.19389147      62.78974410      12.97771552      60.74777223     
    6047.000 61.44283717      77.34248205      12.97817356      60.64935065     
    6047.500 60.86822026      83.99945893      12.97863159      61.12887113     
    6048.000 108.38885122     106.77876794     12.97908963      65.17838228     
    6048.500 134.10817802     127.52088572     12.97954767      70.23663159     
    6049.000 125.16115246     145.38277747     12.98000571      75.35524157     
    6049.500 118.22377133     148.85844660     12.98046374      76.41358641     
    6050.000 107.96842015     125.61051252     12.98092178      74.34695739     
    6050.500 97.65823344      102.40486204     12.98137982      71.98137080     
    6051.000 87.35067488      83.48820814      12.98183785      69.61578422     
    6051.500 77.00954638      68.06279120      12.98229589      67.25019763     
    6052.000 66.30121990      55.48702381      12.98275393      65.38461538     
    6052.500 62.65517527      45.23753515      12.98321197      65.60006660     
    6053.000 61.14137711      36.88022167      12.98367000      64.96503497     
    6053.500 61.38037885      32.16938967      12.98412804      64.96503497     
    6054.000 61.08735512      29.06395048      12.98458608      65.14367649     
    6054.500 59.55147242      27.20678911      12.98504411      64.41890001     
    6055.000 58.23590692      26.01707402      12.98550215      63.71526608     
    6055.500 57.59997331      28.79695906      12.98596019      62.73828420     
    6056.000 56.74965748      29.87986927      12.98641822      62.12062389     
    6056.500 56.40687459      29.49707294      12.98687626      61.79054236     
    6057.000 56.04282843      27.75329582      12.98733430      61.96085907     
    6057.500 51.87272117      28.79695906      12.98779234      62.74725275     
    6058.000 48.64940490      32.16938967      12.98825037      62.19660340     
    6058.500 47.34261062      37.82016180      12.98870841      61.54530470     
    6059.000 46.69864518      41.65501260      12.98916645      60.56273726     
    6059.500 46.47637700      41.27235536      12.98962448      59.74620380     
    6060.000 46.23924942      35.62210752      12.99008252      59.81118881     
    6060.500 48.40041514      30.07417586      12.99054056      60.16188811     
    6061.000 50.64343487      25.39030160      12.99099860      60.68211788     
    6061.500 53.60405377      22.44554712      12.99145663      61.55054945     
    6062.000 56.48119103      21.04137342      12.99191467      62.51907363     
    6062.500 55.92693431      22.22012146      12.99237271      63.02951354     
    6063.000 54.32366055      23.50554235      12.99283154      63.09713264     
    6063.500 50.90828430      24.99445221      12.99329040      61.74391608     
    6064.000 49.37971185      28.79695906      12.99373944      60.89378621     
    6064.500 49.17282134      34.25131818      12.99381577      59.66132867     
    6065.000 49.18923585      39.06087194      12.99309034      58.41322605     
    6065.500 50.63762778      44.85568866      12.99237935      58.11801832     
    6066.000 54.97068866      39.83940157      12.99166667      59.26641024     
    6066.500 59.92218228      35.60183794      12.99095451      60.78268731     
    6067.000 61.60849750      29.06395048      12.99024235      63.30319680     
    6067.500 60.72377454      26.85876924      12.98953019      64.01461039     
    6068.000 57.76228838      25.30663519      12.98881803      63.82788874     
    6068.500 54.42676260      25.80276626      12.98810587      62.82943794     
    6069.000 50.54026194      26.74745716      12.98739371      61.83159725     
    6069.500 46.13078850      29.31596221      12.98668155      61.07881321     
    6070.000 42.91424593      25.27051872      12.98596939      60.71324352     
    6070.500 41.37833849      19.05306653      12.98525723      60.34181367     
    6071.000 42.30504570      14.38193277      12.98454507      60.59840160     
    6071.500 46.14770220      10.85911071      12.98383291      62.62537463     
    6072.000 48.22882615      9.17684343       12.98312075      63.70125874     
    6072.500 48.93203014      7.89173113       12.98240859      64.48281718     
    6073.000 49.24012558      7.28034969       12.98169643      65.08491508     
    6073.500 50.27251918      6.61061329       12.98098427      65.87922078     
    6074.000 50.22762842      5.91700778       12.98027211      67.23294887     
    6074.500 49.72479145      5.23830208       12.97955995      68.87258196     
    6075.000 49.58918112      4.93787376       12.97884779      70.42332667     
    6075.500 50.14742741      4.93831880       12.97813563      71.25874126     
    6076.000 49.98090280      5.36650778       12.97742347      71.26834576     
    6076.500 50.03888225      6.13666887       12.97671131      70.20029297     
    6077.000 50.11587229      7.01649429       12.97599915      69.35185019     
    6077.500 51.07304990      10.37193186      12.97528699      67.38418250     
    6078.000 53.12953254      15.86165987      12.97457483      65.05368868     
    6078.500 54.12035821      24.29165092      12.97386267      62.72865428     
    6079.000 54.36057681      32.00139851      12.97315051      59.87012987     
    6079.500 53.15008222      39.63395149      12.97243835      60.22977023     
    6080.000 52.40037177      41.82999219      12.97172619      58.92607393     
    6080.500 52.96197535      42.39147155      12.97101403      58.31168831     
    6081.000 53.66086505      42.82440310      12.97030187      59.48465534     
    6081.500 56.07687705      35.27954551      12.96958971      60.58708791     
    6082.000 56.92472655      29.06395048      12.96887755      61.93614386     
    6082.500 53.98069403      26.78296495      12.96816539      62.92812188     
    6083.000 50.22786867      25.77807225      12.96745323      63.28671329     
    6083.500 45.40176372      26.75080926      12.96674107      62.23044955     
    6084.000 42.80611692      25.55641402      12.96602891      61.58513487     
    6084.500 41.17670203      21.68582720      12.96531675      61.76549451     
    6085.000 39.99945225      18.10552452      12.96460459      62.06543457     
    6085.500 39.97846640      15.13745791      12.96389243      62.81693307     
    6086.000 41.75928348      12.87017331      12.96318027      63.59675325     
    6086.500 45.35005847      11.10779805      12.96246811      64.47976399     
    6087.000 47.88178971      8.34830461       12.96175595      65.36277473     
    6087.500 47.45724822      6.57010244       12.96104379      66.22377622     
    6088.000 46.41153493      5.33926973       12.96033163      68.84759241     
    6088.500 46.03572131      4.81194446       12.95961947      70.08004995     
    6089.000 46.22822324      4.34164979       12.95890731      71.91808192     
    6089.500 46.92104903      4.14642134       12.95819515      72.45234765     
    6090.000 47.84344725      4.10823470       12.95748299      72.49811727     
    6090.500 48.92200326      4.13459335       12.95677083      72.47499424     
