~Version Information Block
 VERS.                2.00:     CWLS LOG ASCII STANDARD - VERSION 2.000000
 WRAP.                  NO:     One Line Per Depth Step
#
~Well Information Block
#MNEM.UNIT                     Data                         Information
#----------   ------------------------------------------   ----------------
 STRT.FT                                     1000.0000:     START DEPTH
 STOP.FT                                    15733.0000:     STOP DEPTH
 STEP.FT                                        0.5000:     STEP
 NULL.                                       -999.0000:     NULL VALUE
 COMP.                                 MOBIL PRODUCING:     COMPANY
 WELL.                                    IB-WEATHERBY:     WELL
 FLD .                                   ROJO CABALLOS:     FIELD
 LOC .                                         UNKNOWN:     LOCATION
 LONG.                                 -103.1458890000:     LONGITUDE
 LATI.                                   31.1330510000:     LATITUDE
 CNTY.                                           PECOS:     COUNTY
 STAT.                                           TEXAS:     STATE
 CTRY.                                           U.S.A:     COUNTRY
 SRVC.                                         UNKNOWN:     SERVICE COMPANY
 DATE.                                         UNKNOWN:     DATE
 API .                                  42371057360000:     API NUMBER
 UWI .                                  42371057360000:     UWI NUMBER
 SLAT.                                       31.133051:     Surface latitude
 SLON.                                     -103.145889:     surface longitude
 TVD .                                              NO:     TVD flag
 WSTA.                                             LOC:     Well status
#
~Curve Information Block
#MNEM.UNIT       API CODE      Curve Description
#----------    -------------   -------------------
 DEPT.FT                   :   Depth in Feet
 DT  .UNKNOWN          UNKNOWN:   DT-Load
 DTedit.ft/s          UNKNOWN:   DT-Load
 GR  .UNKNOWN          UNKNOWN:   GR-Load
 GR_org.UNKNOWN          UNKNOWN:   GR_org-Load
#
~Parameter Information Block
#MNEM.UNIT            Value               Description
#----------    --------------------    -------------------
 RUN .                         ONE:    Run Number
 PDAT.                          GL:    Permanent Datum
 EPD .FT                          :    Elevation Of Perm. Datum
 LMF .               KELLY BUSHING:    Log Measured From
 EKB .FT                          :    Elevation Of Kelly Bushing
 DF .FT                           :    Elevation Of Derrick Floor
 GL .FT                           :    Elevation Of Ground Level
 TD  .FT                          :    Total Depth
 CSGD.FT                          :    Casing Bottom (Driller) 1
 CSGL.FT                          :    Casing Bottom (Logger) 1
 MUD .                            :    Drilling Fluid Type
 MUDV .CP                         :    Drilling Fluid Viscosity
 MUDD .LB/USG                     :    Drilling Fluid Density
 FL .ML/30MIN                     :    Drilling Fluid Loss
 PH.                              :    Drilling Fluid Ph
 MUDS .                           :    Mud Sample Source
 RM .OHMM                         :    Resistivity Of Mud Sample
 RMT .DEGF                        :    Mud Sample Temperature
 RMF .OHMM                        :    Mud Filtrate Resistivity
 RMFT.DEGF                        :    Mud Filtrate Sample Temperature
 RMC .OHMM                        :    Mud Cake Resistivity
 RMCT.DEGF                        :    Mud Cake Sample Temperature
 RMB .OHMM                        :    Mud Resistivity At Bht
 TMAX .DEGF                       :    Bottom Hole Temperature
#
~Other Information Block
<DescLogPlotStart>   NEURALOG PLOT DEFINITION
PLOTDEFVERSION: 3
LASFILE: E:\Nair Innovations\42_TEXAS\371_Pecos\Mobil_IB-Weatherby 1 Pecos_1.la
DEPTHSCALE: 239.999996
RESOLUTION: 200
DEPTHLABELFREQ: 100.000000
HEAVYGRIDFREQ: 50.000000
MEDIUMGRIDFREQ: 50.000000
LIGHTGRIDFREQ: 10.000000
#
#   TRACK 1
#
STARTTRACK: 
 LEFTX: 0.500000 inch
 RIGHTX: 3.000000 inch
 SCALETYPE: Linear
 NUMCHARTDIVISIONS: 10
CURVE: GR    0.000000   150.000000 (255,0,0)      Short_Dash        4     N    
CURVE: DTedit 6637.927700 24453.046900 (0,131,131)    Solid             2     N
CURVE: GR_org -999.990000 109.000000 (255,0,255)    Solid             2     N  
ENDTRACK: 
#
#   TRACK 2
#
STARTTRACK: 
 LEFTX: 3.750000 inch
 RIGHTX: 6.250000 inch
 SCALETYPE: Linear
 NUMCHARTDIVISIONS: 10
ENDTRACK: 
#
#   TRACK 3
#
STARTTRACK: 
 LEFTX: 6.250000 inch
 RIGHTX: 8.750000 inch
 SCALETYPE: Linear
 NUMCHARTDIVISIONS: 10
CURVE: DT    190.000000 50.000000  (255,0,131)    Solid             2     N    
ENDTRACK: 
<DescLogPlotEnd>
<DepthTrack type='Reference' track='1' Label='0' color='0' hor='0' />
<Reference font='144,0,-900,0,500,0,16777216,Arial' />
~A DEPTH     DT               DTedit             GR               GR_org            
# ...
    5999.500 61.31540000      16309.11620000   24.73590000      24.73590000     
    6000.000 61.21690000      16335.35840000   24.88330000      24.88330000     
    6000.500 61.21690000      16335.35840000   24.58360000      24.58360000     
    6001.000 63.28030000      15802.70610000   24.51440000      24.51440000     
    6001.500 63.28030000      15802.70610000   24.45970000      24.45970000     
    6002.000 60.43290000      16547.27730000   23.92540000      23.92540000     
    6002.500 60.43290000      16547.27730000   22.36230000      22.36230000     
    6003.000 60.49930000      16529.11720000   22.80890000      22.80890000     
    6003.500 60.49930000      16529.11720000   23.67850000      23.67850000     
    6004.000 62.46490000      16008.99020000   24.59780000      24.59780000     
    6004.500 62.46490000      16008.99020000   24.30110000      24.30110000     
    6005.000 61.78090000      16186.23240000   23.60820000      23.60820000     
    6005.500 61.78090000      16186.23240000   22.98430000      22.98430000     
    6006.000 59.80100000      16722.12890000   23.26420000      23.26420000     
    6006.500 59.80100000      16722.12890000   24.39130000      24.39130000     
    6007.000 59.08830000      16923.82420000   24.50200000      24.50200000     
    6007.500 59.08830000      16923.82420000   24.58970000      24.58970000     
    6008.000 61.84800000      16168.67190000   25.12900000      25.12900000     
    6008.500 61.84800000      16168.67190000   25.15700000      25.15700000     
    6009.000 63.65330000      15710.10450000   24.23080000      24.23080000     
    6009.500 63.65330000      15710.10450000   22.64970000      22.64970000     
    6010.000 58.61490000      17060.50980000   21.64200000      21.64200000     
    6010.500 58.61490000      17060.50980000   21.15630000      21.15630000     
    6011.000 58.37540000      17130.50390000   21.09910000      21.09910000     
    6011.500 58.37540000      17130.50390000   21.35250000      21.35250000     
    6012.000 58.85360000      16991.31450000   22.11600000      22.11600000     
    6012.500 58.85360000      16991.31450000   22.60450000      22.60450000     
    6013.000 61.14980000      16353.28320000   22.58080000      22.58080000     
    6013.500 61.14980000      16353.28320000   22.43400000      22.43400000     
    6014.000 61.59660000      16234.66210000   22.19690000      22.19690000     
    6014.500 61.59660000      16234.66210000   21.82800000      21.82800000     
    6015.000 61.33030000      16305.15430000   21.24210000      21.24210000     
    6015.500 61.33030000      16305.15430000   20.56530000      20.56530000     
    6016.000 64.07250000      15607.31930000   19.93400000      19.93400000     
    6016.500 64.07250000      15607.31930000   18.40880000      18.40880000     
    6017.000 59.68470000      16754.71290000   16.50180000      16.50180000     
    6017.500 59.68470000      16754.71290000   16.16900000      16.16900000     
    6018.000 56.37050000      17739.77540000   16.80660000      16.80660000     
    6018.500 56.37050000      17739.77540000   17.30040000      17.30040000     
    6019.000 56.71330000      17632.54880000   17.57200000      17.57200000     
    6019.500 56.71330000      17632.54880000   18.07860000      18.07860000     
    6020.000 56.18900000      17797.07810000   18.62220000      18.62220000     
    6020.500 56.18900000      17797.07810000   18.77400000      18.77400000     
    6021.000 54.84930000      18231.77340000   18.72790000      18.72790000     
    6021.500 54.84930000      18231.77340000   18.80070000      18.80070000     
    6022.000 53.59120000      18659.77930000   19.32690000      19.32690000     
    6022.500 53.59120000      18659.77930000   20.63190000      20.63190000     
    6023.000 59.59590000      16779.67770000   21.85970000      21.85970000     
    6023.500 59.59590000      16779.67770000   22.94450000      22.94450000     
    6024.000 59.95510000      16679.14840000   23.81160000      23.81160000     
    6024.500 59.95510000      16679.14840000   24.64200000      24.64200000     
    6025.000 59.61270000      16774.94920000   25.43940000      25.43940000     
    6025.500 59.61270000      16774.94920000   25.92860000      25.92860000     
    6026.000 58.75000000      17021.27730000   26.06700000      26.06700000     
    6026.500 58.75000000      17021.27730000   25.82750000      25.82750000     
    6027.000 61.53320000      16251.38960000   24.61270000      24.61270000     
    6027.500 61.53320000      16251.38960000   23.20950000      23.20950000     
    6028.000 56.96640000      17554.20700000   22.25350000      22.25350000     
    6028.500 56.96640000      17554.20700000   22.18290000      22.18290000     
    6029.000 61.55550000      16245.50200000   22.31050000      22.31050000     
    6029.500 61.55550000      16245.50200000   22.21230000      22.21230000     
    6030.000 61.79130000      16183.50780000   21.65880000      21.65880000     
    6030.500 61.79130000      16183.50780000   21.06480000      21.06480000     
    6031.000 59.25200000      16877.06840000   21.15810000      21.15810000     
    6031.500 59.25200000      16877.06840000   22.19060000      22.19060000     
    6032.000 62.48950000      16002.68850000   24.04920000      24.04920000     
    6032.500 62.48950000      16002.68850000   25.17290000      25.17290000     
    6033.000 64.18740000      15579.38180000   24.90070000      24.90070000     
    6033.500 64.18740000      15579.38180000   24.81700000      24.81700000     
    6034.000 62.78790000      15926.63570000   24.35280000      24.35280000     
    6034.500 62.78790000      15926.63570000   23.16850000      23.16850000     
    6035.000 59.43100000      16826.23630000   21.50270000      21.50270000     
    6035.500 59.43100000      16826.23630000   20.81170000      20.81170000     
    6036.000 55.41330000      18046.20900000   22.35490000      22.35490000     
    6036.500 55.41330000      18046.20900000   24.80560000      24.80560000     
    6037.000 59.36240000      16845.67970000   26.54470000      26.54470000     
    6037.500 59.36240000      16845.67970000   27.48140000      27.48140000     
    6038.000 62.97630000      15878.98930000   27.07710000      27.07710000     
    6038.500 62.97630000      15878.98930000   26.20260000      26.20260000     
    6039.000 62.51150000      15997.05660000   25.53950000      25.53950000     
    6039.500 62.51150000      15997.05660000   24.74330000      24.74330000     
    6040.000 60.49480000      16530.34570000   23.73450000      23.73450000     
    6040.500 60.49480000      16530.34570000   23.27230000      23.27230000     
    6041.000 57.32890000      17443.20900000   23.75130000      23.75130000     
    6041.500 57.32890000      17443.20900000   24.02850000      24.02850000     
    6042.000 64.23240000      15568.46680000   23.33760000      23.33760000     
    6042.500 64.23240000      15568.46680000   22.41710000      22.41710000     
    6043.000 65.03030000      15377.44820000   21.72420000      21.72420000     
    6043.500 65.03030000      15377.44820000   21.50150000      21.50150000     
    6044.000 66.70870000      14990.54790000   21.90520000      21.90520000     
    6044.500 66.70870000      14990.54790000   21.55060000      21.55060000     
    6045.000 71.15030000      14054.75490000   20.89250000      20.89250000     
    6045.500 71.15030000      14054.75490000   20.21890000      20.21890000     
    6046.000 74.21470000      13474.41990000   19.68940000      19.68940000     
    6046.500 74.21470000      13474.41990000   19.62300000      19.62300000     
    6047.000 75.80660000      13191.46290000   19.98190000      19.98190000     
    6047.500 75.80660000      13191.46290000   20.79240000      20.79240000     
    6048.000 76.61180000      13052.81930000   22.10480000      22.10480000     
    6048.500 76.61180000      13052.81930000   22.89850000      22.89850000     
