###############################################
##         ENVERUS                           ##
##         ESS - Open Hole                   ##
##         PERMIAN / DELAWARE                ##
##         Nov 04 2023  V4.0                 ##
##         42-389-00931-00-00                ##
###############################################
## Copyright 2017-2023  ENVERUS.  All Rights Reserved. 
## Confidential - Property of ENVERUS, use governed by terms and 
## conditions found within the existing Information Services Subscription Agreement 
## (as may be amended, the “ISSA”) between Customer and ENVERUS. 
## 
~VERSION INFORMATION
# MNEM.UNIT                               DATA : DESCRIPTION OF MNEMONIC
#-----.-----     ----------------------------- : -----------------------------
VERS.                                     2.00 : CWLS LOG ASCII STANDARD - VERSION 2.00
WRAP.                                       NO : MULTIPLE LINES PER DEPTH STEP
VEND.                                  ENVERUS : VENDOR
TYPE.                          ESS - OPEN HOLE : ENVERUS ESSENTIAL CURVES – ACCESSIBLE THROUGH ENVERUS PRISM(TM)
DOC.                                  31935239 : ENVERUS HEADER RAW DOCUMENT ID
#___________________________________________________________________________________________________ 
~WELL INFORMATION 
# S9zL0tdqvH3y2XIpNbXcuKF0SeIoK+7NE6VaQ02nn2+shQHF2oZWL/5TS96hefD+9qjP/MIJWV/WOidK809eGw== 
# MNEM.UNIT                                              DATA : DESCRIPTION OF MNEMONIC 
#-----.-----                    ----------------------------- : ----------------------------- 
CNTY.                                                  REEVES : COUNTY 
STATE.                                                  TEXAS : STATE 
CNTRY.                                                    USA : COUNTRY 
API.                                             42-389-00931 : API (10 Digit) 
API_14.                                    42-389-00931-00-00 : API (14 Digits) 
API_14_std.                                 42-389-00931-0000 : API (14 Digits Standard) 
UWI.                                           42389009310000 : UNIQUE WELL ID 
WELL.                                                      1, : WELL NAME
STRT.FT                                                 101.0 : START DEPTH
STOP.FT                                                5373.0 : STOP DEPTH
STEP.FT                                                   0.5 : STEP BETWEEN DEPTHS
NULL.                                                 -999.25 : NULL VALUE
#___________________________________________________________________________________________________ 
~CURVE INFORMATION 
# MNEM.UNIT           : CURVE DESCRIPTION 
#-----.-----          : ----------------------------- 
 DEPT.FT               : MEASURED DEPTH 
 GR.API                : GAMMA RAY (GR) 
 DT.US/FT              : SONIC DELTA TRANSIT TIME (DT) 
 #___________________________________________________________________________________________________ 
~A         DEPT             GR             DT
# ...
         1493.0         20.433       -999.250
         1493.5         21.212       -999.250
         1494.0         21.992       -999.250
         1494.5         22.771       -999.250
         1495.0         23.268       -999.250
         1495.5         22.341       -999.250
         1496.0         21.792       -999.250
         1496.5         22.280       -999.250
         1497.0         22.767       -999.250
         1497.5         23.254       -999.250
         1498.0         23.741       -999.250
         1498.5         24.229       -999.250
         1499.0         23.945       -999.250
         1499.5         23.269       -999.250
         1500.0         22.592       -999.250
         1500.5         21.916       -999.250
         1501.0         21.320       -999.250
         1501.5         21.884       -999.250
         1502.0         22.449       -999.250
         1502.5         23.014       -999.250
         1503.0         23.578       -999.250
         1503.5         24.143       -999.250
         1504.0         24.707       -999.250
         1504.5         25.272       -999.250
         1505.0         25.423       -999.250
         1505.5         24.735       -999.250
         1506.0         24.003       -999.250
         1506.5         23.050       -999.250
         1507.0         22.097       -999.250
         1507.5         21.516       -999.250
         1508.0         22.585       -999.250
         1508.5         23.654       -999.250
         1509.0         24.723       -999.250
         1509.5         24.894       -999.250
         1510.0         25.066       -999.250
         1510.5         25.238       -999.250
         1511.0         25.410       -999.250
         1511.5         25.582       -999.250
         1512.0         25.753       -999.250
         1512.5         25.925       -999.250
         1513.0         26.097       -999.250
         1513.5         26.941       -999.250
         1514.0         27.811       -999.250
         1514.5         28.680       -999.250
         1515.0         29.549       -999.250
         1515.5         30.418       -999.250
         1516.0         31.287       -999.250
         1516.5         30.954       -999.250
         1517.0         30.413       -999.250
         1517.5         29.872       -999.250
         1518.0         29.332       -999.250
         1518.5         28.791       -999.250
         1519.0         28.250       -999.250
         1519.5         27.709       -999.250
         1520.0         27.168       -999.250
         1520.5         26.628       -999.250
         1521.0         26.087       -999.250
         1521.5         27.782       -999.250
         1522.0         29.835       -999.250
         1522.5         31.887       -999.250
         1523.0         33.939       -999.250
         1523.5         35.992       -999.250
         1524.0         38.044       -999.250
         1524.5         38.817       -999.250
         1525.0         36.668       -999.250
         1525.5         34.518       -999.250
         1526.0         32.369       -999.250
         1526.5         30.219       -999.250
         1527.0         28.070       -999.250
         1527.5         25.920       -999.250
         1528.0         24.832       -999.250
         1528.5         25.157       -999.250
         1529.0         25.483       -999.250
         1529.5         25.809       -999.250
         1530.0         26.135       -999.250
         1530.5         26.461       -999.250
         1531.0         26.787       -999.250
         1531.5         27.113       -999.250
         1532.0         27.439       -999.250
         1532.5         26.733       -999.250
         1533.0         25.352       -999.250
         1533.5         24.111       -999.250
         1534.0         23.649       -999.250
         1534.5         23.188       -999.250
         1535.0         22.726       -999.250
         1535.5         21.834       -999.250
         1536.0         20.717       -999.250
         1536.5         18.577       -999.250
         1537.0         17.000       -999.250
         1537.5         16.046       -999.250
         1538.0         14.301       -999.250
         1538.5         13.386       -999.250
         1539.0         14.613       -999.250
         1539.5         15.840       -999.250
         1540.0         17.067       -999.250
         1540.5         18.294       -999.250
         1541.0         19.522       -999.250
         1541.5         20.749       -999.250
         1542.0         21.976       -999.250
         1542.5         22.833       -999.250
         1543.0         21.720       -999.250
         1543.5         20.606       -999.250
         1544.0         19.492       -999.250
         1544.5         18.379       -999.250
         1545.0         17.620       -999.250
         1545.5         17.168       -999.250
         1546.0         16.715       -999.250
         1546.5         16.263       -999.250
         1547.0         15.810       -999.250
         1547.5         15.358       -999.250
         1548.0         15.999       -999.250
         1548.5         16.799       -999.250
         1549.0         17.599       -999.250
         1549.5         18.399       -999.250
         1550.0         18.690       -999.250
         1550.5         18.665       -999.250
         1551.0         18.639       -999.250
         1551.5         18.614       -999.250
         1552.0         18.589       -999.250
         1552.5         18.679       -999.250
         1553.0         18.801       -999.250
         1553.5         18.923       -999.250
         1554.0         19.045       -999.250
         1554.5         19.167       -999.250
         1555.0         19.289       -999.250
         1555.5         19.411       -999.250
         1556.0         19.533       -999.250
         1556.5         19.655       -999.250
         1557.0         18.528       -999.250
         1557.5         16.795       -999.250
         1558.0         15.062       -999.250
         1558.5         14.645       -999.250
         1559.0         14.317       -999.250
         1559.5         13.990       -999.250
         1560.0         13.663       -999.250
         1560.5         13.335       -999.250
         1561.0         13.008       -999.250
         1561.5         12.680       -999.250
         1562.0         12.647       -999.250
         1562.5         14.656       -999.250
         1563.0         16.666       -999.250
         1563.5         18.676       -999.250
         1564.0         20.685       -999.250
         1564.5         22.695       -999.250
         1565.0         24.705       -999.250
         1565.5         24.955       -999.250
         1566.0         23.848       -999.250
         1566.5         22.740       -999.250
         1567.0         21.633       -999.250
         1567.5         20.526       -999.250
         1568.0         19.418       -999.250
         1568.5         18.311       -999.250
         1569.0         17.768       -999.250
         1569.5         19.140       -999.250
         1570.0         20.513       -999.250
         1570.5         21.885       -999.250
         1571.0         22.389       -999.250
         1571.5         20.459       -999.250
         1572.0         18.530       -999.250
         1572.5         16.601       -999.250
         1573.0         14.671       -999.250
         1573.5         12.742       -999.250
         1574.0         11.873       -999.250
         1574.5         12.055       -999.250
         1575.0         12.236       -999.250
         1575.5         12.418       -999.250
         1576.0         12.600       -999.250
         1576.5         13.094       -999.250
         1577.0         13.629       -999.250
         1577.5         14.417       -999.250
         1578.0         15.205       -999.250
         1578.5         15.992       -999.250
         1579.0         16.780       -999.250
         1579.5         17.568       -999.250
