###############################################
##         ENVERUS                           ##
##         ESS - Open Hole                   ##
##         PERMIAN / DELAWARE                ##
##         Nov 04 2023  V4.0                 ##
##         42-389-10119-00-00                ##
###############################################
## Copyright 2017-2023  ENVERUS.  All Rights Reserved. 
## Confidential - Property of ENVERUS, use governed by terms and 
## conditions found within the existing Information Services Subscription Agreement 
## (as may be amended, the “ISSA”) between Customer and ENVERUS. 
## 
~VERSION INFORMATION
# MNEM.UNIT                               DATA : DESCRIPTION OF MNEMONIC
#-----.-----     ----------------------------- : -----------------------------
VERS.                                     2.00 : CWLS LOG ASCII STANDARD - VERSION 2.00
WRAP.                                       NO : MULTIPLE LINES PER DEPTH STEP
VEND.                                  ENVERUS : VENDOR
TYPE.                          ESS - OPEN HOLE : ENVERUS ESSENTIAL CURVES – ACCESSIBLE THROUGH ENVERUS PRISM(TM)
DOC.                                  32008410 : ENVERUS HEADER RAW DOCUMENT ID
#___________________________________________________________________________________________________ 
~WELL INFORMATION 
# X8E3XgEZRMs+LiTqjMYqety/5rGXYLbzRNciiYBq17B6ClLelYcJjKNVvvPfWOVGxhvISow7q4Dbthq8gKP2Nw== 
# MNEM.UNIT                                              DATA : DESCRIPTION OF MNEMONIC 
#-----.-----                    ----------------------------- : ----------------------------- 
CNTY.                                                  REEVES : COUNTY 
STATE.                                                  TEXAS : STATE 
CNTRY.                                                    USA : COUNTRY 
API.                                             42-389-10119 : API (10 Digit) 
API_14.                                    42-389-10119-00-00 : API (14 Digits) 
API_14_std.                                 42-389-10119-0000 : API (14 Digits Standard) 
UWI.                                           42389101190000 : UNIQUE WELL ID 
WELL.                                                   1-40, : WELL NAME
STRT.FT                                                  58.0 : START DEPTH
STOP.FT                                                5338.0 : STOP DEPTH
STEP.FT                                                   0.5 : STEP BETWEEN DEPTHS
NULL.                                                 -999.25 : NULL VALUE
#___________________________________________________________________________________________________ 
~CURVE INFORMATION 
# MNEM.UNIT           : CURVE DESCRIPTION 
#-----.-----          : ----------------------------- 
 DEPT.FT               : MEASURED DEPTH 
 GR.API                : GAMMA RAY (GR) 
 DT.US/FT              : SONIC DELTA TRANSIT TIME (DT) 
 #___________________________________________________________________________________________________ 
~A         DEPT             GR             DT
# ...
          406.0         49.503       -999.250
          406.5         51.800       -999.250
          407.0         53.937       -999.250
          407.5         53.690       -999.250
          408.0         53.442       -999.250
          408.5         53.195       -999.250
          409.0         53.033       -999.250
          409.5         54.454       -999.250
          410.0         55.874       -999.250
          410.5         57.295       -999.250
          411.0         58.716       -999.250
          411.5         60.136       -999.250
          412.0         61.557       -999.250
          412.5         62.833       -999.250
          413.0         62.487       -999.250
          413.5         62.141       -999.250
          414.0         61.794       -999.250
          414.5         61.448       -999.250
          415.0         61.183       -999.250
          415.5         62.065       -999.250
          416.0         62.946       -999.250
          416.5         63.828       -999.250
          417.0         64.710       -999.250
          417.5         64.471       -999.250
          418.0         63.405       -999.250
          418.5         62.338       -999.250
          419.0         63.644       -999.250
          419.5         66.852       -999.250
          420.0         69.690       -999.250
          420.5         68.565       -999.250
          421.0         67.441       -999.250
          421.5         66.316       -999.250
          422.0         66.484       -999.250
          422.5         67.664       -999.250
          423.0         68.843       -999.250
          423.5         70.023       -999.250
          424.0         69.171       -999.250
          424.5         66.812       -999.250
          425.0         64.453       -999.250
          425.5         62.094       -999.250
          426.0         59.735       -999.250
          426.5         57.413       -999.250
          427.0         59.508       -999.250
          427.5         61.602       -999.250
          428.0         63.696       -999.250
          428.5         65.790       -999.250
          429.0         67.567       -999.250
          429.5         62.249       -999.250
          430.0         60.224       -999.250
          430.5         61.416       -999.250
          431.0         62.565       -999.250
          431.5         60.602       -999.250
          432.0         58.639       -999.250
          432.5         57.636       -999.250
          433.0         57.636       -999.250
          433.5         57.635       -999.250
          434.0         58.518       -999.250
          434.5         60.344       -999.250
          435.0         59.156       -999.250
          435.5         57.945       -999.250
          436.0         56.733       -999.250
          436.5         55.522       -999.250
          437.0         54.310       -999.250
          437.5         53.099       -999.250
          438.0         53.029       -999.250
          438.5         54.371       -999.250
          439.0         55.713       -999.250
          439.5         57.056       -999.250
          440.0         58.398       -999.250
          440.5         59.693       -999.250
          441.0         60.934       -999.250
          441.5         62.176       -999.250
          442.0         63.417       -999.250
          442.5         63.985       -999.250
          443.0         63.820       -999.250
          443.5         63.654       -999.250
          444.0         63.489       -999.250
          444.5         63.324       -999.250
          445.0         64.376       -999.250
          445.5         65.468       -999.250
          446.0         66.560       -999.250
          446.5         67.651       -999.250
          447.0         68.743       -999.250
          447.5         66.469       -999.250
          448.0         64.129       -999.250
          448.5         61.788       -999.250
          449.0         59.448       -999.250
          449.5         58.788       -999.250
          450.0         60.363       -999.250
          450.5         61.939       -999.250
          451.0         62.317       -999.250
          451.5         61.191       -999.250
          452.0         60.065       -999.250
          452.5         58.939       -999.250
          453.0         60.422       -999.250
          453.5         62.128       -999.250
          454.0         63.834       -999.250
          454.5         64.529       -999.250
          455.0         63.925       -999.250
          455.5         63.322       -999.250
          456.0         62.718       -999.250
          456.5         62.115       -999.250
          457.0         59.942       -999.250
          457.5         57.632       -999.250
          458.0         55.322       -999.250
          458.5         53.283       -999.250
          459.0         51.685       -999.250
          459.5         51.884       -999.250
          460.0         55.224       -999.250
          460.5         54.150       -999.250
          461.0         52.479       -999.250
          461.5         51.802       -999.250
          462.0         52.894       -999.250
          462.5         53.986       -999.250
          463.0         55.078       -999.250
          463.5         56.170       -999.250
          464.0         57.464       -999.250
          464.5         59.098       -999.250
          465.0         60.732       -999.250
          465.5         62.366       -999.250
          466.0         58.808       -999.250
          466.5         56.198       -999.250
          467.0         56.445       -999.250
          467.5         56.692       -999.250
          468.0         58.016       -999.250
          468.5         61.270       -999.250
          469.0         62.939       -999.250
          469.5         62.014       -999.250
          470.0         61.090       -999.250
          470.5         60.166       -999.250
          471.0         60.145       -999.250
          471.5         61.747       -999.250
          472.0         63.350       -999.250
          472.5         64.952       -999.250
          473.0         66.555       -999.250
          473.5         63.196       -999.250
          474.0         59.139       -999.250
          474.5         55.082       -999.250
          475.0         54.263       -999.250
          475.5         54.139       -999.250
          476.0         55.148       -999.250
          476.5         56.409       -999.250
          477.0         57.670       -999.250
          477.5         58.930       -999.250
          478.0         60.191       -999.250
          478.5         61.452       -999.250
          479.0         61.350       -999.250
          479.5         58.576       -999.250
          480.0         58.075       -999.250
          480.5         58.074       -999.250
          481.0         58.073       -999.250
          481.5         58.073       -999.250
          482.0         58.072       -999.250
          482.5         58.533       -999.250
          483.0         60.024       -999.250
          483.5         61.515       -999.250
          484.0         65.909       -999.250
          484.5         68.187       -999.250
          485.0         65.191       -999.250
          485.5         62.195       -999.250
          486.0         59.199       -999.250
          486.5         57.011       -999.250
          487.0         56.791       -999.250
          487.5         56.571       -999.250
          488.0         56.351       -999.250
          488.5         56.131       -999.250
          489.0         56.996       -999.250
          489.5         58.170       -999.250
          490.0         59.343       -999.250
          490.5         60.516       -999.250
          491.0         61.690       -999.250
          491.5         61.377       -999.250
          492.0         57.476       -999.250
          492.5         54.785       -999.250
