~Version Information Block
 VERS.                2.00:     CWLS LOG ASCII STANDARD - VERSION 2.000000
 WRAP.                  NO:     One Line Per Depth Step
#
~Well Information Block
#MNEM.UNIT                     Data                         Information
#----------   ------------------------------------------   ----------------
# Enverus has updated the API/UWI.  The previous names are renamed to  PREV_API / PREV_UWI
API.                             42-371-39483-90-00 : API (14 Digits with Dashes)
UWI.                                 42371394839000 : UNIQUE WELL ID

 STRT.FT                                    10010.0000:     START DEPTH
 STOP.FT                                    11812.0000:     STOP DEPTH
 STEP.FT                                        0.5000:     STEP
 NULL.                                       -999.2500:     NULL VALUE
 COMP.                           PATRIOT RESOURCES INC:     COMPANY
 WELL.                        ROOSTERFISH UNIT 22NE 1H:     WELL
 FLD .                             WOLFBONE TREND AREA:     FIELD
 LOC .                                                :     LOCATION
 SEC .                                              22:     SECTION
 CNTY.                                          PEACOS:     COUNTY
 STAT.                                           TEXAS:     STATE
 CTRY.                                           U.S.A:     COUNTRY
 SRVC.                                    SCHLUMBERGER:     SERVICE COMPANY
 DATE.                                      03/18/2017:     DATE
PREV_APII .                                  42371394830000:     API NUMBER
 PREV_UWI .                                  42371394830000:     UWI NUMBER
 TVD .                                              NO:     TVD flag
 WSTA.                                             LOC:     Well status
#
~Curve Information Block
#MNEM.UNIT       API CODE      Curve Description
#----------    -------------   -------------------
 DEPT.FT                   :   Depth in Feet
 ECGR.GAPI     35 310 01 01:   Environmentally Corrected Gamma Ray
 CALI.IN       70 280 01 01:   Caliper
 TENS.LBS                  :   Tension
 SPHI_476.V/V  61 890 01 01:   Sonic Porosity 47.6 Matrix
 DT  .US/F     60 520 08 01:   Delta-T
 DTSM.US/F                 :   Delta-T Shear Measurement
 STIT.FT/H                 :   STIT
#
~Parameter Information Block
#MNEM.UNIT            Value               Description
#----------    --------------------    -------------------
 RUN .                         ONE:    Run Number
 PDAT.                          GL:    Permanent Datum
 EPD .FT                        25:    Elevation Of Perm. Datum
 LMF .               KELLY BUSHING:    Log Measured From
 EKB .FT                          :    Elevation Of Kelly Bushing
 DF .FT                           :    Elevation Of Derrick Floor
 GL .FT                         25:    Elevation Of Ground Level
 TD  .FT                     18979:    Total Depth
 CSGD.FT                      5100:    Casing Bottom (Driller) 1
 CSGL.FT                     18979:    Casing Bottom (Logger) 1
 MUD .                   OIL BASED:    Drilling Fluid Type
 MUDV .CP                      102:    Drilling Fluid Viscosity
 MUDD .LB/USG                 13.0:    Drilling Fluid Density
 FL .ML/30MIN                     :    Drilling Fluid Loss
 PH.                           8.8:    Drilling Fluid Ph
 MUDS .                           :    Mud Sample Source
 RM .OHMM                         :    Resistivity Of Mud Sample
 RMT .DEGF                        :    Mud Sample Temperature
 RMF .OHMM                        :    Mud Filtrate Resistivity
 RMFT.DEGF                        :    Mud Filtrate Sample Temperature
 RMC .OHMM                        :    Mud Cake Resistivity
 RMCT.DEGF                        :    Mud Cake Sample Temperature
 RMB .OHMM                        :    Mud Resistivity At Bht
 TMAX .DEGF                    152:    Bottom Hole Temperature
#
~Other Information Block
<DescLogPlotStart>   NEURALOG PLOT DEFINITION
PLOTDEFVERSION: 3
LASFILE: D:\nds\projects\poojawells\December data\PoojaWells Digitizing_Cassidy
DEPTHSCALE: 240.000000
RESOLUTION: 144
DEPTHLABELFREQ: 100.000000
HEAVYGRIDFREQ: 100.000000
MEDIUMGRIDFREQ: 50.000000
LIGHTGRIDFREQ: 10.000000
#
#   TRACK 1
#
STARTTRACK: 
 LEFTX: 0.500000 inch
 RIGHTX: 3.000000 inch
 SCALETYPE: Linear
 NUMCHARTDIVISIONS: 10
CURVE: ECGR  0.000000   150.000000 (0,0,255)      Solid             2     Y    
BACKUP: 150.000000 300.000000 (0,0,255)      Solid             2    
CURVE: CALI  6.000000   16.000000  (0,131,131)    Dot               2     Y    
BACKUP: -4.000000  6.000000   (0,131,131)    Dot               2    
CURVE: TENS  10000.000000 0.000000   (255,0,255)    Short_Dash        2     N  
ENDTRACK: 
#
#   TRACK 2
#
STARTTRACK: 
 LEFTX: 3.500000 inch
 RIGHTX: 8.500000 inch
 SCALETYPE: Linear
 NUMCHARTDIVISIONS: 10
CURVE: SPHI_476 0.300000   -0.100000  (255,0,0)      Solid             2     N 
CURVE: DT    140.000000 40.000000  (255,131,0)    Dot               2     N    
CURVE: DTSM  240.000000 40.000000  (255,255,0)    Short_Dash        2     N    
ENDTRACK: 
#
#   TRACK 3
#
STARTTRACK: 
 LEFTX: 8.500000 inch
 RIGHTX: 9.256944 inch
 SCALETYPE: Linear
 NUMCHARTDIVISIONS: 10
CURVE: STIT  0.000000   50.000000  (0,0,255)      Solid             2     N    
ENDTRACK: 
<DescLogPlotEnd>
~A DEPTH     ECGR             CALI             TENS             SPHI_476             DT               DTSM             STIT            
# ...
   10040.500 12.06753580      -999.25000000    -999.25000000    0.06016713       55.94743787      107.27019499     0.68807339      
   10041.000 14.59533728      -999.25000000    -999.25000000    0.06016713       55.94715521      109.98607242     0.68807339      
   10041.500 18.91245628      -999.25000000    -999.25000000    0.06016713       55.94712610      110.61281337     0.68807339      
   10042.000 21.82196800      -999.25000000    -999.25000000    0.06016713       55.94707521      110.61281337     0.68807339      
   10042.500 20.74341490      -999.25000000    -999.25000000    0.06016713       55.94707521      108.88927577     0.68807339      
   10043.000 17.38350109      -999.25000000    -999.25000000    0.06016713       55.94707521      107.37233497     0.68807339      
   10043.500 16.12638921      -999.25000000    -999.25000000    0.06016713       55.94707521      105.84971806     0.68807339      
   10044.000 17.16241673      -999.25000000    -999.25000000    0.06016713       55.94707521      105.60656652     0.68807339      
   10044.500 19.03482670      -999.25000000    -999.25000000    0.06016713       55.94707521      105.60451000     0.68807339      
   10045.000 21.04243813      -999.25000000    -999.25000000    0.06024451       55.94707521      104.15447550     0.68807339      
   10045.500 20.54529964      -999.25000000    -999.25000000    0.06046890       55.94703712      97.52089136      0.68807339      
   10046.000 18.95539542      -999.25000000    -999.25000000    0.06072423       55.94680987      110.05571031     0.68807339      
   10046.500 17.50136552      -999.25000000    -999.25000000    0.06059988       55.94384734      110.22980501     0.68807339      
   10047.000 19.11879847      -999.25000000    -999.25000000    0.06045563       55.95144208      110.43175487     0.68807339      
   10047.500 19.74442854      -999.25000000    -999.25000000    0.06031138       55.79703235      110.61281337     0.68807339      
   10048.000 19.84329514      -999.25000000    -999.25000000    0.06017836       55.80779944      109.01114206     0.68807339      
   10048.500 16.65693877      -999.25000000    -999.25000000    0.06865055       57.20636026      109.16782730     0.68807339      
   10049.000 15.11190346      -999.25000000    -999.25000000    0.07353918       57.84470752      113.39832869     0.68807339      
   10049.500 14.61082281      -999.25000000    -999.25000000    0.07465675       57.89693593      113.39832869     0.68807339      
   10050.000 14.84241304      -999.25000000    -999.25000000    0.07389239       57.84493323      113.39832869     0.68807339      
   10050.500 15.11540286      -999.25000000    -999.25000000    0.07353760       57.75766017      113.69080780     0.68807339      
   10051.000 15.33131762      -999.25000000    -999.25000000    0.07242340       57.75766017      115.06035283     0.68807339      
   10051.500 11.85107278      -999.25000000    -999.25000000    0.07242340       57.75766017      117.40018570     0.68807339      
   10052.000 11.16632362      -999.25000000    -999.25000000    0.07242340       57.75766017      117.85515320     0.68807339      
   10052.500 11.56360587      -999.25000000    -999.25000000    0.07242340       57.68802228      117.85515320     0.68807339      
   10053.000 14.81679951      -999.25000000    -999.25000000    0.07035097       57.47910864      118.16155989     0.68807339      
   10053.500 18.47608553      -999.25000000    -999.25000000    0.06655525       56.84927267      118.07799443     0.68807339      
   10054.000 20.77715203      -999.25000000    -999.25000000    0.06198700       56.23645930      110.89136490     0.68807339      
   10054.500 23.18837783      -999.25000000    -999.25000000    0.06076073       55.94707521      111.86072423     0.68807339      
   10055.000 25.22983721      -999.25000000    -999.25000000    0.06082989       55.94707521      112.45821727     0.68807339      
   10055.500 27.00213182      -999.25000000    -999.25000000    0.06089905       55.94707521      112.70194986     0.68807339      
   10056.000 28.28419981      -999.25000000    -999.25000000    0.06096821       55.97957289      114.06938465     0.68807339      
   10056.500 29.10806611      -999.25000000    -999.25000000    0.06103736       56.08635097      115.43681945     0.68807339      
   10057.000 29.92629644      -999.25000000    -999.25000000    0.06110652       56.08635097      116.50417827     0.68807339      
   10057.500 30.00800562      -999.25000000    -999.25000000    0.06117568       56.08635097      116.67130919     0.68807339      
   10058.000 28.04147233      -999.25000000    -999.25000000    0.06124484       56.08635097      116.83844011     0.68807339      
   10058.500 25.02298676      -999.25000000    -999.25000000    0.06128134       56.08635097      117.01949861     0.68807339      
   10059.000 25.56616525      -999.25000000    -999.25000000    0.06122727       56.08635097      123.42618384     0.68807339      
   10059.500 26.51731625      -999.25000000    -999.25000000    0.06116828       56.08635097      122.03342618     0.68807339      
   10060.000 27.00129294      -999.25000000    -999.25000000    0.06110929       56.08635097      121.75487465     0.68807339      
   10060.500 25.63638870      -999.25000000    -999.25000000    0.06105030       56.08635097      122.61838440     0.68807339      
   10061.000 23.82624769      -999.25000000    -999.25000000    0.06099130       56.08635097      123.64480628     0.68807339      
   10061.500 21.52937495      -999.25000000    -999.25000000    0.06093228       55.94707521      123.48063328     0.68807339      
   10062.000 21.43079398      -999.25000000    -999.25000000    0.06087325       55.94707521      122.26938075     0.68807339      
   10062.500 23.02774947      -999.25000000    -999.25000000    0.06081422       55.94707521      120.49612382     0.68807339      
   10063.000 25.21524275      -999.25000000    -999.25000000    0.06075560       55.94707521      119.90133410     0.68807339      
   10063.500 27.34066462      -999.25000000    -999.25000000    0.06072423       55.94707521      119.98759355     0.68807339      
   10064.000 27.11824278      -999.25000000    -999.25000000    0.06072423       55.94707521      119.73046991     0.68807339      
   10064.500 26.82770596      -999.25000000    -999.25000000    0.06072423       55.94707521      118.70911623     0.68807339      
   10065.000 26.47252879      -999.25000000    -999.25000000    0.06072423       55.94707521      117.30519403     0.68807339      
   10065.500 25.83778729      -999.25000000    -999.25000000    0.06016713       55.94707521      116.16482227     0.68807339      
   10066.000 24.87407416      -999.25000000    -999.25000000    0.06016713       55.94717647      116.20201436     0.68807339      
   10066.500 23.77673991      -999.25000000    -999.25000000    0.06016713       55.94737783      116.75126693     0.68807339      
   10067.000 21.97253903      -999.25000000    -999.25000000    0.06016713       55.94631255      118.42951414     0.68807339      
   10067.500 21.13615946      -999.25000000    -999.25000000    0.06016713       55.94867887      119.77454063     0.68807339      
   10068.000 20.06050099      -999.25000000    -999.25000000    0.06016713       55.80596444      118.73271441     0.68807339      
   10068.500 21.84684371      -999.25000000    -999.25000000    0.06016713       55.80906684      114.96909720     0.68807339      
   10069.000 20.26522935      -999.25000000    -999.25000000    0.06016822       55.80779944      113.78477940     0.68807339      
   10069.500 20.18140079      -999.25000000    -999.25000000    0.06016610       55.80779944      113.93273060     0.68807339      
   10070.000 17.85123125      -999.25000000    -999.25000000    0.06010916       55.80779944      113.91552359     0.68807339      
   10070.500 16.97105365      -999.25000000    -999.25000000    0.05996233       55.80779944      109.61691280     0.68807339      
