~Version Information Block
 VERS.                2.00:     CWLS LOG ASCII STANDARD - VERSION 2.000000
 WRAP.                  NO:     One Line Per Depth Step
#
~Well Information Block
#MNEM.UNIT                     Data                         Information
#----------   ------------------------------------------   ----------------
 STRT.FT                                       50.0000:     START DEPTH
 STOP.FT                                    15192.0000:     STOP DEPTH
 STEP.FT                                        0.5000:     STEP
 NULL.                                       -999.0000:     NULL VALUE
 COMP.                                 MOBIL PRODUCING:     COMPANY
 WELL.                                     ST MCINTYRE:     WELL
 FLD .                                   ROJO CABALLOS:     FIELD
 LOC .                                         UNKNOWN:     LOCATION
 LONG.                                 -103.1618580000:     LONGITUDE
 LATI.                                   31.1192890000:     LATITUDE
 CNTY.                                           PECOS:     COUNTY
 STAT.                                           TEXAS:     STATE
 CTRY.                                           U.S.A:     COUNTRY
 SRVC.                                         UNKNOWN:     SERVICE COMPANY
 DATE.                                         UNKNOWN:     DATE
 API .                                  42371053110000:     API NUMBER
 UWI .                                  42371053110000:     UWI NUMBER
 SLAT.                                       31.119289:     Surface latitude
 SLON.                                     -103.161858:     surface longitude
 TVD .                                              NO:     TVD flag
 WSTA.                                             LOC:     Well status
#
~Curve Information Block
#MNEM.UNIT       API CODE      Curve Description
#----------    -------------   -------------------
 DEPT.FT                   :   Depth in Feet
 DT  .UNKNOWN          UNKNOWN:   DT-Load
 DTedit.ft/s          UNKNOWN:   DT-Load
 GR  .UNKNOWN          UNKNOWN:   GR-Load
#
~Parameter Information Block
#MNEM.UNIT            Value               Description
#----------    --------------------    -------------------
 RUN .                         ONE:    Run Number
 PDAT.                          GL:    Permanent Datum
 EPD .FT                          :    Elevation Of Perm. Datum
 LMF .               KELLY BUSHING:    Log Measured From
 EKB .FT                          :    Elevation Of Kelly Bushing
 DF .FT                           :    Elevation Of Derrick Floor
 GL .FT                           :    Elevation Of Ground Level
 TD  .FT                          :    Total Depth
 CSGD.FT                          :    Casing Bottom (Driller) 1
 CSGL.FT                          :    Casing Bottom (Logger) 1
 MUD .                            :    Drilling Fluid Type
 MUDV .CP                         :    Drilling Fluid Viscosity
 MUDD .LB/USG                     :    Drilling Fluid Density
 FL .ML/30MIN                     :    Drilling Fluid Loss
 PH.                              :    Drilling Fluid Ph
 MUDS .                           :    Mud Sample Source
 RM .OHMM                         :    Resistivity Of Mud Sample
 RMT .DEGF                        :    Mud Sample Temperature
 RMF .OHMM                        :    Mud Filtrate Resistivity
 RMFT.DEGF                        :    Mud Filtrate Sample Temperature
 RMC .OHMM                        :    Mud Cake Resistivity
 RMCT.DEGF                        :    Mud Cake Sample Temperature
 RMB .OHMM                        :    Mud Resistivity At Bht
 TMAX .DEGF                       :    Bottom Hole Temperature
#
~Other Information Block
<DescLogPlotStart>   NEURALOG PLOT DEFINITION
PLOTDEFVERSION: 3
LASFILE: E:\Nair Innovations\42_TEXAS\371_Pecos\Mobil_St McIntyre 1 Pecos_1.las
DEPTHSCALE: 239.999996
RESOLUTION: 200
DEPTHLABELFREQ: 100.000000
HEAVYGRIDFREQ: 50.000000
MEDIUMGRIDFREQ: 50.000000
LIGHTGRIDFREQ: 10.000000
#
#   TRACK 1
#
STARTTRACK: 
 LEFTX: 0.500000 inch
 RIGHTX: 3.000000 inch
 SCALETYPE: Linear
 NUMCHARTDIVISIONS: 10
CURVE: GR    0.000000   150.000000 (255,0,0)      Short_Dash        4     N    
CURVE: DTedit 5571.227500 23879.853500 (0,131,131)    Solid             2     N
ENDTRACK: 
#
#   TRACK 2
#
STARTTRACK: 
 LEFTX: 3.750000 inch
 RIGHTX: 6.250000 inch
 SCALETYPE: Linear
 NUMCHARTDIVISIONS: 10
ENDTRACK: 
#
#   TRACK 3
#
STARTTRACK: 
 LEFTX: 6.250000 inch
 RIGHTX: 8.750000 inch
 SCALETYPE: Linear
 NUMCHARTDIVISIONS: 10
CURVE: DT    190.000000 50.000000  (255,0,131)    Solid             2     N    
ENDTRACK: 
<DescLogPlotEnd>
<DepthTrack type='Reference' track='1' Label='0' color='0' hor='0' />
<Reference font='144,0,-900,0,500,0,16777216,Arial' />
~A DEPTH     DT               DTedit             GR              
# ...
   10237.500 74.65940000      13394.16020000   82.02450000     
   10238.000 73.80570000      13549.08890000   84.40380000     
   10238.500 73.42900000      13618.59770000   89.36540000     
   10239.000 73.11330000      13677.40230000   93.88790000     
   10239.500 73.77710000      13554.34180000   97.75820000     
   10240.000 74.20420000      13476.32620000   99.56620000     
   10240.500 74.85230000      13359.64260000   96.72310000     
   10241.000 75.84910000      13184.07230000   94.63120000     
   10241.500 76.42550000      13084.63770000   92.70240000     
   10242.000 76.71110000      13035.92380000   87.12610000     
   10242.500 73.17050000      13666.71000000   76.85160000     
   10243.000 67.42000000      14832.39450000   61.01970000     
   10243.500 64.53280000      15495.99610000   55.80080000     
   10244.000 61.38030000      16291.87210000   55.33670000     
   10244.500 58.48700000      17097.81640000   60.81890000     
   10245.000 56.70020000      17636.62300000   68.04490000     
   10245.500 58.30620000      17150.83590000   76.57560000     
   10246.000 62.29650000      16052.26560000   85.53280000     
   10246.500 66.71480000      14989.17870000   91.20320000     
   10247.000 69.68650000      14349.98140000   96.05200000     
   10247.500 71.63340000      13959.96880000   96.60400000     
   10248.000 73.85170000      13540.64940000   96.60400000     
   10248.500 75.76550000      13198.61910000   98.11880000     
   10249.000 77.79080000      12854.99020000   95.67570000     
   10249.500 77.59790000      12886.94630000   91.73020000     
   10250.000 76.95830000      12994.05080000   90.63090000     
   10250.500 76.96610000      12992.73240000   91.93090000     
   10251.000 76.78420000      13023.51270000   96.05200000     
   10251.500 74.88840000      13353.20310000   101.26450000    
   10252.000 73.90300000      13531.25000000   103.47560000    
   10252.500 74.62320000      13400.65820000   103.23410000    
   10253.000 75.83180000      13187.07910000   98.39160000     
   10253.500 76.16930000      13128.64940000   91.60470000     
   10254.000 75.72400000      13205.85250000   77.07740000     
   10254.500 75.42180000      13258.76660000   70.05210000     
   10255.000 75.44900000      13253.98630000   69.17710000     
   10255.500 74.68350000      13389.83790000   70.19320000     
   10256.000 72.71850000      13751.65920000   71.62480000     
   10256.500 72.06820000      13875.74610000   70.24660000     
   10257.000 71.25370000      14034.35840000   66.23520000     
   10257.500 69.41220000      14406.68950000   66.47050000     
   10258.000 69.92460000      14301.11910000   75.18930000     
   10258.500 70.47910000      14188.60250000   78.29430000     
   10259.000 71.80440000      13926.72360000   82.46560000     
   10259.500 72.30550000      13830.20700000   81.27380000     
   10260.000 74.52980000      13417.45210000   78.51380000     
   10260.500 75.52060000      13241.41990000   78.56320000     
   10261.000 75.71310000      13207.75490000   80.04750000     
   10261.500 75.18750000      13300.08300000   80.38390000     
   10262.000 75.05740000      13323.13570000   79.56760000     
   10262.500 74.75730000      13376.62010000   74.79420000     
   10263.000 73.70090000      13568.35550000   69.10500000     
   10263.500 71.65150000      13956.44240000   64.28140000     
   10264.000 68.17960000      14667.14360000   55.85100000     
   10264.500 64.84920000      15420.39160000   51.50570000     
   10265.000 64.97730000      15389.98930000   55.70050000     
   10265.500 64.25550000      15562.87010000   63.05190000     
   10266.000 61.00050000      16393.30860000   62.52510000     
   10266.500 59.33840000      16852.49220000   50.77030000     
   10267.000 58.30320000      17151.71680000   39.24120000     
   10267.500 56.89570000      17576.02150000   29.56890000     
   10268.000 55.97050000      17866.55470000   28.54020000     
   10268.500 58.92710000      16970.12110000   36.53150000     
   10269.000 64.46040000      15513.39940000   53.16640000     
   10269.500 71.33810000      14017.75590000   68.74740000     
   10270.000 74.83720000      13362.33890000   79.86240000     
   10270.500 79.92160000      12512.26170000   85.53600000     
   10271.000 82.64010000      12100.66310000   87.44290000     
   10271.500 82.79220000      12078.43260000   90.14950000     
   10272.000 81.99960000      12195.18070000   97.53860000     
   10272.500 80.37370000      12441.88090000   104.02440000    
   10273.000 79.38320000      12597.12400000   106.51780000    
   10273.500 78.69190000      12707.78810000   105.14560000    
   10274.000 76.75100000      13029.14650000   103.71080000    
   10274.500 75.17770000      13301.81740000   97.85220000     
   10275.000 73.51180000      13603.25780000   87.06970000     
   10275.500 74.04910000      13504.55270000   86.66200000     
   10276.000 75.00740000      13332.01760000   91.06530000     
   10276.500 76.23560000      13117.23050000   93.56490000     
   10277.000 77.42830000      12915.17480000   92.87490000     
   10277.500 77.07500000      12974.37600000   92.40140000     
   10278.000 74.51770000      13419.63090000   87.67810000     
   10278.500 72.60690000      13772.79490000   80.03810000     
   10279.000 70.90410000      14103.55660000   68.58440000     
   10279.500 69.56300000      14375.45700000   61.18270000     
   10280.000 67.17300000      14886.93460000   62.07660000     
   10280.500 66.90250000      14947.12500000   62.54080000     
   10281.000 67.18490000      14884.29690000   62.58030000     
   10281.500 68.08170000      14688.23440000   62.54150000     
   10282.000 68.87010000      14520.08890000   63.57420000     
   10282.500 69.00950000      14490.75880000   68.79760000     
   10283.000 69.47400000      14393.87400000   75.50930000     
   10283.500 71.41040000      14003.56250000   82.59730000     
   10284.000 76.41940000      13085.68160000   89.40930000     
   10284.500 78.03190000      12815.27150000   93.83780000     
   10285.000 78.56010000      12729.10840000   96.98350000     
   10285.500 77.48630000      12905.50780000   94.62180000     
   10286.000 76.35170000      13097.28520000   89.34660000     
   10286.500 71.24770000      14035.54000000   79.53630000     
   10287.000 68.57590000      14582.38280000   67.83170000     
   10287.500 67.83140000      14742.43550000   61.57170000     
   10288.000 67.59500000      14793.99320000   59.62240000     
   10288.500 67.59480000      14794.03710000   64.99650000     
   10289.000 65.51230000      15264.30960000   72.25380000     
   10289.500 66.28540000      15086.27830000   71.78970000     
   10290.000 64.98790000      15387.47950000   64.77060000     
   10290.500 64.21940000      15571.61910000   59.62710000     
   10291.000 62.19860000      16077.53220000   59.23510000     
   10291.500 61.65990000      16217.99610000   59.84830000     
   10292.000 61.26500000      16322.53320000   58.37260000     
   10292.500 61.61540000      16229.70900000   51.74880000     
   10293.000 62.13450000      16094.11910000   43.28080000     
   10293.500 58.61960000      17059.14060000   36.18020000     
   10294.000 57.37490000      17429.22460000   33.74020000     
   10294.500 58.93910000      16966.66600000   38.72060000     
   10295.000 62.10060000      16102.90330000   46.15360000     
   10295.500 64.58700000      15482.99220000   54.62160000     
   10296.000 67.11870000      14898.97750000   64.44450000     
   10296.500 70.60880000      14162.54000000   70.31560000     
   10297.000 74.17110000      13482.34080000   75.28340000     
   10297.500 73.73720000      13561.67580000   83.24960000     
   10298.000 74.63530000      13398.48540000   91.67990000     
   10298.500 76.21150000      13121.37890000   97.37230000     
   10299.000 77.15560000      12960.82130000   98.82520000     
   10299.500 75.86190000      13181.84770000   96.98030000     
