~Version Information Block
 VERS.                2.00:     CWLS LOG ASCII STANDARD - VERSION 2.000000
 WRAP.                  NO:     One Line Per Depth Step
#
~Well Information Block
#MNEM.UNIT                     Data                         Information
#----------   ------------------------------------------   ----------------
# Enverus has updated the API/UWI.  The previous names are renamed to  PREV_API / PREV_UWI
API.                             42-371-39483-90-00 : API (14 Digits with Dashes)
UWI.                                 42371394839000 : UNIQUE WELL ID

 STRT.FT                                    10010.0000:     START DEPTH
 STOP.FT                                    11812.0000:     STOP DEPTH
 STEP.FT                                        0.5000:     STEP
 NULL.                                       -999.2500:     NULL VALUE
 COMP.                           PATRIOT RESOURCES INC:     COMPANY
 WELL.                        ROOSTERFISH UNIT 22NE 1H:     WELL
 FLD .                             WOLFBONE TREND AREA:     FIELD
 LOC .                                                :     LOCATION
 SEC .                                              22:     SECTION
 CNTY.                                          PEACOS:     COUNTY
 STAT.                                           TEXAS:     STATE
 CTRY.                                           U.S.A:     COUNTRY
 SRVC.                                    SCHLUMBERGER:     SERVICE COMPANY
 DATE.                                      03/18/2017:     DATE
PREV_APII .                                  42371394830000:     API NUMBER
 PREV_UWI .                                  42371394830000:     UWI NUMBER
 TVD .                                              NO:     TVD flag
 WSTA.                                             LOC:     Well status
#
~Curve Information Block
#MNEM.UNIT       API CODE      Curve Description
#----------    -------------   -------------------
 DEPT.FT                   :   Depth in Feet
 ECGR.GAPI     35 310 01 01:   Environmentally Corrected Gamma Ray
 CALI.IN       70 280 01 01:   Caliper
 TENS.LBS                  :   Tension
 SPHI_476.V/V  61 890 01 01:   Sonic Porosity 47.6 Matrix
 DT  .US/F     60 520 08 01:   Delta-T
 DTSM.US/F                 :   Delta-T Shear Measurement
 STIT.FT/H                 :   STIT
#
~Parameter Information Block
#MNEM.UNIT            Value               Description
#----------    --------------------    -------------------
 RUN .                         ONE:    Run Number
 PDAT.                          GL:    Permanent Datum
 EPD .FT                        25:    Elevation Of Perm. Datum
 LMF .               KELLY BUSHING:    Log Measured From
 EKB .FT                          :    Elevation Of Kelly Bushing
 DF .FT                           :    Elevation Of Derrick Floor
 GL .FT                         25:    Elevation Of Ground Level
 TD  .FT                     18979:    Total Depth
 CSGD.FT                      5100:    Casing Bottom (Driller) 1
 CSGL.FT                     18979:    Casing Bottom (Logger) 1
 MUD .                   OIL BASED:    Drilling Fluid Type
 MUDV .CP                      102:    Drilling Fluid Viscosity
 MUDD .LB/USG                 13.0:    Drilling Fluid Density
 FL .ML/30MIN                     :    Drilling Fluid Loss
 PH.                           8.8:    Drilling Fluid Ph
 MUDS .                           :    Mud Sample Source
 RM .OHMM                         :    Resistivity Of Mud Sample
 RMT .DEGF                        :    Mud Sample Temperature
 RMF .OHMM                        :    Mud Filtrate Resistivity
 RMFT.DEGF                        :    Mud Filtrate Sample Temperature
 RMC .OHMM                        :    Mud Cake Resistivity
 RMCT.DEGF                        :    Mud Cake Sample Temperature
 RMB .OHMM                        :    Mud Resistivity At Bht
 TMAX .DEGF                    152:    Bottom Hole Temperature
#
~Other Information Block
<DescLogPlotStart>   NEURALOG PLOT DEFINITION
PLOTDEFVERSION: 3
LASFILE: D:\nds\projects\poojawells\December data\PoojaWells Digitizing_Cassidy
DEPTHSCALE: 240.000000
RESOLUTION: 144
DEPTHLABELFREQ: 100.000000
HEAVYGRIDFREQ: 100.000000
MEDIUMGRIDFREQ: 50.000000
LIGHTGRIDFREQ: 10.000000
#
#   TRACK 1
#
STARTTRACK: 
 LEFTX: 0.500000 inch
 RIGHTX: 3.000000 inch
 SCALETYPE: Linear
 NUMCHARTDIVISIONS: 10
CURVE: ECGR  0.000000   150.000000 (0,0,255)      Solid             2     Y    
BACKUP: 150.000000 300.000000 (0,0,255)      Solid             2    
CURVE: CALI  6.000000   16.000000  (0,131,131)    Dot               2     Y    
BACKUP: -4.000000  6.000000   (0,131,131)    Dot               2    
CURVE: TENS  10000.000000 0.000000   (255,0,255)    Short_Dash        2     N  
ENDTRACK: 
#
#   TRACK 2
#
STARTTRACK: 
 LEFTX: 3.500000 inch
 RIGHTX: 8.500000 inch
 SCALETYPE: Linear
 NUMCHARTDIVISIONS: 10
CURVE: SPHI_476 0.300000   -0.100000  (255,0,0)      Solid             2     N 
CURVE: DT    140.000000 40.000000  (255,131,0)    Dot               2     N    
CURVE: DTSM  240.000000 40.000000  (255,255,0)    Short_Dash        2     N    
ENDTRACK: 
#
#   TRACK 3
#
STARTTRACK: 
 LEFTX: 8.500000 inch
 RIGHTX: 9.256944 inch
 SCALETYPE: Linear
 NUMCHARTDIVISIONS: 10
CURVE: STIT  0.000000   50.000000  (0,0,255)      Solid             2     N    
ENDTRACK: 
<DescLogPlotEnd>
~A DEPTH     ECGR             CALI             TENS             SPHI_476             DT               DTSM             STIT            
# ...
   10498.000 98.29523631      8.26119923       4283.86871508    0.23486669       80.34818942      131.50417827     0.22935780      
   10498.500 103.43271413     8.26115184       4271.29888268    0.24456825       82.06128134      135.42061281     0.22935780      
   10499.000 108.55309745     8.26365294       4260.14967093    0.26065460       84.56824513      138.63857939     0.22935780      
   10499.500 113.68545165     8.26737732       4295.65379819    0.27820334       86.82451253      141.52158774     0.22935780      
   10500.000 117.75513555     8.27111764       4315.96210996    0.28965380       88.32869081      144.20612813     0.22935780      
   10500.500 116.41203403     8.27485650       4315.51897754    0.29624353       89.62859796      146.54596100     0.22935780      
   10501.000 115.02733537     8.27857658       4315.77687503    0.29972145       90.77994429      151.28133705     0.22935780      
   10501.500 115.51183018     8.28226224       4315.64245810    0.29972145       92.10306407      151.83286908     0.22935780      
   10502.000 118.51335623     8.28590852       4311.45251397    0.29972145       92.63231198      152.43454039     0.22935780      
   10502.500 116.53897989     8.28865287       4294.69273743    0.29972145       92.17618384      152.95264624     0.22935780      
   10503.000 116.71665512     8.27877114       4287.70949721    0.29977579       91.54944290      152.95264624     0.22935780      
   10503.500 126.62120198     8.26966520       4287.70949721    0.29962288       90.89832869      151.88718663     0.22935780      
   10504.000 132.63511610     8.26142137       4287.72689822    0.29905120       89.85793872      149.63091922     0.22935780      
   10504.500 129.42725352     8.26128754       4287.69095211    0.28872653       88.51671309      147.61965054     0.22935780      
   10505.000 120.94236208     8.26127845       4287.70252107    0.28417032       87.42339833      146.34337807     0.22935780      
   10505.500 116.56607107     8.26125668       4287.70949721    0.28224658       87.34712026      145.07056397     0.22935780      
   10506.000 117.89805005     8.26124243       4287.70949721    0.28059126       87.13851050      143.94186579     0.22935780      
   10506.500 118.97625331     8.26123596       4287.70949721    0.27887660       86.86463269      143.56627960     0.22935780      
   10507.000 119.39161573     8.26123596       4287.70949721    0.27973133       87.15252671      143.74343914     0.22935780      
   10507.500 122.15974970     8.26123596       4287.70949721    0.28466249       87.83583463      143.48654156     0.22935780      
   10508.000 129.15153097     8.26123596       4287.70949721    0.29026927       88.77437326      144.27112349     0.22935780      
   10508.500 131.05818084     8.26123596       4287.70949721    0.29762303       90.13529646      145.94243268     0.22935780      
   10509.000 120.52896649     8.26123596       4298.01667957    0.30022516       91.32311978      148.01034620     0.22935780      
   10509.500 114.32186238     8.26123596       4309.01148864    0.30014160       91.77576602      150.30242738     0.22935780      
   10510.000 118.28569276     8.26123596       4311.21189221    0.30005803       91.97771588      150.16713092     0.22935780      
   10510.500 121.72651278     8.26123596       4299.60893326    0.30000767       91.88515976      150.68523677     0.22935780      
   10511.000 123.49181977     8.26123596       4287.84215087    0.29988649       91.44036021      150.33983287     0.22935780      
   10511.500 123.16611432     8.26123596       4287.68543890    0.29984923       90.56649249      149.05292479     0.22935780      
   10512.000 119.61882633     8.26123596       4287.54608481    0.29979206       89.64692285      149.61002786     0.22935780      
   10512.500 116.01914305     8.26123596       4287.96083797    0.29058767       88.49745155      147.93871866     0.22935780      
   10513.000 107.75623683     8.26123596       4306.50873449    0.27046246       86.16991643      144.51253482     0.22935780      
   10513.500 109.22760250     8.26124333       4309.88430960    0.26689540       85.14623955      142.21448468     0.22935780      
   10514.000 106.09834025     8.26126324       4297.10738378    0.26430447       84.89554318      140.71030641     0.22935780      
   10514.500 100.50619647     8.26130436       4291.26204548    0.26153341       84.51253482      139.42548747     0.22935780      
   10515.000 94.45887212      8.26136299       4305.70513631    0.25961095       84.15041783      138.79874652     0.22935780      
   10515.500 93.49649641      8.26171849       4315.65185168    0.25960962       84.07936480      138.18941504     0.22935780      
   10516.000 101.31309050     8.27171056       4315.67444063    0.25899939       84.01948842      138.18941504     0.22935780      
   10516.500 105.64582326     8.28159447       4315.61581798    0.25777644       83.93998531      138.92479109     0.22935780      
   10517.000 102.58016532     8.28826001       4300.07980846    0.25571291       83.50670840      138.50974930     0.22935780      
   10517.500 102.26295417     8.28197209       4287.70949721    0.25499513       83.38798734      136.79665738     0.22935780      
   10518.000 105.44696229     8.27591480       4302.02513966    0.25428699       83.31918621      136.79665738     0.22935780      
   10518.500 104.37616548     8.26989924       4315.64245810    0.25348189       83.10584958      136.42061281     0.22935780      
   10519.000 105.40324024     8.26371739       4305.40037244    0.25171773       83.10584958      135.91922006     0.22935780      
   10519.500 106.47007555     8.26127474       4294.25572016    0.24837512       82.56267409      135.57660167     0.22935780      
   10520.000 109.02073082     8.26122576       4292.88837542    0.24707521       82.33983287      135.37604457     0.22935780      
   10520.500 110.75054975     8.26122501       4305.49069927    0.24679666       82.27019499      135.17548747     0.22935780      
   10521.000 108.90047846     8.26123354       4315.74091633    0.24735376       82.26750822      135.08110765     0.22935780      
   10521.500 106.92349994     8.26123596       4315.57706171    0.24679666       82.27318451      135.02212027     0.22935780      
   10522.000 105.19114555     8.26123596       4315.64245810    0.24791086       82.40871041      134.96313289     0.22935780      
   10522.500 104.62111141     8.26123596       4315.64245810    0.24791086       82.40950393      134.90414550     0.22935780      
   10523.000 106.52966366     8.26123596       4315.64245810    0.24469081       81.90964595      134.84679666     0.22935780      
   10523.500 107.04073244     8.26123596       4305.30726257    0.24152275       81.43513249      133.45403900     0.22935780      
   10524.000 108.35045573     8.26123596       4295.25139665    0.24066852       81.43268034      133.68384401     0.22935780      
   10524.500 104.27378158     8.26123596       4287.60575505    0.24083565       81.43363443      133.19405757     0.22935780      
   10525.000 99.08542638      8.26123596       4287.75843990    0.24206128       81.60971683      132.61838440     0.22935780      
   10525.500 96.69631509      8.26123596       4287.64962160    0.24401114       81.85908573      132.48402425     0.22935780      
   10526.000 99.85307406      8.26123596       4287.71028992    0.24393686       81.93045097      132.36489613     0.22935780      
   10526.500 106.03474249     8.26123596       4287.62575672    0.24259981       81.67734199      132.25124353     0.22935780      
   10527.000 112.97535293     8.26123596       4287.81195092    0.24126277       81.56590797      132.12238532     0.22935780      
   10527.500 108.75356817     8.26123596       4292.19064389    0.24011142       81.44351819      131.86079331     0.22935780      
   10528.000 102.31743048     8.26123596       4303.71759304    0.24096100       81.47648576      131.54601480     0.22935780      
