#--------------------------------------------------#
#-------------------ENVERUS, INC.------------------#
#------------------WWW.ENVERUS.COM-----------------#
#------------------COPYRIGHT 2020------------------#
#--------------------------------------------------#
#THIS FILE MAY BE USED ONLY IN ACCORDANCE WITH A CURRENT SUBSCRIPTION AGREEMENT BETWEEN
#THE USER AND ENVERUS, INC. NO PART OF THIS FILE MAY BE REPRODUCED, USED, COPIED,
#MODIFIED, PROPAGATED, OR DISTRIBUTED EXCEPT IN ACCORDANCE WITH THE SUBSCRIPTION
#AGREEMENT. UNAUTHORIZED USE OR DISTRIBUTION OF ALL OR ANY PART OF THIS FILE MAY VIOLATE
#COPYRIGHT, TRADEMARK, AND/OR OTHER LAWS AND IS SUBJECT TO CIVIL AS WELL AS CRIMINAL
#SANCTIONS.
#--------------------------------------------------#
#THIS FILE IS PROVIDED "AS-IS" AND ALL WARRANTIES ARE EXPRESSLY DISCLAIMED, WHETHER
#EXPRESS, ORAL, IMPLIED, STATUTORY OR OTHERWISE, INCLUDING ANY IMPLIED WARRANTY OF FITNESS
#FOR A PARTICULAR PURPOSE, MERCHANTABILITY, TITLE OR NON-INFRINGEMENT, AND ANY WARRANTIES
#ARISING BY VIRTUE OF CUSTOM OF TRADE OR COURSE OF DEALING.  FURTHER, ENVERUS, INC.
#AND ITS LICENSORS DO NOT REPRESENT OR WARRANT THAT THIS FILE WILL MEET USER'S
#REQUIREMENTS OR ARE SUITABLE FOR USER'S NEEDS OR THAT THE DATA OR RESULTS PROVIDED IN
#CONJUNCTION THEREWITH ARE CORRECT, ACCURATE, TIMELY OR RELIABLE. THESE DISCLAIMERS SHALL
#APPLY REGARDLESS OF ANY FAILURE OF ESSENTIAL PURPOSE OF ANY LIMITED REMEDY.  SOME
#JURISDICTIONS DO NOT ALLOW THE EXCLUSION OF CERTAIN WARRANTIES SO SOME OF THE ABOVE
#EXCLUSIONS MAY NOT APPLY. IN NO EVENT SHALL ENVERUS, INC. OR ANY OF ITS AFFILIATES
#BE LIABLE UNDER ANY LEGAL THEORY, WHETHER IN TORT (INCLUDING WITHOUT LIMITATION
#NEGLIGENCE), CONTRACT, STRICT LIABILITY, STATUTORY OR OTHERWISE, FOR ANY SPECIAL,
#INCIDENTAL, CONSEQUENTIAL, EXEMPLARY, PUNITIVE OR INDIRECT DAMAGE OF ANY KIND, INCLUDING
#WITHOUT LIMITATION LOSS OF REVENUE, PROFITS, GOODWILL, USE, AND/OR DATA OR THE COST OF
#PROCUREMENT OF SUBSTITUTE GOODS OR SERVICES, EVEN IF APPRISED OF THE POSSIBILITY OF SUCH
#DAMAGES IN ADVANCE.
#--------------------------------------------------#

# EXPORTED FROM DI TRANSFORM
# DI TRANSFORM - A PRODUCT OF DRILLINGINFO, INC. - WWW.DRILLINGINFO.COM
#
~VERSION INFORMATION
 VERS.        2.0 : LAS ASCII STANDARD - VERSION 2.0
 WRAP.         NO : ONE LINE PER DEPTH STEP

~WELL INFORMATION
#MNEM.UNIT       DATA TYPE       INFORMATION
#---------       ---------       -----------
 STRT.FT           100 : START DEPTH
 STOP.FT         18040 : STOP DEPTH
 STEP.FT           0.5 : STEP LENGTH
 NULL.         -999.25 : NULL VALUE
 UWI.   42371302980000 : UNIQUE WELL ID
 API.   42371302980000 : WELL IDENTIFIER
 COMP.                 : COMPANY
 WELL.          DRD_55 : WELL NAME
 FLD.                  : FIELD NAME
 LOC.                  : WELL LOCATION
 CNTY.                 : COUNTY
 STAT.                 : STATE OR PROVINCE
 CTRY.                 : COUNTRY
 SRVC.                 : SERVICE COMPANY
 DATE.                 : DATE

~CURVE INFORMATION
#MNEM.UNIT       API CODE       CURVE DESCRIPTION
#---------       --------       -----------------
 DEPT.FT        : <MEASURED DEPTH>
 CAL.IN         : CALIPER
 DT.US/FT       : SONIC
 GR.GAPI        : GAMMA RAY

~PARAMETER INFORMATION
#MNEM.UNIT       VALUE       DESCRIPTION
#---------       -----       -----------

~A       DEPT         CAL          DT          GR
# ...
        14820     11.0388     73.9743     67.5806
      14820.5     11.0388     74.0606     68.9289
        14821     11.0388     74.1818     69.6356
      14821.5     11.0042     74.6276     68.6887
        14822     10.9871     75.1761     67.6594
      14822.5     10.9871     77.4966     67.3779
        14823     10.9871      76.447     68.8051
      14823.5     11.0002      75.696     70.6511
        14824     11.0647     75.7576     71.6803
      14824.5     11.0647     75.7576     72.7096
        14825     11.0815     75.7576     72.8745
      14825.5      11.119      76.043     72.1954
        14826     11.1566     76.5115     71.2551
      14826.5     11.2006     76.6984     71.5635
        14827     11.2199     76.8854     71.6599
      14827.5     11.2199     76.9883     71.3172
        14828     11.2199     77.2121     70.6141
      14828.5     11.2798     76.8694     69.2587
        14829     11.3588     76.3733     68.2294
      14829.5     11.3755     75.8807     67.2001
        14830     11.4211     76.3777     66.5757
      14830.5     11.4269     76.4848     65.9513
        14831      11.441     76.6061     65.1822
      14831.5     11.4834      76.054     64.2976
        14832     11.5492     75.2342     63.2683
      14832.5     11.5807     74.1418      62.753
        14833     11.5675     62.6864      62.753
      14833.5     11.5501      64.125     62.2048
        14834     11.5063     74.8163     62.3062
      14834.5     11.4357     75.5152     62.9306
        14835     11.3751     75.5152     63.9599
      14835.5      11.348     75.3939     64.3725
        14836     11.3096     75.6364     64.3459
      14836.5     11.2559     75.8313     63.1936
        14837     11.1267     75.7576     61.9433
      14837.5     10.9353     75.7203     62.2237
        14838     11.0507     75.7576     62.3482
      14838.5     11.4728     75.6634     62.3482
        14839     11.4538     76.3948     63.7567
      14839.5     11.3011      79.686     65.1262
        14840      11.194     80.6931     66.6421
      14840.5     11.1689     77.7999     67.6113
        14841     11.1682     75.8196     67.2065
      14841.5     11.1682     75.6364     66.3968
        14842     11.1885     75.5152     67.0337
      14842.5      11.194     75.4079     68.2888
        14843      11.194      75.555     71.3082
      14843.5      11.194     75.7333     72.8745
        14844     11.1715     75.7264     72.1691
      14844.5     11.1423     75.7231      70.562
        14845     11.1423     75.7366     68.1213
      14845.5     11.1423     75.7128     67.7609
        14846     11.1423     75.6364     68.7901
      14846.5     11.1364     75.6914     69.2308
        14847     11.1035     76.1198     70.0389
      14847.5     11.0209     76.7832     70.4453
        14848     10.9095     76.4604     70.4126
      14848.5     10.9175     75.8033     69.3834
        14849     10.9353     75.6364     68.8259
      14849.5     10.9501     75.8685     68.1345
        14850     10.9612     76.2727     67.0547
      14850.5     11.0129     76.4848     65.3083
        14851      11.019     76.0401     63.8321
      14851.5     11.0256     75.8639     62.4229
        14852     11.0321     75.7576     61.9433
      14852.5     11.0387     75.8788     62.7374
        14853     11.0388     75.8788     63.7667
      14853.5     11.0388     76.1902      64.796
        14854     11.0388     76.5562     65.9444
      14854.5     10.9218     77.0172     67.1536
        14855     10.7284     78.0431     65.9881
      14855.5     10.6766      79.931     64.6902
        14856     10.6766     80.4408     63.9676
      14856.5     10.6766     78.0243     65.2226
        14857     10.6766     77.8182     67.8245
      14857.5     10.6766     77.7716     72.2515
        14858     10.6766     77.8182     75.8072
      14858.5     10.6956     77.8182     77.9227
        14859     10.7371     77.8182      78.133
      14859.5      10.759     77.7511     76.9917
        14860     10.7801     77.8182     75.2065
      14860.5     10.7801     77.7408     71.1388
        14861     10.7754      77.697     65.5139
      14861.5     10.7284     77.2961     64.7773
        14862     10.7284     76.8163     64.8847
      14862.5     10.7284     76.5082      65.914
        14863     10.7284     75.4486     66.8016
      14863.5     10.7284     74.9091     66.4404
        14864     10.7284     74.9776     65.4112
      14864.5     10.7284     74.9091     64.7773
        14865     10.7121      74.972      65.587
      14865.5     10.7009     79.9113     64.7401
        14866     10.6559     84.0229     62.8716
      14866.5     10.6508     79.7233     61.4499
        14867     10.6508     70.6529     59.3618
      14867.5     10.6508     66.1216     57.1633
        14868     10.6508     64.3912       51.84
      14868.5     10.6508     63.8406     44.8449
        14869     10.6618     63.6536     37.6511
      14869.5     10.6947     63.6364     33.4414
        14870     10.7025      63.401     33.9846
      14870.5     10.6249      62.768     35.0139
        14871     10.6249     56.5367     34.8178
      14871.5     10.6249     53.5068     34.1826
        14872     10.6249     53.8317     33.1984
      14872.5     10.6463     55.5824     34.0001
        14873     10.6701      58.734      36.433
      14873.5     10.7112     60.1789     38.7073
        14874     10.7523     60.6548     40.5994
      14874.5     10.8014     60.4006     42.1641
        14875     10.8672     59.5094     44.2227
      14875.5     10.9329     59.3939     46.0976
        14876     10.9871     59.3939       47.53
      14876.5     10.9871     59.5743     49.9885
        14877     10.9871     60.7604     52.0381
      14877.5     11.0388     62.7505     52.6006
        14878     11.0408      63.564     52.2267
      14878.5      11.049     60.3962      51.417
        14879     11.0572     67.6467      51.417
      14879.5     11.0615     69.4843     51.3175
        14880     11.0388      69.697      51.417
      14880.5     11.0388     69.7781     52.3604
        14881     11.0388      69.697     53.9454
      14881.5     11.0388     69.7679      56.004
        14882     11.0515     69.8182     58.0625
      14882.5     11.0733     69.5152     58.7045
        14883     11.1164     71.3055     57.6585
      14883.5     11.1369     67.4877     55.4817
        14884     11.1682     59.7882      53.062
      14884.5     11.1682     61.2757       54.59
        14885     11.1682     64.1535     57.6403
      14885.5     11.1455     64.9398     63.1632
        14886     11.1164      65.248     67.8418
      14886.5     11.1164     66.0426     72.9129
        14887     11.1164     73.1657     73.5303
      14887.5     11.1164     76.9048      72.501
        14888     11.1164     75.6705     71.3777
      14888.5     11.1164     74.1173      69.024
        14889     11.1164     74.5574     67.3689
      14889.5     11.1327      74.799     65.9548
        14890     11.1524     75.0303     64.9255
      14890.5     11.1721     75.1729     64.4438
        14891     11.1918     75.3939     64.7773
      14891.5     11.1991     75.8208     65.2878
        14892     11.2484     75.3085     65.2619
      14892.5     11.2716     75.2727     63.9602
        14893     11.2716     75.1515     62.7985
      14893.5     11.2716     74.7788     62.3482
        14894     11.2716     74.6566     62.3482
      14894.5     11.3626     76.6292     62.5447
        14895     11.4106     76.9628     62.7761
      14895.5     11.4269     76.9211     63.4005
        14896     11.3493     77.2121     62.6957
      14896.5     11.2572     77.2121     61.6664
        14897     11.1835     77.2121     60.5914
      14897.5     11.1682     77.0909      59.203
        14898     11.1682     77.1286     58.7045
      14898.5     11.1682     77.4367     59.0498
        14899     11.2146     77.3827     61.2937
      14899.5     11.2518     76.8598      62.323
