~Version Information Block
 VERS.                2.00:     CWLS LOG ASCII STANDARD - VERSION 2.000000
 WRAP.                  NO:     One Line Per Depth Step
#
~Well Information Block
#MNEM.UNIT                     Data                         Information
#----------   ------------------------------------------   ----------------
 STRT.FT                                       50.0000:     START DEPTH
 STOP.FT                                    15192.0000:     STOP DEPTH
 STEP.FT                                        0.5000:     STEP
 NULL.                                       -999.0000:     NULL VALUE
 COMP.                                 MOBIL PRODUCING:     COMPANY
 WELL.                                     ST MCINTYRE:     WELL
 FLD .                                   ROJO CABALLOS:     FIELD
 LOC .                                         UNKNOWN:     LOCATION
 LONG.                                 -103.1618580000:     LONGITUDE
 LATI.                                   31.1192890000:     LATITUDE
 CNTY.                                           PECOS:     COUNTY
 STAT.                                           TEXAS:     STATE
 CTRY.                                           U.S.A:     COUNTRY
 SRVC.                                         UNKNOWN:     SERVICE COMPANY
 DATE.                                         UNKNOWN:     DATE
 API .                                  42371053110000:     API NUMBER
 UWI .                                  42371053110000:     UWI NUMBER
 SLAT.                                       31.119289:     Surface latitude
 SLON.                                     -103.161858:     surface longitude
 TVD .                                              NO:     TVD flag
 WSTA.                                             LOC:     Well status
#
~Curve Information Block
#MNEM.UNIT       API CODE      Curve Description
#----------    -------------   -------------------
 DEPT.FT                   :   Depth in Feet
 DT  .UNKNOWN          UNKNOWN:   DT-Load
 DTedit.ft/s          UNKNOWN:   DT-Load
 GR  .UNKNOWN          UNKNOWN:   GR-Load
#
~Parameter Information Block
#MNEM.UNIT            Value               Description
#----------    --------------------    -------------------
 RUN .                         ONE:    Run Number
 PDAT.                          GL:    Permanent Datum
 EPD .FT                          :    Elevation Of Perm. Datum
 LMF .               KELLY BUSHING:    Log Measured From
 EKB .FT                          :    Elevation Of Kelly Bushing
 DF .FT                           :    Elevation Of Derrick Floor
 GL .FT                           :    Elevation Of Ground Level
 TD  .FT                          :    Total Depth
 CSGD.FT                          :    Casing Bottom (Driller) 1
 CSGL.FT                          :    Casing Bottom (Logger) 1
 MUD .                            :    Drilling Fluid Type
 MUDV .CP                         :    Drilling Fluid Viscosity
 MUDD .LB/USG                     :    Drilling Fluid Density
 FL .ML/30MIN                     :    Drilling Fluid Loss
 PH.                              :    Drilling Fluid Ph
 MUDS .                           :    Mud Sample Source
 RM .OHMM                         :    Resistivity Of Mud Sample
 RMT .DEGF                        :    Mud Sample Temperature
 RMF .OHMM                        :    Mud Filtrate Resistivity
 RMFT.DEGF                        :    Mud Filtrate Sample Temperature
 RMC .OHMM                        :    Mud Cake Resistivity
 RMCT.DEGF                        :    Mud Cake Sample Temperature
 RMB .OHMM                        :    Mud Resistivity At Bht
 TMAX .DEGF                       :    Bottom Hole Temperature
#
~Other Information Block
<DescLogPlotStart>   NEURALOG PLOT DEFINITION
PLOTDEFVERSION: 3
LASFILE: E:\Nair Innovations\42_TEXAS\371_Pecos\Mobil_St McIntyre 1 Pecos_1.las
DEPTHSCALE: 239.999996
RESOLUTION: 200
DEPTHLABELFREQ: 100.000000
HEAVYGRIDFREQ: 50.000000
MEDIUMGRIDFREQ: 50.000000
LIGHTGRIDFREQ: 10.000000
#
#   TRACK 1
#
STARTTRACK: 
 LEFTX: 0.500000 inch
 RIGHTX: 3.000000 inch
 SCALETYPE: Linear
 NUMCHARTDIVISIONS: 10
CURVE: GR    0.000000   150.000000 (255,0,0)      Short_Dash        4     N    
CURVE: DTedit 5571.227500 23879.853500 (0,131,131)    Solid             2     N
ENDTRACK: 
#
#   TRACK 2
#
STARTTRACK: 
 LEFTX: 3.750000 inch
 RIGHTX: 6.250000 inch
 SCALETYPE: Linear
 NUMCHARTDIVISIONS: 10
ENDTRACK: 
#
#   TRACK 3
#
STARTTRACK: 
 LEFTX: 6.250000 inch
 RIGHTX: 8.750000 inch
 SCALETYPE: Linear
 NUMCHARTDIVISIONS: 10
CURVE: DT    190.000000 50.000000  (255,0,131)    Solid             2     N    
ENDTRACK: 
<DescLogPlotEnd>
<DepthTrack type='Reference' track='1' Label='0' color='0' hor='0' />
<Reference font='144,0,-900,0,500,0,16777216,Arial' />
~A DEPTH     DT               DTedit             GR              
# ...
    3362.500 66.92990000      14251.65140000   10.24680000     
    3363.000 63.97490000      14909.93650000   11.08870000     
    3363.500 63.68830000      14977.03120000   11.93010000     
    3364.000 65.28380000      14611.00100000   13.22650000     
    3364.500 67.00440000      14235.80470000   14.55950000     
    3365.000 65.89150000      14476.24800000   15.32870000     
    3365.500 66.42870000      14359.17870000   15.74770000     
    3366.000 66.87790000      14262.73240000   15.18620000     
    3366.500 64.74350000      14732.93360000   14.48720000     
    3367.000 64.16130000      14866.61910000   14.23010000     
    3367.500 65.29350000      14608.82910000   13.97320000     
    3368.000 63.90400000      14926.47850000   13.47280000     
    3368.500 64.33840000      14825.69730000   12.88010000     
    3369.000 64.71770000      14738.80760000   12.11360000     
    3369.500 65.34530000      14597.25000000   11.31830000     
    3370.000 65.41460000      14581.78610000   11.06160000     
    3370.500 67.62950000      14104.22460000   11.03990000     
    3371.000 67.22630000      14188.81540000   11.40360000     
    3371.500 64.25490000      14844.96290000   11.76690000     
    3372.000 66.92830000      14251.99220000   11.99120000     
    3372.500 69.14550000      13794.99220000   12.21550000     
    3373.000 69.23520000      13777.12010000   12.30200000     
    3373.500 66.97740000      14241.54390000   12.29720000     
    3374.000 67.14120000      14206.80080000   12.29250000     
    3374.500 66.13160000      14423.68750000   12.13390000     
    3375.000 63.78970000      14953.22270000   11.83130000     
    3375.500 65.13820000      14643.66110000   11.16130000     
    3376.000 68.05800000      14015.42380000   11.80670000     
    3376.500 67.85910000      14056.50290000   12.59780000     
    3377.000 66.91870000      14254.03810000   13.01290000     
    3377.500 67.91970000      14043.96090000   12.09960000     
    3378.000 67.85730000      14056.87400000   11.55110000     
    3378.500 65.89220000      14476.09470000   11.41660000     
    3379.000 66.89840000      14258.36230000   11.21460000     
    3379.500 66.15410000      14418.78220000   11.01260000     
    3380.000 64.69630000      14743.68160000   10.62580000     
    3380.500 63.79740000      14951.41800000   10.21600000     
    3381.000 62.88770000      15167.69920000   11.10080000     
    3381.500 63.31350000      15065.69040000   12.14640000     
    3382.000 63.68410000      14978.01760000   13.60360000     
    3382.500 62.31230000      15307.75780000   15.00150000     
    3383.000 62.36070000      15295.87790000   16.01820000     
    3383.500 66.45730000      14352.99900000   15.55010000     
    3384.000 67.23000000      14188.03420000   14.89650000     
    3384.500 65.97710000      14457.46480000   14.69000000     
    3385.000 65.70580000      14517.15920000   14.48360000     
    3385.500 67.30510000      14172.20510000   14.29920000     
    3386.000 67.23900000      14186.13670000   14.17290000     
    3386.500 66.55630000      14331.65040000   14.04670000     
    3387.000 68.94860000      13834.38770000   13.85330000     
    3387.500 67.80770000      14067.15820000   13.55740000     
    3388.000 67.83470000      14061.55960000   13.26140000     
    3388.500 69.35600000      13753.12300000   12.63570000     
    3389.000 69.23070000      13778.01460000   11.93870000     
    3389.500 67.89370000      14049.33980000   11.47100000     
    3390.000 68.19900000      13986.44530000   11.39920000     
    3390.500 62.62920000      15230.30180000   11.84700000     
    3391.000 61.91780000      15405.28910000   12.36940000     
    3391.500 64.01990000      14899.45510000   12.89140000     
    3392.000 64.35170000      14822.63380000   13.49040000     
    3392.500 65.04440000      14664.77640000   14.15140000     
    3393.000 65.13750000      14643.81840000   14.81250000     
    3393.500 65.10520000      14651.08300000   15.23080000     
    3394.000 65.55240000      14551.13180000   15.12950000     
    3394.500 65.48140000      14566.91020000   14.49780000     
    3395.000 65.98970000      14454.70410000   13.86600000     
    3395.500 66.69980000      14300.81640000   13.22060000     
    3396.000 66.72960000      14294.43070000   12.42800000     
    3396.500 65.12130000      14647.46000000   11.63490000     
    3397.000 65.03760000      14666.31050000   12.26360000     
    3397.500 65.74630000      14508.21780000   12.82510000     
    3398.000 65.27730000      14612.45610000   13.31210000     
    3398.500 65.14210000      14642.78320000   13.05520000     
    3399.000 64.90690000      14695.84380000   12.79810000     
    3399.500 63.52320000      15015.95800000   12.89630000     
    3400.000 63.88820000      14930.16890000   13.11950000     
    3400.500 66.33530000      14379.39840000   13.68680000     
    3401.000 66.68530000      14303.92580000   14.25410000     
    3401.500 64.63850000      14756.86620000   14.86210000     
    3402.000 63.82110000      14945.86720000   15.50990000     
    3402.500 64.83470000      14712.20900000   15.75230000     
    3403.000 65.91030000      14472.11620000   14.93430000     
    3403.500 65.19820000      14630.18460000   14.11590000     
    3404.000 65.41130000      14582.52050000   13.59020000     
    3404.500 64.67860000      14747.71780000   13.81180000     
    3405.000 68.19360000      13987.55180000   14.27820000     
    3405.500 68.50650000      13923.66600000   14.79690000     
    3406.000 67.18510000      14197.51660000   15.27660000     
    3406.500 65.92820000      14468.18850000   14.73130000     
    3407.000 65.21960000      14625.38380000   13.82500000     
    3407.500 64.45070000      14799.86430000   13.32020000     
    3408.000 64.00280000      14903.43650000   14.11750000     
    3408.500 66.71460000      14297.64450000   14.62160000     
    3409.000 66.82730000      14273.53320000   14.76840000     
    3409.500 62.87930000      15169.72560000   14.23340000     
    3410.000 63.68570000      14977.64360000   13.75110000     
    3410.500 65.66710000      14525.71680000   13.55930000     
    3411.000 66.82200000      14274.66600000   13.30960000     
    3411.500 63.78550000      14954.20700000   13.01440000     
    3412.000 63.77980000      14955.54490000   12.51150000     
    3412.500 69.80650000      13664.36620000   12.39870000     
    3413.000 69.29550000      13765.13090000   12.83010000     
    3413.500 66.35740000      14374.60740000   13.47830000     
    3414.000 62.35460000      15297.37400000   14.11430000     
    3414.500 62.13830000      15350.62300000   14.71800000     
    3415.000 67.67180000      14095.40820000   15.33810000     
    3415.500 64.25130000      14845.79590000   16.34310000     
    3416.000 64.28550000      14837.89750000   17.21290000     
    3416.500 66.98460000      14240.01460000   16.95140000     
    3417.000 67.12610000      14209.99710000   16.08380000     
    3417.500 64.32190000      14829.50000000   15.25610000     
    3418.000 64.80960000      14717.90620000   14.54930000     
    3418.500 65.96170000      14460.83980000   15.10490000     
    3419.000 64.32170000      14829.54690000   15.65670000     
    3419.500 63.85880000      14937.04200000   15.37120000     
    3420.000 65.32730000      14601.27250000   15.08600000     
    3420.500 67.10400000      14214.67770000   14.42590000     
    3421.000 65.48780000      14565.48440000   13.48220000     
    3421.500 67.99960000      14027.45800000   13.26440000     
    3422.000 68.09700000      14007.39650000   13.62590000     
    3422.500 67.33730000      14165.42680000   14.25800000     
    3423.000 67.64940000      14100.07620000   14.88360000     
    3423.500 64.38490000      14814.98930000   15.49820000     
    3424.000 63.40950000      15042.88380000   16.11310000     
    3424.500 62.38280000      15290.45900000   15.27790000     
