#--------------------------------------------------#
#-------------------ENVERUS, INC.------------------#
#------------------WWW.ENVERUS.COM-----------------#
#------------------COPYRIGHT 2020------------------#
#--------------------------------------------------#
#THIS FILE MAY BE USED ONLY IN ACCORDANCE WITH A CURRENT SUBSCRIPTION AGREEMENT BETWEEN
#THE USER AND ENVERUS, INC. NO PART OF THIS FILE MAY BE REPRODUCED, USED, COPIED,
#MODIFIED, PROPAGATED, OR DISTRIBUTED EXCEPT IN ACCORDANCE WITH THE SUBSCRIPTION
#AGREEMENT. UNAUTHORIZED USE OR DISTRIBUTION OF ALL OR ANY PART OF THIS FILE MAY VIOLATE
#COPYRIGHT, TRADEMARK, AND/OR OTHER LAWS AND IS SUBJECT TO CIVIL AS WELL AS CRIMINAL
#SANCTIONS.
#--------------------------------------------------#
#THIS FILE IS PROVIDED "AS-IS" AND ALL WARRANTIES ARE EXPRESSLY DISCLAIMED, WHETHER
#EXPRESS, ORAL, IMPLIED, STATUTORY OR OTHERWISE, INCLUDING ANY IMPLIED WARRANTY OF FITNESS
#FOR A PARTICULAR PURPOSE, MERCHANTABILITY, TITLE OR NON-INFRINGEMENT, AND ANY WARRANTIES
#ARISING BY VIRTUE OF CUSTOM OF TRADE OR COURSE OF DEALING.  FURTHER, ENVERUS, INC.
#AND ITS LICENSORS DO NOT REPRESENT OR WARRANT THAT THIS FILE WILL MEET USER'S
#REQUIREMENTS OR ARE SUITABLE FOR USER'S NEEDS OR THAT THE DATA OR RESULTS PROVIDED IN
#CONJUNCTION THEREWITH ARE CORRECT, ACCURATE, TIMELY OR RELIABLE. THESE DISCLAIMERS SHALL
#APPLY REGARDLESS OF ANY FAILURE OF ESSENTIAL PURPOSE OF ANY LIMITED REMEDY.  SOME
#JURISDICTIONS DO NOT ALLOW THE EXCLUSION OF CERTAIN WARRANTIES SO SOME OF THE ABOVE
#EXCLUSIONS MAY NOT APPLY. IN NO EVENT SHALL ENVERUS, INC. OR ANY OF ITS AFFILIATES
#BE LIABLE UNDER ANY LEGAL THEORY, WHETHER IN TORT (INCLUDING WITHOUT LIMITATION
#NEGLIGENCE), CONTRACT, STRICT LIABILITY, STATUTORY OR OTHERWISE, FOR ANY SPECIAL,
#INCIDENTAL, CONSEQUENTIAL, EXEMPLARY, PUNITIVE OR INDIRECT DAMAGE OF ANY KIND, INCLUDING
#WITHOUT LIMITATION LOSS OF REVENUE, PROFITS, GOODWILL, USE, AND/OR DATA OR THE COST OF
#PROCUREMENT OF SUBSTITUTE GOODS OR SERVICES, EVEN IF APPRISED OF THE POSSIBILITY OF SUCH
#DAMAGES IN ADVANCE.
#--------------------------------------------------#

~VERSION INFORMATION
VERS. 2.0 : CWLS LOG ASCII STANDARD - VERSION 2.0
WRAP.  NO : ONE LINE PER DEPTH STEP
~WELL INFORMATION
#MNEMONIC     .UNIT              VALUE :DESCRIPTION
STRT       .FT                86 :START DEPTH
STOP       .FT                5215 :STOP DEPTH
STEP       .FT                   0.500 :STEP
NULL       .                  -999.990 :NULL
UWI        .              42389101440000 :UNIQUE WELL ID
API        .              42389101440000 :API NUMBER
COMP       .         :COMPANY
WELL       .         1, :WELL
DATE       .                            :LOG DATE
~CURVE INFORMATION
#MNEMONIC     .UNIT      API CODE :CURVE DESCRIPTION
DEPTH       .FT                      :MEASURED DEPTH
DT.US/FT        UNKNOWN   :DT
GR.API        UNKNOWN   :GR
~A    DEPTH    DT    GR
# ...
 1670     52.027   8.185
 1670.5     52.313   9.813
 1671     52.6   11.441
 1671.5     52.886   11.993
 1672     53.172   11.147
 1672.5     53.459   10.301
 1673     53.51   9.454
 1673.5     53.212   9.751
 1674     52.914   10.778
 1674.5     52.616   11.805
 1675     52.495   12.832
 1675.5     53.225   13.858
 1676     53.955   14.885
 1676.5     54.685   15.912
 1677     55.432   16.885
 1677.5     56.184   17.817
 1678     56.936   18.748
 1678.5     56.03   19.68
 1679     55.767   20.611
 1679.5     56.245   16.773
 1680     55.738   12.08
 1680.5     54.594   9.255
 1681     53.845   9.585
 1681.5     53.998   9.915
 1682     54.152   10.245
 1682.5     54.305   10.575
 1683     54.458   10.754
 1683.5     54.584   10.178
 1684     54.386   9.601
 1684.5     54.188   9.025
 1685     53.991   8.449
 1685.5     53.957   8.861
 1686     54.286   9.416
 1686.5     54.616   9.971
 1687     54.946   10.414
 1687.5     55.01   9.787
 1688     54.801   9.16
 1688.5     54.591   8.533
 1689     54.382   8.99
 1689.5     54.172   9.8
 1690     53.962   10.609
 1690.5     53.753   11.418
 1691     53.543   10.681
 1691.5     53.335   9.92
 1692     53.228   9.16
 1692.5     53.121   8.399
 1693     53.014   7.639
 1693.5     52.907   7.433
 1694     52.799   7.433
 1694.5     52.692   7.434
 1695     52.585   7.434
 1695.5     52.478   8.57
 1696     53.199   9.789
 1696.5     53.928   11.007
 1697     54.657   12.226
 1697.5     55.113   13.444
 1698     55.396   14.663
 1698.5     55.68   15.882
 1699     55.964   15.425
 1699.5     56.248   12.687
 1700     55.157   11.108
 1700.5     53.548   10.808
 1701     53.749   11.428
 1701.5     53.949   12.738
 1702     54.15   14.049
 1702.5     54.213   15.359
 1703     53.785   15.144
 1703.5     53.357   12.122
 1704     52.929   10.124
 1704.5     52.501   9.674
 1705     52.073   9.225
 1705.5     50.673   8.776
 1706     48.615   9.363
 1706.5     43.041   10.685
 1707     45.951   12.006
 1707.5     48.862   13.328
 1708     51.773   14.65
 1708.5     54.684   15.972
 1709     57.595   14.63
 1709.5     64.698   13.179
 1710     70.45   11.883
 1710.5     70.45   12.557
 1711     70.305   13.231
 1711.5     69.69   13.534
 1712     69.076   12.689
 1712.5     68.461   11.843
 1713     68.854   10.998
 1713.5     69.208   10.685
 1714     68.551   11.119
 1714.5     67.895   11.554
 1715     67.666   11.989
 1715.5     68.61   12.424
 1716     68.429   12.858
 1716.5     67.313   12.821
 1717     68.002   11.52
 1717.5     68.64   10.218
 1718     67.327   8.917
 1718.5     66.517   10.424
 1719     67.803   12.223
 1719.5     69.088   14.021
 1720     69.995   15.82
 1720.5     69.792   16.813
 1721     69.59   15.298
 1721.5     69.683   13.783
 1722     70.172   12.883
 1722.5     70.662   13.119
 1723     71.151   13.354
 1723.5     71.64   13.589
 1724     71.314   13.825
 1724.5     70.511   14.06
 1725     69.708   13.692
 1725.5     68.905   13.028
 1726     69.648   12.364
 1726.5     70.522   12.776
 1727     70.876   13.45
 1727.5     70.706   14.125
 1728     70.865   14.799
 1728.5     72.606   13.138
 1729     71.655   10.006
 1729.5     70.705   10.653
 1730     69.754   11.301
 1730.5     68.804   11.948
 1731     70.585   12.595
 1731.5     70.308   13.242
 1732     69.994   13.89
 1732.5     69.68   14.537
 1733     70.134   15.184
 1733.5     70.569   15.832
 1734     69.913   15.532
 1734.5     71.116   14.736
 1735     72.653   13.94
 1735.5     72.567   13.145
 1736     72.246   12.349
 1736.5     71.924   11.973
 1737     71.602   12.249
 1737.5     71.281   12.525
 1738     71.525   12.802
 1738.5     72.002   13.078
 1739     72.48   13.354
 1739.5     72.266   13.63
 1740     71.91   13.906
 1740.5     71.555   14.182
 1741     71.2   13.992
 1741.5     70.845   13.106
 1742     71.512   12.219
 1742.5     72.366   11.332
 1743     71.974   10.445
 1743.5     71.583   9.559
 1744     71.192   8.916
 1744.5     70.801   9.445
 1745     70.401   9.974
 1745.5     69.993   10.502
 1746     69.586   11.031
 1746.5     69.949   11.56
 1747     70.631   12.042
 1747.5     70.37   11.355
 1748     69.838   10.667
 1748.5     69.307   9.979
 1749     70.981   9.291
 1749.5     71.8   8.603
 1750     71.654   9.277
 1750.5     71.456   10.34
 1751     70.898   11.403
 1751.5     70.34   12.465
 1752     69.781   13.528
 1752.5     69.223   14.591
 1753     68.665   14.07
 1753.5     68.298   12.794
 1754     68.079   11.518
 1754.5     68.935   10.243
 1755     69.665   9.593
 1755.5     69.825   10.122
 1756     69.986   10.651
 1756.5     69.919   11.179
 1757     69.387   11.708
 1757.5     68.856   12.237
 1758     67.125   12.581
 1758.5     68.561   12.238
 1759     69.997   11.896
 1759.5     71.432   11.554
 1760     72.868   14.056
 1760.5     73.023   13.419
 1761     72.517   12.623
 1761.5     72.011   11.965
 1762     71.505   12.775
 1762.5     73.849   13.586
 1763     72.712   14.397
 1763.5     71.173   14.629
 1764     70.982   13.636
 1764.5     71.577   12.644
 1765     71.798   11.652
 1765.5     70.727   11.263
 1766     69.655   11.523
 1766.5     71.39   11.782
 1767     73.351   12.042
 1767.5     75.312   12.301
 1768     72.474   12.561
 1768.5     70.005   12.82
 1769     71.106   8.92
 1769.5     72.207   9.68
 1770     70.223   10.439
 1770.5     71.127   11.199
 1771     72.03   9.325
 1771.5     72.212   10.547
 1772     71.408   11.769
 1772.5     71.458   12.99
 1773     72.152   13.461
 1773.5     72.847   12.371
 1774     74.916   11.281
 1774.5     82.904   10.191
 1775     79.64   9.819
 1775.5     75.938   10.223
 1776     72.237   10.627
 1776.5     68.535   10.892
 1777     59.159   10.493
 1777.5     56.241   10.094
 1778     53.769   9.695
 1778.5     61.703   9.296
 1779     69.638   10.711
 1779.5     77.572   14.788
 1780     77.631   18.864
 1780.5     72.766   22.94
 1781     67.901   27.016
 1781.5     63.036   31.093
 1782     58.237   38.646
 1782.5     55.226   44.516
 1783     55.119   35.321
 1783.5     62.264   26.126
 1784     62.685   16.932
 1784.5     59.935   7.737
 1785     64.724   8.571
 1785.5     69.513   9.412
 1786     66.806   10.252
 1786.5     67.002   11.093
 1787     67.197   11.934
 1787.5     67.392   12.774
 1788     73.874   12.121
 1788.5     78.533   9.399
 1789     74.817   9.934
 1789.5     75.149   10.643
 1790     76.187   11.353
 1790.5     77.226   11.53
 1791     61.578   9.339
 1791.5     63.249   7.149
 1792     57.083   7.555
 1792.5     55.633   8.837
 1793     55.839   10.118
 1793.5     56.045   10.555
 1794     50.351   10.057
 1794.5     50.516   10.582
 1795     52.119   11.897
 1795.5     53.722   13.212
 1796     62.758   14.527
 1796.5     64.927   14.706
 1797     67.096   12.855
 1797.5     69.265   11.005
 1798     68.154   9.154
 1798.5     66.666   9.697
 1799     63.878   10.337
 1799.5     65.493   10.976
 1800     68.206   11.616
 1800.5     70.918   12.256
 1801     65.938   12.895
 1801.5     67.368   13.535
 1802     66.604   14.174
 1802.5     65.715   14.782
 1803     63.967   12.821
 1803.5     61.326   12.323
 1804     64.188   12.998
 1804.5     67.05   13.673
 1805     67.27   14.349
 1805.5     66.755   14.327
 1806     66.995   12.807
 1806.5     68.163   11.287
 1807     67.562   9.767
 1807.5     66.921   11.049
 1808     67.425   12.532
 1808.5     68.536   14.015
 1809     68.242   14.617
 1809.5     67.332   11.775
 1810     66.421   11.297
 1810.5     69.604   11.702
 1811     69.237   12.106
 1811.5     69.747   12.51
 1812     71.204   12.914
 1812.5     72.652   12.512
 1813     72.252   11.403
 1813.5     71.851   10.54
 1814     71.45   11.351
 1814.5     71.05   12.163
 1815     70.649   12.975
 1815.5     70.98   12.407
 1816     71.433   11.573
 1816.5     71.569   10.739
 1817     71.325   9.905
 1817.5     71.081   9.14
 1818     70.837   9.901
 1818.5     71.228   10.662
 1819     71.642   11.422
 1819.5     71.254   9.254
 1820     70.867   9.839
