#--------------------------------------------------#
#-------------------ENVERUS, INC.------------------#
#------------------WWW.ENVERUS.COM-----------------#
#------------------COPYRIGHT 2020------------------#
#--------------------------------------------------#
#THIS FILE MAY BE USED ONLY IN ACCORDANCE WITH A CURRENT SUBSCRIPTION AGREEMENT BETWEEN
#THE USER AND ENVERUS, INC. NO PART OF THIS FILE MAY BE REPRODUCED, USED, COPIED,
#MODIFIED, PROPAGATED, OR DISTRIBUTED EXCEPT IN ACCORDANCE WITH THE SUBSCRIPTION
#AGREEMENT. UNAUTHORIZED USE OR DISTRIBUTION OF ALL OR ANY PART OF THIS FILE MAY VIOLATE
#COPYRIGHT, TRADEMARK, AND/OR OTHER LAWS AND IS SUBJECT TO CIVIL AS WELL AS CRIMINAL
#SANCTIONS.
#--------------------------------------------------#
#THIS FILE IS PROVIDED "AS-IS" AND ALL WARRANTIES ARE EXPRESSLY DISCLAIMED, WHETHER
#EXPRESS, ORAL, IMPLIED, STATUTORY OR OTHERWISE, INCLUDING ANY IMPLIED WARRANTY OF FITNESS
#FOR A PARTICULAR PURPOSE, MERCHANTABILITY, TITLE OR NON-INFRINGEMENT, AND ANY WARRANTIES
#ARISING BY VIRTUE OF CUSTOM OF TRADE OR COURSE OF DEALING.  FURTHER, ENVERUS, INC.
#AND ITS LICENSORS DO NOT REPRESENT OR WARRANT THAT THIS FILE WILL MEET USER'S
#REQUIREMENTS OR ARE SUITABLE FOR USER'S NEEDS OR THAT THE DATA OR RESULTS PROVIDED IN
#CONJUNCTION THEREWITH ARE CORRECT, ACCURATE, TIMELY OR RELIABLE. THESE DISCLAIMERS SHALL
#APPLY REGARDLESS OF ANY FAILURE OF ESSENTIAL PURPOSE OF ANY LIMITED REMEDY.  SOME
#JURISDICTIONS DO NOT ALLOW THE EXCLUSION OF CERTAIN WARRANTIES SO SOME OF THE ABOVE
#EXCLUSIONS MAY NOT APPLY. IN NO EVENT SHALL ENVERUS, INC. OR ANY OF ITS AFFILIATES
#BE LIABLE UNDER ANY LEGAL THEORY, WHETHER IN TORT (INCLUDING WITHOUT LIMITATION
#NEGLIGENCE), CONTRACT, STRICT LIABILITY, STATUTORY OR OTHERWISE, FOR ANY SPECIAL,
#INCIDENTAL, CONSEQUENTIAL, EXEMPLARY, PUNITIVE OR INDIRECT DAMAGE OF ANY KIND, INCLUDING
#WITHOUT LIMITATION LOSS OF REVENUE, PROFITS, GOODWILL, USE, AND/OR DATA OR THE COST OF
#PROCUREMENT OF SUBSTITUTE GOODS OR SERVICES, EVEN IF APPRISED OF THE POSSIBILITY OF SUCH
#DAMAGES IN ADVANCE.
#--------------------------------------------------#

# EXPORTED FROM DI TRANSFORM
# DI TRANSFORM - A PRODUCT OF DRILLINGINFO, INC. - WWW.DRILLINGINFO.COM
#
~VERSION INFORMATION
 VERS.        2.0 : LAS ASCII STANDARD - VERSION 2.0
 WRAP.         NO : ONE LINE PER DEPTH STEP

~WELL INFORMATION
#MNEM.UNIT       DATA TYPE       INFORMATION
#---------       ---------       -----------
 STRT.FT           190 : START DEPTH
 STOP.FT         12010 : STOP DEPTH
 STEP.FT           0.5 : STEP LENGTH
 NULL.         -999.25 : NULL VALUE
 UWI.   42389335580000 : UNIQUE WELL ID
 API.   42389335580000 : WELL IDENTIFIER
 COMP.                 : COMPANY
 WELL.          DRD_55 : WELL NAME
 FLD.                  : FIELD NAME
 LOC.                  : WELL LOCATION
 CNTY.                 : COUNTY
 STAT.                 : STATE OR PROVINCE
 CTRY.                 : COUNTRY
 SRVC.                 : SERVICE COMPANY
 DATE.                 : DATE

~CURVE INFORMATION
#MNEM.UNIT       API CODE       CURVE DESCRIPTION
#---------       --------       -----------------
 DEPT.FT          : <MEASURED DEPTH>
 CAL.IN           : CALIPER
 DPHI.%           : DENSITY POROSITY
 DT.US/FT         : SONIC
 GR.GAPI          : GAMMA RAY
 NPHI.%           : NEUTRON POROSITY
 RHOB.G/CM3       : DENSITY

~PARAMETER INFORMATION
#MNEM.UNIT       VALUE       DESCRIPTION
#---------       -----       -----------
 EKB.FT      2793 : ELEVATION ABOVE MSL

~A      DEPT         CAL        DPHI          DT          GR        NPHI        RHOB
# ...
      8312.5      8.7935     13.9314     70.9369    119.0653     23.7548      2.5101
        8313      8.7935      10.163     71.2496    115.4488     18.2746      2.5342
      8313.5      8.7935     10.6393     71.6582    119.1197     17.4052        2.52
        8314      8.7935     12.7758     72.1194    126.8803      18.338      2.4965
      8314.5      8.7935     13.9366     72.4321    127.1911     19.1118      2.4885
        8315      8.7935     13.3524     72.3876    121.1033     22.5651      2.4916
      8315.5      8.7935      12.848     71.6421    112.8171     21.3448      2.4999
        8316      8.7935     12.7919     70.4449     111.745     22.4662      2.5138
      8316.5      8.7935     10.8981     69.3941     78.6518     20.4596      2.5326
        8317      8.7935     10.2739     69.0894     71.8513     17.5685      2.5456
      8317.5      8.7935     12.6306     69.6962     74.9149     18.3014      2.5103
        8318      8.7935     13.1591     70.9712     94.5695     17.6569      2.4884
      8318.5      8.7935     13.3714     71.6267    129.5723     19.1311       2.485
        8319      8.7935     14.3023     71.7719     167.117     17.5113      2.4781
      8319.5      8.7935     14.9795     71.5284     162.128     21.5236      2.4712
        8320      8.7935     14.0649     71.2157    148.4627     22.8436      2.4679
      8320.5      8.7935     14.4782     71.0252    140.8869     19.1944      2.4644
        8321      8.7935     15.1222     70.8347    157.4766      17.395       2.455
      8321.5      8.7935     15.9349     70.3998    152.9695     20.7544      2.4414
        8322      8.7935     17.3978     69.8686    158.1166     18.5684      2.4317
      8322.5      8.7935     15.3855     69.5299    142.2625     21.0598      2.4712
        8323      8.7935     12.2186     69.2172    125.9425     18.8815       2.502
      8323.5      8.7935     12.8465     69.0267    122.8819      17.712      2.5101
        8324      8.7935     10.9143      68.714    126.9849     16.1838      2.4972
      8324.5      8.7935     14.2413     68.4013    133.5431     19.1678      2.4773
        8325      8.7935     15.8966     68.0886    116.7625     19.9041      2.4625
      8325.5      8.7935     15.2503     67.9837     92.2805     17.4773      2.4551
        8326      8.7935     15.9332     68.0154     82.9651     17.9153      2.4506
      8326.5      8.7935     15.1441     68.3281     88.8727     18.4343      2.4456
        8327      8.7935     16.8388     68.5186    104.3516     16.1631       2.442
      8327.5      8.7935     16.1577     68.7092    112.8233     17.2499      2.4643
        8328      8.7935       14.36     69.0521    117.6429     18.0084      2.4801
      8328.5      8.7935     13.5816     69.6534    112.1829     17.1259      2.4973
        8329      8.7935     11.5967     70.5165    112.5551     18.1718      2.5104
      8329.5      8.7935     14.3906     70.9784    124.5489     17.9755      2.4847
        8330      8.7935     13.0907     71.1423    128.0306     16.4797       2.475
      8330.5      8.7935     14.5357     70.4355    132.7706     18.1637      2.4667
        8331      8.7935     15.7523     69.8016    119.7399     17.6628      2.4565
      8331.5      8.7935     16.1302      69.278    112.0999     17.9438      2.4506
        8332      8.7935     15.5761     69.0835    115.9871     17.1884      2.4631
      8332.5      8.7935     13.7401       69.27    122.2884     17.5733      2.4917
        8333      8.7935     11.8889      69.848    115.1477     16.9785      2.5194
      8333.5      8.7935     11.1034     70.8255    118.9785     18.2428      2.5254
        8334      8.7935     11.6317     72.0422    154.4551     19.4922      2.4982
      8334.5      8.7935     15.0483     73.1367    151.9324     21.4624      2.4732
        8335      8.7935     13.6344     73.9889    158.2175     18.5258      2.4674
      8335.5      8.7935     14.3593     74.5606    155.9548     19.3348      2.4892
        8336      8.7935     13.9713     74.7047    153.1817     21.8426      2.4743
      8336.5      8.7935      15.307     74.3995    153.9106     21.1454      2.4591
        8337      8.7935     15.7978     73.3254    146.3221     20.3476      2.4501
      8337.5      8.7935     15.5103     71.8983    147.2818      20.071      2.4748
        8338      8.7935     13.3401     70.7713     164.026     20.2687       2.495
      8338.5      8.7935     14.0029     70.7905    143.1299     23.9474      2.5039
        8339      8.7935     12.3034     71.8416    118.0176     28.7206        2.51
      8339.5      8.8745     11.2264     73.1661    127.3343     20.1783      2.5129
        8340      8.8732     12.7799     74.0248     171.089     18.0466      2.5022
      8340.5       8.834     13.0408     73.4001    159.0378      23.427       2.497
        8341       8.834     12.9738      72.241    154.1677     26.6068      2.4921
      8341.5       8.834     13.4121       70.69    134.7041     28.6525      2.4985
        8342       8.834      9.8365     68.8192    124.7871     23.6138      2.5451
      8342.5      8.7935      8.9888     67.7248    115.0217     20.8981      2.5835
        8343      8.7935      5.8626     67.2181     74.8082     15.4124      2.5912
      8343.5      8.7935       9.223     66.9054     79.2511     15.6033      2.5603
        8344      8.7935     11.5455     66.5693     82.4821     17.2945      2.5145
      8344.5      8.7935     13.1357     65.3377    101.1277     17.9621      2.4878
        8345      8.7935     12.0038     62.7581    101.9249     18.5967      2.5054
      8345.5      8.7935      9.0584     59.7154      40.314     15.2342      2.5676
        8346      8.7935      6.9825     55.9003     38.6899     14.5086      2.6022
      8346.5      8.7935      4.1295     54.1383     30.1105     12.4865      2.6348
        8347      8.7935      3.0623     52.9723     20.1588      7.1623      2.6655
      8347.5      8.7935      2.2837     52.7088     17.9842      8.2356      2.6741
        8348      8.7935      2.2964     53.5802      28.547      7.1867      2.6592
      8348.5      8.7935      4.6811     55.3996     37.8051      6.4237      2.6423
        8349      8.7935      4.1728     59.4978     31.3269      5.9083      2.6388
      8349.5      8.7935      2.6714     65.2192     44.2959      9.8875      2.6543
        8350      8.7935      5.1756     72.8109      49.649      9.6766      2.6015
      8350.5      8.7935      8.7487     75.9751     83.6737     10.6499      2.4961
        8351      8.7935     14.1213      78.068    110.0248        27.9      2.4873
      8351.5      8.7935     13.0453     78.8497    106.9146     24.4908      2.4946
        8352      8.7935     12.9994      79.266    104.9256     23.1587      2.4691
      8352.5      8.7935     14.0269     79.5787     98.0573     24.6181      2.4414
        8353      8.7935     16.3918     79.7149     99.6898     23.4379      2.4376
      8353.5      8.7935     16.7452     79.7149    108.2448     21.7714      2.4562
        8354      8.7935     15.6359     79.9059    106.1422     23.7956      2.4708
      8354.5      8.7935     14.7454     80.0815    107.0117     26.7099       2.478
        8355      8.7935     13.7322     80.0815     100.807     24.0958      2.4744
      8355.5      8.7935     14.4742     79.9153    105.1868     23.4206      2.4625
        8356       8.834     15.6579      79.495    102.2908     24.8389      2.4507
      8356.5      8.8266     16.1837     79.0775    103.3755     25.7446      2.4521
        8357      8.7935     15.4397     78.4521    104.7513     24.5547      2.4571
      8357.5      8.7935     15.7083     77.8266    112.6411     24.2484      2.4635
        8358      8.7935      15.639     77.5153    110.0147     22.7969      2.4772
      8358.5      8.7935     14.2197     77.7826    106.8563     22.7654      2.4921
        8359      8.7935     12.2204     78.6805     101.204      21.937      2.5047
      8359.5      8.8109     13.5823     79.9231    107.7102     21.0612      2.4948
