#--------------------------------------------------#
#-------------------ENVERUS, INC.------------------#
#------------------WWW.ENVERUS.COM-----------------#
#------------------COPYRIGHT 2020------------------#
#--------------------------------------------------#
#THIS FILE MAY BE USED ONLY IN ACCORDANCE WITH A CURRENT SUBSCRIPTION AGREEMENT BETWEEN
#THE USER AND ENVERUS, INC. NO PART OF THIS FILE MAY BE REPRODUCED, USED, COPIED,
#MODIFIED, PROPAGATED, OR DISTRIBUTED EXCEPT IN ACCORDANCE WITH THE SUBSCRIPTION
#AGREEMENT. UNAUTHORIZED USE OR DISTRIBUTION OF ALL OR ANY PART OF THIS FILE MAY VIOLATE
#COPYRIGHT, TRADEMARK, AND/OR OTHER LAWS AND IS SUBJECT TO CIVIL AS WELL AS CRIMINAL
#SANCTIONS.
#--------------------------------------------------#
#THIS FILE IS PROVIDED "AS-IS" AND ALL WARRANTIES ARE EXPRESSLY DISCLAIMED, WHETHER
#EXPRESS, ORAL, IMPLIED, STATUTORY OR OTHERWISE, INCLUDING ANY IMPLIED WARRANTY OF FITNESS
#FOR A PARTICULAR PURPOSE, MERCHANTABILITY, TITLE OR NON-INFRINGEMENT, AND ANY WARRANTIES
#ARISING BY VIRTUE OF CUSTOM OF TRADE OR COURSE OF DEALING.  FURTHER, ENVERUS, INC.
#AND ITS LICENSORS DO NOT REPRESENT OR WARRANT THAT THIS FILE WILL MEET USER'S
#REQUIREMENTS OR ARE SUITABLE FOR USER'S NEEDS OR THAT THE DATA OR RESULTS PROVIDED IN
#CONJUNCTION THEREWITH ARE CORRECT, ACCURATE, TIMELY OR RELIABLE. THESE DISCLAIMERS SHALL
#APPLY REGARDLESS OF ANY FAILURE OF ESSENTIAL PURPOSE OF ANY LIMITED REMEDY.  SOME
#JURISDICTIONS DO NOT ALLOW THE EXCLUSION OF CERTAIN WARRANTIES SO SOME OF THE ABOVE
#EXCLUSIONS MAY NOT APPLY. IN NO EVENT SHALL ENVERUS, INC. OR ANY OF ITS AFFILIATES
#BE LIABLE UNDER ANY LEGAL THEORY, WHETHER IN TORT (INCLUDING WITHOUT LIMITATION
#NEGLIGENCE), CONTRACT, STRICT LIABILITY, STATUTORY OR OTHERWISE, FOR ANY SPECIAL,
#INCIDENTAL, CONSEQUENTIAL, EXEMPLARY, PUNITIVE OR INDIRECT DAMAGE OF ANY KIND, INCLUDING
#WITHOUT LIMITATION LOSS OF REVENUE, PROFITS, GOODWILL, USE, AND/OR DATA OR THE COST OF
#PROCUREMENT OF SUBSTITUTE GOODS OR SERVICES, EVEN IF APPRISED OF THE POSSIBILITY OF SUCH
#DAMAGES IN ADVANCE.
#--------------------------------------------------#

~VERSION INFORMATION
VERS. 2.0 : CWLS LOG ASCII STANDARD - VERSION 2.0
WRAP. NO : ONE LINE PER DEPTH STEP
~WELL INFORMATION
#MNEMONIC     .UNIT              VALUE :DESCRIPTION
STRT       .FT                38.00000 :START DEPTH
STOP       .FT                20083.00000 :STOP DEPTH
STEP       .FT                0.50000 :STEP
NULL       .                -999.25000 :NULL VALUE
UWI       .                42389302750000 :UNIQUE WELL ID
API       .                42389302750000 :API NUMBER
COMP       .                 :COMPANY
WELL       .                 :WELL
FLD       .                 :FIELD
LOC       .                 :LOCATION
CNTY       .                 :COUNTY
STAT       .                 :STATE
CTRY       .                 :COUNTRY
SRVC       .                 :SERVICE COMPANY
DATE       .                 :DATE
~CURVE INFORMATION
#MNEMONIC     .UNIT      API CODE :CURVE DESCRIPTION
DEPTH       .FT                      :MEASURED DEPTH
CAL       .IN        UNKNOWN   :CAL
DT       .US/FT        UNKNOWN   :DT
GR       .GAPI        UNKNOWN   :GR
~A    DEPTH    CAL    DT    GR
# ...
15004.50000    -999.25000    79.50943    93.95125
15005.00000    -999.25000    79.35119    96.42712
15005.50000    -999.25000    79.81065    98.90299
15006.00000    -999.25000    80.53364    101.37886
15006.50000    -999.25000    81.25662    103.85474
15007.00000    -999.25000    81.97961    106.33061
15007.50000    -999.25000    82.68805    108.80648
15008.00000    -999.25000    83.39066    111.28235
15008.50000    -999.25000    84.09328    111.66967
15009.00000    -999.25000    84.79589    108.66237
15009.50000    -999.25000    85.49850    105.65507
15010.00000    -999.25000    86.15735    102.64777
15010.50000    -999.25000    85.17924    99.64048
15011.00000    -999.25000    84.13940    97.57371
15011.50000    -999.25000    79.23421    98.42809
15012.00000    -999.25000    78.78215    99.28249
15012.50000    -999.25000    79.26376    100.13688
15013.00000    -999.25000    79.74537    100.57401
15013.50000    -999.25000    80.22698    99.51299
15014.00000    -999.25000    80.70859    98.45197
15014.50000    -999.25000    80.32794    97.39094
15015.00000    -999.25000    79.72453    96.36696
15015.50000    -999.25000    79.12111    97.92796
15016.00000    -999.25000    78.51770    99.48896
15016.50000    -999.25000    78.65192    101.04996
15017.00000    -999.25000    79.15501    102.61096
15017.50000    -999.25000    79.65809    104.17195
15018.00000    -999.25000    80.16118    103.91687
15018.50000    -999.25000    80.66426    102.98929
15019.00000    -999.25000    81.11108    102.06172
15019.50000    -999.25000    80.77881    101.13414
15020.00000    -999.25000    80.44653    100.20657
15020.50000    -999.25000    80.11425    99.27899
15021.00000    -999.25000    79.78198    99.53579
15021.50000    -999.25000    79.44970    101.27643
15022.00000    -999.25000    79.11743    103.01708
15022.50000    -999.25000    78.78515    104.75773
15023.00000    -999.25000    78.67943    104.83786
15023.50000    -999.25000    79.65682    103.22556
15024.00000    -999.25000    80.63420    101.61326
15024.50000    -999.25000    81.61159    100.00096
15025.00000    -999.25000    82.02048    98.38867
15025.50000    -999.25000    82.17044    96.77637
15026.00000    -999.25000    82.00418    96.58286
15026.50000    -999.25000    81.52861    107.68367
15027.00000    -999.25000    81.05304    106.41595
15027.50000    -999.25000    80.57747    105.14822
15028.00000    -999.25000    80.10190    103.88050
15028.50000    -999.25000    79.78163    102.61278
15029.00000    -999.25000    79.49587    101.34506
15029.50000    -999.25000    79.21010    100.07733
15030.00000    -999.25000    78.92434    98.80961
15030.50000    -999.25000    78.63857    99.50227
15031.00000    -999.25000    78.62684    100.23269
15031.50000    -999.25000    78.84868    100.96310
15032.00000    -999.25000    79.07051    101.69352
15032.50000    -999.25000    79.29235    101.82155
15033.00000    -999.25000    79.51418    100.32587
15033.50000    -999.25000    79.73602    98.83018
15034.00000    -999.25000    79.95785    97.33450
15034.50000    -999.25000    80.17969    95.83882
15035.00000    -999.25000    81.01463    94.34313
15035.50000    -999.25000    81.94462    92.84745
15036.00000    -999.25000    82.87462    91.35177
15036.50000    -999.25000    83.80461    89.85608
15037.00000    -999.25000    84.73461    91.30495
15037.50000    -999.25000    84.86231    93.57570
15038.00000    -999.25000    84.56389    95.84644
15038.50000    -999.25000    84.25665    98.11718
15039.00000    -999.25000    83.41728    100.38793
15039.50000    -999.25000    82.57791    102.65867
15040.00000    -999.25000    81.73853    103.93786
15040.50000    -999.25000    81.42421    102.60541
15041.00000    -999.25000    81.12574    101.27296
15041.50000    -999.25000    80.82726    99.94050
15042.00000    -999.25000    80.52879    98.60805
15042.50000    -999.25000    80.23032    97.27559
15043.00000    -999.25000    80.57378    95.94314
15043.50000    -999.25000    81.19523    94.61069
15044.00000    -999.25000    81.81668    93.27823
15044.50000    -999.25000    82.43813    91.94578
15045.00000    -999.25000    83.05957    90.61332
15045.50000    -999.25000    83.68102    89.28087
15046.00000    -999.25000    83.94589    87.94841
15046.50000    -999.25000    83.82299    86.61596
15047.00000    -999.25000    83.70008    87.54678
15047.50000    -999.25000    83.57718    88.76752
15048.00000    -999.25000    83.45427    89.98825
15048.50000    -999.25000    83.33137    91.20899
15049.00000    -999.25000    83.20847    92.42973
15049.50000    -999.25000    83.08547    93.65047
15050.00000    -999.25000    82.71952    94.87121
15050.50000    -999.25000    82.35357    95.70960
15051.00000    -999.25000    81.98761    96.25320
15051.50000    -999.25000    81.62166    96.79680
15052.00000    -999.25000    81.25571    97.34040
15052.50000    -999.25000    80.88976    97.88399
15053.00000    -999.25000    80.52380    98.42759
15053.50000    -999.25000    80.94886    98.97119
15054.00000    -999.25000    81.79158    99.51479
15054.50000    -999.25000    82.63430    100.05839
15055.00000    -999.25000    82.66093    100.60199
15055.50000    -999.25000    82.45494    101.45583
15056.00000    -999.25000    82.24895    102.71924
15056.50000    -999.25000    82.04295    103.98264
15057.00000    -999.25000    81.83696    105.24604
15057.50000    -999.25000    81.81936    106.50944
15058.00000    -999.25000    81.80175    107.77284
15058.50000    -999.25000    81.78415    107.93083
15059.00000    -999.25000    81.73639    106.71055
15059.50000    -999.25000    81.58862    105.49027
15060.00000    -999.25000    81.44086    104.26999
15060.50000    -999.25000    81.29310    103.04971
15061.00000    -999.25000    81.14533    101.82942
15061.50000    -999.25000    80.99757    100.60914
15062.00000    -999.25000    80.84980    99.38886
15062.50000    -999.25000    80.70204    98.16858
15063.00000    -999.25000    80.55427    96.94830
15063.50000    -999.25000    80.40651    97.63253
15064.00000    -999.25000    80.25874    99.55391
15064.50000    -999.25000    80.35144    101.47528
15065.00000    -999.25000    80.62491    103.39666
15065.50000    -999.25000    80.89838    104.13125
15066.00000    -999.25000    81.17185    104.28386
15066.50000    -999.25000    81.44532    104.43647
15067.00000    -999.25000    81.68953    104.58909
15067.50000    -999.25000    81.51823    104.74170
15068.00000    -999.25000    81.34692    104.89432
15068.50000    -999.25000    81.17562    105.04693
15069.00000    -999.25000    81.00432    105.06968
15069.50000    -999.25000    80.83302    105.07106
15070.00000    -999.25000    80.66172    105.07245
15070.50000    -999.25000    80.49042    105.07383
15071.00000    -999.25000    80.31912    105.00407
15071.50000    -999.25000    80.14781    104.02250
15072.00000    -999.25000    80.37143    103.04092
15072.50000    -999.25000    81.00756    102.05935
15073.00000    -999.25000    81.64370    101.07777
15073.50000    -999.25000    82.27984    100.72482
15074.00000    -999.25000    82.91598    101.29856
15074.50000    -999.25000    82.52068    101.87231
15075.00000    -999.25000    82.08077    102.44606
15075.50000    -999.25000    81.64086    103.01980
15076.00000    -999.25000    81.20094    103.59355
15076.50000    -999.25000    80.76103    102.81636
15077.00000    -999.25000    80.32112    101.67498
15077.50000    -999.25000    79.88121    100.53360
15078.00000    -999.25000    79.97932    99.39222
15078.50000    -999.25000    80.36060    98.25083
15079.00000    -999.25000    80.74189    97.10945
15079.50000    -999.25000    81.12317    96.92860
15080.00000    -999.25000    81.50446    97.80068
15080.50000    -999.25000    81.88574    98.67275
15081.00000    -999.25000    82.26702    99.54483
15081.50000    -999.25000    82.35886    100.41690
15082.00000    -999.25000    82.08559    101.28897
15082.50000    -999.25000    81.81232    102.16105
15083.00000    -999.25000    81.53904    100.04778
15083.50000    -999.25000    81.26577    97.04632
