#--------------------------------------------------#
#-------------------ENVERUS, INC.------------------#
#------------------WWW.ENVERUS.COM-----------------#
#------------------COPYRIGHT 2020------------------#
#--------------------------------------------------#
#THIS FILE MAY BE USED ONLY IN ACCORDANCE WITH A CURRENT SUBSCRIPTION AGREEMENT BETWEEN
#THE USER AND ENVERUS, INC. NO PART OF THIS FILE MAY BE REPRODUCED, USED, COPIED,
#MODIFIED, PROPAGATED, OR DISTRIBUTED EXCEPT IN ACCORDANCE WITH THE SUBSCRIPTION
#AGREEMENT. UNAUTHORIZED USE OR DISTRIBUTION OF ALL OR ANY PART OF THIS FILE MAY VIOLATE
#COPYRIGHT, TRADEMARK, AND/OR OTHER LAWS AND IS SUBJECT TO CIVIL AS WELL AS CRIMINAL
#SANCTIONS.
#--------------------------------------------------#
#THIS FILE IS PROVIDED "AS-IS" AND ALL WARRANTIES ARE EXPRESSLY DISCLAIMED, WHETHER
#EXPRESS, ORAL, IMPLIED, STATUTORY OR OTHERWISE, INCLUDING ANY IMPLIED WARRANTY OF FITNESS
#FOR A PARTICULAR PURPOSE, MERCHANTABILITY, TITLE OR NON-INFRINGEMENT, AND ANY WARRANTIES
#ARISING BY VIRTUE OF CUSTOM OF TRADE OR COURSE OF DEALING.  FURTHER, ENVERUS, INC.
#AND ITS LICENSORS DO NOT REPRESENT OR WARRANT THAT THIS FILE WILL MEET USER'S
#REQUIREMENTS OR ARE SUITABLE FOR USER'S NEEDS OR THAT THE DATA OR RESULTS PROVIDED IN
#CONJUNCTION THEREWITH ARE CORRECT, ACCURATE, TIMELY OR RELIABLE. THESE DISCLAIMERS SHALL
#APPLY REGARDLESS OF ANY FAILURE OF ESSENTIAL PURPOSE OF ANY LIMITED REMEDY.  SOME
#JURISDICTIONS DO NOT ALLOW THE EXCLUSION OF CERTAIN WARRANTIES SO SOME OF THE ABOVE
#EXCLUSIONS MAY NOT APPLY. IN NO EVENT SHALL ENVERUS, INC. OR ANY OF ITS AFFILIATES
#BE LIABLE UNDER ANY LEGAL THEORY, WHETHER IN TORT (INCLUDING WITHOUT LIMITATION
#NEGLIGENCE), CONTRACT, STRICT LIABILITY, STATUTORY OR OTHERWISE, FOR ANY SPECIAL,
#INCIDENTAL, CONSEQUENTIAL, EXEMPLARY, PUNITIVE OR INDIRECT DAMAGE OF ANY KIND, INCLUDING
#WITHOUT LIMITATION LOSS OF REVENUE, PROFITS, GOODWILL, USE, AND/OR DATA OR THE COST OF
#PROCUREMENT OF SUBSTITUTE GOODS OR SERVICES, EVEN IF APPRISED OF THE POSSIBILITY OF SUCH
#DAMAGES IN ADVANCE.
#--------------------------------------------------#

~VERSION INFORMATION
VERS. 2.0 : CWLS LOG ASCII STANDARD - VERSION 2.0
WRAP.  NO : ONE LINE PER DEPTH STEP
~WELL INFORMATION
#MNEMONIC     .UNIT              VALUE :DESCRIPTION
STRT       .FT                75 :START DEPTH
STOP       .FT                5648 :STOP DEPTH
STEP       .FT                   0.500 :STEP
NULL       .                  -999.990 :NULL
UWI        .              42371363570000 :UNIQUE WELL ID
API        .              42371363570000 :API NUMBER
COMP       .         APACHE CORPORATION :COMPANY
WELL       .        SCHLOSSER, FRED ESTATE -B-  13 :WELL
DATE       .                16-MAY-1992 :LOG DATE
~CURVE INFORMATION
#MNEMONIC     .UNIT      API CODE :CURVE DESCRIPTION
DEPTH       .FT                      :MEASURED DEPTH
DT.US/FT        UNKNOWN   :DT
GR.API        UNKNOWN   :GR
~A    DEPTH    DT    GR
# ...
 5245     49.281   9.784
 5245.5     49.347   9.661
 5246     49.296   9.539
 5246.5     49.143   9.416
 5247     48.989   9.294
 5247.5     48.836   9.171
 5248     48.683   9.978
 5248.5     48.773   11.008
 5249     48.933   12.037
 5249.5     49.094   13.067
 5250     48.992   14.096
 5250.5     48.86   14.519
 5251     48.729   13.641
 5251.5     48.651   12.763
 5252     49.063   11.885
 5252.5     49.476   11.007
 5253     49.723   12.061
 5253.5     49.333   13.149
 5254     48.943   14.237
 5254.5     48.601   14.807
 5255     49.139   13.106
 5255.5     49.677   11.405
 5256     50.214   10.415
 5256.5     50.527   14.796
 5257     49.867   19.177
 5257.5     49.208   24.038
 5258     49.733   28.57
 5258.5     50.812   29.549
 5259     51.891   30.529
 5259.5     52.97   31.509
 5260     51.866   32.488
 5260.5     49.546   42.276
 5261     51.419   53.464
 5261.5     53.291   62.592
 5262     55.164   70.55
 5262.5     73.474   78.507
 5263     71.311   83.854
 5263.5     69.148   84.461
 5264     66.984   89.984
 5264.5     64.821   97.038
 5265     64.526   107.934
 5265.5     67.503   118.829
 5266     68.619   130.133
 5266.5     65.484   132.44
 5267     66.061   131.605
 5267.5     67.45   119.72
 5268     68.336   114.78
 5268.5     67.093   106.962
 5269     65.851   100.812
 5269.5     65.072   102.969
 5270     64.476   102.938
 5270.5     64.724   100.764
 5271     65.224   98.591
 5271.5     65.284   96.417
 5272     65.345   98.102
 5272.5     65.679   101.05
 5273     66.015   104.158
 5273.5     66.351   107.671
 5274     66.687   109.924
 5274.5     69.55   108.215
 5275     67.772   106.336
 5275.5     65.994   103.992
 5276     66.373   101.648
 5276.5     66.792   97.726
 5277     67.211   97.542
 5277.5     65.736   95.563
 5278     63.697   86.863
 5278.5     60.872   78.162
 5279     57.195   69.565
 5279.5     56.565   62.946
 5280     55.935   56.327
 5280.5     53.765   55.017
 5281     51.576   71.995
 5281.5     50.869   81.773
 5282     54.791   89.238
 5282.5     61.022   89.238
 5283     56.615   77.663
 5283.5     47.427   55.205
 5284     49.594   42.676
 5284.5     50.036   35.538
 5285     50.445   34.812
 5285.5     50.854   34.086
 5286     51.263   33.359
 5286.5     51.159   32.495
 5287     50.818   31.431
 5287.5     50.477   30.368
 5288     50.136   29.304
 5288.5     49.795   28.241
 5289     49.343   27.177
 5289.5     50.142   26.114
 5290     51.401   27.573
 5290.5     50.777   28.959
 5291     50.152   28.706
 5291.5     49.528   28.453
 5292     49.718   28.199
 5292.5     50.446   27.946
 5293     51.181   50.853
 5293.5     52.487   54.728
 5294     53.794   58.602
 5294.5     60.028   61.417
 5295     59.658   55.622
 5295.5     57.601   49.827
 5296     56.507   51.117
 5296.5     56.469   54.36
 5297     59.129   57.604
 5297.5     60.622   61.637
 5298     60.427   67.523
 5298.5     60.643   73.408
 5299     61.104   85.073
 5299.5     61.978   108.659
 5300     63.545   139.406
 5300.5     65.112   153.123
 5301     69.292   153.146
 5301.5     68.095   153.17
 5302     67.472   153.193
 5302.5     69.963   153.217
 5303     72.455   150.52
 5303.5     77.681   145.891
 5304     70.64   138.63
 5304.5     68.028   106.114
 5305     67.719   98.788
 5305.5     68.212   92.877
 5306     68.36   81.742
 5306.5     66.795   73.174
 5307     64.592   64.278
 5307.5     61.066   55.875
 5308     58.309   49.403
 5308.5     58.147   48.518
 5309     59.633   53.583
 5309.5     61.761   58.728
 5310     63.89   64.774
 5310.5     66.852   68.486
 5311     66.714   66.813
 5311.5     66.466   67.768
 5312     64.966   70.884
 5312.5     64.996   76.088
 5313     66.315   82.182
 5313.5     67.634   88.306
 5314     68.304   94.49
 5314.5     68.918   100.675
 5315     69.3   106.86
 5315.5     69.703   117.304
 5316     72.169   117.854
 5316.5     73.082   115.377
 5317     71.453   102.191
 5317.5     69.95   84.656
 5318     68.47   74.645
 5318.5     67.187   74.669
 5319     65.992   74.692
 5319.5     69.025   74.716
 5320     69.762   74.739
 5320.5     69.932   63.037
 5321     68.908   63.365
 5321.5     67.891   63.692
 5322     67.448   63.439
 5322.5     67.005   58.427
 5323     68.656   59.273
 5323.5     70.838   60.367
 5324     71.566   61.46
 5324.5     72.294   61.199
 5325     72.241   59.971
 5325.5     71.818   58.743
 5326     72.078   58.162
 5326.5     72.196   57.794
 5327     72.075   58.457
 5327.5     72.957   59.924
 5328     73.99   59.829
 5328.5     74.362   59.733
 5329     74.733   59.638
 5329.5     75.105   62.715
 5330     75.375   65.74
 5330.5     75.64   64.646
 5331     75.904   63.553
 5331.5     76.169   62.459
 5332     76.287   62.661
 5332.5     75.563   63.738
 5333     74.838   64.196
 5333.5     74.129   63.041
 5334     74.29   61.886
 5334.5     74.433   60.731
 5335     74.42   57
 5335.5     74.406   57.286
 5336     74.982   57.572
 5336.5     77.049   57.859
 5337     77.879   60.898
 5337.5     77.72   64.224
 5338     77.492   67.254
 5338.5     76.638   70.124
 5339     74.857   72.995
 5339.5     73.374   75.866
 5340     72.116   75.348
 5340.5     71.946   69.269
 5341     82.259   53.721
 5341.5     92.158   54.987
 5342     89.887   55.319
 5342.5     87.615   51.191
 5343     85.352   48.252
 5343.5     85.352   47.454
 5344     85.352   46.656
 5344.5     85.392   45.859
 5345     85.675   46.477
 5345.5     85.959   46.943
 5346     86.242   46.249
 5346.5     86.525   45.555
 5347     87.06   44.86
 5347.5     87.727   44.166
 5348     88.394   47.125
 5348.5     90.59   50.605
 5349     86.099   53.311
 5349.5     81.008   55.558
 5350     80.129   55.037
 5350.5     82.833   52.246
 5351     84.73   53.051
 5351.5     84.781   53.885
 5352     84.395   54.718
 5352.5     86.101   53.909
 5353     85.827   52.026
 5353.5     86.841   50.143
 5354     87.914   48.26
 5354.5     88.988   46.376
 5355     88.589   46.491
 5355.5     87.551   46.63
 5356     86.513   51.308
 5356.5     81.58   59.075
 5357     73.061   68.219
 5357.5     69.551   73.464
 5358     69.702   76.579
 5358.5     70.59   76.025
 5359     71.478   73.915
 5359.5     72.27   64.808
 5360     73.046   63.095
 5360.5     73.822   64.333
 5361     74.599   63.263
 5361.5     76.374   60.718
 5362     79.797   58.173
 5362.5     81.577   55.349
 5363     82.746   51.808
 5363.5     82.503   48.266
 5364     82.443   44.725
 5364.5     84.297   45.089
 5365     86.152   47.212
 5365.5     88.011   50.112
 5366     89.911   49.987
 5366.5     87.678   49.825
 5367     83.525   49.663
 5367.5     81.331   49.501
 5368     82.371   49.339
 5368.5     84.206   47.845
 5369     86.041   45.543
 5369.5     87.379   43.241
 5370     86.075   40.939
 5370.5     84.77   41.243
 5371     79.844   45.114
 5371.5     81.874   45.49
 5372     84.347   44.965
 5372.5     86.82   44.44
 5373     88.329   43.916
 5373.5     84.92   43.391
 5374     85.582   44.228
 5374.5     86.243   45.906
 5375     86.503   47.584
 5375.5     86.058   49.107
 5376     85.614   48.189
 5376.5     85.169   47.27
 5377     84.725   46.352
 5377.5     80.978   45.434
 5378     82.612   44.515
 5378.5     85.779   43.597
 5379     86.168   43.271
 5379.5     85.542   43.423
 5380     84.916   44.506
 5380.5     85.991   46.888
 5381     84.927   48.747
 5381.5     87.952   47.341
 5382     90.151   45.935
 5382.5     90.371   44.53
 5383     90.41   43.124
 5383.5     90.149   42.207
 5384     87.856   45.053
 5384.5     80.113   47.913
 5385     74.773   51.01
 5385.5     71.739   54.107
 5386     79.428   56.003
 5386.5     87.117   52.42
 5387     87.962   48.836
 5387.5     86.918   45.274
 5388     85.874   43.03
 5388.5     85.078   44.318
 5389     85.603   45.767
 5389.5     86.129   47.24
 5390     86.655   47.871
 5390.5     87.614   43.52
 5391     88.662   40.609
 5391.5     89.091   40.726
 5392     87.412   40.843
 5392.5     87.064   42.856
 5393     87.305   46.463
 5393.5     87.545   47.163
