#--------------------------------------------------#
#-------------------ENVERUS, INC.------------------#
#------------------WWW.ENVERUS.COM-----------------#
#------------------COPYRIGHT 2020------------------#
#--------------------------------------------------#
#THIS FILE MAY BE USED ONLY IN ACCORDANCE WITH A CURRENT SUBSCRIPTION AGREEMENT BETWEEN
#THE USER AND ENVERUS, INC. NO PART OF THIS FILE MAY BE REPRODUCED, USED, COPIED,
#MODIFIED, PROPAGATED, OR DISTRIBUTED EXCEPT IN ACCORDANCE WITH THE SUBSCRIPTION
#AGREEMENT. UNAUTHORIZED USE OR DISTRIBUTION OF ALL OR ANY PART OF THIS FILE MAY VIOLATE
#COPYRIGHT, TRADEMARK, AND/OR OTHER LAWS AND IS SUBJECT TO CIVIL AS WELL AS CRIMINAL
#SANCTIONS.
#--------------------------------------------------#
#THIS FILE IS PROVIDED "AS-IS" AND ALL WARRANTIES ARE EXPRESSLY DISCLAIMED, WHETHER
#EXPRESS, ORAL, IMPLIED, STATUTORY OR OTHERWISE, INCLUDING ANY IMPLIED WARRANTY OF FITNESS
#FOR A PARTICULAR PURPOSE, MERCHANTABILITY, TITLE OR NON-INFRINGEMENT, AND ANY WARRANTIES
#ARISING BY VIRTUE OF CUSTOM OF TRADE OR COURSE OF DEALING.  FURTHER, ENVERUS, INC.
#AND ITS LICENSORS DO NOT REPRESENT OR WARRANT THAT THIS FILE WILL MEET USER'S
#REQUIREMENTS OR ARE SUITABLE FOR USER'S NEEDS OR THAT THE DATA OR RESULTS PROVIDED IN
#CONJUNCTION THEREWITH ARE CORRECT, ACCURATE, TIMELY OR RELIABLE. THESE DISCLAIMERS SHALL
#APPLY REGARDLESS OF ANY FAILURE OF ESSENTIAL PURPOSE OF ANY LIMITED REMEDY.  SOME
#JURISDICTIONS DO NOT ALLOW THE EXCLUSION OF CERTAIN WARRANTIES SO SOME OF THE ABOVE
#EXCLUSIONS MAY NOT APPLY. IN NO EVENT SHALL ENVERUS, INC. OR ANY OF ITS AFFILIATES
#BE LIABLE UNDER ANY LEGAL THEORY, WHETHER IN TORT (INCLUDING WITHOUT LIMITATION
#NEGLIGENCE), CONTRACT, STRICT LIABILITY, STATUTORY OR OTHERWISE, FOR ANY SPECIAL,
#INCIDENTAL, CONSEQUENTIAL, EXEMPLARY, PUNITIVE OR INDIRECT DAMAGE OF ANY KIND, INCLUDING
#WITHOUT LIMITATION LOSS OF REVENUE, PROFITS, GOODWILL, USE, AND/OR DATA OR THE COST OF
#PROCUREMENT OF SUBSTITUTE GOODS OR SERVICES, EVEN IF APPRISED OF THE POSSIBILITY OF SUCH
#DAMAGES IN ADVANCE.
#--------------------------------------------------#

~VERSION INFORMATION
VERS. 2.0 : CWLS LOG ASCII STANDARD - VERSION 2.0
WRAP.  NO : ONE LINE PER DEPTH STEP
~WELL INFORMATION
#MNEMONIC     .UNIT              VALUE :DESCRIPTION
STRT       .FT                86 :START DEPTH
STOP       .FT                5215 :STOP DEPTH
STEP       .FT                   0.500 :STEP
NULL       .                  -999.990 :NULL
UWI        .              42389101440000 :UNIQUE WELL ID
API        .              42389101440000 :API NUMBER
COMP       .         :COMPANY
WELL       .         1, :WELL
DATE       .                            :LOG DATE
~CURVE INFORMATION
#MNEMONIC     .UNIT      API CODE :CURVE DESCRIPTION
DEPTH       .FT                      :MEASURED DEPTH
DT.US/FT        UNKNOWN   :DT
GR.API        UNKNOWN   :GR
~A    DEPTH    DT    GR
# ...
 4416     49.163   12.431
 4416.5     49.412   12.914
 4417     49.66   13.397
 4417.5     49.908   12.323
 4418     50.157   11.186
 4418.5     50.405   10.048
 4419     50.653   10.277
 4419.5     50.776   11.326
 4420     50.635   12.374
 4420.5     50.495   13.423
 4421     50.27   14.472
 4421.5     49.951   13.26
 4422     49.633   11.84
 4422.5     49.315   10.42
 4423     48.996   10.004
 4423.5     48.678   10.329
 4424     48.36   10.655
 4424.5     48.531   10.981
 4425     48.805   11.307
 4425.5     49.079   11.632
 4426     49.353   11.958
 4426.5     49.626   12.284
 4427     49.605   12.61
 4427.5     49.394   12.935
 4428     49.183   14.842
 4428.5     48.972   17.61
 4429     49.343   20.632
 4429.5     49.85   24.207
 4430     50.057   24.805
 4430.5     49.887   21.846
 4431     49.716   18.888
 4431.5     49.545   15.93
 4432     49.374   12.972
 4432.5     49.204   10.81
 4433     49.267   9.619
 4433.5     49.41   10.425
 4434     49.553   11.231
 4434.5     49.696   12.037
 4435     49.84   12.293
 4435.5     49.983   11.844
 4436     50.126   11.395
 4436.5     50.27   10.945
 4437     50.413   12.185
 4437.5     50.556   14.375
 4438     50.447   15.962
 4438.5     50.266   16.135
 4439     50.085   16.308
 4439.5     49.904   16.48
 4440     49.724   14.581
 4440.5     49.543   12.654
 4441     49.362   10.727
 4441.5     49.268   10.63
 4442     49.561   11.57
 4442.5     49.854   12.511
 4443     50.146   12.114
 4443.5     49.83   11.405
 4444     49.417   10.695
 4444.5     49.005   9.986
 4445     47.674   10.516
 4445.5     45.549   12.134
 4446     44.176   13.339
 4446.5     47.333   12.722
 4447     50.489   12.105
 4447.5     53.646   11.488
 4448     56.803   10.871
 4448.5     59.959   10.254
 4449     76.779   11.292
 4449.5     76.803   12.24
 4450     76.47   11.215
 4450.5     74.551   10.19
 4451     72.631   9.165
 4451.5     70.712   9.539
 4452     62.37   10.395
 4452.5     55.233   11.251
 4453     51.964   12.108
 4453.5     50.094   11.228
 4454     49.899   10.298
 4454.5     49.703   9.548
 4455     49.507   10.17
 4455.5     49.578   10.793
 4456     49.789   11.415
 4456.5     50   12.037
 4457     50.21   12.659
 4457.5     50.074   12.05
 4458     49.881   11.341
 4458.5     49.844   10.631
 4459     49.97   9.922
 4459.5     50.097   10.166
 4460     50.224   10.931
 4460.5     50.351   11.697
 4461     50.477   12.462
 4461.5     50.604   13.227
 4462     50.731   12.76
 4462.5     50.858   12.201
 4463     50.83   11.642
 4463.5     50.631   11.083
 4464     50.433   10.739
 4464.5     50.234   11.365
 4465     50.036   11.991
 4465.5     49.837   12.617
 4466     49.638   13.243
 4466.5     49.44   12.594
 4467     49.241   11.853
 4467.5     49.043   11.111
 4468     49.154   11.063
 4468.5     49.274   11.465
 4469     49.395   11.867
 4469.5     49.515   12.27
 4470     49.57   12.672
 4470.5     49.405   13.074
 4471     49.239   13.476
 4471.5     49.074   10.966
 4472     49.058   11.25
 4472.5     49.243   11.534
 4473     49.429   11.818
 4473.5     49.614   12.101
 4474     49.799   12.385
 4474.5     49.985   12.669
 4475     50.042   12.953
 4475.5     49.742   12.673
 4476     49.612   11.742
 4476.5     49.784   10.812
 4477     49.956   10.694
 4477.5     49.272   11.097
 4478     49.513   11.499
 4478.5     49.754   11.901
 4479     49.996   11.544
 4479.5     50.237   11.03
 4480     50.478   10.516
 4480.5     50.719   9.457
 4481     50.757   8.979
 4481.5     50.495   9.403
 4482     50.233   9.828
 4482.5     49.971   10.253
 4483     49.708   10.677
 4483.5     49.513   11.102
 4484     49.642   11.526
 4484.5     49.771   11.951
 4485     49.9   12.332
 4485.5     50.029   11.844
 4486     50.158   11.356
 4486.5     50.287   10.867
 4487     50.11   10.379
 4487.5     49.664   10.604
 4488     49.218   11.035
 4488.5     48.902   11.465
 4489     49.109   11.896
 4489.5     49.316   12.327
 4490     49.522   12.758
 4490.5     49.729   13.002
 4491     49.935   12.27
 4491.5     50.142   11.538
 4492     50.14   11.104
 4492.5     49.977   11.334
 4493     49.814   11.564
 4493.5     49.65   11.794
 4494     49.487   12.023
 4494.5     49.324   12.253
 4495     49.161   12.483
 4495.5     49.272   12.713
 4496     49.411   12.943
 4496.5     49.55   13.172
 4497     49.689   13.14
 4497.5     49.828   12.673
 4498     49.967   12.207
 4498.5     49.944   11.741
 4499     49.866   11.274
 4499.5     49.788   10.808
 4500     49.709   10.342
 4500.5     49.631   9.876
 4501     49.553   9.409
 4501.5     49.474   9.394
 4502     49.396   9.468
 4502.5     49.318   9.541
 4503     49.295   9.614
 4503.5     49.442   9.688
 4504     49.589   10.053
 4504.5     49.737   10.589
 4505     49.884   11.125
 4505.5     50.031   11.662
 4506     50.178   12.198
 4506.5     50.326   12.734
 4507     50.473   11.986
 4507.5     50.202   11.188
 4508     49.916   10.535
 4508.5     50.019   11.047
 4509     50.122   11.558
 4509.5     50.225   12.07
 4510     50.329   12.582
 4510.5     50.432   13.094
 4511     50.535   12.572
 4511.5     50.46   11.955
 4512     50.285   11.337
 4512.5     50.11   10.72
 4513     49.935   10.102
 4513.5     49.76   10.582
 4514     49.74   11.549
 4514.5     49.941   12.516
 4515     50.142   13.483
 4515.5     50.343   14.45
 4516     50.498   13.883
 4516.5     50.391   13.283
 4517     50.284   12.684
 4517.5     50.177   12.085
 4518     50.07   11.486
 4518.5     49.963   10.887
 4519     49.856   10.866
 4519.5     49.749   12.009
 4520     49.642   13.151
 4520.5     49.691   13.242
 4521     49.846   12.311
 4521.5     50.001   11.38
 4522     50.156   11.479
 4522.5     50.311   12.122
 4523     50.466   12.766
 4523.5     50.621   13.41
 4524     50.448   14.053
 4524.5     50.261   13.537
 4525     50.074   12.938
 4525.5     49.887   12.338
 4526     49.87   11.739
 4526.5     49.934   11.331
 4527     49.998   11.756
 4527.5     50.061   12.182
 4528     50.125   12.607
 4528.5     50.189   13.033
 4529     50.253   13.459
 4529.5     50.316   13.884
 4530     50.261   14.31
 4530.5     50.132   14.6
 4531     50.002   14.14
 4531.5     49.873   13.68
 4532     49.743   13.22
 4532.5     49.614   12.761
 4533     49.675   12.301
 4533.5     49.983   11.841
 4534     50.292   11.381
 4534.5     50.601   10.922
 4535     52.803   10.462
 4535.5     63.789   10.799
 4536     57.85   11.537
 4536.5     59.411   12.275
 4537     59.807   13.012
 4537.5     46.722   13.75
 4538     45.343   14.483
 4538.5     45.443   13.915
 4539     68.054   13.347
 4539.5     62.994   12.779
 4540     57.933   12.211
 4540.5     53.956   11.643
 4541     52.489   11.075
 4541.5     51.022   10.507
 4542     51.014   9.939
 4542.5     51.195   9.371
 4543     51.376   9.826
 4543.5     51.369   10.295
 4544     49.944   10.764
 4544.5     50.894   11.233
 4545     51.844   11.703
 4545.5     51.671   11.949
 4546     51.181   11.717
 4546.5     50.69   11.486
 4547     50.199   11.254
 4547.5     49.711   11.023
 4548     49.938   10.791
 4548.5     50.164   10.559
 4549     50.39   10.328
 4549.5     50.495   10.096
 4550     50.159   10.177
 4550.5     49.824   10.942
 4551     50.012   11.706
 4551.5     50.305   12.471
 4552     50.599   13.236
 4552.5     50.464   13.27
 4553     49.938   12.808
 4553.5     49.532   12.347
 4554     49.915   11.885
 4554.5     50.298   11.424
 4555     50.32   10.962
 4555.5     49.486   10.872
 4556     50.71   11.274
 4556.5     52.278   11.676
 4557     51.274   12.077
 4557.5     50.265   12.479
 4558     49.479   11.826
 4558.5     50.496   10.729
 4559     51.513   9.632
 4559.5     51.239   8.535
 4560     49.067   9.193
 4560.5     49.395   10.048
 4561     49.724   10.904
 4561.5     50.052   11.55
 4562     49.694   10.752
 4562.5     49.425   9.953
 4563     50.085   9.154
 4563.5     50.745   8.799
 4564     51.404   9.362
 4564.5     50.651   9.925
 4565     49.537   10.488
 4565.5     49.039   11.051
