#--------------------------------------------------#
#-------------------ENVERUS, INC.------------------#
#------------------WWW.ENVERUS.COM-----------------#
#------------------COPYRIGHT 2020------------------#
#--------------------------------------------------#
#THIS FILE MAY BE USED ONLY IN ACCORDANCE WITH A CURRENT SUBSCRIPTION AGREEMENT BETWEEN
#THE USER AND ENVERUS, INC. NO PART OF THIS FILE MAY BE REPRODUCED, USED, COPIED,
#MODIFIED, PROPAGATED, OR DISTRIBUTED EXCEPT IN ACCORDANCE WITH THE SUBSCRIPTION
#AGREEMENT. UNAUTHORIZED USE OR DISTRIBUTION OF ALL OR ANY PART OF THIS FILE MAY VIOLATE
#COPYRIGHT, TRADEMARK, AND/OR OTHER LAWS AND IS SUBJECT TO CIVIL AS WELL AS CRIMINAL
#SANCTIONS.
#--------------------------------------------------#
#THIS FILE IS PROVIDED "AS-IS" AND ALL WARRANTIES ARE EXPRESSLY DISCLAIMED, WHETHER
#EXPRESS, ORAL, IMPLIED, STATUTORY OR OTHERWISE, INCLUDING ANY IMPLIED WARRANTY OF FITNESS
#FOR A PARTICULAR PURPOSE, MERCHANTABILITY, TITLE OR NON-INFRINGEMENT, AND ANY WARRANTIES
#ARISING BY VIRTUE OF CUSTOM OF TRADE OR COURSE OF DEALING.  FURTHER, ENVERUS, INC.
#AND ITS LICENSORS DO NOT REPRESENT OR WARRANT THAT THIS FILE WILL MEET USER'S
#REQUIREMENTS OR ARE SUITABLE FOR USER'S NEEDS OR THAT THE DATA OR RESULTS PROVIDED IN
#CONJUNCTION THEREWITH ARE CORRECT, ACCURATE, TIMELY OR RELIABLE. THESE DISCLAIMERS SHALL
#APPLY REGARDLESS OF ANY FAILURE OF ESSENTIAL PURPOSE OF ANY LIMITED REMEDY.  SOME
#JURISDICTIONS DO NOT ALLOW THE EXCLUSION OF CERTAIN WARRANTIES SO SOME OF THE ABOVE
#EXCLUSIONS MAY NOT APPLY. IN NO EVENT SHALL ENVERUS, INC. OR ANY OF ITS AFFILIATES
#BE LIABLE UNDER ANY LEGAL THEORY, WHETHER IN TORT (INCLUDING WITHOUT LIMITATION
#NEGLIGENCE), CONTRACT, STRICT LIABILITY, STATUTORY OR OTHERWISE, FOR ANY SPECIAL,
#INCIDENTAL, CONSEQUENTIAL, EXEMPLARY, PUNITIVE OR INDIRECT DAMAGE OF ANY KIND, INCLUDING
#WITHOUT LIMITATION LOSS OF REVENUE, PROFITS, GOODWILL, USE, AND/OR DATA OR THE COST OF
#PROCUREMENT OF SUBSTITUTE GOODS OR SERVICES, EVEN IF APPRISED OF THE POSSIBILITY OF SUCH
#DAMAGES IN ADVANCE.
#--------------------------------------------------#

# EXPORTED FROM DI TRANSFORM
# DI TRANSFORM - A PRODUCT OF DRILLINGINFO, INC. - WWW.DRILLINGINFO.COM
#
~VERSION INFORMATION
 VERS.        2.0 : LAS ASCII STANDARD - VERSION 2.0
 WRAP.         NO : ONE LINE PER DEPTH STEP

~WELL INFORMATION
#MNEM.UNIT       DATA TYPE       INFORMATION
#---------       ---------       -----------
 STRT.FT           190 : START DEPTH
 STOP.FT         12010 : STOP DEPTH
 STEP.FT           0.5 : STEP LENGTH
 NULL.         -999.25 : NULL VALUE
 UWI.   42389335580000 : UNIQUE WELL ID
 API.   42389335580000 : WELL IDENTIFIER
 COMP.                 : COMPANY
 WELL.          DRD_55 : WELL NAME
 FLD.                  : FIELD NAME
 LOC.                  : WELL LOCATION
 CNTY.                 : COUNTY
 STAT.                 : STATE OR PROVINCE
 CTRY.                 : COUNTRY
 SRVC.                 : SERVICE COMPANY
 DATE.                 : DATE

~CURVE INFORMATION
#MNEM.UNIT       API CODE       CURVE DESCRIPTION
#---------       --------       -----------------
 DEPT.FT          : <MEASURED DEPTH>
 CAL.IN           : CALIPER
 DPHI.%           : DENSITY POROSITY
 DT.US/FT         : SONIC
 GR.GAPI          : GAMMA RAY
 NPHI.%           : NEUTRON POROSITY
 RHOB.G/CM3       : DENSITY

~PARAMETER INFORMATION
#MNEM.UNIT       VALUE       DESCRIPTION
#---------       -----       -----------
 EKB.FT      2793 : ELEVATION ABOVE MSL

~A      DEPT         CAL        DPHI          DT          GR        NPHI        RHOB
# ...
        9785       8.834      8.8984     69.5614     72.7472     15.6666      2.5705
      9785.5       8.834      7.8525     69.4501     70.4453     17.6032      2.5744
        9786       8.834      9.3596     70.5213      70.293      16.208      2.5694
      9786.5       8.834      8.0712     71.5005     83.4864      17.665      2.5702
        9787       8.834       8.607     72.6518     92.8889     19.1977      2.5742
      9787.5       8.834      8.0302     73.4179     87.1848     20.3231      2.5691
        9788       8.834      8.8828     74.4131     82.4147     19.2093      2.5381
      9788.5       8.834     11.0637     75.5874     82.9967     19.1646       2.526
        9789       8.834     10.6726     76.7936     90.6645     21.8445      2.5465
      9789.5       8.834       9.795     77.0969     100.665     18.2219      2.5522
        9790       8.834      9.8061     76.3607     94.9913     20.9307      2.5349
      9790.5       8.834     11.2414     75.0789     92.4036     18.0114      2.5177
        9791       8.834      11.599     73.8247     83.6683     21.0402      2.5148
      9791.5       8.834     11.4807     73.4827     79.6406     18.5147      2.5239
        9792       8.834     11.3114     74.2483     77.0688     17.9626      2.5231
      9792.5       8.834     11.8009     75.7637     80.2018     18.8307      2.5075
        9793       8.834     12.0477     77.3332     89.8987     18.9429      2.4861
      9793.5       8.834     13.4814     77.7597     95.1045     21.3073      2.4783
        9794       8.834     14.5166     76.8653     89.0122      23.213      2.4946
      9794.5       8.834     12.7597     75.0613      85.637      19.945      2.5252
        9795       8.834      9.3466     73.2811     77.0466     18.0838      2.5587
      9795.5       8.834      8.8019     72.2446     76.4966     19.0007       2.569
        9796       8.834      8.8899     72.0163     83.4431     17.9219      2.5662
      9796.5       8.834      8.8883     72.3981     77.3183     19.4969      2.5685
        9797       8.834      8.2985     73.4008     81.3617     20.0683      2.5605
      9797.5       8.834      9.9447     74.3345     80.9392      20.577      2.5443
        9798       8.834     10.2452     75.4766     87.2862     19.5708      2.5378
      9798.5       8.834     10.7028     75.8045     92.9706      18.028      2.5355
        9799       8.834     10.9371     75.4826     94.8297     20.3097      2.5395
      9799.5       8.834     10.3169     74.3359     88.0533     20.5704      2.5485
        9800       8.834     10.1227     73.3401     81.1013     19.6594      2.5463
      9800.5       8.834      9.8513     73.4487     74.0026     21.4352      2.5349
        9801       8.834     10.7134     74.2919     74.1793     17.2194      2.5152
      9801.5       8.834     12.0452     75.4303     79.1306     16.6088      2.4931
        9802       8.834     13.0829     76.4642     83.1735     19.0558      2.4877
      9802.5       8.834     13.4067     76.6599     89.0662     18.8757       2.491
        9803      8.8381     13.8272     76.4746     84.8654     21.6318      2.4928
      9803.5       8.834      13.287     76.3025     82.2327     22.8739       2.487
        9804       8.834     13.8019      76.654     87.0802     19.0333       2.478
      9804.5       8.834      14.651       77.33     85.2478     20.2911      2.4842
        9805       8.834     13.5725     78.1118     91.6107     21.6085      2.4925
      9805.5       8.834     12.8159     78.4929     89.9944     19.8446      2.4861
        9806       8.834     13.6307     78.2111     98.3458     19.4965      2.4944
      9806.5       8.834      13.736     77.3316    105.3423     20.5455      2.5133
        9807       8.834     11.8749     76.0552     98.2896     24.4822      2.5277
      9807.5       8.834      11.211     74.9259     91.6127      21.371      2.5373
        9808       8.834      9.8113     73.8103     88.3267     17.1923      2.5469
      9808.5       8.834     10.2781     73.1366      94.021     19.2842      2.5573
        9809       8.834      8.8219     72.5999     82.6053     19.4573      2.5636
      9809.5       8.834      9.3043     72.4094     80.1619     17.9351      2.5532
        9810       8.834      9.9909     72.2189     79.2327     17.0778      2.5438
      9810.5       8.834      9.2127     71.7349     83.3856     18.3356      2.5566
        9811       8.834      9.8077     70.3675     85.2035     20.3706       2.573
      9811.5       8.834      8.3448     68.2715     80.9585      19.699      2.5948
        9812       8.834       6.783     65.4087     66.0367     15.9442      2.6145
      9812.5       8.834      5.6353     62.6117     51.9982      10.653       2.629
        9813       8.834      4.6722     60.5503     44.1239     12.5839      2.6383
      9813.5       8.834      3.5871     59.7374     35.9306     10.1823      2.6449
        9814       8.834      3.8939     61.6197     35.3481      8.8379      2.6497
      9814.5       8.834      4.0659     65.0101     48.6174       7.815      2.6154
        9815       8.834      5.7325     69.9163     63.1844     13.2218      2.5706
      9815.5       8.834     10.4953     73.9286     87.2001     18.0315      2.5198
        9816       8.834     12.2097      76.552     92.6373     17.8523      2.4884
      9816.5       8.834     13.5583     76.7076    100.3433      20.874      2.4911
        9817       8.834      13.329     75.7628     95.5838     22.5182      2.5039
      9817.5       8.834     12.6855     74.3659     91.1317      22.016      2.5304
        9818       8.834     10.6173     73.2469     90.3387     18.9014      2.5476
      9818.5       8.834      9.4424     72.9939     81.9696      17.243      2.5336
        9819       8.834     11.0907     73.4229     87.1917      18.562      2.5229
      9819.5       8.834     11.6165     74.3246     86.6179     19.4565      2.5175
        9820       8.834     11.8928     75.6028      82.697     17.9229      2.5024
      9820.5       8.834     11.4694     76.8729     85.9705     18.5104      2.4886
        9821       8.834     12.9583     77.5715     93.4208     17.1507      2.4939
      9821.5       8.834     13.1279     77.4544     94.2968     20.5492      2.5001
        9822       8.834     12.3941     75.8133     90.2937     22.8331      2.5063
      9822.5       8.834      12.796     73.1369     92.4158     20.2385       2.517
        9823       8.834     12.7708     69.0511      82.579     19.6156      2.5707
      9823.5       8.834      6.9215     65.0929     74.6685     15.0836      2.6243
        9824       8.834      5.4552     60.9663     55.1898     13.3882      2.6392
      9824.5       8.834      3.4974     58.1415     36.2817     15.7475       2.644
        9825       8.834      4.4477      57.828     27.4796      9.4017      2.6266
      9825.5       8.834      5.0278      59.515     36.4786      8.5508      2.6139
        9826       8.834      6.4447     62.1078     42.3161      8.6413       2.589
      9826.5       8.834      8.4583     65.3559     48.7433      9.2686      2.5639
        9827       8.834       9.974     68.1592     57.6647     13.3278      2.5453
      9827.5       8.834     10.5454     69.8821     61.0727     15.4013      2.5367
        9828       8.834      9.4647     70.0409     72.3034     17.2997      2.5515
      9828.5       8.834      9.6449      68.445     88.6258       19.02      2.5776
        9829       8.834      7.8096     65.6052     66.7553     19.7316      2.6223
      9829.5       8.834      5.4622     63.5059     45.2475      15.857       2.668
        9830       8.834      2.3125     63.5252     33.0891       9.107      2.6721
      9830.5       8.834      4.7775     67.0116      43.097       7.684      2.6015
        9831       8.834      4.5937     72.1592     57.6439      8.4066      2.5599
      9831.5       8.834     10.8232      76.474     80.9802     12.1242      2.5249
        9832       8.834     11.8688      78.768     89.8281     17.6598      2.5204
