#--------------------------------------------------#
#-------------------ENVERUS, INC.------------------#
#------------------WWW.ENVERUS.COM-----------------#
#------------------COPYRIGHT 2020------------------#
#--------------------------------------------------#
#THIS FILE MAY BE USED ONLY IN ACCORDANCE WITH A CURRENT SUBSCRIPTION AGREEMENT BETWEEN
#THE USER AND ENVERUS, INC. NO PART OF THIS FILE MAY BE REPRODUCED, USED, COPIED,
#MODIFIED, PROPAGATED, OR DISTRIBUTED EXCEPT IN ACCORDANCE WITH THE SUBSCRIPTION
#AGREEMENT. UNAUTHORIZED USE OR DISTRIBUTION OF ALL OR ANY PART OF THIS FILE MAY VIOLATE
#COPYRIGHT, TRADEMARK, AND/OR OTHER LAWS AND IS SUBJECT TO CIVIL AS WELL AS CRIMINAL
#SANCTIONS.
#--------------------------------------------------#
#THIS FILE IS PROVIDED "AS-IS" AND ALL WARRANTIES ARE EXPRESSLY DISCLAIMED, WHETHER
#EXPRESS, ORAL, IMPLIED, STATUTORY OR OTHERWISE, INCLUDING ANY IMPLIED WARRANTY OF FITNESS
#FOR A PARTICULAR PURPOSE, MERCHANTABILITY, TITLE OR NON-INFRINGEMENT, AND ANY WARRANTIES
#ARISING BY VIRTUE OF CUSTOM OF TRADE OR COURSE OF DEALING.  FURTHER, ENVERUS, INC.
#AND ITS LICENSORS DO NOT REPRESENT OR WARRANT THAT THIS FILE WILL MEET USER'S
#REQUIREMENTS OR ARE SUITABLE FOR USER'S NEEDS OR THAT THE DATA OR RESULTS PROVIDED IN
#CONJUNCTION THEREWITH ARE CORRECT, ACCURATE, TIMELY OR RELIABLE. THESE DISCLAIMERS SHALL
#APPLY REGARDLESS OF ANY FAILURE OF ESSENTIAL PURPOSE OF ANY LIMITED REMEDY.  SOME
#JURISDICTIONS DO NOT ALLOW THE EXCLUSION OF CERTAIN WARRANTIES SO SOME OF THE ABOVE
#EXCLUSIONS MAY NOT APPLY. IN NO EVENT SHALL ENVERUS, INC. OR ANY OF ITS AFFILIATES
#BE LIABLE UNDER ANY LEGAL THEORY, WHETHER IN TORT (INCLUDING WITHOUT LIMITATION
#NEGLIGENCE), CONTRACT, STRICT LIABILITY, STATUTORY OR OTHERWISE, FOR ANY SPECIAL,
#INCIDENTAL, CONSEQUENTIAL, EXEMPLARY, PUNITIVE OR INDIRECT DAMAGE OF ANY KIND, INCLUDING
#WITHOUT LIMITATION LOSS OF REVENUE, PROFITS, GOODWILL, USE, AND/OR DATA OR THE COST OF
#PROCUREMENT OF SUBSTITUTE GOODS OR SERVICES, EVEN IF APPRISED OF THE POSSIBILITY OF SUCH
#DAMAGES IN ADVANCE.
#--------------------------------------------------#

~VERSION INFORMATION
VERS. 2.0 : CWLS LOG ASCII STANDARD - VERSION 2.0
WRAP. NO : ONE LINE PER DEPTH STEP
~WELL INFORMATION
#MNEMONIC     .UNIT              VALUE :DESCRIPTION
STRT       .FT                38.00000 :START DEPTH
STOP       .FT                20083.00000 :STOP DEPTH
STEP       .FT                0.50000 :STEP
NULL       .                -999.25000 :NULL VALUE
UWI       .                42389302750000 :UNIQUE WELL ID
API       .                42389302750000 :API NUMBER
COMP       .                 :COMPANY
WELL       .                 :WELL
FLD       .                 :FIELD
LOC       .                 :LOCATION
CNTY       .                 :COUNTY
STAT       .                 :STATE
CTRY       .                 :COUNTRY
SRVC       .                 :SERVICE COMPANY
DATE       .                 :DATE
~CURVE INFORMATION
#MNEMONIC     .UNIT      API CODE :CURVE DESCRIPTION
DEPTH       .FT                      :MEASURED DEPTH
CAL       .IN        UNKNOWN   :CAL
DT       .US/FT        UNKNOWN   :DT
GR       .GAPI        UNKNOWN   :GR
~A    DEPTH    CAL    DT    GR
# ...
5085.50000    -999.25000    -999.25000    20.11041
5086.00000    -999.25000    -999.25000    20.49230
5086.50000    -999.25000    -999.25000    20.32895
5087.00000    -999.25000    -999.25000    19.82355
5087.50000    -999.25000    -999.25000    19.31816
5088.00000    -999.25000    -999.25000    18.81276
5088.50000    -999.25000    -999.25000    18.30737
5089.00000    -999.25000    -999.25000    17.80198
5089.50000    -999.25000    -999.25000    17.29658
5090.00000    -999.25000    -999.25000    16.89355
5090.50000    -999.25000    -999.25000    17.28524
5091.00000    -999.25000    -999.25000    17.67693
5091.50000    -999.25000    -999.25000    18.06862
5092.00000    -999.25000    -999.25000    18.46032
5092.50000    -999.25000    -999.25000    18.85201
5093.00000    -999.25000    -999.25000    19.24370
5093.50000    -999.25000    -999.25000    19.63539
5094.00000    -999.25000    -999.25000    20.02708
5094.50000    -999.25000    -999.25000    19.70157
5095.00000    -999.25000    -999.25000    18.35796
5095.50000    -999.25000    -999.25000    17.01434
5096.00000    -999.25000    -999.25000    15.67072
5096.50000    -999.25000    -999.25000    14.32710
5097.00000    -999.25000    -999.25000    14.20544
5097.50000    -999.25000    -999.25000    15.06530
5098.00000    -999.25000    -999.25000    15.92516
5098.50000    -999.25000    -999.25000    16.78501
5099.00000    -999.25000    -999.25000    16.01823
5099.50000    -999.25000    -999.25000    14.06310
5100.00000    -999.25000    -999.25000    12.10796
5100.50000    -999.25000    -999.25000    12.97983
5101.00000    -999.25000    -999.25000    14.70751
5101.50000    -999.25000    -999.25000    16.43519
5102.00000    -999.25000    -999.25000    18.16286
5102.50000    -999.25000    -999.25000    19.55699
5103.00000    -999.25000    -999.25000    19.68203
5103.50000    -999.25000    -999.25000    19.80708
5104.00000    -999.25000    -999.25000    19.31011
5104.50000    -999.25000    -999.25000    18.23029
5105.00000    -999.25000    -999.25000    17.15047
5105.50000    -999.25000    -999.25000    16.07064
5106.00000    -999.25000    -999.25000    15.62953
5106.50000    -999.25000    -999.25000    16.24519
5107.00000    -999.25000    -999.25000    16.86084
5107.50000    -999.25000    -999.25000    17.47650
5108.00000    -999.25000    -999.25000    18.09216
5108.50000    -999.25000    -999.25000    18.70782
5109.00000    -999.25000    -999.25000    19.32348
5109.50000    -999.25000    -999.25000    18.83716
5110.00000    -999.25000    -999.25000    17.91995
5110.50000    -999.25000    -999.25000    17.00273
5111.00000    -999.25000    -999.25000    16.08552
5111.50000    -999.25000    -999.25000    16.14988
5112.00000    -999.25000    -999.25000    16.88462
5112.50000    -999.25000    -999.25000    17.61936
5113.00000    -999.25000    -999.25000    18.35410
5113.50000    -999.25000    -999.25000    19.08885
5114.00000    -999.25000    -999.25000    18.71186
5114.50000    -999.25000    -999.25000    18.26833
5115.00000    -999.25000    -999.25000    17.82481
5115.50000    -999.25000    -999.25000    17.38128
5116.00000    -999.25000    -999.25000    16.93776
5116.50000    -999.25000    -999.25000    17.03644
5117.00000    -999.25000    -999.25000    17.67772
5117.50000    -999.25000    -999.25000    18.31901
5118.00000    -999.25000    -999.25000    18.96029
5118.50000    -999.25000    -999.25000    19.60157
5119.00000    -999.25000    -999.25000    19.96868
5119.50000    -999.25000    -999.25000    19.03927
5120.00000    -999.25000    -999.25000    18.10985
5120.50000    -999.25000    -999.25000    17.18044
5121.00000    -999.25000    -999.25000    16.25102
5121.50000    -999.25000    -999.25000    15.66642
5122.00000    -999.25000    -999.25000    15.68403
5122.50000    -999.25000    -999.25000    15.70162
5123.00000    -999.25000    -999.25000    15.71923
5123.50000    -999.25000    -999.25000    15.73683
5124.00000    -999.25000    -999.25000    15.75443
5124.50000    -999.25000    -999.25000    15.77203
5125.00000    -999.25000    -999.25000    15.78963
5125.50000    -999.25000    -999.25000    15.80723
5126.00000    -999.25000    -999.25000    15.82483
5126.50000    -999.25000    -999.25000    15.84243
5127.00000    -999.25000    -999.25000    15.86003
5127.50000    -999.25000    -999.25000    15.87763
5128.00000    -999.25000    -999.25000    15.89523
5128.50000    -999.25000    -999.25000    15.91283
5129.00000    -999.25000    -999.25000    15.93043
5129.50000    -999.25000    -999.25000    15.94803
5130.00000    -999.25000    -999.25000    16.23595
5130.50000    -999.25000    -999.25000    16.77802
5131.00000    -999.25000    -999.25000    17.32008
5131.50000    -999.25000    -999.25000    17.86215
5132.00000    -999.25000    -999.25000    18.40422
5132.50000    -999.25000    -999.25000    18.94629
5133.00000    -999.25000    -999.25000    19.48836
5133.50000    -999.25000    -999.25000    20.03043
5134.00000    -999.25000    -999.25000    20.57249
5134.50000    -999.25000    -999.25000    21.11456
5135.00000    -999.25000    -999.25000    21.65663
5135.50000    -999.25000    -999.25000    21.96027
5136.00000    -999.25000    -999.25000    21.20631
5136.50000    -999.25000    -999.25000    20.45235
5137.00000    -999.25000    -999.25000    20.29398
5137.50000    -999.25000    -999.25000    20.88018
5138.00000    -999.25000    -999.25000    21.46638
5138.50000    -999.25000    -999.25000    22.05259
5139.00000    -999.25000    -999.25000    22.63879
5139.50000    -999.25000    -999.25000    21.50830
5140.00000    -999.25000    -999.25000    19.90655
5140.50000    -999.25000    -999.25000    18.30481
5141.00000    -999.25000    -999.25000    18.50727
5141.50000    -999.25000    -999.25000    18.71735
5142.00000    -999.25000    69.75344    18.92744
5142.50000    -999.25000    69.81485    19.13752
5143.00000    12.50263    69.87625    19.34761
5143.50000    12.50228    70.25800    19.55769
5144.00000    12.50192    70.67165    19.76778
5144.50000    12.50157    71.08531    19.97786
5145.00000    12.50122    71.42467    19.27765
5145.50000    12.50086    70.53432    18.52305
5146.00000    12.50051    69.64397    17.76846
5146.50000    12.50015    68.75362    17.01387
5147.00000    12.49980    67.86327    16.25928
5147.50000    12.49945    66.97292    16.46923
5148.00000    12.49909    65.98278    17.77293
5148.50000    12.49874    64.72799    19.07663
5149.00000    12.49838    63.47320    20.38033
5149.50000    12.49803    62.21840    20.41748
5150.00000    12.49768    60.96361    19.33644
5150.50000    12.49732    62.05090    18.25539
5151.00000    12.49697    64.02259    17.17435
5151.50000    12.49661    63.58075    16.93286
5152.00000    12.49626    63.13891    17.96972
5152.50000    12.49591    62.69707    19.00657
5153.00000    12.49555    62.25523    20.04342
5153.50000    12.49520    70.08326    21.08028
5154.00000    12.49484    69.07135    22.11713
5154.50000    12.49449    68.05945    22.29395
5155.00000    12.49414    67.04754    21.45704
5155.50000    12.49378    66.03564    20.62014
5156.00000    12.49343    65.02373    19.78324
5156.50000    12.49307    64.53300    18.94634
5157.00000    12.49272    64.32347    18.10944
5157.50000    12.49236    64.11393    17.27253
5158.00000    12.49201    63.90440    16.43563
5158.50000    12.49166    63.69487    15.79300
5159.00000    12.49130    63.48533    15.79005
5159.50000    12.49095    63.27580    15.78709
5160.00000    12.49060    63.06627    15.78414
5160.50000    12.49024    57.14849    15.78119
5161.00000    12.48989    57.11077    15.77824
5161.50000    12.48953    57.07305    16.07410
5162.00000    12.48918    57.03533    16.42621
5162.50000    12.48882    56.99762    16.77832
5163.00000    12.48847    56.95990    17.13044
5163.50000    12.48812    56.92218    17.48255
5164.00000    12.48776    56.88446    17.83466
5164.50000    12.48741    56.84674    18.18677
5165.00000    12.48705    56.80902    18.53889
5165.50000    12.48670    56.78999    19.54484
