#--------------------------------------------------#
#-------------------ENVERUS, INC.------------------#
#------------------WWW.ENVERUS.COM-----------------#
#------------------COPYRIGHT 2020------------------#
#--------------------------------------------------#
#THIS FILE MAY BE USED ONLY IN ACCORDANCE WITH A CURRENT SUBSCRIPTION AGREEMENT BETWEEN
#THE USER AND ENVERUS, INC. NO PART OF THIS FILE MAY BE REPRODUCED, USED, COPIED,
#MODIFIED, PROPAGATED, OR DISTRIBUTED EXCEPT IN ACCORDANCE WITH THE SUBSCRIPTION
#AGREEMENT. UNAUTHORIZED USE OR DISTRIBUTION OF ALL OR ANY PART OF THIS FILE MAY VIOLATE
#COPYRIGHT, TRADEMARK, AND/OR OTHER LAWS AND IS SUBJECT TO CIVIL AS WELL AS CRIMINAL
#SANCTIONS.
#--------------------------------------------------#
#THIS FILE IS PROVIDED "AS-IS" AND ALL WARRANTIES ARE EXPRESSLY DISCLAIMED, WHETHER
#EXPRESS, ORAL, IMPLIED, STATUTORY OR OTHERWISE, INCLUDING ANY IMPLIED WARRANTY OF FITNESS
#FOR A PARTICULAR PURPOSE, MERCHANTABILITY, TITLE OR NON-INFRINGEMENT, AND ANY WARRANTIES
#ARISING BY VIRTUE OF CUSTOM OF TRADE OR COURSE OF DEALING.  FURTHER, ENVERUS, INC.
#AND ITS LICENSORS DO NOT REPRESENT OR WARRANT THAT THIS FILE WILL MEET USER'S
#REQUIREMENTS OR ARE SUITABLE FOR USER'S NEEDS OR THAT THE DATA OR RESULTS PROVIDED IN
#CONJUNCTION THEREWITH ARE CORRECT, ACCURATE, TIMELY OR RELIABLE. THESE DISCLAIMERS SHALL
#APPLY REGARDLESS OF ANY FAILURE OF ESSENTIAL PURPOSE OF ANY LIMITED REMEDY.  SOME
#JURISDICTIONS DO NOT ALLOW THE EXCLUSION OF CERTAIN WARRANTIES SO SOME OF THE ABOVE
#EXCLUSIONS MAY NOT APPLY. IN NO EVENT SHALL ENVERUS, INC. OR ANY OF ITS AFFILIATES
#BE LIABLE UNDER ANY LEGAL THEORY, WHETHER IN TORT (INCLUDING WITHOUT LIMITATION
#NEGLIGENCE), CONTRACT, STRICT LIABILITY, STATUTORY OR OTHERWISE, FOR ANY SPECIAL,
#INCIDENTAL, CONSEQUENTIAL, EXEMPLARY, PUNITIVE OR INDIRECT DAMAGE OF ANY KIND, INCLUDING
#WITHOUT LIMITATION LOSS OF REVENUE, PROFITS, GOODWILL, USE, AND/OR DATA OR THE COST OF
#PROCUREMENT OF SUBSTITUTE GOODS OR SERVICES, EVEN IF APPRISED OF THE POSSIBILITY OF SUCH
#DAMAGES IN ADVANCE.
#--------------------------------------------------#

~VERSION INFORMATION
VERS. 2.0 : CWLS LOG ASCII STANDARD - VERSION 2.0
WRAP. NO : ONE LINE PER DEPTH STEP
~WELL INFORMATION
#MNEMONIC     .UNIT              VALUE :DESCRIPTION
STRT       .FT                38.00000 :START DEPTH
STOP       .FT                20083.00000 :STOP DEPTH
STEP       .FT                0.50000 :STEP
NULL       .                -999.25000 :NULL VALUE
UWI       .                42389302750000 :UNIQUE WELL ID
API       .                42389302750000 :API NUMBER
COMP       .                 :COMPANY
WELL       .                 :WELL
FLD       .                 :FIELD
LOC       .                 :LOCATION
CNTY       .                 :COUNTY
STAT       .                 :STATE
CTRY       .                 :COUNTRY
SRVC       .                 :SERVICE COMPANY
DATE       .                 :DATE
~CURVE INFORMATION
#MNEMONIC     .UNIT      API CODE :CURVE DESCRIPTION
DEPTH       .FT                      :MEASURED DEPTH
CAL       .IN        UNKNOWN   :CAL
DT       .US/FT        UNKNOWN   :DT
GR       .GAPI        UNKNOWN   :GR
~A    DEPTH    CAL    DT    GR
# ...
7131.50000    13.19990    62.77156    51.85174
7132.00000    13.21853    62.61574    49.83234
7132.50000    13.23717    62.45991    48.26128
7133.00000    13.25580    62.53323    49.69669
7133.50000    13.27989    62.77615    51.13211
7134.00000    13.30530    63.01906    52.56752
7134.50000    13.33071    63.26198    51.34804
7135.00000    13.35612    63.50490    49.42685
7135.50000    13.38153    63.74782    47.50566
7136.00000    13.40695    63.99074    46.68584
7136.50000    13.43236    64.23366    47.59280
7137.00000    13.44181    64.01130    48.49977
7137.50000    13.41614    63.66420    49.40673
7138.00000    13.39047    63.31711    50.31369
7138.50000    13.36480    62.97001    51.22066
7139.00000    13.33913    62.62292    51.35208
7139.50000    13.33450    62.27582    50.10999
7140.00000    13.34604    61.92873    48.86791
7140.50000    13.35758    61.58163    47.62582
7141.00000    13.36911    61.23454    46.38374
7141.50000    13.38065    61.35465    45.14166
7142.00000    13.39219    61.57379    44.34446
7142.50000    13.40372    61.79292    44.80503
7143.00000    13.41526    62.01205    45.26560
7143.50000    13.41889    62.23119    45.72617
7144.00000    13.41226    62.45032    46.18674
7144.50000    13.40563    62.38513    46.64731
7145.00000    13.39900    62.28941    47.10787
7145.50000    13.39237    62.19369    47.56844
7146.00000    13.38574    62.09797    46.51543
7146.50000    13.37911    62.00225    45.24489
7147.00000    13.37248    62.08493    43.97435
7147.50000    13.39478    62.51021    42.70381
7148.00000    13.42400    62.66045    44.19632
7148.50000    13.45322    62.45978    46.34291
7149.00000    13.48244    62.25909    48.48949
7149.50000    13.51166    62.05841    50.63607
7150.00000    13.54088    61.85773    49.69451
7150.50000    13.57010    61.65705    48.07241
7151.00000    13.59932    61.67413    46.45031
7151.50000    13.62854    61.85387    44.82821
7152.00000    13.65530    62.03362    43.20611
7152.50000    13.60302    61.46814    41.58401
7153.00000    13.55074    60.78356    40.03347
7153.50000    13.49846    60.09898    40.76066
7154.00000    13.44618    59.43105    41.48785
7154.50000    13.39390    59.68491    42.21504
7155.00000    13.34201    59.93876    42.94223
7155.50000    13.34434    60.19261    43.59515
7156.00000    13.34666    60.44647    44.10229
7156.50000    13.34899    60.70032    44.60943
7157.00000    13.35131    60.91229    45.11657
7157.50000    13.35364    60.43300    45.62371
7158.00000    13.35596    59.95371    46.13084
7158.50000    13.35829    59.47442    46.63798
7159.00000    13.36061    58.99513    47.14512
7159.50000    13.36294    58.51584    45.88921
7160.00000    13.36526    58.03655    44.55461
7160.50000    13.36759    60.35230    43.22001
7161.00000    13.36991    63.50918    41.88541
7161.50000    13.37224    64.03661    40.55082
7162.00000    13.37456    64.44353    40.57648
7162.50000    13.37689    64.42207    41.77002
7163.00000    13.37921    64.40060    42.96356
7163.50000    13.38154    64.37914    44.15710
7164.00000    13.38386    64.35767    45.35064
7164.50000    13.38554    64.34079    46.54418
7165.00000    13.38715    64.32957    47.73772
7165.50000    13.38877    64.31835    48.93126
7166.00000    13.39039    64.30714    50.12480
7166.50000    13.39200    64.36630    51.31834
7167.00000    13.39362    65.05013    51.20911
7167.50000    13.39524    65.73396    49.85354
7168.00000    13.39685    66.41780    48.49797
7168.50000    13.39847    67.10163    47.14240
7169.00000    13.40009    67.78546    45.78682
7169.50000    13.40170    68.46929    44.43125
7170.00000    13.40332    69.15313    44.21410
7170.50000    13.42190    69.76662    45.61127
7171.00000    13.44942    69.28325    47.00844
7171.50000    13.47694    68.79989    48.40561
7172.00000    13.50446    68.31652    49.80278
7172.50000    13.53198    67.83315    51.19995
7173.00000    13.53904    67.61084    52.59712
7173.50000    13.52364    68.04592    53.79966
7174.00000    13.50824    68.48101    52.34768
7174.50000    13.49284    68.91609    50.89571
7175.00000    13.47743    69.35118    49.44374
7175.50000    13.46203    69.78627    47.99177
7176.00000    13.44663    69.61003    47.34508
7176.50000    13.43123    68.98861    48.36648
7177.00000    13.41583    68.36718    49.38788
7177.50000    13.40043    68.36410    50.40927
7178.00000    13.38503    69.06754    51.43067
7178.50000    13.37064    69.77098    52.45207
7179.00000    13.35884    70.47442    53.47346
7179.50000    13.34704    69.26529    54.49486
7180.00000    13.33524    67.93592    54.19547
7180.50000    13.32344    67.31127    53.85091
7181.00000    13.31165    67.35335    53.50635
7181.50000    13.29985    67.39543    53.16179
7182.00000    13.28805    67.43750    52.45523
7182.50000    13.27625    67.47958    51.71928
7183.00000    13.26445    67.52165    50.98333
7183.50000    13.25266    67.56373    50.24738
7184.00000    13.24086    67.60580    49.51143
7184.50000    13.22906    68.03428    48.77548
7185.00000    13.21726    68.70813    48.03953
7185.50000    13.20547    69.38198    47.30358
7186.00000    13.19367    70.05583    46.56763
7186.50000    13.18187    70.21231    45.83168
7187.00000    13.17007    70.03943    45.27126
7187.50000    13.15827    69.86656    45.91509
7188.00000    13.14648    69.69368    46.55892
7188.50000    13.13468    69.52080    47.20275
7189.00000    13.12288    70.29236    47.84658
7189.50000    13.11108    71.08819    48.49041
7190.00000    13.09928    71.88401    49.13424
7190.50000    13.08748    71.13213    49.77807
7191.00000    13.07572    68.02809    50.42190
7191.50000    13.07401    68.38539    51.06573
7192.00000    13.07230    68.74269    51.58770
7192.50000    13.07059    69.09999    50.65125
7193.00000    13.06888    69.45729    49.71480
7193.50000    13.06716    69.81459    48.77835
7194.00000    13.06545    68.79591    47.90143
7194.50000    13.06374    67.61649    49.43980
7195.00000    13.06203    66.43707    50.97816
7195.50000    13.06031    65.25765    52.51652
7196.00000    13.05860    65.86493    52.56685
7196.50000    13.05689    66.51682    51.94364
7197.00000    13.05518    67.16872    51.32044
7197.50000    13.05346    67.82062    50.69722
7198.00000    13.05175    68.14101    50.07401
7198.50000    13.05004    68.14230    49.45080
7199.00000    13.04833    68.14358    48.82759
7199.50000    13.04661    68.14487    48.20438
7200.00000    13.04490    68.14615    47.58117
7200.50000    13.02628    68.14744    47.62597
7201.00000    13.00550    68.14872    49.68640
7201.50000    12.98472    68.15001    51.74683
7202.00000    12.96395    68.15129    53.15007
7202.50000    12.94317    68.36974    54.09795
7203.00000    12.92239    68.97424    55.04583
7203.50000    12.90162    69.57873    55.99371
7204.00000    12.88084    69.55770    56.94159
7204.50000    12.86007    68.65726    60.68573
7205.00000    12.83929    67.75682    64.70983
7205.50000    12.81851    67.82240    68.73393
7206.00000    12.79774    69.15965    72.75803
7206.50000    12.77696    70.49689    76.78212
7207.00000    12.75619    71.83414    80.80622
7207.50000    12.73541    73.17139    84.83032
7208.00000    12.70056    72.64239    88.85442
7208.50000    12.65375    71.64303    92.87852
7209.00000    12.60693    70.81002    93.48731
7209.50000    12.56011    70.09102    92.71996
7210.00000    12.51330    69.37202    91.95261
7210.50000    12.46648    69.22825    91.18526
7211.00000    12.41967    69.14594    98.02376
7211.50000    12.37285    69.06364    108.74879
7212.00000    12.36211    68.98133    119.47382
7212.50000    12.36251    68.89902    130.19885
7213.00000    12.36291    68.81672    124.39986
7213.50000    12.36331    68.73441    116.57468
7214.00000    12.36371    68.40323    108.74950
7214.50000    12.36411    66.95746    100.92432
7215.00000    12.36450    65.51169    93.09914
7215.50000    12.36490    64.06592    95.83943
7216.00000    12.36530    63.61868    99.30894
7216.50000    12.36570    64.73547    95.04901
