###############################################
##         ENVERUS                           ##
##         ESS - Open Hole                   ##
##         PERMIAN / DELAWARE                ##
##         Nov 04 2023  V4.0                 ##
##         42-389-10119-00-00                ##
###############################################
## Copyright 2017-2023  ENVERUS.  All Rights Reserved. 
## Confidential - Property of ENVERUS, use governed by terms and 
## conditions found within the existing Information Services Subscription Agreement 
## (as may be amended, the “ISSA”) between Customer and ENVERUS. 
## 
~VERSION INFORMATION
# MNEM.UNIT                               DATA : DESCRIPTION OF MNEMONIC
#-----.-----     ----------------------------- : -----------------------------
VERS.                                     2.00 : CWLS LOG ASCII STANDARD - VERSION 2.00
WRAP.                                       NO : MULTIPLE LINES PER DEPTH STEP
VEND.                                  ENVERUS : VENDOR
TYPE.                          ESS - OPEN HOLE : ENVERUS ESSENTIAL CURVES – ACCESSIBLE THROUGH ENVERUS PRISM(TM)
DOC.                                  32008410 : ENVERUS HEADER RAW DOCUMENT ID
#___________________________________________________________________________________________________ 
~WELL INFORMATION 
# X8E3XgEZRMs+LiTqjMYqety/5rGXYLbzRNciiYBq17B6ClLelYcJjKNVvvPfWOVGxhvISow7q4Dbthq8gKP2Nw== 
# MNEM.UNIT                                              DATA : DESCRIPTION OF MNEMONIC 
#-----.-----                    ----------------------------- : ----------------------------- 
CNTY.                                                  REEVES : COUNTY 
STATE.                                                  TEXAS : STATE 
CNTRY.                                                    USA : COUNTRY 
API.                                             42-389-10119 : API (10 Digit) 
API_14.                                    42-389-10119-00-00 : API (14 Digits) 
API_14_std.                                 42-389-10119-0000 : API (14 Digits Standard) 
UWI.                                           42389101190000 : UNIQUE WELL ID 
WELL.                                                   1-40, : WELL NAME
STRT.FT                                                  58.0 : START DEPTH
STOP.FT                                                5338.0 : STOP DEPTH
STEP.FT                                                   0.5 : STEP BETWEEN DEPTHS
NULL.                                                 -999.25 : NULL VALUE
#___________________________________________________________________________________________________ 
~CURVE INFORMATION 
# MNEM.UNIT           : CURVE DESCRIPTION 
#-----.-----          : ----------------------------- 
 DEPT.FT               : MEASURED DEPTH 
 GR.API                : GAMMA RAY (GR) 
 DT.US/FT              : SONIC DELTA TRANSIT TIME (DT) 
 #___________________________________________________________________________________________________ 
~A         DEPT             GR             DT
# ...
         2494.0          4.533         55.734
         2494.5          4.160         56.179
         2495.0          3.788         56.624
         2495.5          3.416         56.969
         2496.0          3.472         56.477
         2496.5          3.917         55.985
         2497.0          4.362         55.493
         2497.5          4.807         55.001
         2498.0          5.233         54.508
         2498.5          5.209         54.016
         2499.0          5.185         53.524
         2499.5          5.161         53.098
         2500.0          5.137         52.673
         2500.5          5.113         52.249
         2501.0          5.089         51.825
         2501.5          5.065         51.948
         2502.0          5.041         52.140
         2502.5          5.017         52.115
         2503.0          4.993         51.763
         2503.5          4.969         51.627
         2504.0          4.945         51.867
         2504.5          4.921         52.106
         2505.0          4.897         52.346
         2505.5          4.873         52.585
         2506.0          4.849         52.825
         2506.5          4.825         53.064
         2507.0          4.801         53.303
         2507.5          4.777         53.543
         2508.0          4.753         53.367
         2508.5          4.618         53.150
         2509.0          4.389         52.932
         2509.5          4.159         52.715
         2510.0          3.930         52.498
         2510.5          3.701         52.281
         2511.0          3.471         52.064
         2511.5          3.272         51.847
         2512.0          3.884         51.630
         2512.5          4.496         51.488
         2513.0          5.108         51.517
         2513.5          5.720         51.547
         2514.0          6.131         51.577
         2514.5          6.381         51.533
         2515.0          6.631         51.314
         2515.5          6.881         51.095
         2516.0          7.131         50.876
         2516.5          7.381         51.024
         2517.0          7.631         51.291
         2517.5          7.881         51.557
         2518.0          8.606         51.823
         2518.5          9.687         51.951
         2519.0         10.768         51.730
         2519.5         11.850         51.509
         2520.0         12.931         51.288
         2520.5         14.013         51.067
         2521.0         14.941         50.846
         2521.5         14.728         50.625
         2522.0         14.515         50.404
         2522.5         14.302         50.380
         2523.0         15.286         51.174
         2523.5         17.022         51.968
         2524.0         18.758         55.906
         2524.5         20.494         55.599
         2525.0         23.325         54.261
         2525.5         31.728         52.922
         2526.0         40.132         51.842
         2526.5         37.849         51.618
         2527.0         32.765         51.394
         2527.5         27.680         51.170
         2528.0         22.596         50.946
         2528.5         17.512         50.918
         2529.0         12.825         51.817
         2529.5         11.414         51.838
         2530.0         10.003         51.512
         2530.5          8.592         51.186
         2531.0          8.455         50.860
         2531.5          9.249         50.807
         2532.0         10.042         52.331
         2532.5         10.836         53.855
         2533.0         11.629         55.379
         2533.5         12.422         54.740
         2534.0         11.385         53.154
         2534.5          9.173         51.568
         2535.0          8.623         51.254
         2535.5          9.266         51.653
         2536.0          9.910         52.052
         2536.5         10.554         52.450
         2537.0         11.197         52.849
         2537.5         11.841         53.247
         2538.0         12.484         53.568
         2538.5         11.354         53.608
         2539.0          9.092         53.647
         2539.5          7.129         53.687
         2540.0          8.722         53.726
         2540.5         10.316         56.578
         2541.0         11.618         60.585
         2541.5         10.463         72.524
         2542.0          9.308         77.983
         2542.5          8.153         79.067
         2543.0          6.998         76.820
         2543.5          6.060         73.019
         2544.0          5.280         70.261
         2544.5          4.500         69.612
         2545.0          3.792         68.964
         2545.5          4.167         69.128
         2546.0          4.542         69.551
         2546.5          4.917         69.115
         2547.0          5.243         68.446
         2547.5          4.932         67.778
         2548.0          4.621         67.109
         2548.5          4.311         66.818
         2549.0          4.058         68.598
         2549.5          4.630         70.377
         2550.0          5.202         70.907
         2550.5          5.773         71.147
         2551.0          5.727         65.335
         2551.5          5.230         61.988
         2552.0          4.734         61.636
         2552.5          5.093         61.612
         2553.0          6.096         63.311
         2553.5          7.098         67.235
         2554.0          8.101         69.539
         2554.5          7.433         67.977
         2555.0          5.623         68.841
         2555.5          3.813         67.653
         2556.0          3.391         67.159
         2556.5          4.034         70.175
         2557.0          4.678         68.434
         2557.5          5.321         66.692
         2558.0          5.964         64.951
         2558.5          6.608         63.209
         2559.0          7.251         64.571
         2559.5          6.969         65.851
         2560.0          6.048         64.502
         2560.5          5.127         64.632
         2561.0          4.267         66.360
         2561.5          4.156         68.088
         2562.0          4.046         69.817
         2562.5          3.935         71.545
         2563.0          3.825         70.849
         2563.5          3.910         69.522
         2564.0          4.141         68.494
         2564.5          4.371         69.228
         2565.0          4.602         69.961
         2565.5          4.833         70.695
         2566.0          5.063         66.851
         2566.5          5.232         61.367
         2567.0          4.735         62.258
         2567.5          4.238         64.713
         2568.0          4.366         64.753
         2568.5          4.950         62.586
         2569.0          5.533         68.900
         2569.5          5.627         69.164
         2570.0          5.378         69.428
         2570.5          5.130         67.997
         2571.0          4.881         69.089
         2571.5          4.633         69.892
         2572.0          4.716         69.293
         2572.5          5.038         68.694
         2573.0          5.359         68.281
         2573.5          5.680         69.795
         2574.0          6.001         70.505
         2574.5          6.322         68.001
         2575.0          6.643         65.497
         2575.5          6.106         65.875
         2576.0          4.991         66.359
         2576.5          4.677         63.885
         2577.0          4.927         61.406
         2577.5          5.177         62.679
         2578.0          5.426         65.110
         2578.5          5.676         66.702
         2579.0          5.926         67.405
         2579.5          6.175         67.880
         2580.0          6.194         68.161
         2580.5          6.057         68.441
