#--------------------------------------------------#
#-------------------ENVERUS, INC.------------------#
#------------------WWW.ENVERUS.COM-----------------#
#------------------COPYRIGHT 2020------------------#
#--------------------------------------------------#
#THIS FILE MAY BE USED ONLY IN ACCORDANCE WITH A CURRENT SUBSCRIPTION AGREEMENT BETWEEN
#THE USER AND ENVERUS, INC. NO PART OF THIS FILE MAY BE REPRODUCED, USED, COPIED,
#MODIFIED, PROPAGATED, OR DISTRIBUTED EXCEPT IN ACCORDANCE WITH THE SUBSCRIPTION
#AGREEMENT. UNAUTHORIZED USE OR DISTRIBUTION OF ALL OR ANY PART OF THIS FILE MAY VIOLATE
#COPYRIGHT, TRADEMARK, AND/OR OTHER LAWS AND IS SUBJECT TO CIVIL AS WELL AS CRIMINAL
#SANCTIONS.
#--------------------------------------------------#
#THIS FILE IS PROVIDED "AS-IS" AND ALL WARRANTIES ARE EXPRESSLY DISCLAIMED, WHETHER
#EXPRESS, ORAL, IMPLIED, STATUTORY OR OTHERWISE, INCLUDING ANY IMPLIED WARRANTY OF FITNESS
#FOR A PARTICULAR PURPOSE, MERCHANTABILITY, TITLE OR NON-INFRINGEMENT, AND ANY WARRANTIES
#ARISING BY VIRTUE OF CUSTOM OF TRADE OR COURSE OF DEALING.  FURTHER, ENVERUS, INC.
#AND ITS LICENSORS DO NOT REPRESENT OR WARRANT THAT THIS FILE WILL MEET USER'S
#REQUIREMENTS OR ARE SUITABLE FOR USER'S NEEDS OR THAT THE DATA OR RESULTS PROVIDED IN
#CONJUNCTION THEREWITH ARE CORRECT, ACCURATE, TIMELY OR RELIABLE. THESE DISCLAIMERS SHALL
#APPLY REGARDLESS OF ANY FAILURE OF ESSENTIAL PURPOSE OF ANY LIMITED REMEDY.  SOME
#JURISDICTIONS DO NOT ALLOW THE EXCLUSION OF CERTAIN WARRANTIES SO SOME OF THE ABOVE
#EXCLUSIONS MAY NOT APPLY. IN NO EVENT SHALL ENVERUS, INC. OR ANY OF ITS AFFILIATES
#BE LIABLE UNDER ANY LEGAL THEORY, WHETHER IN TORT (INCLUDING WITHOUT LIMITATION
#NEGLIGENCE), CONTRACT, STRICT LIABILITY, STATUTORY OR OTHERWISE, FOR ANY SPECIAL,
#INCIDENTAL, CONSEQUENTIAL, EXEMPLARY, PUNITIVE OR INDIRECT DAMAGE OF ANY KIND, INCLUDING
#WITHOUT LIMITATION LOSS OF REVENUE, PROFITS, GOODWILL, USE, AND/OR DATA OR THE COST OF
#PROCUREMENT OF SUBSTITUTE GOODS OR SERVICES, EVEN IF APPRISED OF THE POSSIBILITY OF SUCH
#DAMAGES IN ADVANCE.
#--------------------------------------------------#

# EXPORTED FROM DI TRANSFORM
# DI TRANSFORM - A PRODUCT OF DRILLINGINFO, INC. - WWW.DRILLINGINFO.COM
#
~VERSION INFORMATION
 VERS.        2.0 : LAS ASCII STANDARD - VERSION 2.0
 WRAP.         NO : ONE LINE PER DEPTH STEP

~WELL INFORMATION
#MNEM.UNIT       DATA TYPE       INFORMATION
#---------       ---------       -----------
 STRT.FT           100 : START DEPTH
 STOP.FT         18040 : STOP DEPTH
 STEP.FT           0.5 : STEP LENGTH
 NULL.         -999.25 : NULL VALUE
 UWI.   42371302980000 : UNIQUE WELL ID
 API.   42371302980000 : WELL IDENTIFIER
 COMP.                 : COMPANY
 WELL.          DRD_55 : WELL NAME
 FLD.                  : FIELD NAME
 LOC.                  : WELL LOCATION
 CNTY.                 : COUNTY
 STAT.                 : STATE OR PROVINCE
 CTRY.                 : COUNTRY
 SRVC.                 : SERVICE COMPANY
 DATE.                 : DATE

~CURVE INFORMATION
#MNEM.UNIT       API CODE       CURVE DESCRIPTION
#---------       --------       -----------------
 DEPT.FT        : <MEASURED DEPTH>
 CAL.IN         : CALIPER
 DT.US/FT       : SONIC
 GR.GAPI        : GAMMA RAY

~PARAMETER INFORMATION
#MNEM.UNIT       VALUE       DESCRIPTION
#---------       -----       -----------

~A       DEPT         CAL          DT          GR
# ...
         3220     15.7278     51.0751      8.9967
       3220.5      15.728     51.0751      7.1974
         3221     15.7282     51.0751      5.8883
       3221.5     15.7284     51.1192      5.2666
         3222     15.7285     51.2433       4.878
       3222.5     15.7287     51.3185        5.45
         3223     15.7289     51.3698      6.5579
       3223.5     15.7291     51.4939      7.0899
         3224     15.7293     51.7582       7.598
       3224.5     15.7295     52.1925      8.2198
         3225     15.7297     52.3529      7.4187
       3225.5     15.7299     52.2921      5.8784
         3226     15.7301     52.2921       5.159
       3226.5     15.7303     52.1221      4.6509
         3227     15.7305     51.8118      4.4715
       3227.5     15.7307     51.6836      4.4715
         3228     15.7309     51.6836      4.7226
       3228.5      15.731     51.6836      5.1371
         3229     15.7312     51.6036      5.5515
       3229.5     15.7314     51.5619       5.966
         3230     15.7316     51.5619      6.3805
       3230.5     15.7318     51.4748      6.5041
         3231      15.732     51.3507      6.5041
       3231.5     15.7322     51.2266      6.5041
         3232     15.7324     51.1968      6.8189
       3232.5     15.7326     51.1968      7.2333
         3233     15.7328     51.1968      7.3171
       3233.5      15.733     51.1968      7.3171
         3234     15.7332      51.093      7.3171
       3234.5     15.7334     51.0751      7.6717
         3235     15.7336     51.0751      8.0862
       3235.5     15.7337     50.9641      8.6859
         3236     15.7339       50.84      10.254
       3236.5     15.7341     50.7159     11.7186
         3237     15.7343     50.7099     11.7886
       3237.5     15.7345     50.5895     12.1911
         3238     15.7347     50.5882     12.8166
       3238.5     15.7349     50.5847     14.1193
         3239     15.7351     50.4665     17.4054
       3239.5     15.7353     50.4665     19.9743
         3240     15.7355     50.4665     20.8033
       3240.5     15.7357     50.4665      20.998
         3241     15.7359     50.4665     16.2049
       3241.5     15.7361     50.4487     14.3414
         3242     15.7363     50.3448     13.8211
       3242.5     15.7364     50.3448     13.8211
         3243     15.7366     50.3698     13.9465
       3243.5     15.7368     50.4665      14.614
         3244      15.737     50.4665     15.3932
       3244.5     15.7372     50.4665     16.1761
         3245     15.7374     50.5011     17.9967
       3245.5     15.7376     50.6252     21.5593
         3246     15.7378     50.7099     26.1639
       3246.5      15.738     50.7099     33.2224
         3247     15.7382     50.6658     41.9176
       3247.5     15.7384     50.5882        40.5
         3248     15.7386     50.6371     27.8709
       3248.5     15.7388     50.7612     19.6718
         3249      15.739     50.8853     15.5434
       3249.5     15.7391     51.0094      14.447
         3250     15.7393     51.1335     13.7398
       3250.5     15.7395     51.2777     12.7037
         3251     15.7397     51.3378     11.9841
       3251.5     15.7399     51.3185     10.9125
         3252     15.7401     51.2505      9.1411
       3252.5     15.7403     51.1264      7.7459
         3253     15.7405     51.0023      6.5883
       3253.5     15.7407     50.8782      5.5958
         3254     15.7409     50.8316        6.32
       3254.5     15.7411     50.8316      7.1774
         3255     15.7413     50.9139      7.0423
       3255.5     15.7415      51.038      6.9106
         3256     15.7417     51.0751      6.6198
       3256.5     15.7418     51.1645      6.5041
         3257     15.7397     51.2886      6.1974
       3257.5     15.7367     51.3185      6.0976
         3258     15.7337     51.3185      6.5815
       3258.5     15.7307     51.2195      8.1949
         3259     15.7277     51.1968      9.8907
       3259.5     15.7247      51.093     10.2723
         3260     15.7217     50.9689     10.5154
       3260.5     15.7187     50.8448     10.7775
         3261     15.7157     50.7207     10.8053
       3261.5     15.7127     50.7099     10.8053
         3262     15.7097     50.8256     10.8053
       3262.5     15.7067     50.9497      7.6189
         3263     15.7037     50.9533      6.9169
       3263.5     15.7007     50.9533      6.5003
         3264     15.6977     50.9498      6.0859
       3264.5     15.6947     50.8316      5.6911
         3265     15.6917     50.8316      5.7325
       3265.5     15.6888      50.821       6.372
         3266     15.6858     50.6969       7.201
       3266.5     15.6828     50.5728      8.0041
         3267     15.6798     50.4665      8.7449
       3267.5     15.6768     50.4665     10.2293
         3268     15.6738     50.4665     11.7363
       3268.5     15.6708     50.4416     12.3567
         3269     15.6678     50.3448      11.921
       3269.5     15.6648     50.3448     10.6776
         3270     15.6618     50.3448      9.4341
       3270.5     15.6588     50.3448      8.4213
         3271     15.6558     50.3448      8.1301
       3271.5     15.6528     50.3448      8.1301
         3272     15.6498     50.3448      8.1301
       3272.5     15.6468     50.3008      8.2772
         3273     15.6438     50.2231      8.6141
       3273.5     15.6408     50.1499      9.3922
         3274     15.6378     49.9637     10.9646
       3274.5     15.6361     49.8044     12.2362
         3275     15.6361     49.6803     14.7683
       3275.5     15.6361     49.5562     18.8278
         3276     15.6361     49.5537     19.3112
       3276.5     15.6361     49.7093     17.5698
         3277     15.6361     49.8954      16.401
       3277.5     15.6361     49.9797     14.7431
         3278     15.6361     49.9094     13.6722
       3278.5     15.6361      49.858     14.5071
         3279     15.6361      49.858     15.8707
       3279.5     15.6361      49.858     16.7776
         3280     15.6361     49.9378     18.5398
       3280.5     15.6361     49.9797     20.5448
         3281       15.63     49.8951     21.4208
       3281.5      15.621      49.858     21.9806
         3282      15.612      49.858     23.1993
       3282.5      15.603      49.858     24.9565
         3283     15.5941     49.7168     26.8216
       3283.5     15.5851     49.5307     29.3316
         3284     15.5761      49.394     32.1909
       3284.5     15.5671     49.2699     34.7538
         3285     15.5957     49.3532      37.587
       3285.5     15.6316     49.3712     39.6025
         3286     15.6675     49.4797     34.9467
       3286.5     15.7035     49.4929     32.3133
         3287     15.7394     49.6061     30.0337
       3287.5     15.7754     49.7302     23.1199
         3288     15.7763     49.8543     16.2608
       3288.5     15.7753      49.858     14.2474
         3289     15.7744     49.8569     18.7063
       3289.5     15.7734     49.7329     19.5237
         3290     15.7725     49.6146     19.8407
       3290.5     15.7716     49.6064     18.2652
         3291     15.7706     49.4929     17.8153
       3291.5     15.7697     49.5059     16.9212
         3292     15.7688       49.63     15.4963
       3292.5     15.7678     49.7541     14.3419
         3293     15.7669     49.8782     13.7538
       3293.5     15.7659     50.0023     13.3393
         3294      15.765     50.1263     12.9249
       3294.5     15.7641     50.2231     12.5104
         3295     15.7631     50.1934     12.5919
       3295.5     15.7622     50.0693     14.5176
         3296     15.7613     49.9797     17.4995
       3296.5     15.7603     49.9429     20.6759
         3297     15.7594     49.8972     21.8202
       3297.5     15.7584     50.1046     20.9191
         3298     15.7575     50.5649     18.6865
       3298.5     15.7566     51.0925     16.3276
         3299     15.7556     51.7575     15.2842
       3299.5     15.7547     52.8743     14.8698
