#--------------------------------------------------#
#-------------------ENVERUS, INC.------------------#
#------------------WWW.ENVERUS.COM-----------------#
#------------------COPYRIGHT 2020------------------#
#--------------------------------------------------#
#THIS FILE MAY BE USED ONLY IN ACCORDANCE WITH A CURRENT SUBSCRIPTION AGREEMENT BETWEEN
#THE USER AND ENVERUS, INC. NO PART OF THIS FILE MAY BE REPRODUCED, USED, COPIED,
#MODIFIED, PROPAGATED, OR DISTRIBUTED EXCEPT IN ACCORDANCE WITH THE SUBSCRIPTION
#AGREEMENT. UNAUTHORIZED USE OR DISTRIBUTION OF ALL OR ANY PART OF THIS FILE MAY VIOLATE
#COPYRIGHT, TRADEMARK, AND/OR OTHER LAWS AND IS SUBJECT TO CIVIL AS WELL AS CRIMINAL
#SANCTIONS.
#--------------------------------------------------#
#THIS FILE IS PROVIDED "AS-IS" AND ALL WARRANTIES ARE EXPRESSLY DISCLAIMED, WHETHER
#EXPRESS, ORAL, IMPLIED, STATUTORY OR OTHERWISE, INCLUDING ANY IMPLIED WARRANTY OF FITNESS
#FOR A PARTICULAR PURPOSE, MERCHANTABILITY, TITLE OR NON-INFRINGEMENT, AND ANY WARRANTIES
#ARISING BY VIRTUE OF CUSTOM OF TRADE OR COURSE OF DEALING.  FURTHER, ENVERUS, INC.
#AND ITS LICENSORS DO NOT REPRESENT OR WARRANT THAT THIS FILE WILL MEET USER'S
#REQUIREMENTS OR ARE SUITABLE FOR USER'S NEEDS OR THAT THE DATA OR RESULTS PROVIDED IN
#CONJUNCTION THEREWITH ARE CORRECT, ACCURATE, TIMELY OR RELIABLE. THESE DISCLAIMERS SHALL
#APPLY REGARDLESS OF ANY FAILURE OF ESSENTIAL PURPOSE OF ANY LIMITED REMEDY.  SOME
#JURISDICTIONS DO NOT ALLOW THE EXCLUSION OF CERTAIN WARRANTIES SO SOME OF THE ABOVE
#EXCLUSIONS MAY NOT APPLY. IN NO EVENT SHALL ENVERUS, INC. OR ANY OF ITS AFFILIATES
#BE LIABLE UNDER ANY LEGAL THEORY, WHETHER IN TORT (INCLUDING WITHOUT LIMITATION
#NEGLIGENCE), CONTRACT, STRICT LIABILITY, STATUTORY OR OTHERWISE, FOR ANY SPECIAL,
#INCIDENTAL, CONSEQUENTIAL, EXEMPLARY, PUNITIVE OR INDIRECT DAMAGE OF ANY KIND, INCLUDING
#WITHOUT LIMITATION LOSS OF REVENUE, PROFITS, GOODWILL, USE, AND/OR DATA OR THE COST OF
#PROCUREMENT OF SUBSTITUTE GOODS OR SERVICES, EVEN IF APPRISED OF THE POSSIBILITY OF SUCH
#DAMAGES IN ADVANCE.
#--------------------------------------------------#

~VERSION INFORMATION
VERS. 2.0 : CWLS LOG ASCII STANDARD - VERSION 2.0
WRAP.  NO : ONE LINE PER DEPTH STEP
~WELL INFORMATION
#MNEMONIC     .UNIT              VALUE :DESCRIPTION
STRT       .FT                75 :START DEPTH
STOP       .FT                5648 :STOP DEPTH
STEP       .FT                   0.500 :STEP
NULL       .                  -999.990 :NULL
UWI        .              42371363570000 :UNIQUE WELL ID
API        .              42371363570000 :API NUMBER
COMP       .         APACHE CORPORATION :COMPANY
WELL       .        SCHLOSSER, FRED ESTATE -B-  13 :WELL
DATE       .                16-MAY-1992 :LOG DATE
~CURVE INFORMATION
#MNEMONIC     .UNIT      API CODE :CURVE DESCRIPTION
DEPTH       .FT                      :MEASURED DEPTH
DT.US/FT        UNKNOWN   :DT
GR.API        UNKNOWN   :GR
~A    DEPTH    DT    GR
# ...
 3704.5     67.392   3.789
 3705     67.269   3.101
 3705.5     65.186   2.412
 3706     65.285   2.091
 3706.5     66.202   2.705
 3707     67.119   3.319
 3707.5     66.462   3.941
 3708     65.585   4.639
 3708.5     64.707   5.337
 3709     65.287   5.378
 3709.5     66.543   5.199
 3710     66.433   5.02
 3710.5     65.951   4.841
 3711     65.756   4.662
 3711.5     66.483   4.972
 3712     66.862   5.386
 3712.5     66.551   5.801
 3713     66.24   5.846
 3713.5     65.929   5.364
 3714     65.424   4.882
 3714.5     64.736   4.4
 3715     64.523   3.833
 3715.5     65.519   3.197
 3716     66.514   2.561
 3716.5     67.251   2.721
 3717     66.039   2.907
 3717.5     64.826   3.094
 3718     63.614   3.281
 3718.5     65.08   3.742
 3719     66.608   4.231
 3719.5     65.576   4.72
 3720     66.379   5.208
 3720.5     67.133   5.689
 3721     67.632   5.493
 3721.5     68.132   5.296
 3722     67.364   5.1
 3722.5     65.838   4.903
 3723     63.269   4.707
 3723.5     63.787   4.51
 3724     65.634   4.314
 3724.5     66.119   4.259
 3725     66.603   4.257
 3725.5     67.471   4.256
 3726     66.338   4.336
 3726.5     65.185   5.234
 3727     63.794   5.559
 3727.5     63.652   4.993
 3728     64.964   4.426
 3728.5     65.411   3.86
 3729     65.222   3.523
 3729.5     65.597   3.394
 3730     67.022   4.457
 3730.5     68.446   5.797
 3731     69.871   6.027
 3731.5     69.065   5.77
 3732     67.928   5.452
 3732.5     66.792   4.689
 3733     63.043   3.926
 3733.5     65.176   3.465
 3734     66.781   3.259
 3734.5     65.523   3.265
 3735     66.829   3.589
 3735.5     68.134   3.878
 3736     67.317   3.502
 3736.5     65.326   3.127
 3737     63.725   2.752
 3737.5     66.398   4.481
 3738     67.149   5.656
 3738.5     67.198   5.105
 3739     66.672   4.554
 3739.5     66.147   4.004
 3740     65.707   3.453
 3740.5     67.068   2.902
 3741     68.455   2.85
 3741.5     69.187   2.802
 3742     69.275   2.754
 3742.5     69.363   2.706
 3743     69.445   2.864
 3743.5     69.196   3.547
 3744     68.947   4.23
 3744.5     68.698   4.858
 3745     68.449   4.938
 3745.5     68.423   5.018
 3746     69.089   5.098
 3746.5     69.756   5.178
 3747     70.348   5.258
 3747.5     69.98   5.339
 3748     69.612   5.419
 3748.5     69.244   5.499
 3749     68.876   5.579
 3749.5     68.508   5.659
 3750     68.22   5.547
 3750.5     68.087   5.154
 3751     67.955   4.761
 3751.5     71.998   4.368
 3752     72.595   3.975
 3752.5     73.592   3.581
 3753     74.589   3.484
 3753.5     74.461   3.449
 3754     72.403   3.413
 3754.5     70.645   3.513
 3755     69.259   3.697
 3755.5     67.873   3.882
 3756     66.486   4.066
 3756.5     65.79   4.251
 3757     71.974   4.435
 3757.5     70.14   4.619
 3758     69.348   4.955
 3758.5     69.872   5.406
 3759     70.397   5.856
 3759.5     68.64   6.306
 3760     68.197   5.489
 3760.5     69.566   4.601
 3761     70.935   3.713
 3761.5     72.917   3.228
 3762     72.016   3.147
 3762.5     69.714   3.067
 3763     67.412   3.481
 3763.5     72.168   4.09
 3764     70.558   4.699
 3764.5     71.825   5.308
 3765     73.092   5.87
 3765.5     73.536   6.288
 3766     70.549   6.705
 3766.5     69.693   6.45
 3767     70.339   6.121
 3767.5     70.985   5.792
 3768     70.167   5.446
 3768.5     68.811   5.098
 3769     69.089   4.75
 3769.5     71.033   4.403
 3770     67.955   4.055
 3770.5     68.605   4.554
 3771     69.256   5.781
 3771.5     69.907   7.009
 3772     70.558   7.625
 3772.5     70.222   7.996
 3773     65.648   7.486
 3773.5     51.312   6.976
 3774     48.228   6.304
 3774.5     46.828   5.469
 3775     49.723   4.634
 3775.5     50.971   4.469
 3776     52.22   5.01
 3776.5     52.544   5.551
 3777     52.645   6.093
 3777.5     52.536   6.031
 3778     52.403   5.877
 3778.5     52.271   5.722
 3779     51.765   5.567
 3779.5     51.111   5.79
 3780     50.583   6.285
 3780.5     50.187   6.779
 3781     49.893   7.273
 3781.5     49.893   7.768
 3782     49.894   8.262
 3782.5     49.789   8.757
 3783     49.524   8.053
 3783.5     49.8   7.323
 3784     50.209   6.592
 3784.5     50.608   6.472
 3785     50.982   6.884
 3785.5     51.355   7.296
 3786     51.728   7.709
 3786.5     51.271   8.121
 3787     49.806   8.533
 3787.5     49.969   8.225
 3788     50.413   7.912
 3788.5     50.857   7.6
 3789     50.105   7.345
 3789.5     49.348   7.471
 3790     49.67   7.597
 3790.5     50.15   7.723
 3791     49.825   7.849
 3791.5     49.5   7.975
 3792     49.174   8.102
 3792.5     49.503   8.228
 3793     49.836   8.244
 3793.5     49.914   8.119
 3794     49.683   7.995
 3794.5     49.452   7.87
 3795     49.221   7.745
 3795.5     49.219   7.621
 3796     49.35   7.719
 3796.5     49.48   8.562
 3797     49.611   9.404
 3797.5     49.724   9.909
 3798     49.821   9.43
 3798.5     49.919   8.952
 3799     49.887   8.474
 3799.5     49.586   8.616
 3800     49.014   8.894
 3800.5     49.311   9.171
 3801     49.608   9.448
 3801.5     49.906   9.564
 3802     50.02   8.55
 3802.5     50.012   7.535
 3803     50.004   6.521
 3803.5     49.995   6
 3804     49.92   6.058
 3804.5     49.45   6.117
 3805     48.98   6.175
 3805.5     48.511   6.409
 3806     47.957   6.68
 3806.5     48.441   6.952
 3807     48.925   6.624
 3807.5     49.409   5.933
 3808     49.406   5.242
 3808.5     49.302   5.286
 3809     49.198   5.797
 3809.5     49.095   5.536
 3810     48.991   5.195
 3810.5     48.887   4.854
 3811     48.783   4.513
 3811.5     48.741   4.58
 3812     48.711   5.252
 3812.5     48.647   5.925
 3813     48.499   6.597
 3813.5     48.351   6.256
 3814     48.203   5.916
 3814.5     48.091   5.575
 3815     48.188   5.234
 3815.5     48.286   4.893
 3816     48.383   5.365
 3816.5     47.888   5.979
 3817     47.856   6.06
 3817.5     48.032   5.937
 3818     48.208   5.814
 3818.5     48.359   5.691
 3819     48.412   6.126
 3819.5     48.464   8.466
 3820     49.266   10.534
 3820.5     50.088   10.752
 3821     50.91   10.97
 3821.5     51.733   11.061
 3822     50.328   10.364
 3822.5     46.984   9.667
 3823     47.316   8.97
 3823.5     47.938   8.273
 3824     48.5   7.575
 3824.5     49.036   7.346
 3825     48.777   8.072
 3825.5     47.66   8.798
 3826     46.909   8.893
 3826.5     47.272   8.806
 3827     47.487   8.72
 3827.5     47.625   8.633
 3828     48.045   8.546
 3828.5     48.628   8.46
 3829     48.172   8.373
 3829.5     47.716   8.287
 3830     47.26   8.2
 3830.5     46.804   8.113
 3831     52.298   7.72
 3831.5     61.171   7.023
 3832     72.756   6.326
 3832.5     75.553   5.629
 3833     74.855   4.932
 3833.5     72.346   4.235
 3834     69.837   4.104
 3834.5     67.329   4.223
 3835     65.57   4.342
 3835.5     65.993   4.556
 3836     47.627   6.257
 3836.5     44.676   7.288
 3837     46.866   7.846
 3837.5     46.613   8.222
 3838     46.36   8.029
 3838.5     46.273   7.837
 3839     47.405   7.644
 3839.5     48.238   7.451
 3840     48.007   7.516
 3840.5     47.775   9.853
 3841     47.544   9.61
 3841.5     47.338   8.881
 3842     47.429   8.151
 3842.5     47.52   7.421
 3843     49   6.692
 3843.5     51.679   6.849
 3844     54.357   7.113
 3844.5     65.611   7.377
 3845     58.315   7.642
 3845.5     51.231   7.906
 3846     45.35   8.433
 3846.5     45.847   9.17
 3847     46.251   9.907
 3847.5     46.654   10.266
 3848     50.891   8.57
 3848.5     62.011   6.875
 3849     73.543   5.179
 3849.5     67.715   3.549
 3850     61.887   3.975
 3850.5     53.928   6.74
 3851     45.09   10.273
 3851.5     45.272   12.701
 3852     45.454   13.869
 3852.5     44.81   15.036
 3853     43.913   15.436
 3853.5     43.017   13.965
 3854     43.634   12.493
 3854.5     44.427   11.135
 3855     45.22   9.828
 3855.5     56.179   8.521
 3856     59.922   7.214
 3856.5     59.034   5.907
 3857     58.147   4.6
 3857.5     59.524   3.626
 3858     60.931   3.116
 3858.5     59.879   2.607
 3859     61.151   2.097
 3859.5     58.486   1.587
