~Version Information Block
 VERS.                2.00:     CWLS LOG ASCII STANDARD - VERSION 2.000000
 WRAP.                  NO:     One Line Per Depth Step
#
~Well Information Block
#MNEM.UNIT                     Data                         Information
#----------   ------------------------------------------   ----------------
 STRT.FT                                     5200.0000:     START DEPTH
 STOP.FT                                    11550.0000:     STOP DEPTH
 STEP.FT                                        0.5000:     STEP
 NULL.                                       -999.2500:     NULL VALUE
 COMP.               AMERICAN QUASAR PETROLEUM COMPANY:     COMPANY
 WELL.                               MCCARTER # 1 - 31:     WELL
 FLD .                                         WILDCAT:     FIELD
 LOC .                                                :     LOCATION
 CNTY.                                          REEVES:     COUNTY
 STAT.                                           TEXAS:     STATE
 CTRY.                                             USA:     COUNTRY
 SRVC.                                                :     SERVICE COMPANY
 DATE.                                      08/07/2015:     DATE
 API .                                  42389311800000:     API NUMBER
 UWI .                                  42389311800000:     UWI NUMBER
 TVD .                                              NO:     TVD flag
 WSTA.                                             LOC:     Well status
#
~Curve Information Block
#MNEM.UNIT       API CODE      Curve Description
#----------    -------------   -------------------
 DEPT.FT                   :   Depth in Feet
 GR  .GAPI                 :   Gamma Ray
 LLD .OHMM                 :   Latero-Log Deep (Resistivity)
 CALI.IN                   :   Caliper
 DT  .US/F                 :   Delta-T
#
~Parameter Information Block
#MNEM.UNIT            Value               Description
#----------    --------------------    -------------------
 RUN .                         ONE:    Run Number
 PDAT.                          GL:    Permanent Datum
 EPD .FT                          :    Elevation Of Perm. Datum
 LMF .               KELLY BUSHING:    Log Measured From
 EKB .FT                          :    Elevation Of Kelly Bushing
 DF .FT                           :    Elevation Of Derrick Floor
 GL .FT                           :    Elevation Of Ground Level
 TD  .FT                          :    Total Depth
 CSGD.FT                          :    Casing Bottom (Driller) 1
 CSGL.FT                          :    Casing Bottom (Logger) 1
 MUD .                            :    Drilling Fluid Type
 MUDV .CP                         :    Drilling Fluid Viscosity
 MUDD .LB/USG                     :    Drilling Fluid Density
 FL .ML/30MIN                     :    Drilling Fluid Loss
 PH.                              :    Drilling Fluid Ph
 MUDS .                           :    Mud Sample Source
 RM .OHMM                         :    Resistivity Of Mud Sample
 RMT .DEGF                        :    Mud Sample Temperature
 RMF .OHMM                        :    Mud Filtrate Resistivity
 RMFT.DEGF                        :    Mud Filtrate Sample Temperature
 RMC .OHMM                        :    Mud Cake Resistivity
 RMCT.DEGF                        :    Mud Cake Sample Temperature
 RMB .OHMM                        :    Mud Resistivity At Bht
 TMAX .DEGF                       :    Bottom Hole Temperature    
#
~Other Information Block
<DescLogPlotStart>   NEURALOG PLOT DEFINITION
PLOTDEFVERSION: 3
LASFILE: E:\Nair Innovations\Texas - NII\Shivam\42389311800000\42389311800000_G
DEPTHSCALE: 239.999996
RESOLUTION: 200
DEPTHLABELFREQ: 100.000000
HEAVYGRIDFREQ: 100.000000
MEDIUMGRIDFREQ: 50.000000
LIGHTGRIDFREQ: 10.000000
#
#   TRACK 1
#
STARTTRACK: 
 LEFTX: 0.500000 inch
 RIGHTX: 3.000000 inch
 SCALETYPE: Linear
 NUMCHARTDIVISIONS: 10
CURVE: GR    0.000000   125.000000 (0,0,255)      Solid             2     Y    
BACKUP: 125.000000 250.000000 (0,0,255)      Solid             2    
CURVE: CALI  6.000000   16.000000  (0,0,255)      Solid             2     N    
ENDTRACK: 
#
#   TRACK 2
#
STARTTRACK: 
 LEFTX: 3.500000 inch
 RIGHTX: 8.500000 inch
 SCALETYPE: Log
 NUMCYCLES: 4
 STARTCYCLE: 2
CURVE: LLD   0.200000   2000.000000 (0,131,131)    Solid             2     Y   
BACKUP: 2000.000000 20000000.000000 (0,131,131)    Solid             2    
ENDTRACK: 
#
#   TRACK 3
#
STARTTRACK: 
 LEFTX: 3.500000 inch
 RIGHTX: 8.500000 inch
 SCALETYPE: Linear
 NUMCHARTDIVISIONS: 10
CURVE: DT    100.000000 40.000000  (0,131,131)    Solid             2     Y    
BACKUP: 160.000000 100.000000 (0,131,131)    Solid             2    
BACKUP: 40.000000  -20.000000 (0,131,131)    Solid             2    
ENDTRACK: 
<DescLogPlotEnd>
<DepthTrack type='Reference' track='1' Label='0' color='0' hor='0' />
<Reference font='144,0,-900,0,500,0,16777216,Arial' />
~A DEPTH     GR               LLD              CALI             DT              
# ...
    5596.000 31.98461667      1.69389196       12.94505930      71.37862138     
    5596.500 35.14040027      1.68284205       12.94549020      72.39377289     
    5597.000 37.92161765      1.66985962       12.94592110      73.29670330     
    5597.500 38.77361021      1.66291356       12.94635200      73.71628372     
    5598.000 37.45933318      1.75759080       12.94678290      73.29670330     
    5598.500 35.99966496      1.94162012       12.94721380      72.77642358     
    5599.000 35.46146357      2.19304313       12.94764470      72.33766234     
    5599.500 37.63708346      2.51901293       12.94807559      71.49850150     
    5600.000 42.57450320      2.84129801       12.94850649      70.12904816     
    5600.500 49.08395339      3.23883417       12.94893739      69.88353628     
    5601.000 51.26057093      3.54427156       12.94936829      69.64611343     
    5601.500 48.85975639      3.12606448       12.94979919      69.81830669     
    5602.000 44.89990174      2.61374046       12.95023009      70.25174825     
    5602.500 39.97626726      2.29535379       12.95066099      70.73830016     
    5603.000 35.12490646      1.99552904       12.95109189      71.24782463     
    5603.500 33.43475635      1.69389196       12.95152279      71.98834722     
    5604.000 34.45716518      1.55888315       12.95195369      72.88127741     
    5604.500 36.56834005      1.49027091       12.95238459      73.78451036     
    5605.000 35.60765981      1.44750618       12.95281548      74.56640034     
    5605.500 34.95127074      1.47534791       12.95324638      74.30248881     
    5606.000 35.05970613      1.47449759       12.95367728      73.71628372     
    5606.500 35.18132780      1.46818065       12.95410818      73.21334915     
    5607.000 35.26399450      1.46136079       12.95453908      73.17682318     
    5607.500 36.69666378      1.44793623       12.95496998      73.85114885     
    5608.000 37.25524312      1.43463499       12.95540088      74.71278721     
    5608.500 38.56858937      1.62478757       12.95583178      75.08928571     
    5609.000 41.02756957      1.83744856       12.95626268      75.28071928     
    5609.500 43.50047571      2.07794377       12.95669358      73.65634366     
    5610.000 45.41029240      2.23422130       12.95712447      72.82640436     
    5610.500 47.58540306      2.35616852       12.95755537      72.54837470     
    5611.000 45.38233499      2.47294447       12.95798627      72.26291420     
    5611.500 39.07118688      2.13346788       12.95841717      72.86701302     
    5612.000 34.75405403      2.03725798       12.95884807      73.12246317     
    5612.500 33.80305919      1.92890597       12.95927897      73.54695305     
    5613.000 36.16363485      1.83364207       12.95970987      73.95604396     
    5613.500 38.36091673      1.75759080       12.96014077      74.00362138     
    5614.000 37.85358241      1.72544746       12.96057167      74.06633367     
    5614.500 36.88653348      1.73523286       12.96100257      73.71012321     
    5615.000 35.98422723      1.77388633       12.96143346      73.29670330     
    5615.500 37.70035167      1.87684378       12.96186436      71.83288140     
    5616.000 38.74957642      2.02881488       12.96229526      71.05837020     
    5616.500 38.72635559      2.27873237       12.96272616      70.28385900     
    5617.000 38.51017502      2.55953336       12.96315706      70.06122496     
    5617.500 38.53142868      2.87528275       12.96358796      69.64359325     
    5618.000 38.69520131      3.26124703       12.96401886      69.21377194     
    5618.500 40.91236865      3.45952695       12.96444976      68.15234765     
    5619.000 44.39670941      3.97137764       12.96488066      67.60239760     
    5619.500 51.02879743      4.59066428       12.96531156      67.48251748     
    5620.000 51.98489565      5.28162905       12.96574246      66.69580420     
    5620.500 51.74539647      6.13973914       12.96617335      65.81730769     
    5621.000 51.18254478      7.12825862       12.96660425      64.91008991     
    5621.500 54.48823140      8.27153106       12.96703515      64.72527473     
    5622.000 72.07050159      9.60920956       12.96746605      66.57142857     
    5622.500 77.59921112      13.58239567      12.96789695      70.11051449     
    5623.000 77.80305049      19.19299177      12.96832785      71.25874126     
    5623.500 78.60360491      27.09324512      12.96875875      71.49850150     
    5624.000 81.05447314      36.09207493      12.96918965      72.27547453     
    5624.500 90.10267398      39.77472173      12.96962055      72.68962288     
    5625.000 92.08918301      43.62217848      12.97005145      72.87677387     
    5625.500 96.94993591      52.95118541      12.97048234      72.93822008     
    5626.000 99.38791291      84.57868314      12.97091324      73.29887170     
    5626.500 99.35622767      131.74996655     12.97134414      73.21407164     
    5627.000 96.93827132      172.81566302     12.97177504      73.17682318     
    5627.500 93.47954785      207.52100395     12.97220594      71.07480020     
    5628.000 86.31297482      199.83702434     12.97263684      68.34895105     
    5628.500 76.81585589      191.50375334     12.97306774      65.62310190     
    5629.000 69.77945703      174.14449698     12.97349864      62.89725275     
    5629.500 64.16277010      135.73546101     12.97392954      62.02797203     
    5630.000 63.53461919      97.15000366      12.97436044      61.51575697     
    5630.500 65.91224911      81.04746107      12.97479133      61.32408501     
    5631.000 69.00777656      67.93477165      12.97522223      61.10489510     
    5631.500 76.83899442      61.51285259      12.97565313      60.55269730     
    5632.000 89.02201068      52.95118541      12.97608403      60.42817183     
    5632.500 105.67493924     39.83024493      12.97651493      60.45829171     
    5633.000 109.61761723     29.49964570      12.97694583      61.19280719     
    5633.500 110.96576954     22.65365134      12.97737673      62.44755245     
    5634.000 102.13218241     22.18763060      12.97780763      63.36428077     
    5634.500 91.96240206      21.71685412      12.97823853      63.44704976     
    5635.000 100.41158061     21.43335296      12.97866943      63.03198746     
    5635.500 99.21250159      23.50554235      12.97910033      61.60239760     
    5636.000 113.71754329     22.07172409      12.97953122      61.42857143     
    5636.500 128.19357242     20.22326000      12.97996212      64.66224952     
    5637.000 126.71118164     16.47470212      12.98039302      67.23129811     
    5637.500 125.80823238     11.41281352      12.98082392      69.80034671     
    5638.000 124.90969630     7.90620137       12.98125482      70.71928072     
    5638.500 128.89345417     5.47700354       12.98168572      69.86963037     
    5639.000 55.61795693      3.92297162       12.98211662      69.94005994     
    5639.500 38.80109087      3.35335007       12.98254752      69.06268731     
    5640.000 41.11447939      3.20072598       12.98297842      68.55810856     
    5640.500 41.50754151      3.20184276       12.98340932      68.18997669     
    5641.000 43.66069915      3.20153710       12.98384021      68.56143856     
    5641.500 46.35900612      3.17128531       12.98427111      69.39730270     
    5642.000 48.43236775      3.26178135       12.98470201      69.44055944     
    5642.500 49.38256425      3.75960186       12.98513291      68.77122877     
    5643.000 50.31283634      4.23165299       12.98556381      68.36346511     
    5643.500 53.21862665      4.99994332       12.98599471      68.82817183     
    5644.000 60.25359650      5.73388104       12.98642561      70.04595405     
    5644.500 63.07760307      5.72946155       12.98685651      71.36213786     
    5645.000 64.72742213      5.78031944       12.98728741      71.67832168     
