~Version Information Block
 VERS.                2.00:     CWLS LOG ASCII STANDARD - VERSION 2.000000
 WRAP.                  NO:     One Line Per Depth Step
#
~Well Information Block
#MNEM.UNIT                     Data                         Information
#----------   ------------------------------------------   ----------------
# Enverus has updated the API/UWI.  The previous names are renamed to  PREV_API / PREV_UWI
API.                             42-371-39483-90-00 : API (14 Digits with Dashes)
UWI.                                 42371394839000 : UNIQUE WELL ID

 STRT.FT                                    10010.0000:     START DEPTH
 STOP.FT                                    11812.0000:     STOP DEPTH
 STEP.FT                                        0.5000:     STEP
 NULL.                                       -999.2500:     NULL VALUE
 COMP.                           PATRIOT RESOURCES INC:     COMPANY
 WELL.                        ROOSTERFISH UNIT 22NE 1H:     WELL
 FLD .                             WOLFBONE TREND AREA:     FIELD
 LOC .                                                :     LOCATION
 SEC .                                              22:     SECTION
 CNTY.                                          PEACOS:     COUNTY
 STAT.                                           TEXAS:     STATE
 CTRY.                                           U.S.A:     COUNTRY
 SRVC.                                    SCHLUMBERGER:     SERVICE COMPANY
 DATE.                                      03/18/2017:     DATE
PREV_APII .                                  42371394830000:     API NUMBER
 PREV_UWI .                                  42371394830000:     UWI NUMBER
 TVD .                                              NO:     TVD flag
 WSTA.                                             LOC:     Well status
#
~Curve Information Block
#MNEM.UNIT       API CODE      Curve Description
#----------    -------------   -------------------
 DEPT.FT                   :   Depth in Feet
 ECGR.GAPI     35 310 01 01:   Environmentally Corrected Gamma Ray
 CALI.IN       70 280 01 01:   Caliper
 TENS.LBS                  :   Tension
 SPHI_476.V/V  61 890 01 01:   Sonic Porosity 47.6 Matrix
 DT  .US/F     60 520 08 01:   Delta-T
 DTSM.US/F                 :   Delta-T Shear Measurement
 STIT.FT/H                 :   STIT
#
~Parameter Information Block
#MNEM.UNIT            Value               Description
#----------    --------------------    -------------------
 RUN .                         ONE:    Run Number
 PDAT.                          GL:    Permanent Datum
 EPD .FT                        25:    Elevation Of Perm. Datum
 LMF .               KELLY BUSHING:    Log Measured From
 EKB .FT                          :    Elevation Of Kelly Bushing
 DF .FT                           :    Elevation Of Derrick Floor
 GL .FT                         25:    Elevation Of Ground Level
 TD  .FT                     18979:    Total Depth
 CSGD.FT                      5100:    Casing Bottom (Driller) 1
 CSGL.FT                     18979:    Casing Bottom (Logger) 1
 MUD .                   OIL BASED:    Drilling Fluid Type
 MUDV .CP                      102:    Drilling Fluid Viscosity
 MUDD .LB/USG                 13.0:    Drilling Fluid Density
 FL .ML/30MIN                     :    Drilling Fluid Loss
 PH.                           8.8:    Drilling Fluid Ph
 MUDS .                           :    Mud Sample Source
 RM .OHMM                         :    Resistivity Of Mud Sample
 RMT .DEGF                        :    Mud Sample Temperature
 RMF .OHMM                        :    Mud Filtrate Resistivity
 RMFT.DEGF                        :    Mud Filtrate Sample Temperature
 RMC .OHMM                        :    Mud Cake Resistivity
 RMCT.DEGF                        :    Mud Cake Sample Temperature
 RMB .OHMM                        :    Mud Resistivity At Bht
 TMAX .DEGF                    152:    Bottom Hole Temperature
#
~Other Information Block
<DescLogPlotStart>   NEURALOG PLOT DEFINITION
PLOTDEFVERSION: 3
LASFILE: D:\nds\projects\poojawells\December data\PoojaWells Digitizing_Cassidy
DEPTHSCALE: 240.000000
RESOLUTION: 144
DEPTHLABELFREQ: 100.000000
HEAVYGRIDFREQ: 100.000000
MEDIUMGRIDFREQ: 50.000000
LIGHTGRIDFREQ: 10.000000
#
#   TRACK 1
#
STARTTRACK: 
 LEFTX: 0.500000 inch
 RIGHTX: 3.000000 inch
 SCALETYPE: Linear
 NUMCHARTDIVISIONS: 10
CURVE: ECGR  0.000000   150.000000 (0,0,255)      Solid             2     Y    
BACKUP: 150.000000 300.000000 (0,0,255)      Solid             2    
CURVE: CALI  6.000000   16.000000  (0,131,131)    Dot               2     Y    
BACKUP: -4.000000  6.000000   (0,131,131)    Dot               2    
CURVE: TENS  10000.000000 0.000000   (255,0,255)    Short_Dash        2     N  
ENDTRACK: 
#
#   TRACK 2
#
STARTTRACK: 
 LEFTX: 3.500000 inch
 RIGHTX: 8.500000 inch
 SCALETYPE: Linear
 NUMCHARTDIVISIONS: 10
CURVE: SPHI_476 0.300000   -0.100000  (255,0,0)      Solid             2     N 
CURVE: DT    140.000000 40.000000  (255,131,0)    Dot               2     N    
CURVE: DTSM  240.000000 40.000000  (255,255,0)    Short_Dash        2     N    
ENDTRACK: 
#
#   TRACK 3
#
STARTTRACK: 
 LEFTX: 8.500000 inch
 RIGHTX: 9.256944 inch
 SCALETYPE: Linear
 NUMCHARTDIVISIONS: 10
CURVE: STIT  0.000000   50.000000  (0,0,255)      Solid             2     N    
ENDTRACK: 
<DescLogPlotEnd>
~A DEPTH     ECGR             CALI             TENS             SPHI_476             DT               DTSM             STIT            
# ...
   10620.000 106.80911684     8.26115008       4343.57541899    0.26765804       85.22980501      138.90900650     0.22935780      
   10620.500 116.85613483     8.26114472       4343.53637129    0.26440973       84.67827298      138.74651811     0.22935780      
   10621.000 124.67612342     8.26005013       4343.49832822    0.26004926       84.08077994      137.71587744     0.22935780      
   10621.500 118.58754703     8.25412428       4343.68770718    0.25717200       83.69777159      136.79665738     0.22935780      
   10622.000 107.53091131     8.24818592       4343.38140947    0.25586912       83.50974930      136.52506964     0.22935780      
   10622.500 99.37342773      8.24224630       4343.72429156    0.25889597       84.01114206      136.27437326     0.22935780      
   10623.000 98.12437827      8.23622276       4372.20670391    0.26193227       84.49860724      136.02367688     0.22935780      
   10623.500 100.72091354     8.22848219       4399.44134078    0.26436031       84.77344475      138.21727019     0.22935780      
   10624.000 98.34727222      8.21691293       4373.10454908    0.26619019       85.04085422      138.91922006     0.22935780      
   10624.500 108.69546378     8.20587124       4343.57541899    0.26806717       85.30826370      138.64703542     0.22935780      
   10625.000 128.61251881     8.21228928       4333.79888268    0.27014890       85.61281337      139.36331078     0.22935780      
   10625.500 143.57083840     8.21941205       4323.74301676    0.26996319       85.61281337      140.01392758     0.22935780      
   10626.000 135.15245669     8.22657396       4321.22905028    0.26746938       85.31197772      140.51532033     0.22935780      
   10626.500 120.27829249     8.23376310       4349.96009577    0.26471061       84.81429898      140.97493036     0.22935780      
   10627.000 107.93698625     8.24097009       4371.50837989    0.26178957       84.33983287      140.13927577     0.22935780      
   10627.500 111.71127567     8.24814683       4371.50837989    0.25853862       84.08077994      140.52924791     0.22935780      
   10628.000 105.68600550     8.25518431       4371.50837989    0.25442753       83.41457753      139.72144847     0.22935780      
   10628.500 100.17740341     8.25972917       4358.58938547    0.25130646       82.96657382      138.05013928     0.22935780      
   10629.000 94.73035493      8.25035943       4346.01955307    0.25174375       82.96657382      136.51810585     0.22935780      
   10629.500 93.65523781      8.24118869       4351.67597765    0.25128544       82.92479109      136.51810585     0.22935780      
   10630.000 98.34201190      8.23350276       4361.73184358    0.24966793       82.68802228      136.51810585     0.22935780      
   10630.500 103.81787994     8.23748398       4371.31048556    0.24736939       82.35376045      136.51810585     0.22935780      
   10631.000 109.37774329     8.24122177       4354.50499218    0.24574612       82.43268338      136.51810585     0.22935780      
   10631.500 111.80269803     8.24493306       4343.39225683    0.25200975       83.26833798      136.51810585     0.22935780      
   10632.000 104.14438772     8.24865354       4343.63310165    0.25806841       83.98050139      137.21050537     0.22935780      
   10632.500 97.55360960      8.25239407       4343.60224525    0.26357591       84.49860724      138.18941504     0.22935780      
   10633.000 90.96886475      8.25616159       4354.39944134    0.26908877       85.39594111      139.02506964     0.22935780      
   10633.500 91.00442618      8.25999869       4366.96927374    0.27342277       86.14533836      139.36861653     0.22935780      
   10634.000 97.34470968      8.26120767       4364.36995655    0.27761670       86.73521219      139.94428969     0.22935780      
   10634.500 104.07938957     8.26123548       4353.19677219    0.28203343       87.32508602      141.78852452     0.22935780      
   10635.000 119.60306429     8.26123894       4343.57541899    0.28704735       87.91495986      142.86943007     0.22935780      
   10635.500 127.13844377     8.26122949       4374.80954799    0.29118384       88.50483369      143.65612070     0.22935780      
   10636.000 129.30554707     8.26121540       4402.23463687    0.29350975       88.84998010      144.11601589     0.22935780      
   10636.500 118.64015515     8.26119922       4427.37430168    0.29342618       88.92160764      144.29367469     0.22935780      
   10637.000 116.98127203     8.26120046       4380.68635275    0.29142216       88.69080780      143.76044568     0.22935780      
   10637.500 116.70832497     8.26112603       4343.57541899    0.28942124       88.34416589      144.34540390     0.22935780      
   10638.000 117.20895637     8.25250706       4353.98679533    0.28742971       88.06561436      143.91364903     0.22935780      
   10638.500 117.11000891     8.24253541       4363.34823927    0.28538669       87.75766017      142.64623955     0.22935780      
   10639.000 112.94188496     8.23360300       4371.27735666    0.28229292       87.32789495      142.64623955     0.22935780      
   10639.500 108.28628982     8.23731357       4356.06058071    0.27851671       86.89812973      142.57103064     0.22935780      
   10640.000 104.57199066     8.24102360       4343.51144857    0.27569638       86.46836450      142.27019499     0.22935780      
   10640.500 104.75409567     8.24472460       4343.53262327    0.27506035       86.27205200      141.96935933     0.22935780      
   10641.000 109.85087973     8.24844165       4343.59343548    0.27576602       86.44846797      141.33704735     0.22935780      
   10641.500 113.24933298     8.25218975       4352.73822746    0.27346797       86.10376045      140.33426184     0.22935780      
   10642.000 113.60596281     8.25598232       4362.86701290    0.26954735       85.53698545      139.33147632     0.22935780      
   10642.500 115.18550043     8.25992248       4371.50936522    0.26527400       84.93105807      138.46796657     0.22935780      
   10643.000 119.19061539     8.25810698       4371.53656492    0.26236411       84.45480358      137.32590529     0.22935780      
   10643.500 120.47495020     8.25281511       4371.50837989    0.26104214       84.32172656      136.67827298     0.22935780      
   10644.000 113.36539375     8.24748727       4371.50837989    0.26011354       84.11772120      136.42757660     0.22935780      
   10644.500 105.64215674     8.24216885       4371.50837989    0.25957321       84.12509785      136.21676374     0.22935780      
   10645.000 99.91664790      8.23695814       4371.50837989    0.26019105       84.18136800      136.12560142     0.22935780      
   10645.500 96.91645883      8.23617781       4371.50837989    0.25957686       84.22005571      136.03443910     0.22935780      
   10646.000 93.92324305      8.24776569       4369.55307263    0.25974121       84.06220984      135.96100279     0.22935780      
   10646.500 91.19349147      8.25923761       4359.49720670    0.25733122       83.72794800      136.01439183     0.22935780      
   10647.000 91.20691908      8.25676169       4349.44134078    0.25683230       83.81337047      136.09795729     0.22935780      
   10647.500 93.52416202      8.25160118       4343.57541899    0.26112701       84.49860724      136.18152275     0.22935780      
   10648.000 95.04192684      8.24628610       4343.57541899    0.26456638       84.85840297      136.64809656     0.22935780      
   10648.500 97.71723457      8.24089112       4343.57541899    0.26743867       85.19498607      137.98514392     0.22935780      
   10649.000 94.40471078      8.23525119       4352.79329609    0.26742170       85.19498607      138.78830084     0.22935780      
   10649.500 96.70018634      8.23904905       4362.84916201    0.26740566       85.19498607      139.30362117     0.22935780      
   10650.000 103.07332263     8.25028762       4371.50837989    0.26415970       84.84679666      139.10863510     0.22935780      
