###############################################
##         ENVERUS                           ##
##         ESS - Open Hole                   ##
##         PERMIAN / DELAWARE                ##
##         Nov 04 2023  V4.0                 ##
##         42-389-30075-00-00                ##
###############################################
## Copyright 2017-2023  ENVERUS.  All Rights Reserved. 
## Confidential - Property of ENVERUS, use governed by terms and 
## conditions found within the existing Information Services Subscription Agreement 
## (as may be amended, the “ISSA”) between Customer and ENVERUS. 
## 
~VERSION INFORMATION
# MNEM.UNIT                               DATA : DESCRIPTION OF MNEMONIC
#-----.-----     ----------------------------- : -----------------------------
VERS.                                     2.00 : CWLS LOG ASCII STANDARD - VERSION 2.00
WRAP.                                       NO : MULTIPLE LINES PER DEPTH STEP
VEND.                                  ENVERUS : VENDOR
TYPE.                          ESS - OPEN HOLE : ENVERUS ESSENTIAL CURVES – ACCESSIBLE THROUGH ENVERUS PRISM(TM)
DOC.                                  32306518 : ENVERUS HEADER RAW DOCUMENT ID
#___________________________________________________________________________________________________ 
~WELL INFORMATION 
# kPY+8M9YT4rQMtoZY4hkcKqQFbcx8dAfbukAxGfLCr0mY2TilAra5+x7Ygngqds2nYZXTdz9AGmqNniTAH+qTQ== 
# MNEM.UNIT                                              DATA : DESCRIPTION OF MNEMONIC 
#-----.-----                    ----------------------------- : ----------------------------- 
CNTY.                                                  REEVES : COUNTY 
STATE.                                                  TEXAS : STATE 
CNTRY.                                                    USA : COUNTRY 
API.                                             42-389-30075 : API (10 Digit) 
API_14.                                    42-389-30075-00-00 : API (14 Digits) 
API_14_std.                                 42-389-30075-0000 : API (14 Digits Standard) 
UWI.                                           42389300750000 : UNIQUE WELL ID 
WELL.                                        CAMPBELL STATE 1 : WELL NAME
STRT.FT                                                   5.0 : START DEPTH
STOP.FT                                               20980.0 : STOP DEPTH
STEP.FT                                                   0.5 : STEP BETWEEN DEPTHS
NULL.                                                 -999.25 : NULL VALUE
#___________________________________________________________________________________________________ 
~CURVE INFORMATION 
# MNEM.UNIT           : CURVE DESCRIPTION 
#-----.-----          : ----------------------------- 
 DEPT.FT               : MEASURED DEPTH 
 CALI.IN               : CALIPER (CAL - CAL) 
 GR.API                : GAMMA RAY (GR) 
 DT.US/FT              : SONIC DELTA TRANSIT TIME (DT) 
 NPHI.V/V              : NEUTRON POROSITY (NPHI) 
 #___________________________________________________________________________________________________ 
~A         DEPT           CALI             GR             DT           NPHI
# ...
        17866.0          6.726         23.036       -999.250        0.01445
        17866.5          6.727         23.368       -999.250        0.01485
        17867.0          6.728         23.272       -999.250        0.01525
        17867.5          6.729         22.113       -999.250        0.01565
        17868.0          6.730         20.953       -999.250        0.01605
        17868.5          6.731         19.794       -999.250        0.01645
        17869.0          6.732         18.634       -999.250        0.01686
        17869.5          6.733         17.474       -999.250        0.01726
        17870.0          6.734         17.511       -999.250        0.01766
        17870.5          6.735         19.099       -999.250        0.01806
        17871.0          6.736         20.687       -999.250        0.01846
        17871.5          6.737         22.275       -999.250        0.01804
        17872.0          6.738         23.864       -999.250        0.01739
        17872.5          6.739         24.555       -999.250        0.01675
        17873.0          6.740         23.652       -999.250        0.01610
        17873.5          6.741         22.748       -999.250        0.01545
        17874.0          6.742         21.844       -999.250        0.01481
        17874.5          6.743         20.940       -999.250        0.01442
        17875.0          6.744         20.036       -999.250        0.01460
        17875.5          6.745         19.938       -999.250        0.01479
        17876.0          6.750         20.517       -999.250        0.01497
        17876.5          6.757         21.097       -999.250        0.01516
        17877.0          6.764         21.676       -999.250        0.01535
        17877.5          6.771         22.255       -999.250        0.01553
        17878.0          6.778         22.834       -999.250        0.01572
        17878.5          6.785         21.849       -999.250        0.01590
        17879.0          6.793         20.730       -999.250        0.01609
        17879.5          6.800         19.610       -999.250        0.01627
        17880.0          6.807         18.491       -999.250        0.01646
        17880.5          6.814         17.926       -999.250        0.01665
        17881.0          6.821         18.118       -999.250        0.01683
        17881.5          6.828         18.309       -999.250        0.01702
        17882.0          6.836         18.500       -999.250        0.01742
        17882.5          6.843         18.692       -999.250        0.01787
        17883.0          6.850         18.883       -999.250        0.01833
        17883.5          6.857         19.074       -999.250        0.01878
        17884.0          6.864         19.266       -999.250        0.01923
        17884.5          6.871         22.476       -999.250        0.01969
        17885.0          6.879         27.965       -999.250        0.02014
        17885.5          6.886         33.455       -999.250        0.02060
        17886.0          6.893         38.945       -999.250        0.02105
        17886.5          6.900         40.177       -999.250        0.02151
        17887.0          6.907         39.359       -999.250        0.02196
        17887.5          6.914         38.541       -999.250        0.02242
        17888.0          6.922         37.723       -999.250        0.02287
        17888.5          6.929         36.905       -999.250        0.02333
        17889.0          6.936         37.375       -999.250        0.02378
        17889.5          6.943         40.623       -999.250        0.02423
        17890.0          6.950         43.872       -999.250        0.02469
        17890.5          6.957         47.120       -999.250        0.02514
        17891.0          6.965         50.368       -999.250        0.02560
        17891.5          6.972         53.568       -999.250        0.02605
        17892.0          6.979         53.195       -999.250        0.02632
        17892.5          6.986         52.821       -999.250        0.02656
        17893.0          6.993         52.447       -999.250        0.02680
        17893.5          7.003         52.074       -999.250        0.02703
        17894.0          7.053         51.700       -999.250        0.02727
        17894.5          7.103         54.781       -999.250        0.02751
        17895.0          7.154         59.271       -999.250        0.02775
        17895.5          7.191         63.761       -999.250        0.02799
        17896.0          7.202         68.250       -999.250        0.02823
        17896.5          7.213         72.740       -999.250        0.02847
        17897.0          7.223         77.230       -999.250        0.02871
        17897.5          7.234         81.720       -999.250        0.03123
        17898.0          7.245         86.210       -999.250        0.03494
        17898.5          7.324         90.700       -999.250        0.03864
        17899.0          7.434         91.928       -999.250        0.04235
        17899.5          7.545         93.043       -999.250        0.04606
        17900.0          7.585         94.159       -999.250        0.04893
        17900.5          7.582         95.274       -999.250        0.05141
        17901.0          7.579         96.390       -999.250        0.05389
        17901.5          7.576         97.506       -999.250        0.06235
        17902.0          7.573         98.621       -999.250        0.07145
        17902.5          7.570         99.737       -999.250        0.08056
        17903.0          7.567        100.852       -999.250        0.08966
        17903.5          7.564        103.329       -999.250        0.09877
        17904.0          7.561        105.814       -999.250        0.10659
        17904.5          7.605        108.299       -999.250        0.11000
        17905.0          7.700        110.784       -999.250        0.11341
        17905.5          7.795        112.950       -999.250        0.11682
        17906.0          7.891        114.699       -999.250        0.12023
        17906.5          7.930        116.449       -999.250        0.12468
        17907.0          7.956        118.198       -999.250        0.13196
        17907.5          7.981        119.948       -999.250        0.13924
        17908.0          8.007        121.697       -999.250        0.14653
        17908.5          7.990        123.593       -999.250        0.15381
        17909.0          7.914        137.492       -999.250        0.16109
        17909.5          7.839        149.975       -999.250        0.16037
        17910.0          7.764        162.019       -999.250        0.15804
        17910.5          7.709        164.693       -999.250        0.15570
        17911.0          7.719        167.367       -999.250        0.15337
        17911.5          7.728        170.041       -999.250        0.15104
        17912.0          7.738        172.715       -999.250        0.14517
        17912.5          7.748        175.388       -999.250        0.12430
        17913.0          7.733        172.689       -999.250        0.10342
        17913.5          7.628        154.710       -999.250        0.08255
        17914.0          7.522        136.732       -999.250        0.06318
        17914.5          7.417        117.330       -999.250        0.06267
        17915.0          7.311        108.301       -999.250        0.06216
        17915.5          7.206        106.655       -999.250        0.06165
        17916.0          7.133        105.008       -999.250        0.06114
        17916.5          7.118        103.362       -999.250        0.06063
        17917.0          7.103        101.035       -999.250        0.06012
        17917.5          7.088         98.620       -999.250        0.05961
        17918.0          7.073         96.204       -999.250        0.05923
        17918.5          7.058         94.132       -999.250        0.05887
