#--------------------------------------------------#
#-------------------ENVERUS, INC.------------------#
#------------------WWW.ENVERUS.COM-----------------#
#------------------COPYRIGHT 2020------------------#
#--------------------------------------------------#
#THIS FILE MAY BE USED ONLY IN ACCORDANCE WITH A CURRENT SUBSCRIPTION AGREEMENT BETWEEN
#THE USER AND ENVERUS, INC. NO PART OF THIS FILE MAY BE REPRODUCED, USED, COPIED,
#MODIFIED, PROPAGATED, OR DISTRIBUTED EXCEPT IN ACCORDANCE WITH THE SUBSCRIPTION
#AGREEMENT. UNAUTHORIZED USE OR DISTRIBUTION OF ALL OR ANY PART OF THIS FILE MAY VIOLATE
#COPYRIGHT, TRADEMARK, AND/OR OTHER LAWS AND IS SUBJECT TO CIVIL AS WELL AS CRIMINAL
#SANCTIONS.
#--------------------------------------------------#
#THIS FILE IS PROVIDED "AS-IS" AND ALL WARRANTIES ARE EXPRESSLY DISCLAIMED, WHETHER
#EXPRESS, ORAL, IMPLIED, STATUTORY OR OTHERWISE, INCLUDING ANY IMPLIED WARRANTY OF FITNESS
#FOR A PARTICULAR PURPOSE, MERCHANTABILITY, TITLE OR NON-INFRINGEMENT, AND ANY WARRANTIES
#ARISING BY VIRTUE OF CUSTOM OF TRADE OR COURSE OF DEALING.  FURTHER, ENVERUS, INC.
#AND ITS LICENSORS DO NOT REPRESENT OR WARRANT THAT THIS FILE WILL MEET USER'S
#REQUIREMENTS OR ARE SUITABLE FOR USER'S NEEDS OR THAT THE DATA OR RESULTS PROVIDED IN
#CONJUNCTION THEREWITH ARE CORRECT, ACCURATE, TIMELY OR RELIABLE. THESE DISCLAIMERS SHALL
#APPLY REGARDLESS OF ANY FAILURE OF ESSENTIAL PURPOSE OF ANY LIMITED REMEDY.  SOME
#JURISDICTIONS DO NOT ALLOW THE EXCLUSION OF CERTAIN WARRANTIES SO SOME OF THE ABOVE
#EXCLUSIONS MAY NOT APPLY. IN NO EVENT SHALL ENVERUS, INC. OR ANY OF ITS AFFILIATES
#BE LIABLE UNDER ANY LEGAL THEORY, WHETHER IN TORT (INCLUDING WITHOUT LIMITATION
#NEGLIGENCE), CONTRACT, STRICT LIABILITY, STATUTORY OR OTHERWISE, FOR ANY SPECIAL,
#INCIDENTAL, CONSEQUENTIAL, EXEMPLARY, PUNITIVE OR INDIRECT DAMAGE OF ANY KIND, INCLUDING
#WITHOUT LIMITATION LOSS OF REVENUE, PROFITS, GOODWILL, USE, AND/OR DATA OR THE COST OF
#PROCUREMENT OF SUBSTITUTE GOODS OR SERVICES, EVEN IF APPRISED OF THE POSSIBILITY OF SUCH
#DAMAGES IN ADVANCE.
#--------------------------------------------------#

~VERSION INFORMATION
VERS. 2.0 : CWLS LOG ASCII STANDARD - VERSION 2.0
WRAP. NO : ONE LINE PER DEPTH STEP
~WELL INFORMATION
#MNEMONIC     .UNIT              VALUE :DESCRIPTION
STRT       .FT                38.00000 :START DEPTH
STOP       .FT                20083.00000 :STOP DEPTH
STEP       .FT                0.50000 :STEP
NULL       .                -999.25000 :NULL VALUE
UWI       .                42389302750000 :UNIQUE WELL ID
API       .                42389302750000 :API NUMBER
COMP       .                 :COMPANY
WELL       .                 :WELL
FLD       .                 :FIELD
LOC       .                 :LOCATION
CNTY       .                 :COUNTY
STAT       .                 :STATE
CTRY       .                 :COUNTRY
SRVC       .                 :SERVICE COMPANY
DATE       .                 :DATE
~CURVE INFORMATION
#MNEMONIC     .UNIT      API CODE :CURVE DESCRIPTION
DEPTH       .FT                      :MEASURED DEPTH
CAL       .IN        UNKNOWN   :CAL
DT       .US/FT        UNKNOWN   :DT
GR       .GAPI        UNKNOWN   :GR
~A    DEPTH    CAL    DT    GR
# ...
16943.50000    7.20106    78.46653    247.27573
16944.00000    7.22752    78.01330    247.29036
16944.50000    7.25399    77.56006    247.30499
16945.00000    7.28045    77.10682    247.31963
16945.50000    7.30766    76.65359    247.33426
16946.00000    7.33548    76.96454    247.34889
16946.50000    7.36330    77.51580    247.36353
16947.00000    7.39112    78.06705    247.37816
16947.50000    7.41894    78.50252    247.39279
16948.00000    7.44676    78.80015    247.40742
16948.50000    7.47458    79.03458    247.42206
16949.00000    7.50239    78.60564    247.43669
16949.50000    7.54996    78.17670    247.45132
16950.00000    7.66409    77.74775    247.46596
16950.50000    7.77821    77.31881    247.48059
16951.00000    7.89233    76.88987    247.49522
16951.50000    8.00645    76.80958    247.50986
16952.00000    8.05677    77.41664    247.52449
16952.50000    7.94654    78.02370    247.53912
16953.00000    7.83631    78.63075    247.55376
16953.50000    7.72608    78.78592    247.56839
16954.00000    7.61585    78.58916    247.58302
16954.50000    7.50562    78.39239    247.59766
16955.00000    7.39539    78.19563    247.61229
16955.50000    7.28516    77.99887    247.62692
16956.00000    7.17493    79.10550    247.64156
16956.50000    7.21912    78.99996    247.65619
16957.00000    7.29486    78.89442    247.67082
16957.50000    7.37060    78.81471    247.68545
16958.00000    7.44634    78.76400    247.70009
16958.50000    7.52208    78.71329    247.71472
16959.00000    7.59782    78.66257    247.72935
16959.50000    7.67356    78.61186    247.74399
16960.00000    7.72530    78.56115    247.75862
16960.50000    7.73844    78.51044    247.77326
16961.00000    7.75158    78.45973    247.78789
16961.50000    7.76472    78.65401    247.80252
16962.00000    7.77786    79.26131    247.81715
16962.50000    7.79100    79.86862    247.83179
16963.00000    7.80414    80.47593    247.84642
16963.50000    7.81728    80.33860    247.86105
16964.00000    7.83925    79.70309    247.87569
16964.50000    7.86241    79.06758    247.89032
16965.00000    7.88556    78.43207    247.90495
16965.50000    7.90871    77.79656    247.91959
16966.00000    7.93186    78.02628    247.93422
16966.50000    7.95501    78.52894    247.94885
16967.00000    7.97817    79.11038    247.96349
16967.50000    8.00132    79.69182    247.97812
16968.00000    8.02447    80.22757    247.99275
16968.50000    8.04762    80.72520    248.00739
16969.00000    8.03215    81.22283    248.02202
16969.50000    8.01212    81.72045    248.03665
16970.00000    7.99209    82.21808    248.05129
16970.50000    7.97206    81.78683    248.06592
16971.00000    7.95204    81.15512    248.08055
16971.50000    8.04052    80.52340    248.09518
16972.00000    8.14401    76.75892    248.10982
16972.50000    8.24750    72.79446    248.12445
16973.00000    8.35099    73.18899    248.13908
16973.50000    8.45448    74.01640    248.15372
16974.00000    8.53090    74.84381    248.16835
16974.50000    8.38206    75.67122    248.18298
16975.00000    8.23322    76.49863    248.19762
16975.50000    8.08438    77.32604    248.21225
16976.00000    7.93554    79.37865    248.22688
16976.50000    8.06372    79.67320    224.00101
16977.00000    8.23629    79.96774    237.39518
16977.50000    8.40886    80.29583    247.88394
16978.00000    8.55580    81.47383    247.89154
16978.50000    8.68504    82.65184    247.89914
16979.00000    8.81429    83.82984    247.90674
16979.50000    8.94354    84.65188    247.91434
16980.00000    8.93472    84.63427    247.92194
16980.50000    8.77828    84.61666    247.92955
16981.00000    8.62184    84.59905    247.93715
16981.50000    8.49101    84.58144    247.94475
16982.00000    8.64644    84.56383    247.95235
16982.50000    8.80187    84.54622    247.95996
16983.00000    8.95730    85.27242    247.96756
16983.50000    9.11272    86.42716    247.97516
16984.00000    9.21515    86.72806    247.98276
16984.50000    9.05875    84.98512    247.99036
16985.00000    9.43732    83.24219    247.99796
16985.50000    9.59985    81.49925    248.00557
16986.00000    9.45304    79.75631    248.01317
16986.50000    9.30623    78.85374    248.02077
16987.00000    9.44206    79.17089    248.02837
16987.50000    9.35526    79.48804    248.03598
16988.00000    9.26847    79.80518    248.04358
16988.50000    9.18167    80.38325    248.05118
16989.00000    9.03688    82.47631    248.05878
16989.50000    8.68047    84.56938    248.06638
16990.00000    8.70030    86.66244    248.07398
16990.50000    8.72012    88.75551    248.08159
16991.00000    8.73995    88.23674    248.08919
16991.50000    8.58968    87.70080    248.09679
16992.00000    8.42680    87.16486    248.10439
16992.50000    8.26392    86.87734    248.11200
16993.00000    8.10103    87.91370    248.11960
16993.50000    7.93815    88.95006    248.12720
16994.00000    8.16622    89.98641    248.13480
16994.50000    8.47610    91.02277    248.14240
16995.00000    8.78597    92.05912    248.15000
16995.50000    8.69612    93.09548    248.15761
16996.00000    8.35246    92.13959    248.16521
16996.50000    8.00880    89.76875    248.17281
16997.00000    8.02860    87.21765    248.18041
16997.50000    8.04843    83.48737    248.18802
16998.00000    8.06826    80.16256    248.19562
16998.50000    8.25166    79.90015    248.20322
16999.00000    8.51481    79.63774    248.21082
16999.50000    8.77796    79.37532    248.21842
17000.00000    9.04111    79.11291    243.31154
17000.50000    9.03220    78.85050    228.82436
17001.00000    8.86617    78.58809    214.33718
17001.50000    8.70014    78.32567    199.84999
17002.00000    8.57825    79.71550    192.11115
17002.50000    8.60477    85.16470    193.88047
17003.00000    8.63128    93.78685    195.64980
17003.50000    8.65779    96.64830    197.41912
17004.00000    8.68430    91.24307    199.18845
17004.50000    8.71081    85.83784    200.95777
17005.00000    8.73732    80.43261    202.72710
17005.50000    8.76383    79.40704    204.49642
17006.00000    8.75551    79.23979    206.26575
17006.50000    8.73549    79.07253    208.03507
17007.00000    8.71547    78.90527    209.80440
17007.50000    8.73949    78.73802    207.45542
17008.00000    8.82802    78.57076    203.39819
17008.50000    8.91655    79.24932    199.34096
17009.00000    9.00508    84.40479    195.28373
17009.50000    7.04136    89.56025    191.22651
17010.00000    7.04620    94.32195    187.16927
17010.50000    7.05104    91.37200    183.11205
17011.00000    7.05589    88.42205    179.05482
17011.50000    7.06073    85.47211    174.99759
17012.00000    7.06558    82.52216    177.43814
17012.50000    7.07042    79.57222    185.46904
17013.00000    7.20821    76.62227    193.49995
17013.50000    7.56821    76.85734    196.29073
17014.00000    7.92821    75.91199    189.91362
17014.50000    7.78449    75.65699    183.53651
17015.00000    7.62776    75.40199    177.15940
17015.50000    7.47103    75.14699    172.28382
17016.00000    7.31430    74.89199    201.05026
17016.50000    7.15757    74.63699    229.81669
17017.00000    7.00610    74.38199    248.58725
17017.50000    7.01925    72.09670    248.63340
17018.00000    7.03241    69.75190    248.67955
17018.50000    7.04556    67.40710    248.72569
17019.00000    7.05872    65.06230    248.77184
17019.50000    7.07188    62.71749    248.81799
17020.00000    7.08504    66.79418    248.86413
17020.50000    7.09819    72.15484    248.91028
17021.00000    7.12581    68.43013    244.83367
17021.50000    7.16574    64.70542    240.14857
17022.00000    7.20568    62.74009    235.46347
17022.50000    7.24561    65.25386    230.77837
17023.00000    7.28554    67.99533    226.09326
17023.50000    7.32548    70.76142    221.40816
17024.00000    7.51703    73.52752    223.48781
17024.50000    7.76328    76.29361    233.10152
17025.00000    8.00952    79.05971    242.71524
17025.50000    8.25577    72.46797    248.86433
17026.00000    8.16426    70.15766    248.71266
17026.50000    7.91886    67.84735    248.56099
