~VERSION INFORMATION
 VERS.                2.0:   CWLS LOG ASCII STANDARD - VERSION 2.0
 WRAP.                 NO:   ONE LINE PER DEPTH STEP
~WELL INFORMATION
#MNEM.UNIT      DATA TYPE    INFORMATION
#----------   ------------   ------------------------------
 STRT.FT          50.0000:   START DEPTH
 STOP.FT        5375.0000:   STOP DEPTH
 STEP.FT           0.5000:   STEP LENGTH
 NULL.          -999.2500:   NULL VALUE
 COMP.  A.N. NORWOOD, INC:   COMPANY
 WELL.        MCINTYRE #1:   WELL
 FLD .  ROJO CABALLOS, S.:   FIELD
 LOC .                   :   LOCATION
 CNTY.              PECOS:   COUNTY
 STAT.              TEXAS:   STATE
 CTRY. UNITED STATES OF AMERICA:   COUNTRY
 SRVC.              Welex:   SERVICE COMPANY
 DATE.        06-May-1983:   LOGDATE
 API .     42371342980000:   API NUMBER
~CURVE INFORMATION
#MNEM.UNIT       API CODE    CURVE DESCRIPTION
#----------   ------------   ------------------------------
 DEPT.F      0   1   0  0:   1 MEASURED DEPTH
 GRD .GAPI   45 310 01 00:   GAMMA RAY FROM DENSITY LOG
 NPOR_LS.DEC 42 890 01 00:   NEUTRON POROSITY LIMESTONE
 CALD.IN     45 280 60 00:   CALIPER FROM DENSITY LOG
 CORR.G/C3   45 356 01 00:   DENSITY CORRECTION
 RHOB.G/C3   45 350 01 00:   BULK DENSITY
 DPOR_LS.DEC 45 890 10 00:   DENSITY POROSITY LIMESTONE
 DT  .US/F   60 500 00 00:   DELTA-T (INTERVAL TRANSIT TIME)
 SPR .MV     07 010 01 00:   SPONTANEOUS POTENTIAL FROM RESISTIVITY LOG
 ILD .OHMM   07 120 46 00:   INDUCTION DEEP RESISTIVITY
 ILM .OHMM   07 120 44 00:   INDUCTION MEDIUM RESISTIVITY
~PARAMETER INFORMATION
#MNEM.UNIT          VALUE    DESCRIPTION
#----------   ------------   ------------------------------
 PD  .                 GL:   PERMANENT DATUM
 EPD .FT             2768:   ELEVATION PERMANENT DATUM
 LMF .                 KB:   LOG MEASURED FROM
 DAPD.FT               10:   FEET ABOVE PERMANENT DATUM
 DMF .                 KB:   DRILLING MEASURED FROM
 EKB .FT             2778:   KELLY BUSHING
 EDF .FT             2777:   DRILLING FLOOR
 EGL .FT             2768:   GROUND LEVEL
 DATE.           05/06/83:   RUN DATE
 RUN .                  1:   RUN NUMBER
 DD  .FT             5380:   DEPTH DRILLER
 DL  .FT             5377:   DEPTH LOGGER
 BLI .FT             5375:   BOTTOM LOG INTERVAL
 TLI .FT               50:   TOP LOG INTERVAL
 CS  .IN            8.625:   CASING SIZE
 CBD .FT             1596:   CASING BOTTOM DRILLER
 CBL .FT             1613:   CASING BOTTOM LOGGER
 BS  .IN             7.75:   BIT SIZE
 BSD .FT             5380:   BIT SIZE AT DEPTH
 DFT .           SALT GEL:   DRILLING FLUID TYPE
 DFD .               10.2:   DRILLING FLUID DENSITY
 DFV .                 33:   DRILLING FLUID VISCOSITY
 DFPH.                9.5:   DRILLING FLUID PH
 DFL .                 18:   DRILLING FLUID LOSS
 MSS .               CIRC:   MUD SAMPLE SOURCE
 RMS .OHMM           0.09:   RESISTIVITY MUD SAMPLE
 MST .DEGF             72:   MUD SAMPLE TEMPERATURE
 RMF .OHMM           0.08:   RESISTIVITY MUD FILTRATE SAMPLE
 MFST.DEGF             72:   MUD FILTRATE SAMPLE TEMPERATURE
 MFSS.               MEAS:   MUD FILTRATE SAMPLE SOURCE
 MCSS.               MEAS:   MUD CAKE SAMPLE SOURCE
 RMB .OHMM          0.059:   RESISTIVITY MUD AT BHT
 BHT .DEGF            112:   BOTTOM HOLE TEMPERATURE
 TCS .HRS               4:   TIME CIRCULATED STOPPED
 MRT .DEGF            112:   MAXIMUM RECORDED TEMPERATURE
 LUN .               3415:   LOGGING UNIT NUMBER
 LUL .             ODESSA:   LOGGING UNIT LOCATION
 ENGI.             LAWSON:   RECORDING ENGINEER
 WITN.            NORWOOD:   WITNESSED BY
 ORIG.      1" 2.5" PRINT:   ORIGIN OF DATA
 UWI .     42371342980000:   UNIQUE WELL ID
~OTHER INFORMATION
~A    DEPT        GRD      NPOR_LS      CALD        CORR        RHOB       DPOR_LS        DT         SPR         ILD         ILM    
# ...
  4350.5000      4.1417     -0.0152     11.6419      0.0131      2.0496      0.3889     66.5371     -6.0016    140.1895      3.5036 
  4351.0000      3.7013     -0.0151     11.8776      0.0251      2.0490      0.3888     66.5778     -5.7218     79.8377      3.4877 
  4351.5000      3.5328     -0.0151     12.0720      0.0306      2.0540      0.3845     66.5786     -5.4420     45.4674      3.7470 
  4352.0000      3.5079     -0.0152     12.1934      0.0324      2.0620      0.3773     66.5238     -5.2633     27.0847      4.0242 
  4352.5000      3.4552     -0.0154     12.2904      0.0311      2.0709      0.3708     66.4512     -5.1280     22.7758      4.2445 
  4353.0000      3.5013     -0.0155     12.3498      0.0233      2.0792      0.3649     66.3449     -5.1360     22.4374      4.3611 
  4353.5000      3.7647     -0.0155     12.4093      0.0099      2.0793      0.3658     65.9504     -5.1311     22.9328      4.4074 
  4354.0000      3.9218     -0.0159     12.4687      0.0029      2.0707      0.3789     65.6292     -5.1262     27.8731      4.3644 
  4354.5000      4.0539     -0.0160     12.5282      0.0005      2.0523      0.3927     65.2414     -5.1213     34.4496      4.2620 
  4355.0000      3.8221     -0.0167     12.5890      0.0001      2.0225      0.4114     65.3300     -5.1125     41.7946      4.0558 
  4355.5000      3.6962     -0.0171     12.6517      0.0002      1.9837      0.4290     65.9298     -5.1004     50.7056      3.8408 
  4356.0000      3.5896     -0.0173     12.7143      0.0013      1.9798      0.4286     67.4033     -5.1641     61.1873      3.7500 
  4356.5000      3.6230     -0.0174     12.7770      0.0051      1.9900      0.4180     68.3940     -5.2769     63.3084      3.7663 
  4357.0000      3.6899     -0.0175     12.8256      0.0181      2.0018      0.4053     68.2206     -5.3897     59.9013      3.7827 
  4357.5000      3.7595     -0.0175     12.8783      0.0202      2.0233      0.3948     67.6515     -5.4950     52.4111      3.8559 
  4358.0000      3.7664     -0.0175     12.9187      0.0212      2.0422      0.3845     67.0814     -5.4960     45.8576      4.0407 
  4358.5000      3.7590     -0.0176     12.9459      0.0206      2.0496      0.3821     66.5382     -5.4758     42.2994      4.2343 
  4359.0000      3.7382     -0.0176     12.9534      0.0080      2.0558      0.3863     66.5372     -5.4553     41.4806      4.4109 
  4359.5000      3.5998     -0.0176     12.9748     -0.0011      2.0558      0.3872     66.5913     -5.4451     46.8636      4.4944 
  4360.0000      3.2232     -0.0176     12.9885     -0.0008      2.0539      0.3852     66.5509     -5.4326     44.1894      4.5794 
  4360.5000      2.8332     -0.0177     13.0023     -0.0000      2.0499      0.3863     66.5767     -5.4201     37.6875      4.6122 
  4361.0000      2.7298     -0.0177     13.0160      0.0027      2.0450      0.3953     66.4522     -5.4077     32.3585      4.5495 
  4361.5000      2.6886     -0.0181     13.0298      0.0068      2.0410      0.3950     66.3509     -5.3952     27.9518      4.4877 
  4362.0000      2.8891     -0.0181     13.0435      0.0110      2.0410      0.3906     66.3435     -5.3828     24.1453      4.5152 
  4362.5000      3.3786     -0.0178     13.0398      0.0133      2.0410      0.3922     66.4023     -5.8327     21.9731      4.5771 
  4363.0000      3.7145     -0.0169     13.0305      0.0133      2.0410      0.3814     65.9512     -5.8982     21.8751      4.6511 
  4363.5000      3.7867     -0.0154     13.0268      0.0124      2.0675      0.3692     64.5133     -5.8256     22.4689      5.0453 
  4364.0000      4.2387     -0.0140     13.0194      0.0099      2.1266      0.3007     61.4821     -5.5670     37.1570      5.9143 
  4364.5000      5.8103     -0.0135     13.0077      0.0065      2.2347      0.2321     58.9013     -5.3797     67.4159      6.6084 
  4365.0000      6.4037     -0.0138     12.9556      0.0032      2.3626      0.2101     57.7555     -5.2402    110.9589      7.4898 
  4365.5000      6.9136     -0.0145     12.8527      0.0005      2.3648      0.1966     58.6735     -4.9719     77.8400      8.1105 
  4366.0000      7.0881     -0.0151     12.8326     -0.0019      2.3552      0.2414     62.1754     -4.5035     45.6040      8.1105 
  4366.5000      6.8371     -0.0158     12.8312      0.0012      2.2823      0.3285     64.9195     -4.1552     33.2365      7.4660 
  4367.0000      5.3109     -0.0165     12.9238      0.0040      2.2103      0.3695     66.6915     -4.1024     32.9726      5.8319 
  4367.5000      4.1040     -0.0174     13.1189      0.0063      2.1316      0.4091     67.1812     -4.0496     50.6224      4.5586 
  4368.0000      3.0479     -0.0182     13.2482      0.0043      2.0203      0.4411     67.4262     -3.9761    104.8669      4.4385 
  4368.5000      2.4939     -0.0191     13.3118      0.0017      1.9871      0.4445     67.5902     -3.6451    150.2848      6.1060 
  4369.0000      2.1133     -0.0191     13.3303     -0.0023      1.9539      0.4464     67.6523     -3.5020     62.8684      6.1284 
  4369.5000      2.0908     -0.0191     13.3283     -0.0101      1.9460      0.4474     67.6685     -3.3382     30.4595      6.1120 
  4370.0000      2.3903     -0.0191     13.3271     -0.0180      1.9455      0.4470     67.0111     -3.1099     23.3220      6.0956 
  4370.5000      2.8437     -0.0191     13.3263     -0.0245      1.9483      0.4461     66.1146     -2.8817     20.4165      6.0793 
  4371.0000      3.4303     -0.0190     13.3263     -0.0277      1.9520      0.4438     64.8769     -2.6534     20.5323      6.0316 
  4371.5000      3.6285     -0.0190     13.3263     -0.0293      1.9542      0.4429     63.7164     -2.4252     23.1791      5.9811 
  4372.0000      3.7829     -0.0190     13.3019     -0.0293      1.9506      0.4477     64.1279     -2.1969     25.8897      5.9310 
  4372.5000      3.9374     -0.0191     13.2739     -0.0303      1.9340      0.4568     65.4005     -1.9687     28.2821      5.8813 
  4373.0000      3.5972     -0.0193     13.2243     -0.0422      1.9173      0.4653     66.8456     -1.6632     30.2943      5.8388 
  4373.5000      3.1272     -0.0194     13.2008     -0.0629      1.9081      0.4703     68.5448     -1.5875     30.4015      5.8331 
  4374.0000      2.6433     -0.0196     13.1794     -0.0678      1.9034      0.4716     68.8311     -1.3366     30.1012      5.8274 
  4374.5000      1.9124     -0.0194     13.1600     -0.0678      1.9038      0.4723     68.7648     -1.2212     29.8353      5.8764 
  4375.0000      1.2912     -0.0192     13.1469     -0.0603      1.9089      0.4706     68.6147     -1.2213     29.5895      6.0040 
  4375.5000      0.8353     -0.0189     13.1267     -0.0485      1.9229      0.4645     68.3133     -1.2409     29.4136      6.0231 
  4376.0000      1.1256     -0.0187     13.1024     -0.0371      1.9445      0.4544     68.0039     -1.2058     30.0260      6.0411 
  4376.5000      1.8158     -0.0185     13.0781     -0.0257      1.9609      0.4444     67.5602     -1.1902     31.1209      6.0565 
  4377.0000      2.3637     -0.0184     13.0578     -0.0143      1.9659      0.4366     66.8770     -1.1389     33.6216      5.8185 
  4377.5000      2.8060     -0.0183     13.0547     -0.0068      1.9677      0.4337     65.8009     -0.9448     33.9110      5.5691 
  4378.0000      2.9053     -0.0181     13.0516     -0.0027      1.9671      0.4348     65.0496     -0.8062     29.6596      5.3305 
  4378.5000      2.8978     -0.0180     13.0485      0.0007      1.9672      0.4369     64.6979     -0.7991     25.1442      5.1799 
  4379.0000      2.5112     -0.0178     13.0075      0.0032      1.9679      0.4390     64.9370     -0.8268     21.3162      5.1743 
  4379.5000      2.2163     -0.0177     12.9626      0.0102      1.9719      0.4410     65.4683     -0.8630     19.3356      5.2053 
  4380.0000      2.4585     -0.0172     12.9183      0.0193      1.9828      0.4429     65.3801     -0.9181     19.6459      5.2437 
  4380.5000      3.1117     -0.0165     12.8739      0.0335      1.9984      0.4204     63.8588     -0.9733     25.5605      5.2824 
