#--------------------------------------------------#
#-------------------ENVERUS, INC.------------------#
#------------------WWW.ENVERUS.COM-----------------#
#------------------COPYRIGHT 2020------------------#
#--------------------------------------------------#
#THIS FILE MAY BE USED ONLY IN ACCORDANCE WITH A CURRENT SUBSCRIPTION AGREEMENT BETWEEN
#THE USER AND ENVERUS, INC. NO PART OF THIS FILE MAY BE REPRODUCED, USED, COPIED,
#MODIFIED, PROPAGATED, OR DISTRIBUTED EXCEPT IN ACCORDANCE WITH THE SUBSCRIPTION
#AGREEMENT. UNAUTHORIZED USE OR DISTRIBUTION OF ALL OR ANY PART OF THIS FILE MAY VIOLATE
#COPYRIGHT, TRADEMARK, AND/OR OTHER LAWS AND IS SUBJECT TO CIVIL AS WELL AS CRIMINAL
#SANCTIONS.
#--------------------------------------------------#
#THIS FILE IS PROVIDED "AS-IS" AND ALL WARRANTIES ARE EXPRESSLY DISCLAIMED, WHETHER
#EXPRESS, ORAL, IMPLIED, STATUTORY OR OTHERWISE, INCLUDING ANY IMPLIED WARRANTY OF FITNESS
#FOR A PARTICULAR PURPOSE, MERCHANTABILITY, TITLE OR NON-INFRINGEMENT, AND ANY WARRANTIES
#ARISING BY VIRTUE OF CUSTOM OF TRADE OR COURSE OF DEALING.  FURTHER, ENVERUS, INC.
#AND ITS LICENSORS DO NOT REPRESENT OR WARRANT THAT THIS FILE WILL MEET USER'S
#REQUIREMENTS OR ARE SUITABLE FOR USER'S NEEDS OR THAT THE DATA OR RESULTS PROVIDED IN
#CONJUNCTION THEREWITH ARE CORRECT, ACCURATE, TIMELY OR RELIABLE. THESE DISCLAIMERS SHALL
#APPLY REGARDLESS OF ANY FAILURE OF ESSENTIAL PURPOSE OF ANY LIMITED REMEDY.  SOME
#JURISDICTIONS DO NOT ALLOW THE EXCLUSION OF CERTAIN WARRANTIES SO SOME OF THE ABOVE
#EXCLUSIONS MAY NOT APPLY. IN NO EVENT SHALL ENVERUS, INC. OR ANY OF ITS AFFILIATES
#BE LIABLE UNDER ANY LEGAL THEORY, WHETHER IN TORT (INCLUDING WITHOUT LIMITATION
#NEGLIGENCE), CONTRACT, STRICT LIABILITY, STATUTORY OR OTHERWISE, FOR ANY SPECIAL,
#INCIDENTAL, CONSEQUENTIAL, EXEMPLARY, PUNITIVE OR INDIRECT DAMAGE OF ANY KIND, INCLUDING
#WITHOUT LIMITATION LOSS OF REVENUE, PROFITS, GOODWILL, USE, AND/OR DATA OR THE COST OF
#PROCUREMENT OF SUBSTITUTE GOODS OR SERVICES, EVEN IF APPRISED OF THE POSSIBILITY OF SUCH
#DAMAGES IN ADVANCE.
#--------------------------------------------------#

~VERSION INFORMATION
VERS. 2.0 : CWLS LOG ASCII STANDARD - VERSION 2.0
WRAP.  NO : ONE LINE PER DEPTH STEP
~WELL INFORMATION
#MNEMONIC     .UNIT              VALUE :DESCRIPTION
STRT       .FT                101 :START DEPTH
STOP       .FT                5444 :STOP DEPTH
STEP       .FT                   0.500 :STEP
NULL       .                  -999.99 :NULL
UWI        .                42389004350000 :UNIQUE WELL ID
API        .                42389004350000 :API NUMBER
COMP       .         :COMPANY
WELL       .        :WELL
DATE       .                 :LOG DATE
FLD       .                 :FIELD NAME
LOC       .                  UNK :LOCATION
CNTY       .                 UNK :COUNTY
STAT       .                 UNK :STATE
CTRY       .                 UNK :COUNTY
SRVC       .                 UNK :SERVICE COMPANY
~CURVE INFORMATION
#MNEMONIC     .UNIT      API CODE :CURVE DESCRIPTION
DEPTH       .FT                      :MEASURED DEPTH
DT.MSEC/FT        UNKNOWN   :DT
GR.API        UNKNOWN   :GR
~A    DEPTH    DT    GR
# ...
 3208.5     67.14864   3.36467
 3209     67.14476   4.01768
 3209.5     67.27316   4.67068
 3210     67.40155   5.32368
 3210.5     67.52995   5.97669
 3211     67.65834   5.82698
 3211.5     67.78674   5.37495
 3212     67.91513   4.92292
 3212.5     68.04352   4.4709
 3213     68.17192   4.01887
 3213.5     68.19906   3.56684
 3214     68.12412   3.11481
 3214.5     68.04918   3.13932
 3215     67.97424   4.00639
 3215.5     67.8993   4.87346
 3216     67.82436   5.74053
 3216.5     67.74942   6.33237
 3217     67.67448   5.55865
 3217.5     67.59954   4.78492
 3218     67.52459   4.0112
 3218.5     67.44965   3.89094
 3219     67.37471   4.47189
 3219.5     67.29977   5.05283
 3220     67.35473   5.63377
 3220.5     67.42948   6.21472
 3221     67.50422   6.79566
 3221.5     67.57896   7.3766
 3222     67.65371   7.85487
 3222.5     67.72845   7.6935
 3223     67.79873   7.53212
 3223.5     67.76202   7.37074
 3224     67.72531   7.20937
 3224.5     67.6886   7.04799
 3225     67.65189   6.88661
 3225.5     67.61519   6.72524
 3226     67.57848   6.89897
 3226.5     67.54177   8.05979
 3227     67.50506   9.22061
 3227.5     67.46835   10.38143
 3228     67.43165   11.54224
 3228.5     67.39494   12.70306
 3229     67.35823   13.86388
 3229.5     67.32152   14.34747
 3230     67.28481   13.97738
 3230.5     67.2481   13.6073
 3231     67.2114   13.23722
 3231.5     67.17469   12.86713
 3232     67.13798   12.49705
 3232.5     67.10127   12.12696
 3233     67.06456   11.75688
 3233.5     67.10715   11.3868
 3234     67.22085   11.01671
 3234.5     67.33455   10.64663
 3235     67.44826   10.27654
 3235.5     67.56196   9.78675
 3236     67.67566   9.27929
 3236.5     67.78937   8.77182
 3237     67.90307   8.26436
 3237.5     67.99181   7.75689
 3238     67.90876   7.24943
 3238.5     67.8257   6.74196
 3239     67.74264   6.2345
 3239.5     67.65958   5.72703
 3240     67.57652   5.21957
 3240.5     67.49346   5.24429
 3241     67.43687   5.34385
 3241.5     67.44656   5.44342
 3242     67.45625   5.54298
 3242.5     67.46594   5.64255
 3243     67.47563   5.74212
 3243.5     67.48532   5.84168
 3244     67.49501   5.94125
 3244.5     67.5047   5.53166
 3245     67.51439   5.1205
 3245.5     67.52408   4.70934
 3246     67.53377   4.29818
 3246.5     67.54346   3.88703
 3247     67.55315   3.60141
 3247.5     67.56284   3.78133
 3248     67.50711   3.96125
 3248.5     67.41107   4.14117
 3249     67.31502   4.32109
 3249.5     67.21898   4.50101
 3250     67.12293   4.33622
 3250.5     67.1004   4.157
 3251     67.21066   3.97778
 3251.5     67.32093   3.79856
 3252     67.43119   3.61934
 3252.5     67.54146   3.44012
 3253     67.65172   3.2609
 3253.5     67.65156   3.08168
 3254     67.57157   2.90246
 3254.5     67.49157   2.72324
 3255     67.41158   2.54402
 3255.5     67.33159   2.3648
 3256     67.2516   2.18558
 3256.5     67.17161   2.00636
 3257     67.09162   2.19572
 3257.5     67.01162   2.49616
 3258     66.93163   2.7966
 3258.5     66.85164   3.09704
 3259     67.04611   3.39748
 3259.5     67.48322   3.42125
 3260     67.92033   3.18632
 3260.5     67.91348   2.95139
 3261     67.86563   2.71646
 3261.5     67.81778   2.48153
 3262     67.76994   2.58845
 3262.5     67.72209   2.78845
 3263     67.67424   2.98844
 3263.5     67.62639   3.18844
 3264     67.57854   3.38843
 3264.5     67.53069   3.58843
 3265     67.48284   3.78843
 3265.5     67.43499   3.98842
 3266     67.38714   4.18842
 3266.5     67.33929   4.24288
 3267     67.29144   4.00371
 3267.5     67.24359   3.76454
 3268     67.20904   3.52538
 3268.5     67.25866   3.28621
 3269     67.30827   3.04704
 3269.5     67.35788   2.80787
 3270     67.40749   2.56871
 3270.5     67.45711   2.32954
 3271     67.50672   2.09037
 3271.5     67.55633   1.8512
 3272     67.60595   1.61203
 3272.5     67.65556   1.37287
 3273     67.70517   1.54766
 3273.5     67.75479   1.88573
 3274     67.8044   2.22381
 3274.5     67.85401   2.56188
 3275     67.90363   2.64774
 3275.5     67.84028   2.49635
 3276     67.7711   2.34495
 3276.5     67.70191   2.19355
 3277     67.63273   2.18277
 3277.5     67.56354   2.48324
 3278     67.49435   2.78371
 3278.5     67.42517   3.08419
 3279     67.35598   3.3221
 3279.5     67.2868   3.05191
 3280     67.21761   2.78173
 3280.5     67.14843   2.51154
 3281     67.07924   2.24136
 3281.5     67.01005   1.97117
 3282     66.97114   1.70099
 3282.5     67.01256   1.4308
 3283     67.05398   1.16062
 3283.5     67.0954   .89043
 3284     67.13682   .71145
 3284.5     67.17824   1.1841
 3285     67.21966   1.65675
 3285.5     67.26108   2.12939
 3286     67.3025   2.60204
 3286.5     67.34392   3.07469
 3287     67.38534   3.54734
 3287.5     67.42676   4.01998
 3288     67.46818   3.77958
 3288.5     67.5096   3.32729
 3289     67.55102   2.87499
 3289.5     67.59244   2.79397
 3290     67.63386   2.94371
 3290.5     67.67528   3.09346
 3291     67.7167   2.98683
 3291.5     67.75812   2.58466
 3292     67.79954   2.18249
 3292.5     67.84096   1.78032
 3293     67.88238   1.37815
 3293.5     67.9238   1.50839
 3294     67.96522   1.83191
 3294.5     68.00664   2.15543
 3295     68.04807   2.47895
 3295.5     68.08949   2.80247
 3296     68.07099   3.12599
 3296.5     67.97176   3.44951
 3297     67.87253   2.49967
 3297.5     67.7733   1.41574
 3298     67.67407   .71286
 3298.5     67.57484   1.01321
 3299     67.47561   1.31357
 3299.5     67.37639   1.61392
 3300     67.27716   1.91428
 3300.5     67.17793   2.18601
 3301     67.0787   1.1822
 3301.5     66.97947   .80257
 3302     66.94246   1.20335
 3302.5     67.03493   1.60413
 3303     67.1274   2.00491
 3303.5     67.21987   2.40569
 3304     67.31234   2.80647
 3304.5     67.40481   3.20725
 3305     67.49728   3.60803
 3305.5     67.58975   3.50549
 3306     67.68222   3.01547
 3306.5     67.77469   2.52544
 3307     67.86716   2.03541
 3307.5     67.91587   1.85185
 3308     67.86059   2.2124
 3308.5     67.8053   2.57294
 3309     67.75002   2.93349
 3309.5     67.69473   3.29404
 3310     67.63945   3.54646
 3310.5     67.58416   2.89344
 3311     67.52888   2.24042
 3311.5     67.47359   1.5874
 3312     67.41831   1.92479
 3312.5     67.36302   2.31121
 3313     67.30773   2.69764
 3313.5     67.25245   2.82495
 3314     67.19716   2.27226
 3314.5     67.19584   1.71956
 3315     67.22729   1.5663
 3315.5     67.25875   2.62153
 3316     67.29021   2.56049
 3316.5     67.32167   2.49945
 3317     67.35313   2.43841
 3317.5     67.38458   2.37736
 3318     67.41604   2.49161
 3318.5     67.4475   2.94251
 3319     67.47896   3.39341
 3319.5     67.51042   3.8443
 3320     67.54187   4.19773
 3320.5     67.57333   3.95054
 3321     67.60479   3.70336
 3321.5     67.63625   3.45617
 3322     67.66771   3.20899
 3322.5     67.69917   2.96181
 3323     67.73062   2.74904
 3323.5     67.74097   2.59763
 3324     67.68103   2.44622
 3324.5     67.62109   2.29481
 3325     67.56114   2.24661
 3325.5     67.5012   2.75762
 3326     67.44126   3.26863
 3326.5     67.38132   3.77964
 3327     67.32137   4.29066
 3327.5     67.26143   4.80167
 3328     67.2822   4.39001
 3328.5     67.32103   3.87739
 3329     67.35987   3.36477
 3329.5     67.3987   2.85215
 3330     67.43753   2.33953
 3330.5     67.47637   2.31971
 3331     67.5152   2.56979
 3331.5     67.55404   2.81986
 3332     67.59287   3.06993
 3332.5     67.63171   3.32001
 3333     67.67054   3.57008
 3333.5     67.69948   3.55321
 3334     67.69988   3.01961
 3334.5     67.70029   2.48601
 3335     67.70069   1.95241
 3335.5     67.70109   1.4188
 3336     67.70149   .8852
 3336.5     67.7019   .3516
 3337     67.7023   .37512
 3337.5     67.7027   .93337
 3338     67.7031   1.49162
 3338.5     67.70351   2.04987
 3339     67.70391   2.60812
 3339.5     67.70431   3.16637
 3340     67.70471   3.72462
 3340.5     67.70512   4.13172
 3341     67.70552   3.70065
 3341.5     67.70592   3.26959
 3342     67.70632   2.83852
 3342.5     67.70673   2.66791
