#--------------------------------------------------#
#-------------------ENVERUS, INC.------------------#
#------------------WWW.ENVERUS.COM-----------------#
#------------------COPYRIGHT 2020------------------#
#--------------------------------------------------#
#THIS FILE MAY BE USED ONLY IN ACCORDANCE WITH A CURRENT SUBSCRIPTION AGREEMENT BETWEEN
#THE USER AND ENVERUS, INC. NO PART OF THIS FILE MAY BE REPRODUCED, USED, COPIED,
#MODIFIED, PROPAGATED, OR DISTRIBUTED EXCEPT IN ACCORDANCE WITH THE SUBSCRIPTION
#AGREEMENT. UNAUTHORIZED USE OR DISTRIBUTION OF ALL OR ANY PART OF THIS FILE MAY VIOLATE
#COPYRIGHT, TRADEMARK, AND/OR OTHER LAWS AND IS SUBJECT TO CIVIL AS WELL AS CRIMINAL
#SANCTIONS.
#--------------------------------------------------#
#THIS FILE IS PROVIDED "AS-IS" AND ALL WARRANTIES ARE EXPRESSLY DISCLAIMED, WHETHER
#EXPRESS, ORAL, IMPLIED, STATUTORY OR OTHERWISE, INCLUDING ANY IMPLIED WARRANTY OF FITNESS
#FOR A PARTICULAR PURPOSE, MERCHANTABILITY, TITLE OR NON-INFRINGEMENT, AND ANY WARRANTIES
#ARISING BY VIRTUE OF CUSTOM OF TRADE OR COURSE OF DEALING.  FURTHER, ENVERUS, INC.
#AND ITS LICENSORS DO NOT REPRESENT OR WARRANT THAT THIS FILE WILL MEET USER'S
#REQUIREMENTS OR ARE SUITABLE FOR USER'S NEEDS OR THAT THE DATA OR RESULTS PROVIDED IN
#CONJUNCTION THEREWITH ARE CORRECT, ACCURATE, TIMELY OR RELIABLE. THESE DISCLAIMERS SHALL
#APPLY REGARDLESS OF ANY FAILURE OF ESSENTIAL PURPOSE OF ANY LIMITED REMEDY.  SOME
#JURISDICTIONS DO NOT ALLOW THE EXCLUSION OF CERTAIN WARRANTIES SO SOME OF THE ABOVE
#EXCLUSIONS MAY NOT APPLY. IN NO EVENT SHALL ENVERUS, INC. OR ANY OF ITS AFFILIATES
#BE LIABLE UNDER ANY LEGAL THEORY, WHETHER IN TORT (INCLUDING WITHOUT LIMITATION
#NEGLIGENCE), CONTRACT, STRICT LIABILITY, STATUTORY OR OTHERWISE, FOR ANY SPECIAL,
#INCIDENTAL, CONSEQUENTIAL, EXEMPLARY, PUNITIVE OR INDIRECT DAMAGE OF ANY KIND, INCLUDING
#WITHOUT LIMITATION LOSS OF REVENUE, PROFITS, GOODWILL, USE, AND/OR DATA OR THE COST OF
#PROCUREMENT OF SUBSTITUTE GOODS OR SERVICES, EVEN IF APPRISED OF THE POSSIBILITY OF SUCH
#DAMAGES IN ADVANCE.
#--------------------------------------------------#

~VERSION INFORMATION
VERS. 2.0 : CWLS LOG ASCII STANDARD - VERSION 2.0
WRAP.  NO : ONE LINE PER DEPTH STEP
~WELL INFORMATION
#MNEMONIC     .UNIT              VALUE :DESCRIPTION
STRT       .FT                2 :START DEPTH
STOP       .FT                6341 :STOP DEPTH
STEP       .FT                   0.500 :STEP
NULL       .                  -999.990 :NULL
UWI        .              42389104050000 :UNIQUE WELL ID
API        .              42389104050000 :API NUMBER
COMP       .         ENDEAVOR ENERGY RESOURCES L.P. :COMPANY
WELL       .        TXL REEVES STATE UNIT  2 :WELL
DATE       .                            :LOG DATE
~CURVE INFORMATION
#MNEMONIC     .UNIT      API CODE :CURVE DESCRIPTION
DEPTH       .FT                      :MEASURED DEPTH
GR.API        UNKNOWN   :GR
DT.US/FT        UNKNOWN   :DT
~A    DEPTH    GR    DT
# ...
 5496     70.327   71.788
 5496.5     74.172   72.496
 5497     78.016   73.204
 5497.5     81.86   73.173
 5498     85.704   72.853
 5498.5     86.389   72.534
 5499     86.26   71.239
 5499.5     86.131   69.944
 5500     86.002   69.722
 5500.5     84.618   69.561
 5501     78.669   69.401
 5501.5     72.719   69.24
 5502     66.77   69.079
 5502.5     60.92   68.163
 5503     55.508   66.621
 5503.5     50.096   65.254
 5504     45.379   67.238
 5504.5     42.82   69.221
 5505     41.79   71.205
 5505.5     43.375   73.189
 5506     44.959   75.173
 5506.5     46.543   76.235
 5507     48.128   76.448
 5507.5     49.712   76.662
 5508     49.98   76.726
 5508.5     49.27   76.642
 5509     48.561   76.557
 5509.5     47.851   76.472
 5510     47.141   76.388
 5510.5     46.432   76.036
 5511     47.567   73.794
 5511.5     48.965   71.552
 5512     50.362   69.31
 5512.5     51.759   68.767
 5513     55.764   69.151
 5513.5     61.277   69.536
 5514     66.791   69.921
 5514.5     72.099   70.305
 5515     73.866   70.679
 5515.5     75.632   70.696
 5516     75.397   70.713
 5516.5     71.383   70.73
 5517     67.37   70.746
 5517.5     63.357   70.763
 5518     59.344   71.086
 5518.5     55.33   72.114
 5519     51.529   73.142
 5519.5     53.342   74.171
 5520     55.155   75.199
 5520.5     56.968   76.227
 5521     58.781   77.255
 5521.5     60.594   77.698
 5522     62.407   77.355
 5522.5     63.778   77.011
 5523     59.392   76.668
 5523.5     55.006   76.324
 5524     50.62   76.4
 5524.5     46.234   77.211
 5525     42.807   78.021
 5525.5     42.105   78.832
 5526     41.403   78.684
 5526.5     40.702   76.686
 5527     40   74.689
 5527.5     39.523   72.691
 5528     39.519   70.854
 5528.5     40.372   72.14
 5529     41.448   73.425
 5529.5     42.524   74.711
 5530     43.599   75.733
 5530.5     44.486   74.854
 5531     44.483   73.975
 5531.5     44.48   73.096
 5532     44.476   72.465
 5532.5     45.179   73.906
 5533     47.154   75.347
 5533.5     49.129   76.788
 5534     50.672   76.658
 5534.5     50.963   76.395
 5535     51.254   76.132
 5535.5     51.545   75.869
 5536     51.837   75.606
 5536.5     52.128   74.011
 5537     52.419   72.237
 5537.5     50.607   71.608
 5538     48.099   71.337
 5538.5     45.59   71.066
 5539     43.092   70.795
 5539.5     44.809   70.524
 5540     46.525   70.252
 5540.5     48.242   69.981
 5541     49.958   69.715
 5541.5     51.675   71.24
 5542     53.391   72.764
 5542.5     53.651   74.289
 5543     51.963   74.907
 5543.5     50.274   74.546
 5544     48.586   74.185
 5544.5     46.897   73.824
 5545     45.209   73.463
 5545.5     43.52   73.449
 5546     42.421   73.934
 5546.5     42.973   74.418
 5547     43.525   74.903
 5547.5     44.077   75.388
 5548     43.89   75.007
 5548.5     43.531   73.989
 5549     43.173   72.971
 5549.5     42.814   72.261
 5550     42.456   72.167
 5550.5     42.098   72.072
 5551     42.376   71.977
 5551.5     43.898   71.593
 5552     45.42   70.91
 5552.5     46.942   70.228
 5553     48.464   69.546
 5553.5     49.987   68.863
 5554     51.509   68.889
 5554.5     53.031   69.183
 5555     54.553   69.477
 5555.5     56.076   69.77
 5556     57.598   69.253
 5556.5     56.342   68.707
 5557     54.816   68.162
 5557.5     53.29   67.617
 5558     51.764   67.071
 5558.5     51.007   66.513
 5559     51.503   65.952
 5559.5     50.816   65.698
 5560     49.914   65.782
 5560.5     49.013   65.866
 5561     49.306   65.95
 5561.5     51.158   66.035
 5562     50.738   65.74
 5562.5     50.023   65.11
 5563     49.307   64.48
 5563.5     48.592   63.85
 5564     47.876   64.326
 5564.5     47.16   64.84
 5565     51.216   65.354
 5565.5     61.627   65.867
 5566     83.582   66.772
 5566.5     78.112   70.122
 5567     72.643   73.472
 5567.5     67.173   75.76
 5568     61.704   74.83
 5568.5     56.234   73.901
 5569     55.501   72.971
 5569.5     69.208   72.041
 5570     83.41   71.111
 5570.5     97.612   70.181
 5571     99.808   69.252
 5571.5     92.157   68.322
 5572     84.618   67.392
 5572.5     83.055   66.462
 5573     81.492   65.532
 5573.5     79.929   64.603
 5574     78.367   63.673
 5574.5     76.804   65.569
 5575     88.465   67.645
 5575.5     96.804   69.722
 5576     94.373   71.798
 5576.5     91.943   73.875
 5577     89.512   74.695
 5577.5     87.081   75.226
 5578     84.651   75.045
 5578.5     82.22   72.335
 5579     79.789   69.626
 5579.5     77.359   66.916
 5580     75.594   64.207
 5580.5     74.715   64.035
 5581     73.836   64.944
 5581.5     72.957   65.854
 5582     72.078   66.623
 5582.5     71.199   65.418
 5583     60.96   64.213
 5583.5     52.263   63.008
 5584     52.483   62.847
 5584.5     52.702   64.417
 5585     52.922   65.987
 5585.5     53.141   67.557
 5586     53.361   67.986
 5586.5     53.58   68.243
 5587     53.044   68.5
 5587.5     51.654   68.643
 5588     50.264   67.815
 5588.5     48.874   66.986
 5589     47.484   66.158
 5589.5     46.095   67.276
 5590     46.336   68.62
 5590.5     46.974   69.965
 5591     47.613   71.309
 5591.5     48.252   72.125
 5592     48.891   71.626
 5592.5     49.975   71.128
 5593     51.64   70.63
 5593.5     53.305   70.131
 5594     54.971   69.633
 5594.5     56.636   69.135
 5595     58.301   68.637
 5595.5     59.967   68.138
 5596     61.248   67.64
 5596.5     58.352   66.855
 5597     55.456   65.725
 5597.5     52.561   64.594
 5598     49.665   63.463
 5598.5     50.761   62.333
 5599     51.951   61.616
 5599.5     53.141   63.397
 5600     56.159   65.177
 5600.5     72.27   66.958
 5601     88.381   68.738
 5601.5     103.549   70.519
 5602     107.653   71.564
 5602.5     111.758   72.123
 5603     115.863   72.682
 5603.5     113.185   73.241
 5604     104.584   70.169
 5604.5     95.983   66.701
 5605     87.382   65.127
 5605.5     89.3   65.385
 5606     91.821   65.643
 5606.5     94.342   65.901
 5607     91.007   66.159
 5607.5     86.504   66.417
 5608     82.001   66.675
 5608.5     77.499   64.883
 5609     72.996   62.348
 5609.5     68.494   63.081
 5610     64.169   64.009
 5610.5     60.598   64.938
 5611     57.028   63.355
 5611.5     53.458   60.594
 5612     49.888   57.833
 5612.5     54.558   60.028
 5613     62.245   62.446
 5613.5     69.932   64.864
 5614     77.618   67.282
 5614.5     85.305   67.623
 5615     92.331   67.818
 5615.5     87.176   68.014
 5616     82.021   67.97
 5616.5     76.866   66.663
 5617     71.711   65.437
 5617.5     66.556   65.034
 5618     62.904   64.631
 5618.5     66.322   64.228
 5619     69.739   64.278
 5619.5     73.156   64.669
 5620     81.19   65.061
 5620.5     87.933   65.452
 5621     94.676   69.087
 5621.5     101.419   76.499
 5622     108.162   75.083
 5622.5     114.905   72.366
 5623     121.648   69.649
 5623.5     128.391   66.931
 5624     134.695   65.615
 5624.5     128.276   67.336
 5625     121.858   69.058
 5625.5     115.439   70.779
 5626     105.571   70.007
 5626.5     96.193   66.781
 5627     86.815   64.18
 5627.5     77.436   65.284
 5628     79.366   66.388
 5628.5     81.606   67.225
 5629     83.846   67.36
 5629.5     86.086   67.494
 5630     86.584   67.629
 5630.5     83.721   67.764
 5631     80.858   67.898
 5631.5     77.995   68.033
 5632     75.131   68.076
 5632.5     72.268   67.025
 5633     69.405   65.975
 5633.5     66.542   64.925
 5634     63.679   64.606
 5634.5     62.301   65.33
 5635     63.694   66.054
 5635.5     65.087   66.779
 5636     66.48   67.503
 5636.5     67.873   68.227
 5637     69.266   68.952
 5637.5     69.562   69.555
 5638     64.695   70.132
 5638.5     59.828   70.71
 5639     54.961   71.287
 5639.5     53.137   70.294
 5640     51.782   68.81
 5640.5     50.426   67.327
 5641     49.07   68.652
 5641.5     48.57   70.567
 5642     49.77   71.15
 5642.5     50.97   69.973
 5643     52.171   68.796
 5643.5     53.371   67.619
 5644     54.571   67.783
 5644.5     55.771   68.438
 5645     56.997   69.093
