###############################################
##         ENVERUS                           ##
##         ESS - Open Hole                   ##
##         PERMIAN / DELAWARE                ##
##         Nov 04 2023  V4.0                 ##
##         42-389-10119-00-00                ##
###############################################
## Copyright 2017-2023  ENVERUS.  All Rights Reserved. 
## Confidential - Property of ENVERUS, use governed by terms and 
## conditions found within the existing Information Services Subscription Agreement 
## (as may be amended, the “ISSA”) between Customer and ENVERUS. 
## 
~VERSION INFORMATION
# MNEM.UNIT                               DATA : DESCRIPTION OF MNEMONIC
#-----.-----     ----------------------------- : -----------------------------
VERS.                                     2.00 : CWLS LOG ASCII STANDARD - VERSION 2.00
WRAP.                                       NO : MULTIPLE LINES PER DEPTH STEP
VEND.                                  ENVERUS : VENDOR
TYPE.                          ESS - OPEN HOLE : ENVERUS ESSENTIAL CURVES – ACCESSIBLE THROUGH ENVERUS PRISM(TM)
DOC.                                  32008410 : ENVERUS HEADER RAW DOCUMENT ID
#___________________________________________________________________________________________________ 
~WELL INFORMATION 
# X8E3XgEZRMs+LiTqjMYqety/5rGXYLbzRNciiYBq17B6ClLelYcJjKNVvvPfWOVGxhvISow7q4Dbthq8gKP2Nw== 
# MNEM.UNIT                                              DATA : DESCRIPTION OF MNEMONIC 
#-----.-----                    ----------------------------- : ----------------------------- 
CNTY.                                                  REEVES : COUNTY 
STATE.                                                  TEXAS : STATE 
CNTRY.                                                    USA : COUNTRY 
API.                                             42-389-10119 : API (10 Digit) 
API_14.                                    42-389-10119-00-00 : API (14 Digits) 
API_14_std.                                 42-389-10119-0000 : API (14 Digits Standard) 
UWI.                                           42389101190000 : UNIQUE WELL ID 
WELL.                                                   1-40, : WELL NAME
STRT.FT                                                  58.0 : START DEPTH
STOP.FT                                                5338.0 : STOP DEPTH
STEP.FT                                                   0.5 : STEP BETWEEN DEPTHS
NULL.                                                 -999.25 : NULL VALUE
#___________________________________________________________________________________________________ 
~CURVE INFORMATION 
# MNEM.UNIT           : CURVE DESCRIPTION 
#-----.-----          : ----------------------------- 
 DEPT.FT               : MEASURED DEPTH 
 GR.API                : GAMMA RAY (GR) 
 DT.US/FT              : SONIC DELTA TRANSIT TIME (DT) 
 #___________________________________________________________________________________________________ 
~A         DEPT             GR             DT
# ...
         5278.0         81.104         78.637
         5278.5         90.247         78.850
         5279.0        104.660         79.064
         5279.5         84.781         79.277
         5280.0         67.931         75.349
         5280.5         70.909         72.478
         5281.0         73.886         70.960
         5281.5         76.864         69.443
         5282.0         79.842         69.156
         5282.5         84.765         70.706
         5283.0         90.104         72.256
         5283.5         95.444         72.990
         5284.0        100.784         73.489
         5284.5        100.846         73.988
         5285.0         99.721         73.791
         5285.5         93.035         73.513
         5286.0         85.070         73.235
         5286.5         77.105         72.957
         5287.0         75.266         72.679
         5287.5         74.877         72.401
         5288.0         74.489         72.759
         5288.5         74.100         73.403
         5289.0         73.712         74.048
         5289.5         73.323         74.692
         5290.0         71.763         75.337
         5290.5         67.431         76.552
         5291.0         63.098         78.375
         5291.5         58.766         77.997
         5292.0         54.433         76.992
         5292.5         50.881         75.987
         5293.0         49.258         78.075
         5293.5         47.636         80.204
         5294.0         46.013         79.349
         5294.5         45.248         78.192
         5295.0         46.679         78.358
         5295.5         48.111         79.275
         5296.0         49.542         80.192
         5296.5         50.973         81.110
         5297.0         68.071         82.027
         5297.5         70.219         82.944
         5298.0         72.368         83.862
         5298.5         74.048         82.760
         5299.0         74.440         80.874
         5299.5         74.832         87.276
         5300.0         55.767         92.342
         5300.5         48.588         88.450
         5301.0         47.049         84.559
         5301.5         45.509         84.693
         5302.0         43.970         87.910
         5302.5         42.430         86.798
         5303.0         40.890         83.371
         5303.5         43.220         80.892
         5304.0         46.838         79.927
         5304.5         50.456         80.925
         5305.0         54.100         82.707
         5305.5         57.823         84.489
         5306.0         61.546         94.840
         5306.5         64.420         94.931
         5307.0         64.580         91.137
         5307.5         64.740         85.380
         5308.0         62.711         82.320
         5308.5         53.505         83.287
         5309.0         44.300         91.651
         5309.5         62.011         88.859
         5310.0         57.231         86.067
         5310.5         52.451         83.275
         5311.0         52.742         81.528
         5311.5         54.975         82.128
         5312.0         57.207         79.598
         5312.5         56.760         80.002
         5313.0         55.262         80.406
         5313.5         53.764         80.809
         5314.0         53.057         80.790
         5314.5         52.668         79.505
         5315.0         52.279         78.219
         5315.5         51.891         76.934
         5316.0         51.502         75.648
         5316.5         51.114         74.842
         5317.0         49.898         74.348
         5317.5       -999.250         73.854
         5318.0       -999.250         73.360
         5318.5       -999.250         72.866
         5319.0       -999.250         72.372
         5319.5       -999.250         71.879
         5320.0       -999.250         71.385
         5320.5       -999.250         70.953
         5321.0       -999.250         70.556
         5321.5       -999.250         70.160
         5322.0       -999.250         70.027
         5322.5       -999.250         70.173
         5323.0       -999.250         70.319
         5323.5       -999.250         70.465
         5324.0       -999.250         70.611
         5324.5       -999.250         70.463
         5325.0       -999.250         70.051
         5325.5       -999.250         69.640
         5326.0       -999.250         69.229
         5326.5       -999.250         68.818
         5327.0       -999.250         68.407
         5327.5       -999.250         68.121
         5328.0       -999.250         67.880
         5328.5       -999.250         67.640
         5329.0       -999.250         67.400
         5329.5       -999.250         67.160
         5330.0       -999.250         67.013
         5330.5       -999.250         68.926
         5331.0       -999.250         69.181
         5331.5       -999.250         69.002
         5332.0       -999.250         68.823
         5332.5       -999.250         68.645
         5333.0       -999.250         68.466
         5333.5       -999.250         68.342
         5334.0       -999.250         68.541
         5334.5       -999.250         68.739
         5335.0       -999.250         68.937
         5335.5       -999.250         69.045
         5336.0       -999.250         68.793
         5336.5       -999.250         68.540
         5337.0       -999.250         68.288
         5337.5       -999.250         68.035
         5338.0       -999.250         67.804
