~VERSION INFORMATION
 VERS.                2.0:   CWLS LOG ASCII STANDARD - VERSION 2.0
 WRAP.                 NO:   ONE LINE PER DEPTH STEP
~WELL INFORMATION
#MNEM.UNIT      DATA TYPE    INFORMATION
#----------   ------------   ------------------------------
 STRT.FT          50.0000:   START DEPTH
 STOP.FT        5375.0000:   STOP DEPTH
 STEP.FT           0.5000:   STEP LENGTH
 NULL.          -999.2500:   NULL VALUE
 COMP.  A.N. NORWOOD, INC:   COMPANY
 WELL.        MCINTYRE #1:   WELL
 FLD .  ROJO CABALLOS, S.:   FIELD
 LOC .                   :   LOCATION
 CNTY.              PECOS:   COUNTY
 STAT.              TEXAS:   STATE
 CTRY. UNITED STATES OF AMERICA:   COUNTRY
 SRVC.              Welex:   SERVICE COMPANY
 DATE.        06-May-1983:   LOGDATE
 API .     42371342980000:   API NUMBER
~CURVE INFORMATION
#MNEM.UNIT       API CODE    CURVE DESCRIPTION
#----------   ------------   ------------------------------
 DEPT.F      0   1   0  0:   1 MEASURED DEPTH
 GRD .GAPI   45 310 01 00:   GAMMA RAY FROM DENSITY LOG
 NPOR_LS.DEC 42 890 01 00:   NEUTRON POROSITY LIMESTONE
 CALD.IN     45 280 60 00:   CALIPER FROM DENSITY LOG
 CORR.G/C3   45 356 01 00:   DENSITY CORRECTION
 RHOB.G/C3   45 350 01 00:   BULK DENSITY
 DPOR_LS.DEC 45 890 10 00:   DENSITY POROSITY LIMESTONE
 DT  .US/F   60 500 00 00:   DELTA-T (INTERVAL TRANSIT TIME)
 SPR .MV     07 010 01 00:   SPONTANEOUS POTENTIAL FROM RESISTIVITY LOG
 ILD .OHMM   07 120 46 00:   INDUCTION DEEP RESISTIVITY
 ILM .OHMM   07 120 44 00:   INDUCTION MEDIUM RESISTIVITY
~PARAMETER INFORMATION
#MNEM.UNIT          VALUE    DESCRIPTION
#----------   ------------   ------------------------------
 PD  .                 GL:   PERMANENT DATUM
 EPD .FT             2768:   ELEVATION PERMANENT DATUM
 LMF .                 KB:   LOG MEASURED FROM
 DAPD.FT               10:   FEET ABOVE PERMANENT DATUM
 DMF .                 KB:   DRILLING MEASURED FROM
 EKB .FT             2778:   KELLY BUSHING
 EDF .FT             2777:   DRILLING FLOOR
 EGL .FT             2768:   GROUND LEVEL
 DATE.           05/06/83:   RUN DATE
 RUN .                  1:   RUN NUMBER
 DD  .FT             5380:   DEPTH DRILLER
 DL  .FT             5377:   DEPTH LOGGER
 BLI .FT             5375:   BOTTOM LOG INTERVAL
 TLI .FT               50:   TOP LOG INTERVAL
 CS  .IN            8.625:   CASING SIZE
 CBD .FT             1596:   CASING BOTTOM DRILLER
 CBL .FT             1613:   CASING BOTTOM LOGGER
 BS  .IN             7.75:   BIT SIZE
 BSD .FT             5380:   BIT SIZE AT DEPTH
 DFT .           SALT GEL:   DRILLING FLUID TYPE
 DFD .               10.2:   DRILLING FLUID DENSITY
 DFV .                 33:   DRILLING FLUID VISCOSITY
 DFPH.                9.5:   DRILLING FLUID PH
 DFL .                 18:   DRILLING FLUID LOSS
 MSS .               CIRC:   MUD SAMPLE SOURCE
 RMS .OHMM           0.09:   RESISTIVITY MUD SAMPLE
 MST .DEGF             72:   MUD SAMPLE TEMPERATURE
 RMF .OHMM           0.08:   RESISTIVITY MUD FILTRATE SAMPLE
 MFST.DEGF             72:   MUD FILTRATE SAMPLE TEMPERATURE
 MFSS.               MEAS:   MUD FILTRATE SAMPLE SOURCE
 MCSS.               MEAS:   MUD CAKE SAMPLE SOURCE
 RMB .OHMM          0.059:   RESISTIVITY MUD AT BHT
 BHT .DEGF            112:   BOTTOM HOLE TEMPERATURE
 TCS .HRS               4:   TIME CIRCULATED STOPPED
 MRT .DEGF            112:   MAXIMUM RECORDED TEMPERATURE
 LUN .               3415:   LOGGING UNIT NUMBER
 LUL .             ODESSA:   LOGGING UNIT LOCATION
 ENGI.             LAWSON:   RECORDING ENGINEER
 WITN.            NORWOOD:   WITNESSED BY
 ORIG.      1" 2.5" PRINT:   ORIGIN OF DATA
 UWI .     42371342980000:   UNIQUE WELL ID
~OTHER INFORMATION
~A    DEPT        GRD      NPOR_LS      CALD        CORR        RHOB       DPOR_LS        DT         SPR         ILD         ILM    
# ...
  4228.5000      5.2136     -0.0084      9.2594      0.0438      2.8749     -0.0982     52.7598     -8.2595    319.8590     24.4682 
  4229.0000      5.4330     -0.0084      9.2612      0.0498      2.8841     -0.0926     52.5716     -8.1586    307.8128     24.6155 
  4229.5000      5.7606     -0.0084      9.2482      0.0470      2.8904     -0.0932     52.3944     -8.0696    300.4652     25.0711 
  4230.0000      6.4719     -0.0083      9.2527      0.0373      2.8955     -0.0968     52.2807     -8.0727    298.7410     25.3134 
  4230.5000      6.6792     -0.0082      9.2613      0.0219      2.8995     -0.0982     52.2468     -8.0758    298.3837     25.5580 
  4231.0000      6.5853     -0.0081      9.2534      0.0209      2.9026     -0.1000     52.2129     -8.0842    298.3837     25.8050 
  4231.5000      5.5662     -0.0079      9.2593      0.0248      2.9057     -0.1002     52.1790     -8.1399    303.1207     25.9966 
  4232.0000      4.8274     -0.0077      9.2511      0.0361      2.9068     -0.0937     52.0174     -8.2823    322.5681     26.0835 
  4232.5000      4.8670     -0.0076      9.2447      0.0404      2.9033     -0.0856     51.8404     -8.3933    359.2317     26.1126 
  4233.0000      5.2408     -0.0076      9.2409      0.0396      2.8812     -0.0774     51.6780     -8.3110    441.6352     26.1417 
  4233.5000      5.6741     -0.0075      9.2244      0.0347      2.8545     -0.0749     51.5199     -8.3156    464.0594     25.9488 
  4234.0000      6.4475     -0.0075      9.2361      0.0212      2.8376     -0.0718     51.4134     -8.3445    546.7028     26.0044 
  4234.5000      7.2181     -0.0075      9.2439      0.0192      2.8349     -0.0755     51.3830     -8.3735    583.2299     26.2311 
  4235.0000      7.8648     -0.0075      9.2430      0.0172      2.8352     -0.0832     51.4561     -8.4024    612.2811     26.1971 
  4235.5000      8.5010     -0.0075      9.2434      0.0201      2.8392     -0.0874     51.5724     -8.4313    637.1587     26.0848 
  4236.0000      9.2565     -0.0075      9.2437      0.0250      2.8588     -0.0923     51.9296     -8.4603    614.2688     25.8587 
  4236.5000      9.5388     -0.0075      9.2440      0.0250      2.8775     -0.0983     52.2869     -8.4892    537.9873     25.6346 
  4237.0000      9.5266     -0.0074      9.2398      0.0243      2.8926     -0.0986     52.5358     -8.4952    452.5408     25.4353 
  4237.5000      9.6066     -0.0074      9.2354      0.0203      2.8946     -0.0979     52.5739     -8.4940    390.3368     25.2559 
  4238.0000      9.4926     -0.0074      9.2452      0.0085      2.8874     -0.0939     52.5608     -8.5003    339.7059     25.0777 
  4238.5000      8.6345     -0.0074      9.2451     -0.0070      2.8740     -0.0851     52.4680     -8.5067    311.3340     24.9472 
  4239.0000      7.6473     -0.0074      9.2306     -0.0171      2.8631     -0.0828     52.2218     -8.5296    303.8224     25.1424 
  4239.5000      6.9705     -0.0073      9.2200     -0.0135      2.8555     -0.0808     51.9768     -8.5786    305.5321     25.4029 
  4240.0000      5.7969     -0.0071      9.2260      0.0022      2.8433     -0.0747     51.4135     -8.5283    310.0534     25.9327 
  4240.5000      4.5752     -0.0071      9.2205      0.0096      2.8299     -0.0679     51.4242     -8.5160    313.7672     26.4736 
  4241.0000      4.6530     -0.0072      9.2084      0.0096      2.8177     -0.0593     51.5336     -8.5637    307.6579     26.9878 
  4241.5000      5.4499     -0.0078      9.2015      0.0054      2.8147     -0.0527     51.6833     -8.5753    308.7069     27.1764 
  4242.0000      6.2468     -0.0082      9.1969     -0.0038      2.8159     -0.0597     51.7400     -8.5828    332.7100     26.8607 
  4242.5000      7.1082     -0.0086      9.1923     -0.0078      2.8217     -0.0808     51.7852     -8.5828    368.8109     25.9782 
  4243.0000      7.4488     -0.0086      9.1877     -0.0054      2.8468     -0.0978     51.7901     -8.5828    422.6061     26.0381 
  4243.5000      7.2111     -0.0088      9.1831      0.0013      2.8943     -0.0982     51.7097     -8.5828    473.0190     26.3358 
  4244.0000      6.6470     -0.0087      9.1785      0.0606      2.9513     -0.0982     51.6476     -8.5824    483.5760     26.8146 
  4244.5000      6.1171     -0.0086      9.1739      0.0644      2.9532     -0.0983     51.5918     -8.5809    485.1293     27.0746 
  4245.0000      5.5327     -0.0085      9.1794      0.0644      2.9377     -0.0973     51.5247     -8.5791    477.4458     27.1838 
  4245.5000      4.5054     -0.0084      9.1913      0.0617      2.9091     -0.0889     51.3971     -8.5804    461.3100     27.1306 
  4246.0000      3.8196     -0.0084      9.1896      0.0394      2.8804     -0.0844     51.3807     -8.5817    450.6052     27.0775 
  4246.5000      3.7327     -0.0083      9.1845      0.0319      2.8696     -0.0968     51.3461     -8.6009    449.3244     27.0245 
  4247.0000      4.2460     -0.0082      9.1836      0.0364      2.8768     -0.0987     51.3663     -8.7633    454.4022     26.9709 
  4247.5000      4.4463     -0.0082      9.1913      0.0423      2.9012     -0.0985     51.4085     -8.9256    501.5046     26.9175 
  4248.0000      4.5829     -0.0081      9.1889      0.0446      2.9093     -0.0959     51.4958     -8.9612    560.5543     26.8642 
  4248.5000      4.7517     -0.0081      9.1831      0.0397      2.9034     -0.0852     51.5587     -9.0103    569.0377     26.8110 
  4249.0000      4.9205     -0.0083      9.1742      0.0327      2.8745     -0.0628     51.6987     -9.0835    587.9269     26.7579 
  4249.5000      4.7475     -0.0084      9.1675      0.0270      2.8452     -0.0572     51.7986     -9.0839    583.0798     26.7440 
  4250.0000      4.7462     -0.0084      9.1699      0.0260      2.8195     -0.0775     52.0225     -9.1403    511.5542     26.7932 
  4250.5000      5.1225     -0.0083      9.1724      0.0249      2.8185     -0.0821     52.2662     -9.2108    448.8025     26.8319 
  4251.0000      5.5328     -0.0079      9.1838      0.0238      2.8189     -0.0758     52.3134     -9.2814    393.7487     26.8671 
  4251.5000      6.3213     -0.0075      9.2017      0.0232      2.8302     -0.0769     52.3755     -9.2821    350.4913     26.9022 
  4252.0000      7.1115     -0.0071      9.2069      0.0227      2.8415     -0.0907     52.3870     -9.3347    347.8995     26.9375 
  4252.5000      7.2915     -0.0068      9.1861      0.0255      2.8528     -0.0946     52.3869     -9.4243    380.4635     26.9727 
  4253.0000      7.2865     -0.0069      9.1519      0.0288      2.8636     -0.0884     52.3868     -9.4419    440.7949     26.9794 
  4253.5000      7.2815     -0.0072      9.1264      0.0316      2.8698     -0.0951     52.3839     -9.3749    460.8250     27.4451 
  4254.0000      7.3923     -0.0070      9.1282      0.0333      2.8761     -0.0964     52.3728     -9.2843    482.5656     28.1380 
  4254.5000      7.8656     -0.0065      9.1301      0.0350      2.8823     -0.0945     52.3640     -9.4035    505.3320     28.8485 
  4255.0000      8.4693     -0.0070      9.1319      0.0361      2.8826     -0.0925     52.4732     -9.7180    522.3691     28.8625 
  4255.5000      8.3269     -0.0072      9.1338      0.0362      2.8795     -0.0893     52.5823     -9.7185    535.8932     28.4880 
  4256.0000      8.1451     -0.0071      9.1347      0.0346      2.8724     -0.0861     52.7148     -9.3734    583.4868     28.0079 
  4256.5000      8.0941     -0.0068      9.1164      0.0286      2.8628     -0.0828     52.8255     -9.0407    920.0297     27.5360 
  4257.0000      8.0891     -0.0066      9.0923      0.0226      2.8532     -0.0714     52.8304     -9.0397   1365.0806     27.1144 
  4257.5000      9.8440     -0.0059      9.0797      0.0102      2.8233     -0.0507     52.8592     -9.0943   1947.1809     26.9784 
  4258.0000     13.5814     -0.0047      9.0708     -0.0205      2.7926     -0.0384     52.9810     -9.1974   1967.8740     26.8968 
  4258.5000     14.7071     -0.0045      9.0627     -0.0256      2.7817     -0.0331     53.0864     -9.3535   1970.3063     26.9043 
