#--------------------------------------------------#
#-------------------ENVERUS, INC.------------------#
#------------------WWW.ENVERUS.COM-----------------#
#------------------COPYRIGHT 2020------------------#
#--------------------------------------------------#
#THIS FILE MAY BE USED ONLY IN ACCORDANCE WITH A CURRENT SUBSCRIPTION AGREEMENT BETWEEN
#THE USER AND ENVERUS, INC. NO PART OF THIS FILE MAY BE REPRODUCED, USED, COPIED,
#MODIFIED, PROPAGATED, OR DISTRIBUTED EXCEPT IN ACCORDANCE WITH THE SUBSCRIPTION
#AGREEMENT. UNAUTHORIZED USE OR DISTRIBUTION OF ALL OR ANY PART OF THIS FILE MAY VIOLATE
#COPYRIGHT, TRADEMARK, AND/OR OTHER LAWS AND IS SUBJECT TO CIVIL AS WELL AS CRIMINAL
#SANCTIONS.
#--------------------------------------------------#
#THIS FILE IS PROVIDED "AS-IS" AND ALL WARRANTIES ARE EXPRESSLY DISCLAIMED, WHETHER
#EXPRESS, ORAL, IMPLIED, STATUTORY OR OTHERWISE, INCLUDING ANY IMPLIED WARRANTY OF FITNESS
#FOR A PARTICULAR PURPOSE, MERCHANTABILITY, TITLE OR NON-INFRINGEMENT, AND ANY WARRANTIES
#ARISING BY VIRTUE OF CUSTOM OF TRADE OR COURSE OF DEALING.  FURTHER, ENVERUS, INC.
#AND ITS LICENSORS DO NOT REPRESENT OR WARRANT THAT THIS FILE WILL MEET USER'S
#REQUIREMENTS OR ARE SUITABLE FOR USER'S NEEDS OR THAT THE DATA OR RESULTS PROVIDED IN
#CONJUNCTION THEREWITH ARE CORRECT, ACCURATE, TIMELY OR RELIABLE. THESE DISCLAIMERS SHALL
#APPLY REGARDLESS OF ANY FAILURE OF ESSENTIAL PURPOSE OF ANY LIMITED REMEDY.  SOME
#JURISDICTIONS DO NOT ALLOW THE EXCLUSION OF CERTAIN WARRANTIES SO SOME OF THE ABOVE
#EXCLUSIONS MAY NOT APPLY. IN NO EVENT SHALL ENVERUS, INC. OR ANY OF ITS AFFILIATES
#BE LIABLE UNDER ANY LEGAL THEORY, WHETHER IN TORT (INCLUDING WITHOUT LIMITATION
#NEGLIGENCE), CONTRACT, STRICT LIABILITY, STATUTORY OR OTHERWISE, FOR ANY SPECIAL,
#INCIDENTAL, CONSEQUENTIAL, EXEMPLARY, PUNITIVE OR INDIRECT DAMAGE OF ANY KIND, INCLUDING
#WITHOUT LIMITATION LOSS OF REVENUE, PROFITS, GOODWILL, USE, AND/OR DATA OR THE COST OF
#PROCUREMENT OF SUBSTITUTE GOODS OR SERVICES, EVEN IF APPRISED OF THE POSSIBILITY OF SUCH
#DAMAGES IN ADVANCE.
#--------------------------------------------------#

~VERSION INFORMATION
VERS. 2.0 : CWLS LOG ASCII STANDARD - VERSION 2.0
WRAP.  NO : ONE LINE PER DEPTH STEP
~WELL INFORMATION
#MNEMONIC     .UNIT              VALUE :DESCRIPTION
STRT       .FT                50 :START DEPTH
STOP       .FT                6118 :STOP DEPTH
STEP       .FT                   0.500 :STEP
NULL       .                  -999.990 :NULL
UWI        .              42389003090000 :UNIQUE WELL ID
API        .              42389003090000 :API NUMBER
COMP       .         :COMPANY
WELL       .         1, :WELL
DATE       .                            :LOG DATE
~CURVE INFORMATION
#MNEMONIC     .UNIT      API CODE :CURVE DESCRIPTION
DEPTH       .FT                      :MEASURED DEPTH
NEUT.API        UNKNOWN   :NEUT
GR.API        UNKNOWN   :GR
DT.US/FT        UNKNOWN   :DT
~A    DEPTH    NEUT    GR    DT
# ...
 2339.5     -999.990   11.209   66.327
 2340     -999.990   11.456   67.138
 2340.5     -999.990   11.626   67.949
 2341     -999.990   11.795   68.761
 2341.5     -999.990   11.964   69.572
 2342     -999.990   11.987   70.383
 2342.5     -999.990   11.414   71.195
 2343     -999.990   10.841   72.006
 2343.5     -999.990   10.269   72.818
 2344     -999.990   9.696   69.064
 2344.5     -999.990   9.124   70.309
 2345     -999.990   9.43   71.824
 2345.5     -999.990   10.634   73.34
 2346     -999.990   11.839   74.856
 2346.5     -999.990   13.043   76.372
 2347     -999.990   13.756   70.864
 2347.5     -999.990   13.531   64.302
 2348     -999.990   13.306   57.045
 2348.5     -999.990   13.081   49.789
 2349     -999.990   14.199   42.533
 2349.5     -999.990   15.353   42.594
 2350     -999.990   14.9   48.6
 2350.5     -999.990   14.447   51.624
 2351     -999.990   13.993   51.843
 2351.5     -999.990   13.54   52.061
 2352     -999.990   13.087   52.28
 2352.5     -999.990   12.633   52.298
 2353     -999.990   12.18   52.175
 2353.5     -999.990   11.727   52.053
 2354     -999.990   11.273   51.93
 2354.5     -999.990   10.82   51.808
 2355     -999.990   10.381   51.685
 2355.5     -999.990   10.584   51.562
 2356     -999.990   10.787   52.174
 2356.5     -999.990   10.99   52.979
 2357     -999.990   11.194   53.277
 2357.5     -999.990   11.397   53.052
 2358     -999.990   11.246   52.827
 2358.5     -999.990   10.405   52.602
 2359     -999.990   9.563   52.377
 2359.5     -999.990   8.722   52.152
 2360     -999.990   7.88   51.927
 2360.5     -999.990   8.672   51.702
 2361     -999.990   9.946   51.477
 2361.5     -999.990   11.22   51.752
 2362     -999.990   12.494   52.657
 2362.5     -999.990   13.971   51.875
 2363     -999.990   16.072   50.924
 2363.5     -999.990   18.174   51.305
 2364     -999.990   20.276   52.34
 2364.5     -999.990   19.186   53.374
 2365     -999.990   17.581   54.409
 2365.5     -999.990   15.976   53.833
 2366     -999.990   14.372   52.915
 2366.5     -999.990   12.767   51.997
 2367     -999.990   11.163   51.187
 2367.5     -999.990   10.41   51.402
 2368     -999.990   9.936   51.617
 2368.5     -999.990   9.461   51.832
 2369     -999.990   8.987   52.048
 2369.5     -999.990   8.513   51.922
 2370     -999.990   8.039   51.753
 2370.5     -999.990   8.136   51.585
 2371     -999.990   8.511   51.522
 2371.5     -999.990   8.885   51.821
 2372     -999.990   9.259   52.12
 2372.5     -999.990   9.633   52.419
 2373     -999.990   10.007   52.717
 2373.5     -999.990   10.382   52.765
 2374     -999.990   10.756   51.475
 2374.5     -999.990   11.13   51.476
 2375     -999.990   11.504   51.78
 2375.5     -999.990   11.878   52.06
 2376     -999.990   12.252   51.801
 2376.5     -999.990   12.627   51.542
 2377     -999.990   13.001   51.283
 2377.5     -999.990   13.287   51.025
 2378     -999.990   13.35   50.766
 2378.5     -999.990   13.414   50.639
 2379     -999.990   13.126   50.708
 2379.5     -999.990   11.782   50.778
 2380     -999.990   10.438   50.848
 2380.5     -999.990   9.094   50.918
 2381     -999.990   8.812   50.987
 2381.5     -999.990   8.766   51.057
 2382     -999.990   8.72   51.127
 2382.5     -999.990   8.674   51.197
 2383     -999.990   9.647   51.267
 2383.5     -999.990   11.177   51.336
 2384     -999.990   12.707   51.192
 2384.5     -999.990   14.237   50.993
 2385     -999.990   15.767   50.794
 2385.5     -999.990   16.293   50.595
 2386     -999.990   15.104   50.395
 2386.5     -999.990   13.916   50.196
 2387     -999.990   12.727   50.312
 2387.5     -999.990   11.539   50.528
 2388     -999.990   10.437   50.745
 2388.5     -999.990   11.865   50.617
 2389     -999.990   12.865   50.421
 2389.5     -999.990   11.409   50.354
 2390     -999.990   9.954   50.395
 2390.5     -999.990   8.499   50.436
 2391     -999.990   9.468   50.476
 2391.5     -999.990   11.404   50.611
 2392     -999.990   13.339   50.877
 2392.5     -999.990   15.275   51.143
 2393     -999.990   17.211   51.409
 2393.5     -999.990   19.147   51.278
 2394     -999.990   21.082   51.089
 2394.5     -999.990   24.032   50.9
 2395     -999.990   27.761   50.662
 2395.5     -999.990   31.49   49.773
 2396     -999.990   31.248   48.885
 2396.5     -999.990   28.079   48.908
 2397     -999.990   24.911   49.08
 2397.5     -999.990   21.742   49.252
 2398     -999.990   18.574   49.654
 2398.5     -999.990   15.405   50.22
 2399     -999.990   14.539   50.786
 2399.5     -999.990   14.201   50.836
 2400     -999.990   13.864   50.765
 2400.5     -999.990   13.527   50.695
 2401     -999.990   13.701   50.625
 2401.5     -999.990   15.359   50.554
 2402     -999.990   17.018   50.939
 2402.5     -999.990   18.676   51.814
 2403     -999.990   20.335   54.508
 2403.5     -999.990   19.005   59.42
 2404     -999.990   16.604   59.805
 2404.5     -999.990   14.203   56.237
 2405     -999.990   11.802   52.67
 2405.5     -999.990   9.401   51.515
 2406     -999.990   8.534   51.625
 2406.5     -999.990   10.247   51.735
 2407     -999.990   11.96   51.845
 2407.5     -999.990   13.674   51.955
 2408     -999.990   15.387   52.065
 2408.5     -999.990   16.719   52.044
 2409     -999.990   14.608   51.861
 2409.5     -999.990   12.989   51.677
 2410     -999.990   13.497   51.493
 2410.5     -999.990   14.005   51.309
 2411     -999.990   14.513   51.125
 2411.5     -999.990   14.975   51.264
 2412     -999.990   13.652   51.42
 2412.5     -999.990   12.329   51.575
 2413     -999.990   11.006   51.73
 2413.5     -999.990   9.683   51.885
 2414     -999.990   8.36   51.802
 2414.5     -999.990   7.037   51.691
 2415     -999.990   8.011   51.579
 2415.5     -999.990   9.175   51.468
 2416     -999.990   10.339   51.357
 2416.5     -999.990   11.503   51.012
 2417     -999.990   12.666   50.628
 2417.5     -999.990   13.357   50.244
 2418     -999.990   13.781   52.265
 2418.5     -999.990   14.204   63.56
 2419     -999.990   14.627   74.855
 2419.5     -999.990   14.91   86.15
 2420     -999.990   13.867   81.983
 2420.5     -999.990   12.824   76.022
 2421     -999.990   11.781   70.06
 2421.5     -999.990   10.738   67.653
 2422     -999.990   9.695   67.264
 2422.5     -999.990   9.484   66.875
 2423     -999.990   10.615   66.485
 2423.5     -999.990   11.746   66.263
 2424     -999.990   12.877   67.228
 2424.5     -999.990   11.903   68.192
 2425     -999.990   10.893   69.021
 2425.5     -999.990   10.545   67.548
 2426     -999.990   11.609   66.076
 2426.5     -999.990   12.672   64.603
 2427     -999.990   13.736   73.96
 2427.5     -999.990   14.555   72.028
 2428     -999.990   14.121   70.097
 2428.5     -999.990   13.687   68.165
 2429     -999.990   13.254   66.233
 2429.5     -999.990   12.82   64.502
 2430     -999.990   12.387   67.147
 2430.5     -999.990   11.953   69.793
 2431     -999.990   11.519   72.438
 2431.5     -999.990   12.564   70.242
 2432     -999.990   20.082   67.499
 2432.5     -999.990   26.395   64.756
 2433     -999.990   30.422   61.789
 2433.5     -999.990   34.45   58.177
 2434     -999.990   38.477   54.565
 2434.5     -999.990   40.771   55.95
 2435     -999.990   37.602   75.789
 2435.5     -999.990   34.434   70.716
 2436     -999.990   31.266   67.06
 2436.5     -999.990   28.097   71.252
 2437     -999.990   26.11   69.332
 2437.5     -999.990   24.814   63.721
 2438     -999.990   23.518   65.275
 2438.5     -999.990   21.841   66.829
 2439     -999.990   20.148   64.789
 2439.5     -999.990   18.456   62.103
 2440     -999.990   16.763   59.418
 2440.5     -999.990   16.433   70.453
 2441     -999.990   16.535   68.377
 2441.5     -999.990   16.636   75.738
 2442     -999.990   16.738   73.921
 2442.5     -999.990   13.987   72.103
 2443     -999.990   14.123   70.285
 2443.5     -999.990   14.258   68.468
 2444     -999.990   14.393   66.65
 2444.5     -999.990   14.528   67.204
 2445     -999.990   14.464   69.984
 2445.5     -999.990   13.863   72.175
