###############################################
##         ENVERUS                           ##
##         ESS - Open Hole                   ##
##         PERMIAN / DELAWARE                ##
##         Nov 04 2023  V4.0                 ##
##         42-371-36358-00-00                ##
###############################################
## Copyright 2017-2023  ENVERUS.  All Rights Reserved. 
## Confidential - Property of ENVERUS, use governed by terms and 
## conditions found within the existing Information Services Subscription Agreement 
## (as may be amended, the “ISSA”) between Customer and ENVERUS. 
## 
~VERSION INFORMATION
# MNEM.UNIT                               DATA : DESCRIPTION OF MNEMONIC
#-----.-----     ----------------------------- : -----------------------------
VERS.                                     2.00 : CWLS LOG ASCII STANDARD - VERSION 2.00
WRAP.                                       NO : MULTIPLE LINES PER DEPTH STEP
VEND.                                  ENVERUS : VENDOR
TYPE.                          ESS - OPEN HOLE : ENVERUS ESSENTIAL CURVES – ACCESSIBLE THROUGH ENVERUS PRISM(TM)
DOC.                                  32044985 : ENVERUS HEADER RAW DOCUMENT ID
#___________________________________________________________________________________________________ 
~WELL INFORMATION 
# 9/F+NtSLBEAIaZM9LpLMxALTyCH3LMfPBQiNKTeSadJ6NAezaEZy+3+OEP8rVGNvVB4ifWNnxSKvs1BiqqZA9A== 
# MNEM.UNIT                                              DATA : DESCRIPTION OF MNEMONIC 
#-----.-----                    ----------------------------- : ----------------------------- 
CNTY.                                                   PECOS : COUNTY 
STATE.                                                  TEXAS : STATE 
CNTRY.                                                    USA : COUNTRY 
API.                                             42-371-36358 : API (10 Digit) 
API_14.                                    42-371-36358-00-00 : API (14 Digits) 
API_14_std.                                 42-371-36358-0000 : API (14 Digits Standard) 
UWI.                                           42371363580000 : UNIQUE WELL ID 
WELL.                           SCHLOSSER, FRED ESTATE -B-  9 : WELL NAME
STRT.FT                                                 151.0 : START DEPTH
STOP.FT                                                5707.0 : STOP DEPTH
STEP.FT                                                   0.5 : STEP BETWEEN DEPTHS
NULL.                                                 -999.25 : NULL VALUE
COMP.                                      APACHE CORPORATION : COMPANY 
DATE.                                             07-JUN-1992 : LOG DATE
#___________________________________________________________________________________________________ 
~CURVE INFORMATION 
# MNEM.UNIT           : CURVE DESCRIPTION 
#-----.-----          : ----------------------------- 
 DEPT.FT               : MEASURED DEPTH 
 GR.API                : GAMMA RAY (GR) 
 DT.US/FT              : SONIC DELTA TRANSIT TIME (DT) 
 #___________________________________________________________________________________________________ 
~A         DEPT             GR             DT
# ...
         5632.0         66.877         67.216
         5632.5         61.293         67.852
         5633.0         58.280         65.330
         5633.5         66.811         61.601
         5634.0         75.341         60.983
         5634.5         83.872         63.110
         5635.0         89.842         65.237
         5635.5         90.847         67.108
         5636.0         91.851         68.195
         5636.5         93.800         68.648
         5637.0         98.475         68.325
         5637.5        108.564         70.069
         5638.0        118.653         71.812
         5638.5        128.181         73.555
         5639.0        136.157         75.298
         5639.5        132.126         73.662
         5640.0        123.734         71.904
         5640.5        111.876         69.035
         5641.0         96.958         66.805
         5641.5         96.475         66.499
         5642.0        104.653         66.193
         5642.5        112.830         68.178
         5643.0        121.008         70.338
         5643.5        137.731         72.499
         5644.0        154.415         74.659
         5644.5        157.804         78.103
         5645.0        138.640         78.069
         5645.5        119.748         75.956
         5646.0         77.941         73.649
         5646.5         67.494         69.412
         5647.0         57.741         66.730
         5647.5         54.944         65.984
         5648.0         52.202         66.067
         5648.5         49.463         66.149
         5649.0         48.938         65.035
         5649.5         48.620         63.582
         5650.0         49.657         62.507
         5650.5         51.987         64.007
         5651.0         54.314         65.507
         5651.5         54.541         67.007
         5652.0         54.767         68.506
         5652.5         55.587         68.724
         5653.0         57.976         68.713
         5653.5         60.365         69.168
         5654.0         61.385         69.948
         5654.5         61.975         69.847
         5655.0         64.942         68.612
         5655.5         68.081         67.378
         5656.0         71.221         66.143
         5656.5         74.060         66.590
         5657.0         76.796         67.466
         5657.5         79.533         68.342
         5658.0         82.269         67.901
         5658.5         85.005         67.431
         5659.0         87.317         67.969
         5659.5         89.432         68.528
         5660.0         91.546         69.087
         5660.5         86.061         69.646
         5661.0         74.427         69.710
         5661.5         64.350         69.101
         5662.0         59.565         68.289
         5662.5         60.348         66.935
         5663.0         61.131         65.399
         5663.5         62.960         63.864
         5664.0         66.173         62.900
         5664.5         69.385         62.968
         5665.0         75.644         64.178
         5665.5         84.335         65.500
         5666.0        102.716         66.823
         5666.5        119.227         68.953
         5667.0        132.548         71.238
         5667.5        145.193         73.129
         5668.0        157.839         75.021
         5668.5        163.269         76.170
         5669.0        164.682         77.154
         5669.5        163.278         78.137
         5670.0        161.127         78.013
         5670.5        158.975         75.624
         5671.0         75.559         73.919
         5671.5         71.759         72.499
         5672.0         70.972         68.150
         5672.5         74.866         65.247
         5673.0         78.760         64.160
         5673.5         82.654         64.253
         5674.0         86.549         65.300
         5674.5         89.027         66.655
         5675.0         86.318         67.487
         5675.5         83.608         68.303
         5676.0         80.899         69.118
         5676.5         75.605         69.567
         5677.0         69.461         69.485
         5677.5         63.521         68.963
         5678.0         65.987         68.442
         5678.5         68.454         67.920
         5679.0         70.920         68.055
         5679.5         73.386         68.613
         5680.0         75.852         69.630
         5680.5         76.552         70.647
         5681.0         73.887         71.252
         5681.5         71.221         71.161
         5682.0         68.555         70.510
         5682.5         65.890         69.658
         5683.0         64.001         68.806
         5683.5         66.423         69.185
         5684.0         68.845         70.393
         5684.5         71.267         72.041
         5685.0         73.689         73.689
         5685.5         76.111         74.774
         5686.0         78.533         74.990
         5686.5         80.955         75.029
         5687.0         83.377         74.151
         5687.5         79.392         73.742
         5688.0         75.100         73.621
         5688.5         70.807         73.483
         5689.0         58.808         72.910
         5689.5         59.315         72.336
         5690.0         59.821         72.327
         5690.5         60.328         73.002
         5691.0         59.377         73.678
         5691.5         57.035         73.843
         5692.0         54.693         73.398
         5692.5         52.456         73.555
         5693.0         53.401         74.435
         5693.5         54.345         75.314
         5694.0         55.290         76.194
         5694.5         56.235         75.150
         5695.0         57.180         72.553
         5695.5         57.039         71.365
         5696.0         56.649         72.172
         5696.5         56.260         72.979
         5697.0         55.870         73.786
         5697.5         55.480         74.094
         5698.0         55.091         73.322
         5698.5       -999.250         73.276
         5699.0       -999.250         73.667
         5699.5       -999.250         74.097
         5700.0       -999.250         74.244
         5700.5       -999.250         73.938
         5701.0       -999.250         73.714
         5701.5       -999.250         73.634
         5702.0       -999.250         73.553
         5702.5       -999.250         73.644
         5703.0       -999.250         74.142
         5703.5       -999.250         74.640
         5704.0       -999.250         74.771
         5704.5       -999.250         74.386
         5705.0       -999.250         73.890
         5705.5       -999.250         73.889
         5706.0       -999.250         73.990
         5706.5       -999.250         75.217
         5707.0       -999.250         75.219
