~VERSION INFORMATION
 VERS.                2.0:   CWLS LOG ASCII STANDARD - VERSION 2.0
 WRAP.                 NO:   ONE LINE PER DEPTH STEP
~WELL INFORMATION
#MNEM.UNIT      DATA TYPE    INFORMATION
#----------   ------------   ------------------------------
 STRT.FT          50.0000:   START DEPTH
 STOP.FT        5375.0000:   STOP DEPTH
 STEP.FT           0.5000:   STEP LENGTH
 NULL.          -999.2500:   NULL VALUE
 COMP.  A.N. NORWOOD, INC:   COMPANY
 WELL.        MCINTYRE #1:   WELL
 FLD .  ROJO CABALLOS, S.:   FIELD
 LOC .                   :   LOCATION
 CNTY.              PECOS:   COUNTY
 STAT.              TEXAS:   STATE
 CTRY. UNITED STATES OF AMERICA:   COUNTRY
 SRVC.              Welex:   SERVICE COMPANY
 DATE.        06-May-1983:   LOGDATE
 API .     42371342980000:   API NUMBER
~CURVE INFORMATION
#MNEM.UNIT       API CODE    CURVE DESCRIPTION
#----------   ------------   ------------------------------
 DEPT.F      0   1   0  0:   1 MEASURED DEPTH
 GRD .GAPI   45 310 01 00:   GAMMA RAY FROM DENSITY LOG
 NPOR_LS.DEC 42 890 01 00:   NEUTRON POROSITY LIMESTONE
 CALD.IN     45 280 60 00:   CALIPER FROM DENSITY LOG
 CORR.G/C3   45 356 01 00:   DENSITY CORRECTION
 RHOB.G/C3   45 350 01 00:   BULK DENSITY
 DPOR_LS.DEC 45 890 10 00:   DENSITY POROSITY LIMESTONE
 DT  .US/F   60 500 00 00:   DELTA-T (INTERVAL TRANSIT TIME)
 SPR .MV     07 010 01 00:   SPONTANEOUS POTENTIAL FROM RESISTIVITY LOG
 ILD .OHMM   07 120 46 00:   INDUCTION DEEP RESISTIVITY
 ILM .OHMM   07 120 44 00:   INDUCTION MEDIUM RESISTIVITY
~PARAMETER INFORMATION
#MNEM.UNIT          VALUE    DESCRIPTION
#----------   ------------   ------------------------------
 PD  .                 GL:   PERMANENT DATUM
 EPD .FT             2768:   ELEVATION PERMANENT DATUM
 LMF .                 KB:   LOG MEASURED FROM
 DAPD.FT               10:   FEET ABOVE PERMANENT DATUM
 DMF .                 KB:   DRILLING MEASURED FROM
 EKB .FT             2778:   KELLY BUSHING
 EDF .FT             2777:   DRILLING FLOOR
 EGL .FT             2768:   GROUND LEVEL
 DATE.           05/06/83:   RUN DATE
 RUN .                  1:   RUN NUMBER
 DD  .FT             5380:   DEPTH DRILLER
 DL  .FT             5377:   DEPTH LOGGER
 BLI .FT             5375:   BOTTOM LOG INTERVAL
 TLI .FT               50:   TOP LOG INTERVAL
 CS  .IN            8.625:   CASING SIZE
 CBD .FT             1596:   CASING BOTTOM DRILLER
 CBL .FT             1613:   CASING BOTTOM LOGGER
 BS  .IN             7.75:   BIT SIZE
 BSD .FT             5380:   BIT SIZE AT DEPTH
 DFT .           SALT GEL:   DRILLING FLUID TYPE
 DFD .               10.2:   DRILLING FLUID DENSITY
 DFV .                 33:   DRILLING FLUID VISCOSITY
 DFPH.                9.5:   DRILLING FLUID PH
 DFL .                 18:   DRILLING FLUID LOSS
 MSS .               CIRC:   MUD SAMPLE SOURCE
 RMS .OHMM           0.09:   RESISTIVITY MUD SAMPLE
 MST .DEGF             72:   MUD SAMPLE TEMPERATURE
 RMF .OHMM           0.08:   RESISTIVITY MUD FILTRATE SAMPLE
 MFST.DEGF             72:   MUD FILTRATE SAMPLE TEMPERATURE
 MFSS.               MEAS:   MUD FILTRATE SAMPLE SOURCE
 MCSS.               MEAS:   MUD CAKE SAMPLE SOURCE
 RMB .OHMM          0.059:   RESISTIVITY MUD AT BHT
 BHT .DEGF            112:   BOTTOM HOLE TEMPERATURE
 TCS .HRS               4:   TIME CIRCULATED STOPPED
 MRT .DEGF            112:   MAXIMUM RECORDED TEMPERATURE
 LUN .               3415:   LOGGING UNIT NUMBER
 LUL .             ODESSA:   LOGGING UNIT LOCATION
 ENGI.             LAWSON:   RECORDING ENGINEER
 WITN.            NORWOOD:   WITNESSED BY
 ORIG.      1" 2.5" PRINT:   ORIGIN OF DATA
 UWI .     42371342980000:   UNIQUE WELL ID
~OTHER INFORMATION
~A    DEPT        GRD      NPOR_LS      CALD        CORR        RHOB       DPOR_LS        DT         SPR         ILD         ILM    
# ...
  4503.0000      6.3708     -0.0112     10.3534      0.0188      2.9148     -0.1000     49.0470    -16.2387   1933.5154     17.5152 
  4503.5000      6.5882     -0.0110     10.3570      0.0378      2.9386     -0.1008     49.2094    -16.3009   1933.5154     17.2836 
  4504.0000      6.6676     -0.0111     10.3796      0.0567      2.9624     -0.1012     49.2962    -16.3999   1933.5154     16.6793 
  4504.5000      7.3142     -0.0112     10.3940      0.0601      2.9671     -0.1009     49.3333    -16.5042   1933.5154     15.6147 
  4505.0000      8.3844     -0.0114     10.3971      0.0571      2.9644     -0.1002     49.3842    -16.6084   1927.6385     14.4442 
  4505.5000      9.6732     -0.0112     10.3994      0.0442      2.9167     -0.0999     49.8919    -16.6805   1920.9061     13.3292 
  4506.0000      9.7392     -0.0116     10.3988      0.0273      2.8367     -0.0955     51.5776    -16.6503   1905.5913     10.6466 
  4506.5000      9.1822     -0.0121     10.3981      0.0105      2.7139      0.0363     54.9041    -16.6833   1863.0963      8.5326 
  4507.0000      7.8261     -0.0125     10.4232     -0.0035      2.5939      0.1190     59.4889    -16.7341   1205.5569      7.0749 
  4507.5000      6.3388     -0.0130     10.4929     -0.0130      2.5221      0.2018     63.7225    -16.6632    103.6093      5.6246 
  4508.0000      4.3743     -0.0135     10.6133     -0.0192      2.3719      0.2736     66.0001    -16.4174     26.6469      4.4716 
  4508.5000      3.5817     -0.0150     11.0273     -0.0171      2.2217      0.3345     67.1755    -16.2185     16.3134      3.5549 
  4509.0000      3.3188     -0.0146     11.0384     -0.0067      2.0745      0.3735     67.7208    -16.3035     13.9821      3.3918 
  4509.5000      3.4178     -0.0128     10.9924      0.0119      2.0755      0.3823     66.7691    -16.3967     12.7223      3.4946 
  4510.0000      3.8230     -0.0108     10.9202      0.0306      2.1142      0.3704     64.0163    -16.3529     12.4600      4.7114 
  4510.5000      4.4702     -0.0088     10.8619      0.0492      2.1597      0.3284     60.8637    -16.3290     12.7062      6.4762 
  4511.0000      5.2930     -0.0076     10.7586      0.0678      2.2052      0.2863     56.6434    -16.3166     13.5578      8.8956 
  4511.5000      6.2351     -0.0072     10.4935      0.0852      2.3549      0.1580     52.4232    -16.4161     16.2282     12.2210 
  4512.0000      6.7151     -0.0068     10.3572      0.0876      2.4259      0.0532     49.6841    -16.5788     25.5424     16.8840 
  4512.5000      7.1249     -0.0070     10.3449      0.0899      2.4965     -0.0875     48.6155    -16.5759     48.6103     22.7442 
  4513.0000      7.6380     -0.0086     10.3413      0.0921      2.8896     -0.0996     48.2471    -16.6953     96.0672     22.4349 
  4513.5000      8.4520     -0.0098     10.3214      0.0635      2.9139     -0.1000     48.2399    -17.0186    690.7807     17.6669 
  4514.0000      8.8921     -0.0103     10.2939      0.0408      2.9008     -0.0927     48.7940    -17.2234   1933.5154     16.6334 
  4514.5000      9.1778     -0.0105     10.2800      0.0305      2.8773     -0.0860     49.3802    -17.0803   1933.5154     16.3901 
  4515.0000      9.2604     -0.0107     10.2787      0.0201      2.8574     -0.0897     49.6599    -16.8532   1933.5154     16.1504 
  4515.5000      9.2932     -0.0107     10.2605      0.0098      2.8584     -0.0959     49.7419    -16.6123   1934.4922     15.8296 
  4516.0000      9.2852     -0.0104     10.2554      0.0053      2.8704     -0.0998     49.6133    -16.5142   1938.0446     15.4199 
  4516.5000      9.3882     -0.0100     10.2523      0.0024      2.8837     -0.0997     49.4023    -16.4180   1941.6035     15.0301 
  4517.0000      9.5257     -0.0107     10.2474      0.0038      2.8971     -0.0997     49.4235    -16.3411   1945.1702     14.5493 
  4517.5000      9.5783     -0.0109     10.2410      0.0059      2.9101     -0.0994     49.5552    -16.3357   1929.0603     13.6713 
  4518.0000      9.5569     -0.0107     10.2345      0.0254      2.9138     -0.0991     49.9548    -16.3112   1906.7571     11.7750 
  4518.5000      9.4515     -0.0106     10.2455      0.0474      2.9035     -0.0957     51.5212    -16.3319   1210.1926     10.4016 
  4519.0000      8.8524     -0.0111     10.2450      0.0475      2.8132     -0.0653     54.3644    -16.2030    991.2935      9.1087 
  4519.5000      8.1524     -0.0116     10.2475      0.0426      2.6839     -0.0156     58.2997    -16.0741     91.4636      6.9509 
  4520.0000      6.9627     -0.0121     10.2779      0.0346      2.5546      0.1725     61.8421    -15.9452     34.8083      5.3383 
  4520.5000      5.4880     -0.0117     10.3083      0.0298      2.4270      0.2821     64.6534    -15.8164     19.5159      4.5109 
  4521.0000      5.1702     -0.0103     10.3361      0.0298      2.2999      0.2916     65.0042    -15.8142     20.8801      4.0045 
  4521.5000      5.3667     -0.0071     10.3350      0.0312      2.2171      0.2882     61.0643    -15.8305     26.4115      3.8729 
  4522.0000      6.5870     -0.0048     10.2949      0.0455      2.2181      0.2478     56.2005    -15.8467     37.0502      5.4761 
  4522.5000      7.8664     -0.0052     10.2006      0.0606      2.2255      0.1628     52.1283    -15.8630     29.9629     21.4810 
  4523.0000      9.0003     -0.0065     10.0988      0.0678      2.4432      0.1422     50.3129    -15.8792     79.7590     21.3351 
  4523.5000      9.5102     -0.0090     10.0089      0.0687      2.5915      0.0046     50.1651    -15.8955    106.1771     20.2758 
  4524.0000      9.3694     -0.0100      9.9683      0.0646      2.7392     -0.0721     50.4026    -15.8314     23.2383     19.2690 
  4524.5000      8.1725     -0.0101      9.9446      0.0398      2.8813     -0.0993     50.7114    -15.7427     31.5841     18.3123 
  4525.0000      6.8859     -0.0101      9.9209      0.0198      2.8884     -0.0979     50.8831    -15.6540    197.1175     17.5655 
  4525.5000      6.0186     -0.0103      9.8972     -0.0002      2.8860     -0.0953     50.7553    -15.5654   1008.5610     17.4226 
  4526.0000      5.5404     -0.0105      9.8736     -0.0118      2.8818     -0.0972     50.4668    -15.4767   1507.2125     17.9869 
  4526.5000      5.0621     -0.0108      9.8499     -0.0125      2.8757     -0.0984     50.3144    -15.3880   1960.8472     18.7651 
  4527.0000      4.9248     -0.0109      9.8268     -0.0067      2.8711     -0.0974     50.2734    -15.2994   1963.5941     19.5769 
  4527.5000      5.0453     -0.0111      9.8054      0.0026      2.8714     -0.0922     50.2758    -15.2107   1949.7983     19.8626 
  4528.0000      5.1659     -0.0111      9.7839      0.0201      2.8860     -0.0982     50.1624    -15.1982   1936.0996     19.6506 
  4528.5000      5.2864     -0.0107      9.7625      0.0376      2.9006     -0.0997     50.0647    -15.1982    681.1708     18.6675 
  4529.0000      5.4070     -0.0105      9.7410      0.0551      2.9153   -999.2500     50.0144    -15.2652    662.7058     18.6761 
  4529.5000      5.5538     -0.0105      9.7142      0.0726      2.9408   -999.2500     50.0716    -15.3700    688.5178     18.6847 
  4530.0000      5.8840     -0.0105      9.6851      0.0870      2.9678   -999.2500     50.1323    -15.4747   1059.5575     18.6907 
  4530.5000      6.2286     -0.0105      9.6580      0.0901      2.9834   -999.2500     50.1613    -15.5794   1311.3042     18.5232 
  4531.0000      6.5808     -0.0105      9.6423      0.0907      2.9842   -999.2500     50.1613    -15.6842    796.6678     18.0703 
  4531.5000      6.8161     -0.0105      9.6266      0.0906      2.9828   -999.2500     50.1613    -15.7889    463.3056     17.8028 
  4532.0000      7.2643     -0.0104      9.6109      0.0882      2.9777   -999.2500     50.1193    -15.8936    457.6783     16.7763 
  4532.5000      8.0894     -0.0098      9.5952      0.0843      2.9649   -999.2500     50.1445    -15.9985    607.5172     16.2304 
  4533.0000      9.1637     -0.0093      9.5795      0.0773      2.9499     -0.0975     50.1037    -16.1036    806.4117     16.6425 
