#--------------------------------------------------#
#-------------------ENVERUS, INC.------------------#
#------------------WWW.ENVERUS.COM-----------------#
#------------------COPYRIGHT 2020------------------#
#--------------------------------------------------#
#THIS FILE MAY BE USED ONLY IN ACCORDANCE WITH A CURRENT SUBSCRIPTION AGREEMENT BETWEEN
#THE USER AND ENVERUS, INC. NO PART OF THIS FILE MAY BE REPRODUCED, USED, COPIED,
#MODIFIED, PROPAGATED, OR DISTRIBUTED EXCEPT IN ACCORDANCE WITH THE SUBSCRIPTION
#AGREEMENT. UNAUTHORIZED USE OR DISTRIBUTION OF ALL OR ANY PART OF THIS FILE MAY VIOLATE
#COPYRIGHT, TRADEMARK, AND/OR OTHER LAWS AND IS SUBJECT TO CIVIL AS WELL AS CRIMINAL
#SANCTIONS.
#--------------------------------------------------#
#THIS FILE IS PROVIDED "AS-IS" AND ALL WARRANTIES ARE EXPRESSLY DISCLAIMED, WHETHER
#EXPRESS, ORAL, IMPLIED, STATUTORY OR OTHERWISE, INCLUDING ANY IMPLIED WARRANTY OF FITNESS
#FOR A PARTICULAR PURPOSE, MERCHANTABILITY, TITLE OR NON-INFRINGEMENT, AND ANY WARRANTIES
#ARISING BY VIRTUE OF CUSTOM OF TRADE OR COURSE OF DEALING.  FURTHER, ENVERUS, INC.
#AND ITS LICENSORS DO NOT REPRESENT OR WARRANT THAT THIS FILE WILL MEET USER'S
#REQUIREMENTS OR ARE SUITABLE FOR USER'S NEEDS OR THAT THE DATA OR RESULTS PROVIDED IN
#CONJUNCTION THEREWITH ARE CORRECT, ACCURATE, TIMELY OR RELIABLE. THESE DISCLAIMERS SHALL
#APPLY REGARDLESS OF ANY FAILURE OF ESSENTIAL PURPOSE OF ANY LIMITED REMEDY.  SOME
#JURISDICTIONS DO NOT ALLOW THE EXCLUSION OF CERTAIN WARRANTIES SO SOME OF THE ABOVE
#EXCLUSIONS MAY NOT APPLY. IN NO EVENT SHALL ENVERUS, INC. OR ANY OF ITS AFFILIATES
#BE LIABLE UNDER ANY LEGAL THEORY, WHETHER IN TORT (INCLUDING WITHOUT LIMITATION
#NEGLIGENCE), CONTRACT, STRICT LIABILITY, STATUTORY OR OTHERWISE, FOR ANY SPECIAL,
#INCIDENTAL, CONSEQUENTIAL, EXEMPLARY, PUNITIVE OR INDIRECT DAMAGE OF ANY KIND, INCLUDING
#WITHOUT LIMITATION LOSS OF REVENUE, PROFITS, GOODWILL, USE, AND/OR DATA OR THE COST OF
#PROCUREMENT OF SUBSTITUTE GOODS OR SERVICES, EVEN IF APPRISED OF THE POSSIBILITY OF SUCH
#DAMAGES IN ADVANCE.
#--------------------------------------------------#

~VERSION INFORMATION
VERS. 2.0 : CWLS LOG ASCII STANDARD - VERSION 2.0
WRAP.  NO : ONE LINE PER DEPTH STEP
~WELL INFORMATION
#MNEMONIC     .UNIT              VALUE :DESCRIPTION
STRT       .FT                102 :START DEPTH
STOP       .FT                5463 :STOP DEPTH
STEP       .FT                   0.500 :STEP
NULL       .                  -999.990 :NULL
UWI        .              42371363560000 :UNIQUE WELL ID
API        .              42371363560000 :API NUMBER
COMP       .         APACHE CORPORATION :COMPANY
WELL       .        SCHLOSSER, FRED ESTATE -B-  11 :WELL
DATE       .                22-JUN-1992 :LOG DATE
~CURVE INFORMATION
#MNEMONIC     .UNIT      API CODE :CURVE DESCRIPTION
DEPTH       .FT                      :MEASURED DEPTH
DT.US/FT        UNKNOWN   :DT
GR.API        UNKNOWN   :GR
~A    DEPTH    DT    GR
# ...
 1825     69.036   2.829
 1825.5     69.246   2.281
 1826     69.457   1.732
 1826.5     69.207   2.467
 1827     68.923   3.492
 1827.5     68.64   4.517
 1828     68.94   5.452
 1828.5     69.376   6.327
 1829     69.811   6.037
 1829.5     70.207   5.748
 1830     69.985   5.458
 1830.5     71.363   5.168
 1831     71.892   4.878
 1831.5     71.787   4.589
 1832     71.682   4.344
 1832.5     71.468   5.026
 1833     71.093   5.707
 1833.5     70.718   6.388
 1834     70.556   6.802
 1834.5     70.869   6.531
 1835     71.182   6.26
 1835.5     71.352   5.925
 1836     71.371   5.533
 1836.5     71.391   5.347
 1837     70.109   5.281
 1837.5     68.375   5.214
 1838     69.667   5.344
 1838.5     71.874   5.695
 1839     74.081   6.046
 1839.5     71.785   6.269
 1840     70.845   5.5
 1840.5     70.334   4.73
 1841     70.187   3.961
 1841.5     70.04   4.486
 1842     69.892   5.11
 1842.5     69.745   5.734
 1843     70.25   6.359
 1843.5     71.26   6.983
 1844     72.2   7.237
 1844.5     71.781   6.525
 1845     71.362   5.814
 1845.5     70.944   5.102
 1846     70.371   4.39
 1846.5     68.792   3.823
 1847     68.442   3.884
 1847.5     68.189   3.944
 1848     68.715   4.005
 1848.5     69.241   4.066
 1849     69.767   4.127
 1849.5     68.7   4.188
 1850     67.108   4.319
 1850.5     65.273   5.848
 1851     63.003   5.849
 1851.5     60.732   5.85
 1852     58.462   5.851
 1852.5     55.183   6.183
 1853     55.755   6.987
 1853.5     55.05   7.79
 1854     54.792   9.641
 1854.5     56.822   11.766
 1855     58.852   11.515
 1855.5     64.476   11.263
 1856     58.653   10.028
 1856.5     54.925   8.418
 1857     54.12   6.809
 1857.5     54.124   6.558
 1858     55.232   6.391
 1858.5     56.34   6.223
 1859     55.597   6.074
 1859.5     54.607   6.037
 1860     53.617   5.999
 1860.5     52.627   5.773
 1861     68.499   5.27
 1861.5     68.85   4.768
 1862     68.85   4.265
 1862.5     68.71   3.763
 1863     68.57   3.859
 1863.5     68.712   3.982
 1864     69.079   4.105
 1864.5     69.446   4.228
 1865     69.89   4.351
 1865.5     70.569   4.198
 1866     71.248   3.928
 1866.5     70.805   3.657
 1867     70.096   3.386
 1867.5     69.55   3.115
 1868     69.529   2.934
 1868.5     69.509   3.095
 1869     69.437   3.257
 1869.5     69.314   3.418
 1870     69.192   3.579
 1870.5     69.253   3.741
 1871     69.671   3.902
 1871.5     70.089   4.063
 1872     70.276   4.22
 1872.5     70.406   4.358
 1873     70.121   4.496
 1873.5     69.837   4.634
 1874     69.553   4.772
 1874.5     69.752   4.91
 1875     69.955   5.048
 1875.5     70.158   5.186
 1876     70.726   5.168
 1876.5     70.552   4.944
 1877     70.377   4.721
 1877.5     70.203   4.498
 1878     70.028   4.274
 1878.5     69.854   4.051
 1879     69.513   3.721
 1879.5     69.137   3.352
 1880     68.955   2.983
 1880.5     69.661   3.272
 1881     70.366   4.075
 1881.5     71.072   4.879
 1882     71.579   5.682
 1882.5     71.538   6.33
 1883     71.16   6.234
 1883.5     70.745   6.138
 1884     70.33   6.041
 1884.5     69.915   5.945
 1885     70.63   5.849
 1885.5     72.458   6.035
 1886     73.16   6.346
 1886.5     71.202   6.658
 1887     69.244   6.969
 1887.5     70.42   6.311
 1888     70.276   5.559
 1888.5     70.059   4.806
 1889     69.843   4.054
 1889.5     69.798   3.301
 1890     70.047   3.541
 1890.5     70.296   4.005
 1891     70.545   4.468
 1891.5     70.783   4.932
 1892     70.961   5.301
 1892.5     71.139   5.302
 1893     71.317   5.303
 1893.5     71.538   5.304
 1894     71.812   5.305
 1894.5     72.087   5.307
 1895     72.362   6.653
 1895.5     71.923   8.086
 1896     68.942   10.117
 1896.5     66.119   28.899
 1897     63.577   44.89
 1897.5     61.558   58.064
 1898     59.539   49.277
 1898.5     57.543   39.288
 1899     59.746   31.066
 1899.5     62.112   33.664
 1900     64.55   36.263
 1900.5     67.474   12.336
 1901     68.941   8.592
 1901.5     68.587   4.848
 1902     68.232   3.552
 1902.5     68.394   2.819
 1903     68.595   2.132
 1903.5     68.797   2.261
 1904     68.998   2.633
 1904.5     68.863   3.416
 1905     67.826   4.2
 1905.5     66.788   4.984
 1906     65.751   5.767
 1906.5     62.612   6.551
 1907     62.236   7.197
 1907.5     61.859   6.642
 1908     60.096   6.087
 1908.5     57.658   5.531
 1909     58.583   4.993
 1909.5     63.608   4.658
 1910     67.064   4.398
 1910.5     69.667   4.494
 1911     70.283   4.59
 1911.5     70.584   4.686
 1912     70.886   4.522
 1912.5     70.773   4.296
 1913     70.331   4.07
 1913.5     70.136   3.843
 1914     70.001   3.617
 1914.5     69.866   3.391
 1915     69.731   3.165
 1915.5     69.581   2.939
 1916     69.421   3.011
 1916.5     69.303   3.613
 1917     69.303   4.215
 1917.5     69.303   4.816
 1918     69.302   5.418
 1918.5     69.069   6.02
 1919     68.547   6.069
 1919.5     68.744   5.567
 1920     68.942   5.064
 1920.5     69.139   4.562
 1921     69.337   4.059
 1921.5     69.399   3.557
 1922     69.447   3.664
 1922.5     69.495   3.775
 1923     69.543   3.886
 1923.5     69.342   3.998
 1924     68.596   4.137
 1924.5     67.926   4.428
 1925     67.305   4.72
 1925.5     66.738   4.805
 1926     68.339   4.127
 1926.5     69.319   3.45
 1927     69.372   2.772
 1927.5     69.425   2.095
 1928     69.479   2.234
 1928.5     69.532   2.4
 1929     69.585   2.565
 1929.5     69.638   2.731
 1930     69.692   2.896
 1930.5     69.756   3.062
 1931     69.892   3.228
 1931.5     70.029   3.538
 1932     70.165   4.471
 1932.5     71.247   5.404
 1933     72.441   6.337
 1933.5     73.634   6.533
 1934     74.446   6.214
 1934.5     74.541   5.362
 1935     73.298   4.537
 1935.5     72.056   4.379
 1936     70.654   4.222
 1936.5     69.563   4.064
 1937     69.741   3.907
 1937.5     69.919   3.749
 1938     69.96   3.592
 1938.5     69.858   3.435
 1939     69.755   3.277
 1939.5     69.49   3.12
 1940     69.178   2.962
 1940.5     68.866   3.043
 1941     68.806   3.75
 1941.5     69.409   4.457
 1942     69.449   4.523
 1942.5     69.489   4.08
 1943     69.505   3.637
 1943.5     69.494   3.194
 1944     69.484   3.146
 1944.5     69.473   3.116
 1945     69.463   3.085
 1945.5     69.468   3.429
 1946     70.564   4.034
 1946.5     71.661   4.64
 1947     72.758   4.954
 1947.5     73.429   4.334
 1948     71.995   3.714
 1948.5     70.835   3.093
 1949     70.288   3.081
 1949.5     69.741   3.421
 1950     69.607   3.761
 1950.5     69.594   4.101
 1951     69.582   4.441
 1951.5     69.57   4.516
 1952     69.534   4.413
 1952.5     69.411   4.309
 1953     69.288   4.206
 1953.5     69.165   4.102
 1954     69.34   3.999
 1954.5     69.713   3.895
 1955     69.885   3.792
 1955.5     69.375   3.688
 1956     69.107   3.585
 1956.5     68.859   3.481
 1957     68.61   3.378
 1957.5     68.68   3.525
 1958     69.322   4.116
 1958.5     68.784   4.707
 1959     68.105   5.298
 1959.5     67.426   5.613
 1960     67.342   5.488
 1960.5     67.928   5.078
 1961     68.514   4.544
 1961.5     68.988   4.011
 1962     68.061   3.641
 1962.5     67.637   3.642
 1963     67.959   3.643
 1963.5     67.539   4.159
 1964     66.416   4.823
 1964.5     65.293   5.487
 1965     64.17   6.151
 1965.5     63.047   6.699
 1966     60.659   7.168
 1966.5     57.378   7.636
 1967     54.077   8.105
 1967.5     52.341   8.574
 1968     52.321   8.692
 1968.5     52.3   8.172
 1969     52.202   7.651
 1969.5     52.079   7.13
 1970     52.243   6.61
 1970.5     52.421   6.089
 1971     52.599   5.668
 1971.5     52.869   5.305
 1972     53.441   4.943
 1972.5     53.915   4.58
 1973     53.714   4.612
 1973.5     53.513   4.729
 1974     53.359   4.845
 1974.5     53.468   4.961
 1975     53.578   5.229
 1975.5     53.687   6.125
 1976     53.797   7.02
 1976.5     53.906   7.916
 1977     53.709   8.008
 1977.5     53.317   7.969
 1978     52.926   7.93
 1978.5     52.534   7.89
 1979     52.508   7.851
 1979.5     52.675   8.109
