~Version Information Block
 VERS.                2.00:     CWLS LOG ASCII STANDARD - VERSION 2.000000
 WRAP.                  NO:     One Line Per Depth Step
#
~Well Information Block
#MNEM.UNIT                     Data                         Information
#----------   ------------------------------------------   ----------------
 STRT.FT                                     5200.0000:     START DEPTH
 STOP.FT                                    11550.0000:     STOP DEPTH
 STEP.FT                                        0.5000:     STEP
 NULL.                                       -999.2500:     NULL VALUE
 COMP.               AMERICAN QUASAR PETROLEUM COMPANY:     COMPANY
 WELL.                               MCCARTER # 1 - 31:     WELL
 FLD .                                         WILDCAT:     FIELD
 LOC .                                                :     LOCATION
 CNTY.                                          REEVES:     COUNTY
 STAT.                                           TEXAS:     STATE
 CTRY.                                             USA:     COUNTRY
 SRVC.                                                :     SERVICE COMPANY
 DATE.                                      08/07/2015:     DATE
 API .                                  42389311800000:     API NUMBER
 UWI .                                  42389311800000:     UWI NUMBER
 TVD .                                              NO:     TVD flag
 WSTA.                                             LOC:     Well status
#
~Curve Information Block
#MNEM.UNIT       API CODE      Curve Description
#----------    -------------   -------------------
 DEPT.FT                   :   Depth in Feet
 GR  .GAPI                 :   Gamma Ray
 LLD .OHMM                 :   Latero-Log Deep (Resistivity)
 CALI.IN                   :   Caliper
 DT  .US/F                 :   Delta-T
#
~Parameter Information Block
#MNEM.UNIT            Value               Description
#----------    --------------------    -------------------
 RUN .                         ONE:    Run Number
 PDAT.                          GL:    Permanent Datum
 EPD .FT                          :    Elevation Of Perm. Datum
 LMF .               KELLY BUSHING:    Log Measured From
 EKB .FT                          :    Elevation Of Kelly Bushing
 DF .FT                           :    Elevation Of Derrick Floor
 GL .FT                           :    Elevation Of Ground Level
 TD  .FT                          :    Total Depth
 CSGD.FT                          :    Casing Bottom (Driller) 1
 CSGL.FT                          :    Casing Bottom (Logger) 1
 MUD .                            :    Drilling Fluid Type
 MUDV .CP                         :    Drilling Fluid Viscosity
 MUDD .LB/USG                     :    Drilling Fluid Density
 FL .ML/30MIN                     :    Drilling Fluid Loss
 PH.                              :    Drilling Fluid Ph
 MUDS .                           :    Mud Sample Source
 RM .OHMM                         :    Resistivity Of Mud Sample
 RMT .DEGF                        :    Mud Sample Temperature
 RMF .OHMM                        :    Mud Filtrate Resistivity
 RMFT.DEGF                        :    Mud Filtrate Sample Temperature
 RMC .OHMM                        :    Mud Cake Resistivity
 RMCT.DEGF                        :    Mud Cake Sample Temperature
 RMB .OHMM                        :    Mud Resistivity At Bht
 TMAX .DEGF                       :    Bottom Hole Temperature    
#
~Other Information Block
<DescLogPlotStart>   NEURALOG PLOT DEFINITION
PLOTDEFVERSION: 3
LASFILE: E:\Nair Innovations\Texas - NII\Shivam\42389311800000\42389311800000_G
DEPTHSCALE: 239.999996
RESOLUTION: 200
DEPTHLABELFREQ: 100.000000
HEAVYGRIDFREQ: 100.000000
MEDIUMGRIDFREQ: 50.000000
LIGHTGRIDFREQ: 10.000000
#
#   TRACK 1
#
STARTTRACK: 
 LEFTX: 0.500000 inch
 RIGHTX: 3.000000 inch
 SCALETYPE: Linear
 NUMCHARTDIVISIONS: 10
CURVE: GR    0.000000   125.000000 (0,0,255)      Solid             2     Y    
BACKUP: 125.000000 250.000000 (0,0,255)      Solid             2    
CURVE: CALI  6.000000   16.000000  (0,0,255)      Solid             2     N    
ENDTRACK: 
#
#   TRACK 2
#
STARTTRACK: 
 LEFTX: 3.500000 inch
 RIGHTX: 8.500000 inch
 SCALETYPE: Log
 NUMCYCLES: 4
 STARTCYCLE: 2
CURVE: LLD   0.200000   2000.000000 (0,131,131)    Solid             2     Y   
BACKUP: 2000.000000 20000000.000000 (0,131,131)    Solid             2    
ENDTRACK: 
#
#   TRACK 3
#
STARTTRACK: 
 LEFTX: 3.500000 inch
 RIGHTX: 8.500000 inch
 SCALETYPE: Linear
 NUMCHARTDIVISIONS: 10
CURVE: DT    100.000000 40.000000  (0,131,131)    Solid             2     Y    
BACKUP: 160.000000 100.000000 (0,131,131)    Solid             2    
BACKUP: 40.000000  -20.000000 (0,131,131)    Solid             2    
ENDTRACK: 
<DescLogPlotEnd>
<DepthTrack type='Reference' track='1' Label='0' color='0' hor='0' />
<Reference font='144,0,-900,0,500,0,16777216,Arial' />
~A DEPTH     GR               LLD              CALI             DT              
# ...
   10249.000 62.91464789      23.50514794      12.43379683      72.75724276     
   10249.500 62.42924537      24.16541870      12.41818416      72.91458541     
   10250.000 62.74872714      23.32357423      12.42547313      73.72550526     
   10250.500 62.98792573      22.54081759      12.43328290      74.53642511     
   10251.000 63.35888401      21.78433084      12.43705781      75.34365634     
   10251.500 64.67740862      20.84808014      12.43712687      75.63436563     
   10252.000 65.24250226      21.14298337      12.43713269      75.08691309     
   10252.500 65.55849988      22.04319206      12.43712575      74.68531469     
   10253.000 67.25015180      23.51254670      12.43712575      74.71628372     
   10253.500 71.37952046      25.52938367      12.43712575      75.27472527     
   10254.000 76.61134940      27.57412211      12.43712575      78.09670330     
   10254.500 86.70905284      29.75390091      12.43712575      81.53036963     
   10255.000 96.48976711      32.46764863      12.43712575      84.96403596     
   10255.500 102.53301629     35.14522557      12.43712575      87.68231768     
   10256.000 97.76171901      39.91905909      12.43712575      85.04050462     
   10256.500 83.82082190      43.54173669      12.43712575      80.93257983     
   10257.000 75.40900999      47.49317436      12.43712575      77.10134589     
   10257.500 73.34231371      51.98279837      12.43712575      77.45637198     
   10258.000 64.08295251      61.19200147      12.43712575      74.82477298     
   10258.500 54.49432931      72.52184987      12.43712575      71.79160513     
   10259.000 44.68566141      88.31884396      12.43712575      68.73575238     
   10259.500 42.68222110      92.12057688      12.43712575      65.56443556     
   10260.000 47.98127100      66.63083968      12.43712575      67.92733582     
   10260.500 74.74242834      43.91300143      12.43712575      71.31978548     
   10261.000 76.66479005      28.79695906      12.43712575      74.71223513     
   10261.500 81.49011099      28.27448642      12.43712575      78.39160839     
   10262.000 85.50828176      27.75329582      12.43712575      79.73426573     
   10262.500 86.45635342      29.74230926      12.43712575      80.93906094     
   10263.000 87.48092858      32.16938967      12.43712575      81.50849151     
   10263.500 89.49278921      39.04911162      12.43712575      80.17992008     
   10264.000 90.55449536      42.87388011      12.43712575      79.03536464     
   10264.500 91.63141473      53.82483067      12.43712575      77.89080919     
   10265.000 67.50206067      67.66226548      12.43712575      74.03096903     
   10265.500 51.84814730      87.15826025      12.43712575      67.92484788     
   10266.000 41.55263781      103.86299873     12.43712575      63.62837163     
   10266.500 47.96278924      97.47330843      12.43712575      62.57417582     
   10267.000 67.73996629      73.14021762      12.43712575      61.90809191     
   10267.500 88.51210145      56.48482652      12.43712575      72.73476523     
   10268.000 94.04911540      54.43769589      12.43712575      79.50649351     
   10268.500 94.87715419      65.91927291      12.43712575      81.04595405     
   10269.000 91.99883124      77.52743047      12.43712575      81.98801199     
   10269.500 91.19151662      81.77479343      12.43712575      78.91383616     
   10270.000 93.44861862      79.21859479      12.43712575      78.48382387     
   10270.500 97.06597128      74.06065118      12.43712575      78.59966956     
   10271.000 99.48789450      69.96429911      12.43712575      78.87112887     
   10271.500 100.58587331     60.03226163      12.43712575      79.41958042     
   10272.000 97.13295849      50.09883084      12.43712575      79.87412587     
   10272.500 88.98359488      41.87084825      12.43712575      80.07492507     
   10273.000 80.89574654      35.93676782      12.43712575      79.33603896     
   10273.500 74.34328497      32.22882146      12.43712575      76.70218476     
   10274.000 73.11911289      30.43650107      12.43712575      76.87566313     
   10274.500 73.25971645      29.60902572      12.43712575      75.33020073     
   10275.000 74.92173980      28.79695906      12.43712575      74.86606491     
   10275.500 77.50714407      26.96755784      12.43712575      76.87185571     
   10276.000 78.06642353      25.95287874      12.43712575      79.11316216     
   10276.500 77.17608109      24.86623395      12.43712575      80.10327173     
   10277.000 69.64376229      23.91581205      12.43712575      80.54945055     
   10277.500 61.91114508      24.50500422      12.43712575      78.97227772     
   10278.000 54.90701675      30.43650107      12.43712575      74.41707525     
   10278.500 48.37714654      39.01696820      12.43712575      68.71617601     
   10279.000 44.16659131      52.07365901      12.43712575      64.62393845     
   10279.500 50.73398836      63.09980130      12.43712575      64.24575425     
   10280.000 64.43487720      51.47172464      12.43712575      68.17071817     
   10280.500 78.57785102      44.18656902      12.43712575      72.94527695     
   10281.000 74.75081886      37.67051823      12.43712575      77.71983572     
   10281.500 85.04703785      36.91060635      12.43712575      82.49439449     
   10282.000 92.36067830      38.31950174      12.43712575      87.26895327     
   10282.500 104.28426774     40.07131576      12.43712575      90.41833167     
   10283.000 109.53516341     41.27235536      12.43712575      90.31968032     
   10283.500 109.78032980     40.89321333      12.43712575      90.31968032     
   10284.000 95.52964242      40.51755423      12.43712575      86.25334665     
   10284.500 76.54808512      40.91929622      12.43712575      82.27752248     
   10285.000 61.11334217      41.27235536      12.43712575      78.96103896     
   10285.500 51.73308064      42.43100343      12.43712575      73.03553730     
   10286.000 46.56900322      42.92464206      12.43712575      68.79096025     
   10286.500 43.76744888      45.65976476      12.43712575      67.65919780     
   10287.000 46.67754963      47.40012584      12.43712575      67.32457542     
   10287.500 47.89005501      45.47193365      12.43712575      67.42257742     
   10288.000 51.01836464      42.33868942      12.43712575      70.00312731     
   10288.500 63.73009933      38.95121218      12.43712575      73.64370412     
   10289.000 75.85441845      35.27954551      12.43712575      77.28428094     
   10289.500 83.91992970      36.29674422      12.43712575      80.92485775     
   10290.000 87.06773192      39.04911162      12.43712575      84.56543457     
   10290.500 88.30970925      39.04911162      12.43712575      84.60846297     
   10291.000 88.73191200      38.10218096      12.43712575      81.46873127     
   10291.500 74.17708042      35.36429998      12.43712575      76.26803197     
   10292.000 60.58739722      31.53725077      12.43712575      69.10089910     
   10292.500 58.84994084      30.75510049      12.43712575      69.70029970     
   10293.000 54.74758397      30.14938867      12.43712575      69.46053946     
   10293.500 51.01106317      30.43440873      12.43712575      69.94455544     
   10294.000 51.40130380      28.02905630      12.43712575      71.06393606     
   10294.500 53.62508009      26.94207035      12.43712575      72.75817932     
   10295.000 55.92419205      26.01707402      12.43712575      74.06811800     
   10295.500 58.08395052      24.61559605      12.43712575      74.81285793     
   10296.000 59.33247238      23.79583438      12.43712575      75.45926804     
   10296.500 61.19422455      23.42258479      12.43712575      75.71337944     
   10297.000 63.33357180      22.97084043      12.43712575      75.94417949     
   10297.500 65.99822143      22.65058031      12.43712575      75.87244028     
   10298.000 64.10159923      22.44554712      12.43712575      75.63136863     
