~VERSION INFORMATION
 VERS.                2.0:   CWLS LOG ASCII STANDARD - VERSION 2.0
 WRAP.                 NO:   ONE LINE PER DEPTH STEP
~WELL INFORMATION
#MNEM.UNIT      DATA TYPE    INFORMATION
#----------   ------------   ------------------------------
 STRT.FT          50.0000:   START DEPTH
 STOP.FT        5375.0000:   STOP DEPTH
 STEP.FT           0.5000:   STEP LENGTH
 NULL.          -999.2500:   NULL VALUE
 COMP.  A.N. NORWOOD, INC:   COMPANY
 WELL.        MCINTYRE #1:   WELL
 FLD .  ROJO CABALLOS, S.:   FIELD
 LOC .                   :   LOCATION
 CNTY.              PECOS:   COUNTY
 STAT.              TEXAS:   STATE
 CTRY. UNITED STATES OF AMERICA:   COUNTRY
 SRVC.              Welex:   SERVICE COMPANY
 DATE.        06-May-1983:   LOGDATE
 API .     42371342980000:   API NUMBER
~CURVE INFORMATION
#MNEM.UNIT       API CODE    CURVE DESCRIPTION
#----------   ------------   ------------------------------
 DEPT.F      0   1   0  0:   1 MEASURED DEPTH
 GRD .GAPI   45 310 01 00:   GAMMA RAY FROM DENSITY LOG
 NPOR_LS.DEC 42 890 01 00:   NEUTRON POROSITY LIMESTONE
 CALD.IN     45 280 60 00:   CALIPER FROM DENSITY LOG
 CORR.G/C3   45 356 01 00:   DENSITY CORRECTION
 RHOB.G/C3   45 350 01 00:   BULK DENSITY
 DPOR_LS.DEC 45 890 10 00:   DENSITY POROSITY LIMESTONE
 DT  .US/F   60 500 00 00:   DELTA-T (INTERVAL TRANSIT TIME)
 SPR .MV     07 010 01 00:   SPONTANEOUS POTENTIAL FROM RESISTIVITY LOG
 ILD .OHMM   07 120 46 00:   INDUCTION DEEP RESISTIVITY
 ILM .OHMM   07 120 44 00:   INDUCTION MEDIUM RESISTIVITY
~PARAMETER INFORMATION
#MNEM.UNIT          VALUE    DESCRIPTION
#----------   ------------   ------------------------------
 PD  .                 GL:   PERMANENT DATUM
 EPD .FT             2768:   ELEVATION PERMANENT DATUM
 LMF .                 KB:   LOG MEASURED FROM
 DAPD.FT               10:   FEET ABOVE PERMANENT DATUM
 DMF .                 KB:   DRILLING MEASURED FROM
 EKB .FT             2778:   KELLY BUSHING
 EDF .FT             2777:   DRILLING FLOOR
 EGL .FT             2768:   GROUND LEVEL
 DATE.           05/06/83:   RUN DATE
 RUN .                  1:   RUN NUMBER
 DD  .FT             5380:   DEPTH DRILLER
 DL  .FT             5377:   DEPTH LOGGER
 BLI .FT             5375:   BOTTOM LOG INTERVAL
 TLI .FT               50:   TOP LOG INTERVAL
 CS  .IN            8.625:   CASING SIZE
 CBD .FT             1596:   CASING BOTTOM DRILLER
 CBL .FT             1613:   CASING BOTTOM LOGGER
 BS  .IN             7.75:   BIT SIZE
 BSD .FT             5380:   BIT SIZE AT DEPTH
 DFT .           SALT GEL:   DRILLING FLUID TYPE
 DFD .               10.2:   DRILLING FLUID DENSITY
 DFV .                 33:   DRILLING FLUID VISCOSITY
 DFPH.                9.5:   DRILLING FLUID PH
 DFL .                 18:   DRILLING FLUID LOSS
 MSS .               CIRC:   MUD SAMPLE SOURCE
 RMS .OHMM           0.09:   RESISTIVITY MUD SAMPLE
 MST .DEGF             72:   MUD SAMPLE TEMPERATURE
 RMF .OHMM           0.08:   RESISTIVITY MUD FILTRATE SAMPLE
 MFST.DEGF             72:   MUD FILTRATE SAMPLE TEMPERATURE
 MFSS.               MEAS:   MUD FILTRATE SAMPLE SOURCE
 MCSS.               MEAS:   MUD CAKE SAMPLE SOURCE
 RMB .OHMM          0.059:   RESISTIVITY MUD AT BHT
 BHT .DEGF            112:   BOTTOM HOLE TEMPERATURE
 TCS .HRS               4:   TIME CIRCULATED STOPPED
 MRT .DEGF            112:   MAXIMUM RECORDED TEMPERATURE
 LUN .               3415:   LOGGING UNIT NUMBER
 LUL .             ODESSA:   LOGGING UNIT LOCATION
 ENGI.             LAWSON:   RECORDING ENGINEER
 WITN.            NORWOOD:   WITNESSED BY
 ORIG.      1" 2.5" PRINT:   ORIGIN OF DATA
 UWI .     42371342980000:   UNIQUE WELL ID
~OTHER INFORMATION
~A    DEPT        GRD      NPOR_LS      CALD        CORR        RHOB       DPOR_LS        DT         SPR         ILD         ILM    
# ...
  3801.5000      1.9105     -0.0195     13.1736     -0.0244      1.9147      0.4555     66.8465      6.2145     24.8989      6.1787 
  3802.0000      1.6460     -0.0194     13.1913     -0.0197      1.9196      0.4552     65.5619      6.0780     24.9351      6.1221 
  3802.5000      1.4209     -0.0194     13.1979     -0.0149      1.9235      0.4621     64.7979      5.9776     24.9869      6.1244 
  3803.0000      1.6249     -0.0194     13.2002     -0.0137      1.9235      0.4629     65.1383      5.9166     25.0946      6.1432 
  3803.5000      2.0700     -0.0193     13.1936     -0.0137      1.9243      0.4622     65.7209      5.7865     25.3013      6.2090 
  3804.0000      2.6017     -0.0193     13.1916     -0.0160      1.9270      0.4590     67.3175      5.6667     25.6842      6.3732 
  3804.5000      3.1333     -0.0193     13.1875     -0.0183      1.9312      0.4563     68.3948      5.5911     26.0730      6.5001 
  3805.0000      3.6304     -0.0192     13.1809     -0.0215      1.9350      0.4526     68.6729      5.5156     26.3161      6.5497 
  3805.5000      4.0064     -0.0192     13.1744     -0.0249      1.9382      0.4466     68.8083      5.4400     26.8203      6.5497 
  3806.0000      3.8517     -0.0192     13.1678     -0.0295      1.9374      0.4474     68.8632      5.3645     27.2353      6.4965 
  3806.5000      3.4938     -0.0191     13.1892     -0.0349      1.9266      0.4659     68.9102      5.3186     29.4814      6.2960 
  3807.0000      3.1237     -0.0191     13.1871     -0.0424      1.9077      0.4727     68.9184      5.2924     32.3954      6.0723 
  3807.5000      2.8874     -0.0191     13.2114     -0.0499      1.8974      0.4755     68.9985      5.2662     35.4518      5.8822 
  3808.0000      3.2588     -0.0190     13.2405     -0.0565      1.8943      0.4783     69.9781      5.2400     38.1195      5.6981 
  3808.5000      4.0335     -0.0190     13.2524     -0.0551      1.8943      0.4783     70.8110      5.1747     37.0401      5.4770 
  3809.0000      4.2162     -0.0189     13.2543     -0.0500      1.8992      0.4658     71.2768      5.0780     31.4623      5.2113 
  3809.5000      3.9080     -0.0184     13.2686     -0.0328      1.9148      0.4490     71.4083      4.9829     22.7046      4.8967 
  3810.0000      3.2763     -0.0180     13.2769     -0.0171      1.9261      0.4500     70.6505      4.9119     17.2477      4.6011 
  3810.5000      2.6686     -0.0177     13.2810     -0.0061      1.9294      0.4590     69.0037      4.8409     13.4350      4.3869 
  3811.0000      2.5020     -0.0171     13.2925      0.0012      1.9344      0.4629     66.1910      4.7877     11.0014      4.3312 
  3811.5000      2.6189     -0.0164     13.3113      0.0063      1.9436      0.4631     63.0460      4.7876     10.8002      4.3053 
  3812.0000      3.0293     -0.0151     13.2290      0.0071      2.0441      0.4066     59.9011      4.7874     11.6922      4.5485 
  3812.5000      3.7107     -0.0120     13.0781      0.0078      2.1052      0.2974     56.4166      4.7905     16.0105      5.1819 
  3813.0000      4.4374     -0.0089     12.7428      0.0119      2.1805      0.2804     52.8479      4.8568     25.5818      6.3122 
  3813.5000      5.0654     -0.0058     11.3699      0.0197      2.3005      0.2518     51.0137      4.8281     31.9813     14.3664 
  3814.0000      5.9125     -0.0049     10.2166      0.0350      2.4676      0.1502     50.6643      4.7621     37.1115     30.4346 
  3814.5000      7.1669     -0.0048     10.1441      0.0502      2.5939      0.0341     50.4892      4.6718     45.3136     30.4707 
  3815.0000      7.5504     -0.0049     10.1385      0.0613      2.6845     -0.0878     50.5028      4.5009    102.3163     21.6307 
  3815.5000      7.0574     -0.0055     10.1498      0.0660      2.8708     -0.0946     50.7063      4.2972    558.9938     11.2026 
  3816.0000      6.4290     -0.0062     10.1642      0.0590      2.8720     -0.0833     52.1623      4.0884   1881.4751      9.8248 
  3816.5000      6.4933     -0.0073     10.1785      0.0344      2.8536     -0.0552     54.4175      3.8973   1973.2733      8.7882 
  3817.0000      7.4150     -0.0077     10.2124      0.0284      2.7926     -0.0127     57.1565      3.8973   1973.2733      7.2973 
  3817.5000      8.3930     -0.0084     10.2574      0.0229      2.7316     -0.0090     59.8955      3.9692   1973.2733      6.4520 
  3818.0000      9.4012     -0.0095     10.3309      0.0208      2.7010      0.0464     62.6004      4.0945   1973.2733      5.4862 
  3818.5000      9.7931     -0.0098     10.4045      0.0215      2.5996      0.1304     65.2743      4.2351   1512.2325      4.3342 
  3819.0000      8.4802     -0.0108     10.4999      0.0287      2.3947      0.1792     66.7980      4.3783    423.8394      3.6014 
  3819.5000      6.8148     -0.0116     10.7267      0.0465      2.1875      0.3040     67.0600      4.5216    105.4684      3.0581 
  3820.0000      5.1494     -0.0120     11.1012      0.0710      2.0938      0.3400     67.1126      4.5444     56.1820      2.9918 
  3820.5000      4.0257     -0.0129     11.4948      0.0733      2.0001      0.3796     67.1587      4.5099     33.3692      3.0342 
  3821.0000      3.3126     -0.0140     11.8488      0.0563      1.9993      0.4181     67.2741      4.3638     26.6013      3.2672 
  3821.5000      3.0945     -0.0149     12.0437      0.0394      1.9885      0.4318     67.5201      4.1842     20.5008      4.3321 
  3822.0000      3.2252     -0.0156     12.2341      0.0248      1.9812      0.4338     67.6446      4.0390     17.4665      4.7399 
  3822.5000      3.4572     -0.0165     12.3551      0.0143      1.9764      0.4308     67.7138      3.8938     15.0041      5.0882 
  3823.0000      3.8274     -0.0176     12.4307      0.0038      1.9764      0.4275     67.7601      3.7486     14.4161      5.1270 
  3823.5000      3.8033     -0.0178     12.4759     -0.0067      1.9764      0.4268     67.7965      3.6034     17.1026      5.1045 
  3824.0000      3.7471     -0.0178     12.5124     -0.0150      1.9764      0.4280     67.8107      3.4582     22.0193      5.0681 
  3824.5000      3.7191     -0.0178     12.5287     -0.0183      1.9764      0.4314     67.8641      3.3582     27.6948      5.0320 
  3825.0000      3.5944     -0.0179     12.5350     -0.0215      1.9729      0.4348     68.0481      3.2658     35.4498      4.9961 
  3825.5000      3.4697     -0.0180     12.5314     -0.0212      1.9636      0.4369     68.0909      3.1733     44.6284      4.9951 
  3826.0000      3.1715     -0.0180     12.5365     -0.0177      1.9628      0.4338     68.0810      3.0808     47.1412      4.9992 
  3826.5000      2.9901     -0.0181     12.5670     -0.0142      1.9720      0.4285     68.0117      2.9907     48.5809      5.0033 
  3827.0000      2.2506     -0.0182     12.5676     -0.0134      1.9757      0.4279     67.8422      2.9117     47.3038      5.0544 
  3827.5000      1.0205     -0.0182     12.5992     -0.0134      1.9753      0.4327     67.7233      2.7791     41.3466      5.1073 
  3828.0000      0.9491     -0.0183     12.6091     -0.0175      1.9644      0.4389     67.6179      2.6465     34.3698      5.1402 
  3828.5000      1.8493     -0.0183     12.6068     -0.0215      1.9493      0.4456     67.5291      2.3579     33.6760      5.1402 
  3829.0000      2.6222     -0.0184     12.6089     -0.0477      1.9342      0.4544     67.3248      1.9176     32.9707      5.1402 
  3829.5000      2.8568     -0.0184     12.5899     -0.0493      1.9287      0.4623     67.1807      1.7762     31.9767      5.2325 
  3830.0000      2.9760     -0.0184     12.5673     -0.0476      1.9287      0.4557     67.2335      1.6460     31.3218      5.3709 
  3830.5000      3.0953     -0.0185     12.5649     -0.0416      1.9341      0.4490     67.2863      1.5159     30.6803      5.5129 
  3831.0000      3.2145     -0.0185     12.5567     -0.0312      1.9425      0.4359     67.4990      1.2960     29.8194      5.6587 
  3831.5000      3.3338     -0.0186     12.5470     -0.0169      1.9597      0.4179     67.5829      0.9747     29.0895      5.6639 
