#--------------------------------------------------#
#-------------------ENVERUS, INC.------------------#
#------------------WWW.ENVERUS.COM-----------------#
#------------------COPYRIGHT 2020------------------#
#--------------------------------------------------#
#THIS FILE MAY BE USED ONLY IN ACCORDANCE WITH A CURRENT SUBSCRIPTION AGREEMENT BETWEEN
#THE USER AND ENVERUS, INC. NO PART OF THIS FILE MAY BE REPRODUCED, USED, COPIED,
#MODIFIED, PROPAGATED, OR DISTRIBUTED EXCEPT IN ACCORDANCE WITH THE SUBSCRIPTION
#AGREEMENT. UNAUTHORIZED USE OR DISTRIBUTION OF ALL OR ANY PART OF THIS FILE MAY VIOLATE
#COPYRIGHT, TRADEMARK, AND/OR OTHER LAWS AND IS SUBJECT TO CIVIL AS WELL AS CRIMINAL
#SANCTIONS.
#--------------------------------------------------#
#THIS FILE IS PROVIDED "AS-IS" AND ALL WARRANTIES ARE EXPRESSLY DISCLAIMED, WHETHER
#EXPRESS, ORAL, IMPLIED, STATUTORY OR OTHERWISE, INCLUDING ANY IMPLIED WARRANTY OF FITNESS
#FOR A PARTICULAR PURPOSE, MERCHANTABILITY, TITLE OR NON-INFRINGEMENT, AND ANY WARRANTIES
#ARISING BY VIRTUE OF CUSTOM OF TRADE OR COURSE OF DEALING.  FURTHER, ENVERUS, INC.
#AND ITS LICENSORS DO NOT REPRESENT OR WARRANT THAT THIS FILE WILL MEET USER'S
#REQUIREMENTS OR ARE SUITABLE FOR USER'S NEEDS OR THAT THE DATA OR RESULTS PROVIDED IN
#CONJUNCTION THEREWITH ARE CORRECT, ACCURATE, TIMELY OR RELIABLE. THESE DISCLAIMERS SHALL
#APPLY REGARDLESS OF ANY FAILURE OF ESSENTIAL PURPOSE OF ANY LIMITED REMEDY.  SOME
#JURISDICTIONS DO NOT ALLOW THE EXCLUSION OF CERTAIN WARRANTIES SO SOME OF THE ABOVE
#EXCLUSIONS MAY NOT APPLY. IN NO EVENT SHALL ENVERUS, INC. OR ANY OF ITS AFFILIATES
#BE LIABLE UNDER ANY LEGAL THEORY, WHETHER IN TORT (INCLUDING WITHOUT LIMITATION
#NEGLIGENCE), CONTRACT, STRICT LIABILITY, STATUTORY OR OTHERWISE, FOR ANY SPECIAL,
#INCIDENTAL, CONSEQUENTIAL, EXEMPLARY, PUNITIVE OR INDIRECT DAMAGE OF ANY KIND, INCLUDING
#WITHOUT LIMITATION LOSS OF REVENUE, PROFITS, GOODWILL, USE, AND/OR DATA OR THE COST OF
#PROCUREMENT OF SUBSTITUTE GOODS OR SERVICES, EVEN IF APPRISED OF THE POSSIBILITY OF SUCH
#DAMAGES IN ADVANCE.
#--------------------------------------------------#

~VERSION INFORMATION
VERS. 2.0 : CWLS LOG ASCII STANDARD - VERSION 2.0
WRAP.  NO : ONE LINE PER DEPTH STEP
~WELL INFORMATION
#MNEMONIC     .UNIT              VALUE :DESCRIPTION
STRT       .FT                51 :START DEPTH
STOP       .FT                6194 :STOP DEPTH
STEP       .FT                   0.500 :STEP
NULL       .                  -999.990 :NULL
UWI        .              42389004340000 :UNIQUE WELL ID
API        .              42389004340000 :API NUMBER
COMP       .         :COMPANY
WELL       .         1, :WELL
DATE       .                            :LOG DATE
~CURVE INFORMATION
#MNEMONIC     .UNIT      API CODE :CURVE DESCRIPTION
DEPTH       .FT                      :MEASURED DEPTH
GR.API        UNKNOWN   :GR
DT.US/FT        UNKNOWN   :DT
~A    DEPTH    GR    DT
# ...
 4835.5     10.056   48.419
 4836     9.73   48.342
 4836.5     9.404   48.265
 4837     9.078   48.187
 4837.5     8.752   48.11
 4838     8.426   48.033
 4838.5     8.099   48.027
 4839     7.773   48.152
 4839.5     9.128   48.277
 4840     10.605   48.402
 4840.5     12.082   48.527
 4841     13.559   48.652
 4841.5     15.036   48.777
 4842     14.98   48.902
 4842.5     14.104   49.027
 4843     13.228   49.116
 4843.5     12.352   49.133
 4844     11.476   49.151
 4844.5     10.601   49.169
 4845     9.725   49.284
 4845.5     8.849   49.42
 4846     9.391   49.557
 4846.5     9.946   49.694
 4847     10.502   49.83
 4847.5     11.057   49.967
 4848     11.613   50.104
 4848.5     12.168   50.106
 4849     12.724   50.144
 4849.5     13.279   50.251
 4850     13.835   50.358
 4850.5     14.143   50.465
 4851     14   50.572
 4851.5     13.856   50.68
 4852     13.713   50.787
 4852.5     13.57   50.894
 4853     13.426   51.001
 4853.5     13.283   50.983
 4854     13.14   50.737
 4854.5     12.996   50.491
 4855     12.853   50.407
 4855.5     12.709   50.525
 4856     12.566   50.642
 4856.5     12.423   50.76
 4857     12.089   50.878
 4857.5     10.684   50.996
 4858     9.279   51.114
 4858.5     7.874   51.232
 4859     7.596   51.114
 4859.5     7.533   50.936
 4860     8.14   50.759
 4860.5     8.826   50.581
 4861     9.512   50.404
 4861.5     10.199   50.317
 4862     10.885   50.331
 4862.5     10.563   50.344
 4863     9.932   50.358
 4863.5     9.301   50.372
 4864     8.669   50.385
 4864.5     8.038   50.399
 4865     7.407   50.413
 4865.5     7.049   50.426
 4866     7.039   50.34
 4866.5     7.029   50.171
 4867     7.019   50.002
 4867.5     7.009   49.833
 4868     6.999   49.664
 4868.5     6.989   49.495
 4869     6.979   49.599
 4869.5     6.969   49.717
 4870     7.087   49.835
 4870.5     7.916   49.953
 4871     8.745   50.071
 4871.5     9.574   50.188
 4872     10.403   50.306
 4872.5     11.232   50.424
 4873     11.867   50.542
 4873.5     11.638   50.66
 4874     11.408   50.778
 4874.5     11.179   50.896
 4875     10.949   51.014
 4875.5     10.72   51.132
 4876     10.49   51.186
 4876.5     10.261   51.172
 4877     10.031   51.157
 4877.5     9.978   51.142
 4878     10.34   51.127
 4878.5     10.701   51.112
 4879     11.063   51.098
 4879.5     11.424   51.083
 4880     11.786   51.068
 4880.5     11.916   51.053
 4881     11.815   51.038
 4881.5     11.714   51.023
 4882     11.612   51.009
 4882.5     11.511   50.994
 4883     11.409   50.979
 4883.5     11.308   50.964
 4884     11.207   50.949
 4884.5     11.105   50.935
 4885     11.004   50.92
 4885.5     10.903   50.926
 4886     10.801   50.935
 4886.5     10.7   50.945
 4887     10.598   50.954
 4887.5     10.497   50.964
 4888     10.396   50.973
 4888.5     11.186   50.982
 4889     12.885   50.992
 4889.5     14.584   51.001
 4890     16.284   51.011
 4890.5     17.983   51.02
 4891     19.682   51.03
 4891.5     19.545   51.039
 4892     18.223   51.049
 4892.5     16.901   51.058
 4893     15.578   51.058
 4893.5     14.256   51.005
 4894     12.934   50.953
 4894.5     11.612   50.901
 4895     10.29   50.849
 4895.5     8.98   50.797
 4896     9.846   50.745
 4896.5     10.712   50.693
 4897     11.578   50.641
 4897.5     12.444   50.589
 4898     13.31   50.537
 4898.5     13.245   50.485
 4899     13.07   50.433
 4899.5     12.894   50.381
 4900     12.718   50.328
 4900.5     12.543   50.276
 4901     12.367   50.224
 4901.5     12.374   50.172
 4902     12.657   50.12
 4902.5     12.94   50.068
 4903     13.223   50.226
 4903.5     13.507   50.574
 4904     13.79   51.629
 4904.5     14.073   54.386
 4905     14.357   57.142
 4905.5     14.64   59.899
 4906     13.981   62.656
 4906.5     12.653   65.412
 4907     11.326   68.169
 4907.5     9.998   67.366
 4908     8.67   65.861
 4908.5     7.343   64.357
 4909     6.015   62.852
 4909.5     7.015   61.348
 4910     8.096   59.843
 4910.5     9.178   60.378
 4911     9.676   62.039
 4911.5     9.127   63.102
 4912     8.579   63.336
 4912.5     8.03   63.57
 4913     7.481   64.134
 4913.5     6.933   64.869
 4914     6.642   65.605
 4914.5     7.089   66.34
 4915     7.536   67.076
 4915.5     7.952   67.811
 4916     7.679   67.957
 4916.5     7.405   67.675
 4917     7.131   67.392
 4917.5     6.858   67.11
 4918     6.584   66.827
 4918.5     6.31   66.544
 4919     6.557   66.262
 4919.5     6.819   65.979
 4920     7.081   65.697
 4920.5     7.344   65.414
 4921     7.606   66.017
 4921.5     7.868   67.31
 4922     7.408   68.604
 4922.5     6.91   69.898
 4923     6.413   71.192
 4923.5     5.915   72.486
 4924     6.052   73.78
 4924.5     6.333   71.431
 4925     6.614   65.736
 4925.5     6.895   60.041
 4926     7.176   54.346
 4926.5     7.457   48.651
 4927     7.738   48.408
 4927.5     8.019   50.546
 4928     9.735   52.638
 4928.5     11.68   53.074
 4929     13.624   53.51
 4929.5     15.569   53.946
 4930     17.513   54.336
 4930.5     19.458   54.259
 4931     20.234   54.183
 4931.5     20.183   54.106
 4932     19.948   54.03
 4932.5     19.006   53.386
 4933     18.083   52.595
 4933.5     18.432   51.805
 4934     18.781   51.2
 4934.5     19.13   51.118
 4935     19.478   51.035
 4935.5     19.827   50.953
 4936     20.169   50.871
 4936.5     18.918   50.788
 4937     17.667   50.706
 4937.5     16.416   50.624
 4938     15.166   50.542
 4938.5     13.915   50.459
 4939     12.664   50.377
 4939.5     11.414   50.295
 4940     10.163   50.213
 4940.5     8.912   50.13
 4941     7.918   50.095
 4941.5     9.59   50.162
 4942     11.263   50.23
 4942.5     12.936   50.298
 4943     14.609   50.366
 4943.5     16.282   50.433
 4944     17.955   50.501
 4944.5     19.628   50.569
 4945     19.031   50.636
 4945.5     18.3   50.704
 4946     17.57   50.772
 4946.5     16.839   50.783
 4947     16.109   50.72
 4947.5     15.378   50.657
 4948     14.648   50.594
 4948.5     13.917   50.532
 4949     13.186   50.469
 4949.5     13.191   50.406
 4950     13.419   50.343
 4950.5     13.647   50.28
 4951     13.875   50.218
 4951.5     14.103   50.155
 4952     14.331   50.141
 4952.5     14.559   50.13
 4953     14.787   50.119
 4953.5     15.015   50.108
 4954     15.136   50.097
 4954.5     15.158   50.085
 4955     15.179   50.074
 4955.5     15.201   50.063
 4956     15.223   50.052
 4956.5     15.245   49.901
 4957     15.266   49.615
 4957.5     15.288   49.329
 4958     15.31   49.042
 4958.5     15.331   48.756
 4959     15.353   48.47
 4959.5     15.375   48.503
 4960     15.397   48.666
 4960.5     15.418   48.828
 4961     15.395   48.991
 4961.5     14.7   49.154
 4962     14.006   49.317
 4962.5     13.312   49.48
 4963     12.933   49.512
 4963.5     13.137   49.449
 4964     13.342   49.386
 4964.5     13.105   49.323
 4965     12.736   49.26
 4965.5     12.366   49.197
 4966     11.997   49.134
 4966.5     11.628   49.071
 4967     11.259   49.008
 4967.5     10.89   48.965
 4968     11.568   49.019
 4968.5     12.475   49.072
 4969     13.383   49.126
 4969.5     14.29   49.179
 4970     15.197   49.233
 4970.5     16.104   49.265
 4971     15.634   49.214
 4971.5     14.434   49.163
 4972     13.234   49.111
 4972.5     12.034   49.06
 4973     10.834   49.009
 4973.5     11.195   48.958
 4974     11.924   48.907
 4974.5     12.653   48.856
 4975     13.382   48.805
 4975.5     14.111   48.846
 4976     14.84   48.973
 4976.5     15.318   49.101
 4977     14.786   49.228
 4977.5     14.254   49.356
 4978     13.723   49.483
 4978.5     13.191   49.61
 4979     12.659   49.738
 4979.5     12.127   49.865
 4980     12.146   49.993
 4980.5     12.44   50.024
 4981     12.735   49.914
 4981.5     13.029   49.804
 4982     13.323   49.694
 4982.5     13.617   49.584
 4983     13.4   49.474
 4983.5     13.105   49.364
 4984     12.81   49.254
 4984.5     12.514   49.144
 4985     13.665   49.034
 4985.5     14.869   48.924
 4986     16.074   48.814
 4986.5     17.278   48.704
