###############################################
##         ENVERUS                           ##
##         ESS - Open Hole                   ##
##         PERMIAN / DELAWARE                ##
##         Nov 04 2023  V4.0                 ##
##         42-389-00802-00-00                ##
###############################################
## Copyright 2017-2023  ENVERUS.  All Rights Reserved. 
## Confidential - Property of ENVERUS, use governed by terms and 
## conditions found within the existing Information Services Subscription Agreement 
## (as may be amended, the “ISSA”) between Customer and ENVERUS. 
## 
~VERSION INFORMATION
# MNEM.UNIT                               DATA : DESCRIPTION OF MNEMONIC
#-----.-----     ----------------------------- : -----------------------------
VERS.                                     2.00 : CWLS LOG ASCII STANDARD - VERSION 2.00
WRAP.                                       NO : MULTIPLE LINES PER DEPTH STEP
VEND.                                  ENVERUS : VENDOR
TYPE.                          ESS - OPEN HOLE : ENVERUS ESSENTIAL CURVES – ACCESSIBLE THROUGH ENVERUS PRISM(TM)
DOC.                                  31817456 : ENVERUS HEADER RAW DOCUMENT ID
#___________________________________________________________________________________________________ 
~WELL INFORMATION 
# RyAIq6UWQPnCIzV1aSVljU5sZzU8mzXCuHzh8Tf3VVfaeSb2oya67RMqigcBPLsftsjdPp3J13KbDcbgGgUr7w== 
# MNEM.UNIT                                              DATA : DESCRIPTION OF MNEMONIC 
#-----.-----                    ----------------------------- : ----------------------------- 
CNTY.                                                  REEVES : COUNTY 
STATE.                                                  TEXAS : STATE 
CNTRY.                                                    USA : COUNTRY 
API.                                             42-389-00802 : API (10 Digit) 
API_14.                                    42-389-00802-00-00 : API (14 Digits) 
API_14_std.                                 42-389-00802-0000 : API (14 Digits Standard) 
UWI.                                           42389008020000 : UNIQUE WELL ID 
WELL.                                                      1, : WELL NAME
STRT.FT                                                 103.0 : START DEPTH
STOP.FT                                                5419.0 : STOP DEPTH
STEP.FT                                                   0.5 : STEP BETWEEN DEPTHS
NULL.                                                 -999.25 : NULL VALUE
#___________________________________________________________________________________________________ 
~CURVE INFORMATION 
# MNEM.UNIT           : CURVE DESCRIPTION 
#-----.-----          : ----------------------------- 
 DEPT.FT               : MEASURED DEPTH 
 GR.API                : GAMMA RAY (GR) 
 DT.US/FT              : SONIC DELTA TRANSIT TIME (DT) 
 #___________________________________________________________________________________________________ 
~A         DEPT             GR             DT
# ...
         4627.0         13.991         49.722
         4627.5         13.430         49.759
         4628.0         12.868         49.797
         4628.5         12.307         48.131
         4629.0         11.746         44.498
         4629.5         11.185         40.058
         4630.0         10.623         41.454
         4630.5         10.062         42.849
         4631.0          9.501         43.957
         4631.5          8.940         42.003
         4632.0          8.379         40.049
         4632.5          7.817         40.168
         4633.0          8.354         42.519
         4633.5          9.258         44.869
         4634.0          9.552         47.220
         4634.5          9.290         49.570
         4635.0          9.028         50.202
         4635.5          8.767         48.898
         4636.0          8.505         47.594
         4636.5          8.768         47.823
         4637.0          9.672         48.433
         4637.5         10.576         49.044
         4638.0         11.480         49.655
         4638.5         12.384         49.842
         4639.0         13.288         49.886
         4639.5         14.191         49.930
         4640.0         15.095         49.974
         4640.5         15.999         50.019
         4641.0         15.962         50.063
         4641.5         15.139         50.107
         4642.0         14.315         50.151
         4642.5         13.491         50.195
         4643.0         12.668         49.892
         4643.5         11.844         49.473
         4644.0         12.087         49.519
         4644.5         12.488         49.565
         4645.0         12.888         49.611
         4645.5         13.289         49.656
         4646.0         13.690         49.702
         4646.5         14.090         49.748
         4647.0         14.491         49.794
         4647.5         14.891         49.839
         4648.0         14.541         49.885
         4648.5         13.368         49.931
         4649.0         12.195         49.902
         4649.5         11.022         49.863
         4650.0          9.849         49.825
         4650.5          9.372         49.786
         4651.0         10.175         49.747
         4651.5         10.977         49.709
         4652.0         11.780         49.670
         4652.5         12.582         49.631
         4653.0         13.385         49.593
         4653.5         14.187         49.554
         4654.0         13.985         49.515
         4654.5         13.279         49.477
         4655.0         12.572         49.438
         4655.5         11.865         49.399
         4656.0         11.158         49.361
         4656.5         10.454         49.322
         4657.0         11.560         49.283
         4657.5         12.666         49.316
         4658.0         13.773         49.440
         4658.5         13.500         49.565
         4659.0         12.545         49.690
         4659.5         11.589         49.815
         4660.0         10.634         49.939
         4660.5          9.900         50.064
         4661.0         10.702         50.189
         4661.5         11.504         50.314
         4662.0         12.306         50.439
         4662.5         13.109         49.723
         4663.0         13.702         49.709
         4663.5         12.601         49.695
         4664.0         11.500         49.682
         4664.5         10.399         49.668
         4665.0          9.298         49.654
         4665.5          9.076         49.640
         4666.0          9.543         49.626
         4666.5         10.010         49.612
         4667.0         10.477         49.598
         4667.5         10.944         49.584
         4668.0         11.411         49.571
         4668.5         11.878         49.557
         4669.0         12.346         49.543
         4669.5         12.813         49.529
         4670.0         13.280         49.515
         4670.5         13.294         49.501
         4671.0         12.840         49.487
         4671.5         12.386         49.473
         4672.0         11.932         49.460
         4672.5         11.478         49.450
         4673.0         11.024         49.444
         4673.5         10.570         49.439
         4674.0         10.307         49.433
         4674.5         11.109         49.427
         4675.0         11.911         49.422
         4675.5         12.713         49.416
         4676.0         13.515         49.410
         4676.5         14.123         49.405
         4677.0         13.492         49.399
         4677.5         12.860         49.393
         4678.0         12.229         49.388
         4678.5         11.597         49.397
         4679.0         10.966         49.496
         4679.5         10.334         49.594
         4680.0          9.702         49.692
         4680.5          9.474         49.791
         4681.0         10.728         49.889
         4681.5         11.982         49.987
         4682.0         13.236         50.085
         4682.5         14.490         50.184
         4683.0         15.744         50.282
         4683.5         16.998         50.380
         4684.0         18.247         50.237
         4684.5         16.209         50.085
         4685.0         14.172         49.933
         4685.5         12.134         49.780
         4686.0         11.543         49.628
         4686.5         12.100         49.476
         4687.0         12.658         49.495
         4687.5         13.216         49.557
         4688.0         13.773         49.619
         4688.5         14.331         49.681
         4689.0         14.888         49.743
         4689.5         15.446         49.805
         4690.0         14.804         49.867
         4690.5         13.727         49.929
         4691.0         12.650         49.991
         4691.5         11.573         50.053
         4692.0         10.495         50.107
         4692.5          9.418         50.028
         4693.0          8.341         49.950
         4693.5          8.510         49.872
         4694.0          8.796         49.794
         4694.5          9.082         49.716
         4695.0          9.368         49.638
         4695.5          9.654         49.560
         4696.0          9.940         49.481
         4696.5         10.226         49.403
         4697.0         10.512         49.325
         4697.5         10.798         49.247
         4698.0         11.084         49.169
         4698.5         11.370         49.091
         4699.0         11.555         49.013
         4699.5         11.162         49.014
         4700.0         10.768         49.111
         4700.5         10.375         49.208
         4701.0          9.981         49.305
         4701.5          9.705         49.402
         4702.0         10.999         49.500
         4702.5         12.292         49.597
         4703.0         13.586         49.694
         4703.5         14.438         49.791
         4704.0         13.360         49.888
         4704.5         12.283         49.901
         4705.0         11.205         49.897
         4705.5         11.408         49.893
         4706.0         11.976         49.889
         4706.5         12.545         49.885
         4707.0         13.114         49.880
         4707.5         13.683         49.876
         4708.0         14.251         49.872
         4708.5         14.820         49.868
         4709.0         15.389         49.864
         4709.5         15.957         49.860
         4710.0         16.526         49.856
         4710.5         16.707         49.852
         4711.0         14.883         49.848
         4711.5         13.059         49.844
         4712.0         11.235         49.840
         4712.5          9.411         49.836
         4713.0          8.911         49.815
         4713.5          9.361         49.767
