~Version Information Block
 VERS.                2.00:     CWLS LOG ASCII STANDARD - VERSION 2.000000
 WRAP.                  NO:     One Line Per Depth Step
#
~Well Information Block
#MNEM.UNIT                     Data                         Information
#----------   ------------------------------------------   ----------------
 STRT.FT                                       50.0000:     START DEPTH
 STOP.FT                                    15192.0000:     STOP DEPTH
 STEP.FT                                        0.5000:     STEP
 NULL.                                       -999.0000:     NULL VALUE
 COMP.                                 MOBIL PRODUCING:     COMPANY
 WELL.                                     ST MCINTYRE:     WELL
 FLD .                                   ROJO CABALLOS:     FIELD
 LOC .                                         UNKNOWN:     LOCATION
 LONG.                                 -103.1618580000:     LONGITUDE
 LATI.                                   31.1192890000:     LATITUDE
 CNTY.                                           PECOS:     COUNTY
 STAT.                                           TEXAS:     STATE
 CTRY.                                           U.S.A:     COUNTRY
 SRVC.                                         UNKNOWN:     SERVICE COMPANY
 DATE.                                         UNKNOWN:     DATE
 API .                                  42371053110000:     API NUMBER
 UWI .                                  42371053110000:     UWI NUMBER
 SLAT.                                       31.119289:     Surface latitude
 SLON.                                     -103.161858:     surface longitude
 TVD .                                              NO:     TVD flag
 WSTA.                                             LOC:     Well status
#
~Curve Information Block
#MNEM.UNIT       API CODE      Curve Description
#----------    -------------   -------------------
 DEPT.FT                   :   Depth in Feet
 DT  .UNKNOWN          UNKNOWN:   DT-Load
 DTedit.ft/s          UNKNOWN:   DT-Load
 GR  .UNKNOWN          UNKNOWN:   GR-Load
#
~Parameter Information Block
#MNEM.UNIT            Value               Description
#----------    --------------------    -------------------
 RUN .                         ONE:    Run Number
 PDAT.                          GL:    Permanent Datum
 EPD .FT                          :    Elevation Of Perm. Datum
 LMF .               KELLY BUSHING:    Log Measured From
 EKB .FT                          :    Elevation Of Kelly Bushing
 DF .FT                           :    Elevation Of Derrick Floor
 GL .FT                           :    Elevation Of Ground Level
 TD  .FT                          :    Total Depth
 CSGD.FT                          :    Casing Bottom (Driller) 1
 CSGL.FT                          :    Casing Bottom (Logger) 1
 MUD .                            :    Drilling Fluid Type
 MUDV .CP                         :    Drilling Fluid Viscosity
 MUDD .LB/USG                     :    Drilling Fluid Density
 FL .ML/30MIN                     :    Drilling Fluid Loss
 PH.                              :    Drilling Fluid Ph
 MUDS .                           :    Mud Sample Source
 RM .OHMM                         :    Resistivity Of Mud Sample
 RMT .DEGF                        :    Mud Sample Temperature
 RMF .OHMM                        :    Mud Filtrate Resistivity
 RMFT.DEGF                        :    Mud Filtrate Sample Temperature
 RMC .OHMM                        :    Mud Cake Resistivity
 RMCT.DEGF                        :    Mud Cake Sample Temperature
 RMB .OHMM                        :    Mud Resistivity At Bht
 TMAX .DEGF                       :    Bottom Hole Temperature
#
~Other Information Block
<DescLogPlotStart>   NEURALOG PLOT DEFINITION
PLOTDEFVERSION: 3
LASFILE: E:\Nair Innovations\42_TEXAS\371_Pecos\Mobil_St McIntyre 1 Pecos_1.las
DEPTHSCALE: 239.999996
RESOLUTION: 200
DEPTHLABELFREQ: 100.000000
HEAVYGRIDFREQ: 50.000000
MEDIUMGRIDFREQ: 50.000000
LIGHTGRIDFREQ: 10.000000
#
#   TRACK 1
#
STARTTRACK: 
 LEFTX: 0.500000 inch
 RIGHTX: 3.000000 inch
 SCALETYPE: Linear
 NUMCHARTDIVISIONS: 10
CURVE: GR    0.000000   150.000000 (255,0,0)      Short_Dash        4     N    
CURVE: DTedit 5571.227500 23879.853500 (0,131,131)    Solid             2     N
ENDTRACK: 
#
#   TRACK 2
#
STARTTRACK: 
 LEFTX: 3.750000 inch
 RIGHTX: 6.250000 inch
 SCALETYPE: Linear
 NUMCHARTDIVISIONS: 10
ENDTRACK: 
#
#   TRACK 3
#
STARTTRACK: 
 LEFTX: 6.250000 inch
 RIGHTX: 8.750000 inch
 SCALETYPE: Linear
 NUMCHARTDIVISIONS: 10
CURVE: DT    190.000000 50.000000  (255,0,131)    Solid             2     N    
ENDTRACK: 
<DescLogPlotEnd>
<DepthTrack type='Reference' track='1' Label='0' color='0' hor='0' />
<Reference font='144,0,-900,0,500,0,16777216,Arial' />
~A DEPTH     DT               DTedit             GR              
# ...
   14112.500 97.74020000      10231.20510000   58.37580000     
   14113.000 96.73930000      10337.06050000   58.20720000     
   14113.500 98.14180000      10189.33790000   57.43870000     
   14114.000 97.24280000      10283.53810000   59.18800000     
   14114.500 93.57450000      10686.67190000   62.25540000     
   14115.000 87.61650000      11413.37500000   64.11560000     
   14115.500 85.07510000      11754.32030000   64.67940000     
   14116.000 83.07310000      12037.59180000   62.49910000     
   14116.500 82.34340000      12144.26460000   60.44060000     
   14117.000 82.32390000      12147.14060000   59.30670000     
   14117.500 87.84420000      11383.79100000   58.15090000     
   14118.000 89.63340000      11156.55570000   58.41330000     
   14118.500 87.63450000      11411.03120000   60.33120000     
   14119.000 87.69450000      11403.22360000   61.67440000     
   14119.500 90.49370000      11050.49320000   57.43870000     
   14120.000 99.37660000      10062.73050000   53.48410000     
   14120.500 97.54250000      10251.94140000   56.83890000     
   14121.000 98.60340000      10141.63770000   63.74860000     
   14121.500 104.43640000     9575.20510000    69.23380000     
   14122.000 106.46530000     9392.73140000    72.71360000     
   14122.500 104.91590000     9531.44340000    74.85640000     
   14123.000 97.90210000      10214.28520000   72.60120000     
   14123.500 97.60170000      10245.72360000   70.27090000     
   14124.000 96.82310000      10328.11430000   69.14640000     
   14124.500 95.00100000      10526.20510000   71.45170000     
   14125.000 93.97610000      10641.00390000   70.97060000     
   14125.500 91.89610000      10881.85450000   66.60990000     
   14126.000 92.73540000      10783.36910000   62.66780000     
   14126.500 99.98180000      10001.82030000   59.50660000     
   14127.000 106.97180000     9348.25780000    57.63860000     
   14127.500 110.52010000     9048.12790000    57.26690000     
   14128.000 110.25340000     9070.01460000    56.76400000     
   14128.500 106.55820000     9384.54300000    55.29580000     
   14129.000 103.56130000     9656.11620000    52.98430000     
   14129.500 91.48850000      10930.33500000   53.21550000     
   14130.000 84.45180000      11841.07420000   56.50160000     
   14130.500 80.15410000      12475.96880000   59.35040000     
   14131.000 74.15720000      13484.86620000   60.72020000     
   14131.500 80.85530000      12367.77250000   59.71120000     
   14132.000 79.33890000      12604.15820000   58.22590000     
   14132.500 81.63460000      12249.70800000   56.28290000     
   14133.000 93.14290000      10736.19140000   53.65280000     
   14133.500 103.56730000     9655.55760000    51.27250000     
   14134.000 101.89490000     9814.03420000    53.48410000     
   14134.500 94.29370000      10605.16210000   56.63900000     
   14135.000 94.53340000      10578.27150000   59.59410000     
   14135.500 89.66640000      11152.45020000   58.76310000     
   14136.000 84.10410000      11890.02640000   58.32120000     
   14136.500 83.37280000      11994.31930000   58.55070000     
   14137.000 94.12590000      10624.06840000   56.00180000     
   14137.500 106.03220000     9431.09670000    57.37620000     
   14138.000 100.18970000     9981.06640000    59.04430000     
   14138.500 101.95480000     9808.26760000    55.97680000     
   14139.000 104.59220000     9560.94240000    52.11590000     
   14139.500 99.32860000      10067.59380000   49.80120000     
   14140.000 86.28590000      11589.37990000   48.65950000     
   14140.500 69.71860000      14343.37500000   50.63530000     
   14141.000 68.31620000      14637.81640000   52.93740000     
   14141.500 68.44800000      14609.63090000   54.83350000     
   14142.000 77.54680000      12895.43850000   53.12800000     
   14142.500 80.74740000      12384.29980000   49.21710000     
   14143.000 93.86220000      10653.91600000   45.57480000     
   14143.500 100.52830000     9947.44820000    42.18250000     
   14144.000 101.40040000     9861.89450000    43.73190000     
   14144.500 98.90910000      10110.29300000   47.20540000     
   14145.000 84.74550000      11800.03710000   49.83560000     
   14145.500 85.07510000      11754.32030000   49.61070000     
   14146.000 82.28800000      12152.43950000   51.01640000     
   14146.500 85.06310000      11755.97850000   52.67190000     
   14147.000 92.95100000      10758.35740000   53.75900000     
   14147.500 104.18460000     9598.34770000    55.23960000     
   14148.000 102.48230000     9757.78220000    54.11900000     
   14148.500 97.12890000      10295.59670000   54.22670000     
   14149.000 91.63840000      10912.45610000   53.99640000     
   14149.500 88.61150000      11285.21680000   51.50990000     
   14150.000 87.31680000      11452.54980000   51.18040000     
   14150.500 94.48560000      10583.62300000   53.21550000     
   14151.000 104.61620000     9558.74900000    51.82230000     
   14151.500 100.17320000     9982.71000000    49.64190000     
   14152.000 101.30910000     9870.78220000    46.21830000     
   14152.500 102.05530000     9798.60940000    41.13290000     
   14153.000 99.42460000      10057.87300000   41.55150000     
   14153.500 85.18300000      11739.43160000   45.06880000     
   14154.000 78.47580000      12742.78220000   49.94180000     
   14154.500 82.64160000      12100.44340000   54.96470000     
   14155.000 81.22850000      12310.95020000   57.48860000     
   14155.500 84.75150000      11799.20120000   58.48830000     
   14156.000 88.82730000      11257.79980000   59.02550000     
   14156.500 95.96610000      10420.34570000   56.24540000     
   14157.000 97.50650000      10255.72660000   55.75810000     
   14157.500 100.92400000     9908.44530000    56.25210000     
   14158.000 97.78220000      10226.80960000   56.19880000     
   14158.500 95.56450000      10464.13670000   57.12320000     
   14159.000 84.15200000      11883.25880000   58.40080000     
   14159.500 76.57570000      13058.97360000   57.26690000     
   14160.000 75.42490000      13258.22170000   55.50820000     
   14160.500 74.37000000      13446.28120000   52.39700000     
   14161.000 76.45580000      13079.45210000   50.76650000     
   14161.500 75.35900000      13269.81540000   53.86210000     
   14162.000 81.99430000      12195.96970000   57.61360000     
   14162.500 89.84620000      11130.13180000   59.25040000     
   14163.000 98.10580000      10193.07710000   63.89850000     
   14163.500 106.12660000     9422.70800000    66.92220000     
   14164.000 103.87890000     9626.59380000    66.42250000     
   14164.500 106.90590000     9354.02050000    61.87440000     
   14165.000 104.05270000     9610.51460000    58.59450000     
   14165.500 101.39750000     9862.17580000    58.73030000     
   14166.000 97.57840000      10248.16990000   58.26650000     
   14166.500 88.41370000      11310.46480000   58.01190000     
   14167.000 86.02210000      11624.91890000   60.82480000     
   14167.500 81.28100000      12302.99800000   60.52760000     
   14168.000 82.30590000      12149.79690000   64.64820000     
   14168.500 85.69540000      11669.23830000   61.36210000     
   14169.000 87.10110000      11480.91210000   57.43240000     
   14169.500 90.52950000      11046.12300000   57.26380000     
   14170.000 83.40880000      11989.14260000   54.91470000     
   14170.500 82.41980000      12133.00680000   53.96510000     
   14171.000 79.30300000      12609.86330000   53.18420000     
   14171.500 78.87130000      12678.88280000   53.18420000     
   14172.000 73.12320000      13675.55080000   51.39750000     
   14172.500 72.40390000      13811.41110000   51.06950000     
   14173.000 79.18910000      12628.00000000   53.77770000     
   14173.500 86.97960000      11496.94920000   55.71130000     
   14174.000 82.44370000      12129.48930000   57.12630000     
   14174.500 86.35470000      11580.14550000   58.32270000     
