###############################################
##         ENVERUS                           ##
##         ESS - Open Hole                   ##
##         PERMIAN / DELAWARE                ##
##         Nov 04 2023  V4.0                 ##
##         42-389-10119-00-00                ##
###############################################
## Copyright 2017-2023  ENVERUS.  All Rights Reserved. 
## Confidential - Property of ENVERUS, use governed by terms and 
## conditions found within the existing Information Services Subscription Agreement 
## (as may be amended, the “ISSA”) between Customer and ENVERUS. 
## 
~VERSION INFORMATION
# MNEM.UNIT                               DATA : DESCRIPTION OF MNEMONIC
#-----.-----     ----------------------------- : -----------------------------
VERS.                                     2.00 : CWLS LOG ASCII STANDARD - VERSION 2.00
WRAP.                                       NO : MULTIPLE LINES PER DEPTH STEP
VEND.                                  ENVERUS : VENDOR
TYPE.                          ESS - OPEN HOLE : ENVERUS ESSENTIAL CURVES – ACCESSIBLE THROUGH ENVERUS PRISM(TM)
DOC.                                  32008410 : ENVERUS HEADER RAW DOCUMENT ID
#___________________________________________________________________________________________________ 
~WELL INFORMATION 
# X8E3XgEZRMs+LiTqjMYqety/5rGXYLbzRNciiYBq17B6ClLelYcJjKNVvvPfWOVGxhvISow7q4Dbthq8gKP2Nw== 
# MNEM.UNIT                                              DATA : DESCRIPTION OF MNEMONIC 
#-----.-----                    ----------------------------- : ----------------------------- 
CNTY.                                                  REEVES : COUNTY 
STATE.                                                  TEXAS : STATE 
CNTRY.                                                    USA : COUNTRY 
API.                                             42-389-10119 : API (10 Digit) 
API_14.                                    42-389-10119-00-00 : API (14 Digits) 
API_14_std.                                 42-389-10119-0000 : API (14 Digits Standard) 
UWI.                                           42389101190000 : UNIQUE WELL ID 
WELL.                                                   1-40, : WELL NAME
STRT.FT                                                  58.0 : START DEPTH
STOP.FT                                                5338.0 : STOP DEPTH
STEP.FT                                                   0.5 : STEP BETWEEN DEPTHS
NULL.                                                 -999.25 : NULL VALUE
#___________________________________________________________________________________________________ 
~CURVE INFORMATION 
# MNEM.UNIT           : CURVE DESCRIPTION 
#-----.-----          : ----------------------------- 
 DEPT.FT               : MEASURED DEPTH 
 GR.API                : GAMMA RAY (GR) 
 DT.US/FT              : SONIC DELTA TRANSIT TIME (DT) 
 #___________________________________________________________________________________________________ 
~A         DEPT             GR             DT
# ...
         3886.0          5.976         72.665
         3886.5          5.534         76.221
         3887.0          5.466         73.837
         3887.5          6.106         69.546
         3888.0          6.746         67.390
         3888.5          7.386         68.148
         3889.0          7.026         68.660
         3889.5          6.492         69.749
         3890.0          5.957         71.079
         3890.5          5.422         71.486
         3891.0          4.887         68.712
         3891.5          4.353         64.675
         3892.0          4.112         55.350
         3892.5          4.510         39.888
         3893.0          4.907         39.469
         3893.5          5.304         39.050
         3894.0          5.701         39.141
         3894.5          6.672         48.925
         3895.0          8.886         50.501
         3895.5         11.099         51.842
         3896.0         10.902         51.348
         3896.5         10.253         50.855
         3897.0          9.605         50.361
         3897.5          8.956         50.114
         3898.0          8.307         51.965
         3898.5          7.659         53.422
         3899.0          7.510         52.190
         3899.5          8.508         50.958
         3900.0          9.507         50.130
         3900.5         10.505         52.595
         3901.0         11.503         54.727
         3901.5         10.712         54.775
         3902.0          9.527         54.824
         3902.5          8.639         51.438
         3903.0          8.457         50.983
         3903.5          8.276         50.562
         3904.0          8.094         50.387
         3904.5          7.912         50.212
         3905.0          7.731         50.036
         3905.5          9.256         49.861
         3906.0         10.610         49.686
         3906.5         10.384         49.511
         3907.0         10.157         49.529
         3907.5          9.931         49.667
         3908.0          9.704         49.804
         3908.5          9.477         49.966
         3909.0         11.933         50.303
         3909.5         15.175         50.640
         3910.0         16.465         51.806
         3910.5         13.535         53.461
         3911.0         10.605         55.116
         3911.5         10.518         53.212
         3912.0         11.302         49.942
         3912.5         12.085         50.063
         3913.0         12.517         50.183
         3913.5         12.021         50.303
         3914.0         11.524         50.424
         3914.5         11.028         50.544
         3915.0         10.991         50.665
         3915.5         12.305         50.785
         3916.0         13.619         50.905
         3916.5         14.933         50.963
         3917.0         16.889         50.641
         3917.5         20.517         50.318
         3918.0         24.145         49.995
         3918.5         27.773         49.673
         3919.0         26.668         49.350
         3919.5         27.397         49.028
         3920.0         33.729         49.179
         3920.5         32.281         49.600
         3921.0         19.052         51.547
         3921.5          8.687         50.799
         3922.0          8.852         49.794
         3922.5          9.017         49.674
         3923.0          9.182         49.554
         3923.5          9.347         49.435
         3924.0          9.511         49.315
         3924.5         10.297         49.532
         3925.0         13.463         51.714
         3925.5         16.614         53.733
         3926.0         19.717         55.668
         3926.5         22.819         56.159
         3927.0         25.922         51.719
         3927.5         24.406         54.281
         3928.0         12.590         50.335
         3928.5          9.402         50.215
         3929.0         10.150         50.096
         3929.5         10.898         49.976
         3930.0         11.646         49.856
         3930.5         10.956         52.224
         3931.0          9.641         50.159
         3931.5          8.326         49.443
         3932.0          7.968         49.425
         3932.5          8.091         49.407
         3933.0         10.008         49.389
         3933.5         12.839         49.370
         3934.0         15.995         49.352
         3934.5         20.450         49.371
         3935.0         24.904         49.579
         3935.5         29.359         49.787
         3936.0         48.371         49.994
         3936.5         38.094         50.202
         3937.0         24.911         50.410
         3937.5         13.718         51.963
         3938.0         11.594         54.171
         3938.5         10.717         58.059
         3939.0         10.496         62.710
         3939.5         10.274         64.040
         3940.0         10.053         64.040
         3940.5         10.327         64.040
         3941.0         13.913         57.192
         3941.5         19.047         53.861
         3942.0         22.950         51.079
         3942.5         22.453         50.743
         3943.0         20.300         50.407
         3943.5         11.835         51.247
         3944.0          8.535         52.634
         3944.5          8.410         52.978
         3945.0          9.686         52.858
         3945.5         11.845         53.358
         3946.0         14.003         56.428
         3946.5         16.423         59.498
         3947.0         20.280         62.569
         3947.5         24.137         65.639
         3948.0         27.994         73.171
         3948.5         25.422         70.054
         3949.0         20.503         66.937
         3949.5         15.584         67.823
         3950.0         10.665         70.215
         3950.5          6.319         72.606
         3951.0          9.101         73.302
         3951.5         11.883         73.405
         3952.0         14.044         73.508
         3952.5         11.718         53.454
         3953.0          9.392         52.084
         3953.5          7.066         48.813
         3954.0          4.868         39.725
         3954.5          4.992         40.874
         3955.0          5.169         46.498
         3955.5          6.352         52.122
         3956.0          7.534         57.746
         3956.5          8.717         63.626
         3957.0          9.900         70.865
         3957.5         11.083         76.999
         3958.0         11.244         66.999
         3958.5         10.665         57.097
         3959.0         10.087         49.984
         3959.5          9.509         52.175
         3960.0          8.930         54.366
         3960.5          8.352         55.007
         3961.0          8.758         50.244
         3961.5          9.981         52.578
         3962.0         11.205         57.799
         3962.5         12.429         63.019
         3963.0         13.725         66.833
         3963.5         15.943         49.460
         3964.0         18.162         49.420
         3964.5         14.936         49.380
         3965.0          8.343         49.340
         3965.5          8.675         49.300
         3966.0          9.006         49.260
         3966.5          9.337         49.290
         3967.0          9.669         49.565
         3967.5         10.938         49.840
         3968.0         13.036         50.115
         3968.5         15.135         51.633
         3969.0         18.954         56.932
         3969.5         23.232         63.456
         3970.0         20.691         58.174
         3970.5         18.150         52.815
         3971.0         22.257         60.787
         3971.5         31.505         68.759
         3972.0         33.802         73.497
         3972.5         27.083         68.550
