~VERSION INFORMATION
 VERS.                2.0:   CWLS LOG ASCII STANDARD - VERSION 2.0
 WRAP.                 NO:   ONE LINE PER DEPTH STEP
~WELL INFORMATION
#MNEM.UNIT      DATA TYPE    INFORMATION
#----------   ------------   ------------------------------
 STRT.FT          50.0000:   START DEPTH
 STOP.FT        5375.0000:   STOP DEPTH
 STEP.FT           0.5000:   STEP LENGTH
 NULL.          -999.2500:   NULL VALUE
 COMP.  A.N. NORWOOD, INC:   COMPANY
 WELL.        MCINTYRE #1:   WELL
 FLD .  ROJO CABALLOS, S.:   FIELD
 LOC .                   :   LOCATION
 CNTY.              PECOS:   COUNTY
 STAT.              TEXAS:   STATE
 CTRY. UNITED STATES OF AMERICA:   COUNTRY
 SRVC.              Welex:   SERVICE COMPANY
 DATE.        06-May-1983:   LOGDATE
 API .     42371342980000:   API NUMBER
~CURVE INFORMATION
#MNEM.UNIT       API CODE    CURVE DESCRIPTION
#----------   ------------   ------------------------------
 DEPT.F      0   1   0  0:   1 MEASURED DEPTH
 GRD .GAPI   45 310 01 00:   GAMMA RAY FROM DENSITY LOG
 NPOR_LS.DEC 42 890 01 00:   NEUTRON POROSITY LIMESTONE
 CALD.IN     45 280 60 00:   CALIPER FROM DENSITY LOG
 CORR.G/C3   45 356 01 00:   DENSITY CORRECTION
 RHOB.G/C3   45 350 01 00:   BULK DENSITY
 DPOR_LS.DEC 45 890 10 00:   DENSITY POROSITY LIMESTONE
 DT  .US/F   60 500 00 00:   DELTA-T (INTERVAL TRANSIT TIME)
 SPR .MV     07 010 01 00:   SPONTANEOUS POTENTIAL FROM RESISTIVITY LOG
 ILD .OHMM   07 120 46 00:   INDUCTION DEEP RESISTIVITY
 ILM .OHMM   07 120 44 00:   INDUCTION MEDIUM RESISTIVITY
~PARAMETER INFORMATION
#MNEM.UNIT          VALUE    DESCRIPTION
#----------   ------------   ------------------------------
 PD  .                 GL:   PERMANENT DATUM
 EPD .FT             2768:   ELEVATION PERMANENT DATUM
 LMF .                 KB:   LOG MEASURED FROM
 DAPD.FT               10:   FEET ABOVE PERMANENT DATUM
 DMF .                 KB:   DRILLING MEASURED FROM
 EKB .FT             2778:   KELLY BUSHING
 EDF .FT             2777:   DRILLING FLOOR
 EGL .FT             2768:   GROUND LEVEL
 DATE.           05/06/83:   RUN DATE
 RUN .                  1:   RUN NUMBER
 DD  .FT             5380:   DEPTH DRILLER
 DL  .FT             5377:   DEPTH LOGGER
 BLI .FT             5375:   BOTTOM LOG INTERVAL
 TLI .FT               50:   TOP LOG INTERVAL
 CS  .IN            8.625:   CASING SIZE
 CBD .FT             1596:   CASING BOTTOM DRILLER
 CBL .FT             1613:   CASING BOTTOM LOGGER
 BS  .IN             7.75:   BIT SIZE
 BSD .FT             5380:   BIT SIZE AT DEPTH
 DFT .           SALT GEL:   DRILLING FLUID TYPE
 DFD .               10.2:   DRILLING FLUID DENSITY
 DFV .                 33:   DRILLING FLUID VISCOSITY
 DFPH.                9.5:   DRILLING FLUID PH
 DFL .                 18:   DRILLING FLUID LOSS
 MSS .               CIRC:   MUD SAMPLE SOURCE
 RMS .OHMM           0.09:   RESISTIVITY MUD SAMPLE
 MST .DEGF             72:   MUD SAMPLE TEMPERATURE
 RMF .OHMM           0.08:   RESISTIVITY MUD FILTRATE SAMPLE
 MFST.DEGF             72:   MUD FILTRATE SAMPLE TEMPERATURE
 MFSS.               MEAS:   MUD FILTRATE SAMPLE SOURCE
 MCSS.               MEAS:   MUD CAKE SAMPLE SOURCE
 RMB .OHMM          0.059:   RESISTIVITY MUD AT BHT
 BHT .DEGF            112:   BOTTOM HOLE TEMPERATURE
 TCS .HRS               4:   TIME CIRCULATED STOPPED
 MRT .DEGF            112:   MAXIMUM RECORDED TEMPERATURE
 LUN .               3415:   LOGGING UNIT NUMBER
 LUL .             ODESSA:   LOGGING UNIT LOCATION
 ENGI.             LAWSON:   RECORDING ENGINEER
 WITN.            NORWOOD:   WITNESSED BY
 ORIG.      1" 2.5" PRINT:   ORIGIN OF DATA
 UWI .     42371342980000:   UNIQUE WELL ID
~OTHER INFORMATION
~A    DEPT        GRD      NPOR_LS      CALD        CORR        RHOB       DPOR_LS        DT         SPR         ILD         ILM    
# ...
  5326.5000     84.6548      0.1454      8.0500      0.0239      2.4946      0.1247     69.1097    -34.0988      8.1021      8.1958 
  5327.0000     84.7988      0.1452      8.0486      0.0288      2.4927      0.1283     68.9259    -34.0938      7.5469      7.6133 
  5327.5000     84.7988      0.1416      8.0477      0.0324      2.4909      0.1371     68.5313    -34.0175      7.0297      7.0721 
  5328.0000     80.7658      0.1362      8.0476      0.0324      2.4749      0.1463     68.2264    -33.8544      6.5479      6.7569 
  5328.5000     75.6832      0.1315      8.0475      0.0312      2.4608      0.1583     68.0656    -33.6915      6.2096      6.4636 
  5329.0000     71.3739      0.1276      8.0474      0.0274      2.4465      0.1703     68.2649    -33.5285      5.9352      6.1830 
  5329.5000     67.4019      0.1267      8.0472      0.0219      2.4254      0.1845     68.8085    -33.4318      5.6730      5.9145 
  5330.0000     66.1583      0.1293      8.0471      0.0164      2.4146      0.1870     69.8191    -33.4053      5.4251      5.6577 
  5330.5000     65.9193      0.1370      8.0470      0.0108      2.4114      0.1887     70.9654    -33.3789      5.2307      5.4900 
  5331.0000     66.1207      0.1446      8.0469      0.0078      2.4112      0.1888     71.1596    -33.5330      5.1500      5.4375 
  5331.5000     71.2208      0.1515      8.0467      0.0057      2.4108      0.1885     71.1475    -33.7633      5.0872      5.3855 
  5332.0000     72.3673      0.1523      8.0466      0.0035      2.4086      0.1882     70.7842    -34.2002      5.0581      5.3365 
  5332.5000     71.0711      0.1513      8.0465      0.0014      2.4046      0.1890     70.0732    -34.6497      5.0605      5.3058 
  5333.0000     69.2971      0.1474      8.0464     -0.0001      2.4041      0.1939     69.6733    -34.8965      5.0628      5.2868 
  5333.5000     67.5231      0.1397      8.0462     -0.0014      2.4036      0.2013     69.8241    -35.0024      5.0896      5.2893 
  5334.0000     64.4218      0.1321      8.0461     -0.0028      2.4043      0.1973     70.5238    -34.9562      5.1502      5.3036 
  5334.5000     63.6695      0.1316      8.0460     -0.0041      2.4068      0.1970     71.0805    -34.8822      5.2422      5.4668 
  5335.0000     63.6732      0.1350      8.0459     -0.0048      2.4094      0.2015     71.2566    -34.6135      5.3358      5.6351 
  5335.5000     64.9109      0.1356      8.0457     -0.0047      2.4124      0.2021     70.9984    -34.3448      5.4586      5.8085 
  5336.0000     66.6048      0.1357      8.0456     -0.0047      2.4154      0.1915     70.2055    -33.8346      5.7832      5.9873 
  5336.5000     66.9251      0.1349      8.0455     -0.0047      2.4184      0.1852     69.0181    -33.6827      6.1271      6.2474 
  5337.0000     67.0229      0.1277      8.0454     -0.0047      2.4215      0.1761     68.2582    -34.6228      6.4779      6.5714 
  5337.5000     67.3462      0.1236      8.0466     -0.0093      2.4245      0.1667     67.8745    -35.1788      6.8368      7.1093 
  5338.0000     67.6692      0.1236      8.0485     -0.0201      2.4336      0.1686     67.9704    -35.0338      7.2648      7.6932 
  5338.5000     69.9531      0.1267      8.0503     -0.0218      2.4426      0.1690     68.0903    -34.7916      7.7422      8.3251 
  5339.0000     72.7062      0.1365      8.0522     -0.0095      2.4501      0.1625     68.2892    -34.6230      8.0000      8.9640 
  5339.5000     76.5845      0.1463      8.0540      0.0028      2.4576      0.1521     68.4698    -34.6180      8.2339      9.2377 
  5340.0000     81.5827      0.1560      8.0559      0.0152      2.4745      0.1327     68.4626    -34.6808      8.3169      9.2420 
  5340.5000     87.8105      0.1604      8.0577      0.0275      2.5167      0.1137     68.6268    -34.9483      8.3017      9.2462 
  5341.0000     94.0382      0.1582      8.0596      0.0399      2.5447      0.0992     69.2056    -35.1538      7.9758      8.8806 
  5341.5000    102.4189      0.1524      8.0614      0.0522      2.5444      0.0942     70.1856    -34.9531      6.7281      7.9172 
  5342.0000    114.2943      0.1519      8.0633      0.0541      2.5374      0.1077     71.2223    -34.0722      5.7238      6.6843 
  5342.5000    114.7539      0.1516      8.0651      0.0537      2.5045      0.1255     71.6571    -34.0722      4.9657      5.6434 
  5343.0000    110.1341      0.1515      8.0670      0.0413      2.4738      0.1446     72.0587    -33.9776      4.3080      4.7645 
  5343.5000    105.5143      0.1562      8.0688      0.0257      2.4450      0.1485     72.5166    -33.7772      3.8597      4.1123 
  5344.0000     92.6190      0.1670      8.0707      0.0190      2.4162      0.1706     73.9948    -33.5518      3.5577      3.7362 
  5344.5000     89.7949      0.1777      8.0724      0.0197      2.4037      0.1866     75.0494    -33.2550      3.3238      3.4242 
  5345.0000     88.6891      0.1801      8.0724      0.0270      2.3926      0.1904     76.4639    -33.1051      3.1177      3.3844 
  5345.5000     87.5833      0.1811      8.0724      0.0447      2.3814      0.1939     76.8745    -33.3274      3.1161      3.3579 
  5346.0000     86.4775      0.1837      8.0724      0.0447      2.3615      0.2133     76.9572    -33.4232      3.1851      3.3957 
  5346.5000   -999.2500      0.1911      8.0724      0.0436      2.3398      0.2267     76.7727    -33.4232      3.2790      3.4399 
  5347.0000   -999.2500      0.1986      8.0724      0.0320      2.3182      0.2393     76.2330    -33.4232      3.3755      3.5045 
  5347.5000   -999.2500      0.1999      8.0724     -0.0104      2.3013      0.2455     75.4578    -33.4758      3.4555      3.5683 
  5348.0000   -999.2500      0.1870      8.0724     -0.0115      2.3000      0.2361     74.1588    -33.8173      3.5263      3.6256 
  5348.5000   -999.2500      0.1627      8.0724     -0.0126      2.3010      0.2199     73.2429    -34.2021      3.5583      3.6838 
  5349.0000   -999.2500      0.1585      8.0689     -0.0081      2.3091      0.2179     73.1426    -34.5660      3.5861      3.7143 
  5349.5000   -999.2500      0.1583      8.0655     -0.0017      2.3407      0.2182     73.4880    -34.8293      3.6075      3.7303 
  5350.0000   -999.2500      0.1608      8.0620      0.0022      2.3342      0.2267     74.3673    -34.8290      3.6289      3.7608 
  5350.5000   -999.2500      0.1634      8.0585     -0.0008      2.3206      0.2385     74.8656    -34.6597      3.6505      3.7970 
  5351.0000   -999.2500      0.1665      8.0548     -0.0186      2.3071      0.2508     74.8666    -34.4787      3.7004      3.8797 
  5351.5000   -999.2500      0.1711      8.0398     -0.0471      2.2936      0.2621     74.3878    -34.2796      3.7835      4.0101 
  5352.0000   -999.2500      0.1778      8.0248     -0.0460      2.2898      0.2625     73.6067    -34.1099      3.8877      4.1448 
  5352.5000   -999.2500      0.1759      8.0098     -0.0386      2.2898      0.2424     72.0862    -34.0777      4.0399      4.2841 
  5353.0000   -999.2500      0.1610      7.9948     -0.0305      2.2936      0.2253     71.2220    -34.7168      4.2639      4.4785 
  5353.5000   -999.2500      0.1547      7.9798     -0.0120      2.3065      0.2115     70.6829    -35.1505      4.5807      4.7257 
  5354.0000   -999.2500      0.1579      7.9647      0.0095      2.3385      0.1963     70.3802    -35.2900      4.9210      5.0026 
  5354.5000   -999.2500      0.1566      7.9497      0.0248      2.3705      0.1927     70.0432    -35.1467      5.2866      5.4770 
  5355.0000   -999.2500      0.1491      7.9347      0.0225      2.3763      0.2021     69.7598    -35.8784      5.6794      5.9964 
  5355.5000   -999.2500      0.1416      7.9386     -0.0096      2.3787      0.2117     69.6192    -36.1061      6.1014      6.5650 
  5356.0000   -999.2500      0.1390      7.9444     -0.0323      2.3792      0.2233     69.4881    -36.0911      7.1991      7.1876 
  5356.5000   -999.2500      0.1441      7.9502     -0.0327      2.3798      0.2318     69.5138    -36.0824      8.5732      8.0227 
