###############################################
##         ENVERUS                           ##
##         ESS - Open Hole                   ##
##         PERMIAN / DELAWARE                ##
##         Nov 04 2023  V4.0                 ##
##         42-389-00931-00-00                ##
###############################################
## Copyright 2017-2023  ENVERUS.  All Rights Reserved. 
## Confidential - Property of ENVERUS, use governed by terms and 
## conditions found within the existing Information Services Subscription Agreement 
## (as may be amended, the “ISSA”) between Customer and ENVERUS. 
## 
~VERSION INFORMATION
# MNEM.UNIT                               DATA : DESCRIPTION OF MNEMONIC
#-----.-----     ----------------------------- : -----------------------------
VERS.                                     2.00 : CWLS LOG ASCII STANDARD - VERSION 2.00
WRAP.                                       NO : MULTIPLE LINES PER DEPTH STEP
VEND.                                  ENVERUS : VENDOR
TYPE.                          ESS - OPEN HOLE : ENVERUS ESSENTIAL CURVES – ACCESSIBLE THROUGH ENVERUS PRISM(TM)
DOC.                                  31935239 : ENVERUS HEADER RAW DOCUMENT ID
#___________________________________________________________________________________________________ 
~WELL INFORMATION 
# S9zL0tdqvH3y2XIpNbXcuKF0SeIoK+7NE6VaQ02nn2+shQHF2oZWL/5TS96hefD+9qjP/MIJWV/WOidK809eGw== 
# MNEM.UNIT                                              DATA : DESCRIPTION OF MNEMONIC 
#-----.-----                    ----------------------------- : ----------------------------- 
CNTY.                                                  REEVES : COUNTY 
STATE.                                                  TEXAS : STATE 
CNTRY.                                                    USA : COUNTRY 
API.                                             42-389-00931 : API (10 Digit) 
API_14.                                    42-389-00931-00-00 : API (14 Digits) 
API_14_std.                                 42-389-00931-0000 : API (14 Digits Standard) 
UWI.                                           42389009310000 : UNIQUE WELL ID 
WELL.                                                      1, : WELL NAME
STRT.FT                                                 101.0 : START DEPTH
STOP.FT                                                5373.0 : STOP DEPTH
STEP.FT                                                   0.5 : STEP BETWEEN DEPTHS
NULL.                                                 -999.25 : NULL VALUE
#___________________________________________________________________________________________________ 
~CURVE INFORMATION 
# MNEM.UNIT           : CURVE DESCRIPTION 
#-----.-----          : ----------------------------- 
 DEPT.FT               : MEASURED DEPTH 
 GR.API                : GAMMA RAY (GR) 
 DT.US/FT              : SONIC DELTA TRANSIT TIME (DT) 
 #___________________________________________________________________________________________________ 
~A         DEPT             GR             DT
# ...
         3929.0          4.434         49.815
         3929.5          5.439         48.360
         3930.0          6.443         48.548
         3930.5          7.448         48.737
         3931.0          8.452         48.925
         3931.5          9.250         49.114
         3932.0          9.054         49.303
         3932.5          8.858         49.491
         3933.0          8.662         49.680
         3933.5          8.466         49.868
         3934.0          8.271         50.057
         3934.5          8.075         50.245
         3935.0          8.031         50.434
         3935.5          8.584         50.501
         3936.0          9.137         50.325
         3936.5          9.690         50.149
         3937.0         10.243         49.973
         3937.5         10.797         49.798
         3938.0         10.578         49.622
         3938.5         10.193         49.446
         3939.0          9.807         49.587
         3939.5          9.422         49.844
         3940.0          9.036         50.101
         3940.5          8.651         50.358
         3941.0          8.266         50.615
         3941.5          7.929         50.763
         3942.0          8.411         50.717
         3942.5          8.893         50.671
         3943.0          9.375         50.624
         3943.5          9.857         50.578
         3944.0         10.340         50.531
         3944.5         10.822         50.485
         3945.0         11.304         50.439
         3945.5         11.786         50.495
         3946.0         12.268         50.629
         3946.5         12.750         50.763
         3947.0         13.233         50.896
         3947.5         13.715         51.030
         3948.0         14.197         51.164
         3948.5         13.601         51.143
         3949.0         12.850         51.015
         3949.5         12.100         50.886
         3950.0         11.350         50.758
         3950.5         10.600         50.629
         3951.0         10.028         50.501
         3951.5          9.961         50.373
         3952.0          9.894         50.244
         3952.5          9.827         50.116
         3953.0          9.759         49.987
         3953.5          9.692         50.027
         3954.0          9.700         50.068
         3954.5         10.454         50.108
         3955.0         11.208         50.149
         3955.5         11.961         50.190
         3956.0         12.715         50.230
         3956.5         13.469         50.271
         3957.0         14.222         50.089
         3957.5         14.865         49.854
         3958.0         14.357         49.619
         3958.5         13.849         49.384
         3959.0         13.341         49.312
         3959.5         12.833         49.637
         3960.0         12.325         49.962
         3960.5         11.817         50.287
         3961.0         11.310         49.991
         3961.5         11.610         49.689
         3962.0         12.041         49.387
         3962.5         12.472         49.235
         3963.0         12.835         49.160
         3963.5         12.566         49.084
         3964.0         12.297         49.008
         3964.5         12.028         48.933
         3965.0         11.759         48.857
         3965.5         11.489         48.781
         3966.0         11.220         48.705
         3966.5         10.951         48.630
         3967.0         10.682         48.554
         3967.5         10.413         48.649
         3968.0         10.054         48.780
         3968.5          9.694         48.911
         3969.0          9.335         49.042
         3969.5          8.975         49.174
         3970.0          8.615         49.305
         3970.5          8.255         49.416
         3971.0          8.814         49.340
         3971.5         10.109         49.263
         3972.0         11.404         49.186
         3972.5         12.206         49.109
         3973.0         11.926         49.032
         3973.5         11.646         48.955
         3974.0         11.367         48.879
         3974.5         11.087         48.802
         3975.0         10.808         48.725
         3975.5         11.227         48.648
         3976.0         11.681         48.571
         3976.5         12.135         48.494
         3977.0         12.589         48.692
         3977.5         13.043         48.911
         3978.0         13.497         49.131
         3978.5         13.951         49.350
         3979.0         14.404         49.569
         3979.5         14.356         49.645
         3980.0         13.993         49.524
         3980.5         13.630         49.403
         3981.0         13.267         49.283
         3981.5         12.904         49.162
         3982.0         12.541         49.041
         3982.5         12.179         48.920
         3983.0         11.761         48.799
         3983.5         10.927         48.679
         3984.0         10.092         48.561
         3984.5          9.257         48.654
         3985.0          8.684         48.747
         3985.5          8.549         48.839
         3986.0          8.415         48.932
         3986.5          8.280         49.025
         3987.0          8.146         49.118
         3987.5          8.335         49.211
         3988.0          9.367         49.304
         3988.5         10.398         49.397
         3989.0         11.429         49.343
         3989.5         12.461         49.231
         3990.0         11.982         49.120
         3990.5         11.443         49.008
         3991.0         12.112         48.897
         3991.5         12.429         48.785
         3992.0         11.348         48.674
         3992.5         10.267         48.562
         3993.0          9.186         48.655
         3993.5          8.105         48.766
         3994.0          9.873         48.877
         3994.5         11.848         48.988
         3995.0         13.823         49.098
         3995.5         15.798         49.209
         3996.0         17.773         49.303
         3996.5         19.748         49.435
         3997.0         18.245         49.973
         3997.5         16.613         50.512
         3998.0         14.981         51.145
         3998.5         13.349         52.213
         3999.0         12.499         53.281
         3999.5         11.671         54.350
         4000.0         10.843         55.418
         4000.5         10.014         56.486
         4001.0          9.186         57.554
         4001.5          8.358         58.622
         4002.0          7.529         59.691
         4002.5          7.389         60.759
         4003.0          7.467         61.308
         4003.5          7.546         59.494
         4004.0          7.624         57.680
         4004.5          7.703         55.866
         4005.0          8.191         54.053
         4005.5          8.894         52.239
         4006.0          9.597         50.425
         4006.5         10.300         48.611
         4007.0         11.002         48.528
         4007.5         11.705         48.955
         4008.0         12.408         49.383
         4008.5         12.463         49.720
         4009.0         12.462         49.698
         4009.5         12.460         49.676
         4010.0         12.069         49.654
         4010.5         11.510         49.632
         4011.0         10.952         49.611
         4011.5         10.393         49.589
         4012.0          9.834         49.567
         4012.5          9.702         49.545
         4013.0         10.372         49.524
         4013.5         11.041         49.502
         4014.0         11.711         49.480
         4014.5         12.380         49.458
         4015.0         13.049         49.702
         4015.5         13.719         60.495
