#--------------------------------------------------#
#-------------------ENVERUS, INC.------------------#
#------------------WWW.ENVERUS.COM-----------------#
#------------------COPYRIGHT 2020------------------#
#--------------------------------------------------#
#THIS FILE MAY BE USED ONLY IN ACCORDANCE WITH A CURRENT SUBSCRIPTION AGREEMENT BETWEEN
#THE USER AND ENVERUS, INC. NO PART OF THIS FILE MAY BE REPRODUCED, USED, COPIED,
#MODIFIED, PROPAGATED, OR DISTRIBUTED EXCEPT IN ACCORDANCE WITH THE SUBSCRIPTION
#AGREEMENT. UNAUTHORIZED USE OR DISTRIBUTION OF ALL OR ANY PART OF THIS FILE MAY VIOLATE
#COPYRIGHT, TRADEMARK, AND/OR OTHER LAWS AND IS SUBJECT TO CIVIL AS WELL AS CRIMINAL
#SANCTIONS.
#--------------------------------------------------#
#THIS FILE IS PROVIDED "AS-IS" AND ALL WARRANTIES ARE EXPRESSLY DISCLAIMED, WHETHER
#EXPRESS, ORAL, IMPLIED, STATUTORY OR OTHERWISE, INCLUDING ANY IMPLIED WARRANTY OF FITNESS
#FOR A PARTICULAR PURPOSE, MERCHANTABILITY, TITLE OR NON-INFRINGEMENT, AND ANY WARRANTIES
#ARISING BY VIRTUE OF CUSTOM OF TRADE OR COURSE OF DEALING.  FURTHER, ENVERUS, INC.
#AND ITS LICENSORS DO NOT REPRESENT OR WARRANT THAT THIS FILE WILL MEET USER'S
#REQUIREMENTS OR ARE SUITABLE FOR USER'S NEEDS OR THAT THE DATA OR RESULTS PROVIDED IN
#CONJUNCTION THEREWITH ARE CORRECT, ACCURATE, TIMELY OR RELIABLE. THESE DISCLAIMERS SHALL
#APPLY REGARDLESS OF ANY FAILURE OF ESSENTIAL PURPOSE OF ANY LIMITED REMEDY.  SOME
#JURISDICTIONS DO NOT ALLOW THE EXCLUSION OF CERTAIN WARRANTIES SO SOME OF THE ABOVE
#EXCLUSIONS MAY NOT APPLY. IN NO EVENT SHALL ENVERUS, INC. OR ANY OF ITS AFFILIATES
#BE LIABLE UNDER ANY LEGAL THEORY, WHETHER IN TORT (INCLUDING WITHOUT LIMITATION
#NEGLIGENCE), CONTRACT, STRICT LIABILITY, STATUTORY OR OTHERWISE, FOR ANY SPECIAL,
#INCIDENTAL, CONSEQUENTIAL, EXEMPLARY, PUNITIVE OR INDIRECT DAMAGE OF ANY KIND, INCLUDING
#WITHOUT LIMITATION LOSS OF REVENUE, PROFITS, GOODWILL, USE, AND/OR DATA OR THE COST OF
#PROCUREMENT OF SUBSTITUTE GOODS OR SERVICES, EVEN IF APPRISED OF THE POSSIBILITY OF SUCH
#DAMAGES IN ADVANCE.
#--------------------------------------------------#

# EXPORTED FROM DI TRANSFORM
# DI TRANSFORM - A PRODUCT OF DRILLINGINFO, INC. - WWW.DRILLINGINFO.COM
#
~VERSION INFORMATION
 VERS.        2.0 : LAS ASCII STANDARD - VERSION 2.0
 WRAP.         NO : ONE LINE PER DEPTH STEP

~WELL INFORMATION
#MNEM.UNIT       DATA TYPE       INFORMATION
#---------       ---------       -----------
 STRT.FT           100 : START DEPTH
 STOP.FT         18040 : STOP DEPTH
 STEP.FT           0.5 : STEP LENGTH
 NULL.         -999.25 : NULL VALUE
 UWI.   42371302980000 : UNIQUE WELL ID
 API.   42371302980000 : WELL IDENTIFIER
 COMP.                 : COMPANY
 WELL.          DRD_55 : WELL NAME
 FLD.                  : FIELD NAME
 LOC.                  : WELL LOCATION
 CNTY.                 : COUNTY
 STAT.                 : STATE OR PROVINCE
 CTRY.                 : COUNTRY
 SRVC.                 : SERVICE COMPANY
 DATE.                 : DATE

~CURVE INFORMATION
#MNEM.UNIT       API CODE       CURVE DESCRIPTION
#---------       --------       -----------------
 DEPT.FT        : <MEASURED DEPTH>
 CAL.IN         : CALIPER
 DT.US/FT       : SONIC
 GR.GAPI        : GAMMA RAY

~PARAMETER INFORMATION
#MNEM.UNIT       VALUE       DESCRIPTION
#---------       -----       -----------

~A       DEPT         CAL          DT          GR
# ...
        15860     10.5214     56.6429     10.5263
      15860.5     10.4635      55.821     10.2179
        15861      10.392     54.5572     11.9237
      15861.5      10.392     54.1427     14.6993
        15862     10.4739     53.8345     17.2998
      15862.5     10.5473     53.7464      18.871
        15863     10.5473     54.0545     20.2226
      15863.5     10.5473     53.8797     21.0526
        15864     10.5734     53.5716     21.4575
      15864.5     10.5954     53.1679     20.8191
        15865     10.5701     52.9553     18.4067
      15865.5     10.5214     52.6471     14.4443
        15866     10.5214     52.4848     13.2779
      15866.5     10.5214     52.3636     12.2486
        15867     10.5103     52.5198     11.7409
      15867.5     10.4848     52.8783     11.7409
        15868     10.4341     53.3785     10.9312
      15868.5     10.3447     53.5758     10.1558
        15869     10.3324     53.7801      9.7166
      15869.5     10.3241     54.1818      9.3117
        15870     10.3159      54.303       9.936
      15870.5     10.3144     54.1716     10.9653
        15871     10.3727     53.9394     11.7409
      15871.5      10.392     53.4112     11.8093
        15872      10.392      50.936     15.8392
      15872.5     10.3662     53.0013      19.436
        15873     10.3662     53.9257     21.8581
      15873.5      10.474     56.1778     23.4847
        15874     10.5411     67.1243     24.2915
      15874.5     10.5316     71.4264     23.5444
        15875     10.4964     70.9845     20.1043
      15875.5     10.4307     65.2181     14.9591
        15876     10.3662     48.0035      11.336
      15876.5     10.3662     47.5152     11.5757
        15877     10.3938     48.1346     12.2001
      15877.5     10.4267     50.5009     13.3663
        15878     10.4438     50.0341      18.883
      15878.5     10.4372     49.1724     22.6811
        15879     10.4179     55.1789     25.1445
      15879.5     10.4179     60.4751     26.6582
        15880        10.4     60.7581     27.5304
      15880.5     10.3541     60.2424     28.0953
        15881     10.3144     59.5924     32.2819
      15881.5     10.2886     62.3934     32.3645
        15882     10.2751     65.6493     28.0682
      15882.5     10.2343     64.6371     25.2029
        15883     10.1968     59.2193     21.1855
      15883.5     10.2416     54.9682     15.8589
        15884      10.298     54.4242     13.0662
      15884.5      10.298     54.2705     12.9706
        15885     10.2651     53.8034      14.865
      15885.5     10.3023     53.7333     16.8974
        15886     10.3893     55.5025      21.086
      15886.5     10.4551     56.4888     26.1901
        15887     10.4184      60.003     30.7291
      15887.5     10.3853     65.1924     36.1928
        15888     10.3524     68.1991     39.7023
      15888.5     10.3403      81.883     40.7316
        15889     10.3442     80.9287      38.543
      15889.5      10.392     76.2338     35.3795
        15890     10.4306     72.3535     31.1526
      15890.5     10.4208     60.4985     24.9255
        15891     10.3321     56.4709      19.598
      15891.5     10.3108     55.3755     13.9006
        15892     10.3731     53.1926      11.336
      15892.5      10.417     49.4612     11.7409
        15893     10.4438      49.156     10.3288
      15893.5     10.4156     48.6207     10.9434
        15894     10.3156     49.7839     12.7251
      15894.5      10.211     50.4729     14.5749
        15895      10.211     51.7523     13.5686
      15895.5      10.211     52.3636     13.3603
        15896      10.211     52.3323     13.6606
      15896.5      10.211     52.7183     15.2671
        15897      10.211     53.5416     19.8207
      15897.5     10.2133     57.0367     24.8883
        15898     10.2298      61.129     27.8449
      15898.5      10.312     64.2415     30.3264
        15899      10.461     67.1443     29.7599
      15899.5     10.4955     69.5197     27.7959
        15900     10.4179     68.3491     25.0688
      15900.5     10.4389      64.412     23.4862
        15901     10.4739     61.7606     18.2878
      15901.5     10.5214     58.0125     16.3723
        15902     10.5278     51.7893     15.3846
      15902.5     10.5936     49.5051     15.7051
        15903      10.576     50.5862     16.7343
      15903.5     10.5699     53.5849     17.4089
        15904     10.6044     55.5065     18.2186
      15904.5     10.6373     54.9983     18.6235
        15905     10.6508     53.1185     17.8138
      15905.5     10.6508     51.1488     17.8321
        15906     10.6051     51.2652     19.7775
      15906.5     10.4955     53.0083     24.4756
        15907     10.4955     57.5053     27.8059
      15907.5     10.4918     61.4635     29.1498
        15908      10.448     63.6986     29.5547
      15908.5     10.4041     62.6128     30.7484
        15909     10.3801     61.2602     32.2602
      15909.5     10.3612     75.8034     35.1285
        15910     10.3403     76.7183     35.2526
      15910.5     10.3403     74.9889     33.1293
        15911     10.3403     70.0801     28.3229
      15911.5     10.3689     59.2074     24.5416
        15912     10.4062     49.6739     22.6335
      15912.5     10.4179     48.5614     22.9302
        15913     10.4179     48.4495     25.0808
      15913.5     10.4179     49.6633     29.0258
        15914      10.467     50.0801     34.0966
      15914.5     10.5111     56.3686     38.8732
        15915     10.5737      63.913     41.8417
      15915.5     10.6235     68.1041      42.871
        15916      10.662     69.5656     43.9002
      15916.5     10.6766     69.0938     44.9295
        15917     10.6239      66.503     45.9588
      15917.5     10.5731     66.3764     46.1538
        15918     10.5731     68.8003     45.6657
      15918.5     10.5534     69.0733      43.173
        15919      10.468     67.1592     40.6631
      15919.5     10.4179     63.2449     38.1196
        15920     10.4179     62.9367     37.6518
      15920.5     10.4179     61.8442     37.5246
        15921     10.4179     61.5758     36.1195
      15921.5     10.4179     61.5274     35.6275
        15922      10.491     61.5686     37.1755
      15922.5     10.6633     61.9354     39.9564
        15923     10.7038     63.7967     43.1331
      15923.5     10.7644     68.7037     44.1296
        15924      10.783     67.8654      40.938
      15924.5     10.7775     67.2012      36.173
        15925     10.7801     63.7148     34.8623
      15925.5     10.7801     61.5978     32.3029
        15926     10.6808     60.3636     27.7415
      15926.5     10.5777     60.2424     24.3414
        15927      10.512     59.1893     21.1438
      15927.5     10.4697     55.1397     17.5225
        15928     10.4697      50.923     15.7194
      15928.5     10.4697      49.698     15.3846
        15929     10.4697     49.8303     14.9798
      15929.5     10.5214     51.0487     15.0104
        15930     10.5493     51.3939     15.3846
      15930.5     10.5731     51.3939     15.7246
        15931     10.5291     51.1876     15.3846
      15931.5     10.5214     50.5467     16.3431
        15932     10.5214     49.4365      17.887
      15932.5     10.5063     50.1005     19.5666
        15933     10.4955     52.8205     20.9748
      15933.5     10.5248     56.2363     22.8049
        15934     10.5774     57.0803     25.2595
      15934.5     10.6119     57.1514     27.6308
        15935     10.6249     57.3259     26.8899
      15935.5     10.6658     55.5506     24.5108
        15936     10.7025     54.0606     21.7606
      15936.5     10.7025     53.9394     17.6763
        15937     10.6971     53.6429     16.5992
      15937.5     10.6508     52.7723     16.5992
        15938     10.5914     52.2137     17.1234
      15938.5     10.5731     53.0712     18.8964
        15939     10.5731     53.2121     21.9951
      15939.5     10.5731     53.2121        25.8
