###############################################
##         ENVERUS                           ##
##         EPlus - Open Hole                 ##
##         PERMIAN / DELAWARE                ##
##         Copyright ©                       ##
##         Enverus Version - V4.0            ##
##         Nov 19 2023                       ##
##         42-371-10615-00-00                ##
###############################################
## Copyright 2017-2023  ENVERUS.  All Rights Reserved. 
## Confidential - Property of ENVERUS, use governed by terms and 
## conditions found within the existing Information Services Subscription Agreement 
## (as may be amended, the “ISSA”) between Customer and ENVERUS. 
## 
#___________________________________________________________________________________________________
~VERSION INFORMATION
# MNEM.UNIT                               DATA : DESCRIPTION OF MNEMONIC
#-----.-----     ----------------------------- : -----------------------------
VERS.                                     2.00 : CWLS LOG ASCII STANDARD - VERSION 2.00
WRAP.                                       NO : MULTIPLE LINES PER DEPTH STEP
VEND.                                  ENVERUS : VENDOR
ENV_TYPE.                    EPLUS - OPEN HOLE : Enverus Essential Plus Curves – Accessible through Enverus Core(TM)
ENV_VERS.                                 V4.0 : EPlus - Open Hole Version number 
ENV_DOC.                              32912129 : ENVERUS Header Document id
ENV_REF.                               PERMIAN : ENVERUS BASIN OR PLAY APPLIED REFERENCE LIMITS 
#___________________________________________________________________________________________________ 
~WELL INFORMATION 
# uyaQ8P8kQDJ9DXFS5hR1PxmExEOYaAUkY5f3/tnOS+scoPAUWgXA1zCIHGRbWCuSuUcwDzaESCjqjWQ81XhadA== 
# MNEM.UNIT                                              DATA : DESCRIPTION OF MNEMONIC 
#-----.-----                    ----------------------------- : ----------------------------- 
CNTY.                                                   PECOS : COUNTY 
STATE.                                                  TEXAS : STATE 
CNTRY.                                                    USA : COUNTRY 
API.                                             42-371-10615 : API (10 Digit) 
API_14.                                    42-371-10615-00-00 : API (14 Digits) 
API_14_std.                                 42-371-10615-0000 : API (14 Digits Standard) 
UWI.                                           42371106150000 : UNIQUE WELL ID
STRT.FT                                                    88 : START DEPTH
STOP.FT                                                  6434 : STOP DEPTH
STEP.FT                                                   0.5 : STEP DEPTH
NULL.                                               -999.2500 : NULL VALUE
WELL.                                               MCCARTY 1 : WELL NAME 
GR_ELEV.                                                 2761 : GROUND ELEVATION 
SLAT.                                                 31.1448 : SURFACE LATITUDE 
SLONG.                                              -103.1919 : SURFACE LONGITUDE
#___________________________________________________________________________________________________ 
~CURVE INFORMATION 
# MNEM.UNIT           : CURVE DESCRIPTION 
#-----.-----          : ----------------------------- 
DEPT.FT               : MEASURED DEPTH 
GR_E.API              : ENVERUS GAMMA RAY - CLEANED BLENDED AND LUMPED 
GR_F.                 : ENVERUS GAMMA RAY - OUTLIER INDICATOR - 0=(IN BOUNDS) 1=(OUT OF BOUNDS) 2=(REPEATING) 
GR_S.                 : ENVERUS GAMMA RAY - SOURCE INDICATOR 
GR_U.                 : ENVERUS GAMMA RAY - OPTION INDICATOR - 0=(NO OPTION) 1=(OTHER OPTIONS) 
DT_E.US/FT            : ENVERUS SONIC TRAVEL TIME - CLEANED BLENDED AND LUMPED 
DT_F.                 : ENVERUS SONIC TRAVEL TIME - OUTLIER INDICATOR - 0=(IN BOUNDS) 1=(OUT OF BOUNDS) 2=(REPEATING) 
DT_S.                 : ENVERUS SONIC TRAVEL TIME - SOURCE INDICATOR 
DT_U.                 : ENVERUS SONIC TRAVEL TIME - OPTION INDICATOR - 0=(NO OPTION) 1=(OTHER OPTIONS)
#___________________________________________________________________________________________________ 
~A         DEPT           GR_E           GR_F           GR_S           GR_U           DT_E           DT_F           DT_S           DT_U
# ...
        3864.00          2.960           0.00           0.00           0.00       65.71400           0.00           0.00           0.00
        3864.50          3.186           0.00           0.00           0.00       65.42400           0.00           0.00           0.00
        3865.00          3.412           0.00           0.00           0.00       65.60000           0.00           0.00           0.00
        3865.50          3.640           0.00           0.00           0.00       65.84400           0.00           0.00           0.00
        3866.00          3.917           0.00           0.00           0.00       65.92600           0.00           0.00           0.00
        3866.50          4.194           0.00           0.00           0.00       65.54500           0.00           0.00           0.00
        3867.00          4.471           0.00           0.00           0.00       65.16500           0.00           0.00           0.00
        3867.50          4.747           0.00           0.00           0.00       64.90900           0.00           0.00           0.00
        3868.00          4.840           0.00           0.00           0.00       65.18000           0.00           0.00           0.00
        3868.50          4.287           0.00           0.00           0.00       65.45100           0.00           0.00           0.00
        3869.00          3.735           0.00           0.00           0.00       65.72100           0.00           0.00           0.00
        3869.50          3.182           0.00           0.00           0.00       65.86800           0.00           0.00           0.00
        3870.00          2.630           0.00           0.00           0.00       65.67700           0.00           0.00           0.00
        3870.50          2.207           0.00           0.00           0.00       65.48700           0.00           0.00           0.00
        3871.00          2.725           0.00           0.00           0.00       65.40800           0.00           0.00           0.00
        3871.50          3.243           0.00           0.00           0.00       65.75700           0.00           0.00           0.00
        3872.00          3.760           0.00           0.00           0.00       66.10500           0.00           0.00           0.00
        3872.50          4.027           0.00           0.00           0.00       66.35900           0.00           0.00           0.00
        3873.00          3.922           0.00           0.00           0.00       66.11700           0.00           0.00           0.00
        3873.50          3.817           0.00           0.00           0.00       65.87400           0.00           0.00           0.00
        3874.00          3.712           0.00           0.00           0.00       65.63200           0.00           0.00           0.00
        3874.50          3.607           0.00           0.00           0.00       65.39000           0.00           0.00           0.00
        3875.00          3.502           0.00           0.00           0.00       65.14800           0.00           0.00           0.00
        3875.50          3.397           0.00           0.00           0.00       64.90600           0.00           0.00           0.00
        3876.00          3.292           0.00           0.00           0.00       64.66300           0.00           0.00           0.00
        3876.50          3.187           0.00           0.00           0.00       64.85700           0.00           0.00           0.00
        3877.00          3.082           0.00           0.00           0.00       65.22300           0.00           0.00           0.00
        3877.50          3.155           0.00           0.00           0.00       65.58900           0.00           0.00           0.00
        3878.00          3.422           0.00           0.00           0.00       65.95500           0.00           0.00           0.00
        3878.50          3.689           0.00           0.00           0.00       66.32100           0.00           0.00           0.00
        3879.00          3.955           0.00           0.00           0.00       66.68700           0.00           0.00           0.00
        3879.50          4.222           0.00           0.00           0.00       66.87900           0.00           0.00           0.00
        3880.00          4.488           0.00           0.00           0.00       66.32700           0.00           0.00           0.00
        3880.50          4.755           0.00           0.00           0.00       65.77500           0.00           0.00           0.00
        3881.00          4.782           0.00           0.00           0.00       65.33400           0.00           0.00           0.00
        3881.50          4.756           0.00           0.00           0.00       65.75500           0.00           0.00           0.00
        3882.00          4.731           0.00           0.00           0.00       66.17500           0.00           0.00           0.00
        3882.50          4.705           0.00           0.00           0.00       66.59600           0.00           0.00           0.00
        3883.00          4.679           0.00           0.00           0.00       66.78000           0.00           0.00           0.00
        3883.50          4.654           0.00           0.00           0.00       66.02700           0.00           0.00           0.00
        3884.00          4.628           0.00           0.00           0.00       66.33900           0.00           0.00           0.00
        3884.50          4.603           0.00           0.00           0.00       70.90500           0.00           0.00           0.00
        3885.00          4.577           0.00           0.00           0.00       77.56600           0.00           0.00           0.00
        3885.50          4.551           0.00           0.00           0.00       84.22700           0.00           0.00           0.00
        3886.00          4.526           0.00           0.00           0.00       90.88700           0.00           0.00           0.00
        3886.50          4.527           0.00           0.00           0.00       80.05700           0.00           0.00           0.00
        3887.00          5.110           0.00           0.00           0.00       67.45700           0.00           0.00           0.00
        3887.50          5.693           0.00           0.00           0.00       54.85700           0.00           0.00           0.00
        3888.00          6.276           0.00           0.00           0.00       53.40300           0.00           0.00           0.00
        3888.50          6.859           0.00           0.00           0.00       53.22700           0.00           0.00           0.00
        3889.00          7.443           0.00           0.00           0.00       53.05100           0.00           0.00           0.00
        3889.50          7.832           0.00           0.00           0.00       52.87400           0.00           0.00           0.00
        3890.00          7.992           0.00           0.00           0.00       52.72600           0.00           0.00           0.00
        3890.50          8.152           0.00           0.00           0.00       52.88900           0.00           0.00           0.00
        3891.00          8.312           0.00           0.00           0.00       53.05100           0.00           0.00           0.00
        3891.50          8.472           0.00           0.00           0.00       53.21300           0.00           0.00           0.00
        3892.00          8.632           0.00           0.00           0.00       53.26800           0.00           0.00           0.00
        3892.50          8.793           0.00           0.00           0.00       52.74400           0.00           0.00           0.00
        3893.00          8.953           0.00           0.00           0.00       52.22000           0.00           0.00           0.00
