#--------------------------------------------------#
#-------------------ENVERUS, INC.------------------#
#------------------WWW.ENVERUS.COM-----------------#
#------------------COPYRIGHT 2020------------------#
#--------------------------------------------------#
#THIS FILE MAY BE USED ONLY IN ACCORDANCE WITH A CURRENT SUBSCRIPTION AGREEMENT BETWEEN
#THE USER AND ENVERUS, INC. NO PART OF THIS FILE MAY BE REPRODUCED, USED, COPIED,
#MODIFIED, PROPAGATED, OR DISTRIBUTED EXCEPT IN ACCORDANCE WITH THE SUBSCRIPTION
#AGREEMENT. UNAUTHORIZED USE OR DISTRIBUTION OF ALL OR ANY PART OF THIS FILE MAY VIOLATE
#COPYRIGHT, TRADEMARK, AND/OR OTHER LAWS AND IS SUBJECT TO CIVIL AS WELL AS CRIMINAL
#SANCTIONS.
#--------------------------------------------------#
#THIS FILE IS PROVIDED "AS-IS" AND ALL WARRANTIES ARE EXPRESSLY DISCLAIMED, WHETHER
#EXPRESS, ORAL, IMPLIED, STATUTORY OR OTHERWISE, INCLUDING ANY IMPLIED WARRANTY OF FITNESS
#FOR A PARTICULAR PURPOSE, MERCHANTABILITY, TITLE OR NON-INFRINGEMENT, AND ANY WARRANTIES
#ARISING BY VIRTUE OF CUSTOM OF TRADE OR COURSE OF DEALING.  FURTHER, ENVERUS, INC.
#AND ITS LICENSORS DO NOT REPRESENT OR WARRANT THAT THIS FILE WILL MEET USER'S
#REQUIREMENTS OR ARE SUITABLE FOR USER'S NEEDS OR THAT THE DATA OR RESULTS PROVIDED IN
#CONJUNCTION THEREWITH ARE CORRECT, ACCURATE, TIMELY OR RELIABLE. THESE DISCLAIMERS SHALL
#APPLY REGARDLESS OF ANY FAILURE OF ESSENTIAL PURPOSE OF ANY LIMITED REMEDY.  SOME
#JURISDICTIONS DO NOT ALLOW THE EXCLUSION OF CERTAIN WARRANTIES SO SOME OF THE ABOVE
#EXCLUSIONS MAY NOT APPLY. IN NO EVENT SHALL ENVERUS, INC. OR ANY OF ITS AFFILIATES
#BE LIABLE UNDER ANY LEGAL THEORY, WHETHER IN TORT (INCLUDING WITHOUT LIMITATION
#NEGLIGENCE), CONTRACT, STRICT LIABILITY, STATUTORY OR OTHERWISE, FOR ANY SPECIAL,
#INCIDENTAL, CONSEQUENTIAL, EXEMPLARY, PUNITIVE OR INDIRECT DAMAGE OF ANY KIND, INCLUDING
#WITHOUT LIMITATION LOSS OF REVENUE, PROFITS, GOODWILL, USE, AND/OR DATA OR THE COST OF
#PROCUREMENT OF SUBSTITUTE GOODS OR SERVICES, EVEN IF APPRISED OF THE POSSIBILITY OF SUCH
#DAMAGES IN ADVANCE.
#--------------------------------------------------#

~VERSION INFORMATION
VERS. 2.0 : CWLS LOG ASCII STANDARD - VERSION 2.0
WRAP. NO : ONE LINE PER DEPTH STEP
~WELL INFORMATION
#MNEMONIC     .UNIT              VALUE :DESCRIPTION
STRT       .FT                38.00000 :START DEPTH
STOP       .FT                20083.00000 :STOP DEPTH
STEP       .FT                0.50000 :STEP
NULL       .                -999.25000 :NULL VALUE
UWI       .                42389302750000 :UNIQUE WELL ID
API       .                42389302750000 :API NUMBER
COMP       .                 :COMPANY
WELL       .                 :WELL
FLD       .                 :FIELD
LOC       .                 :LOCATION
CNTY       .                 :COUNTY
STAT       .                 :STATE
CTRY       .                 :COUNTRY
SRVC       .                 :SERVICE COMPANY
DATE       .                 :DATE
~CURVE INFORMATION
#MNEMONIC     .UNIT      API CODE :CURVE DESCRIPTION
DEPTH       .FT                      :MEASURED DEPTH
CAL       .IN        UNKNOWN   :CAL
DT       .US/FT        UNKNOWN   :DT
GR       .GAPI        UNKNOWN   :GR
~A    DEPTH    CAL    DT    GR
# ...
9177.50000    12.72283    77.01439    73.86174
9178.00000    12.72510    77.44681    76.09174
9178.50000    12.72737    77.87923    78.32175
9179.00000    12.72964    76.94691    80.55175
9179.50000    12.73190    75.60176    82.78176
9180.00000    12.73417    74.25661    81.57075
9180.50000    12.73644    72.91146    78.93386
9181.00000    12.73870    73.28075    76.29698
9181.50000    12.74097    74.12274    73.66009
9182.00000    12.74324    74.96474    73.09357
9182.50000    12.74551    75.80673    73.60786
9183.00000    12.74777    76.64873    74.12215
9183.50000    12.75004    77.09468    76.57195
9184.00000    12.74948    76.92291    79.08304
9184.50000    12.74662    76.75113    81.59413
9185.00000    12.74377    76.57936    84.10523
9185.50000    12.74092    75.68086    86.61632
9186.00000    12.73806    74.40011    86.59915
9186.50000    12.73521    73.94889    84.99343
9187.00000    12.73236    73.60930    83.38770
9187.50000    12.72950    73.26971    81.78198
9188.00000    12.72665    72.93012    80.17626
9188.50000    12.72380    72.57704    81.21764
9189.00000    12.72095    72.18292    82.56799
9189.50000    12.71809    71.78880    83.91834
9190.00000    12.71524    71.39468    85.26869
9190.50000    12.71239    67.92702    86.61904
9191.00000    12.70953    61.95943    78.74242
9191.50000    12.70668    55.99184    62.72380
9192.00000    12.70358    54.01645    46.70517
9192.50000    12.69947    54.44714    41.48036
9193.00000    12.69537    54.87784    39.34983
9193.50000    12.69126    55.30853    37.21930
9194.00000    12.68716    61.35453    35.08877
9194.50000    12.68305    64.60549    38.33818
9195.00000    12.67895    67.85645    43.53978
9195.50000    12.67484    71.10742    48.74137
9196.00000    12.67074    74.16083    53.94297
9196.50000    12.66663    75.83145    59.14457
9197.00000    12.66253    77.50207    64.34617
9197.50000    12.65843    79.02617    69.54777
9198.00000    12.65432    78.13582    74.74936
9198.50000    12.65022    77.24547    79.95096
9199.00000    12.64611    76.35512    85.15256
9199.50000    12.64201    75.46477    89.52141
9200.00000    12.63790    75.53798    81.43093
9200.50000    12.63380    76.42615    73.34044
9201.00000    12.62969    76.42021    65.24996
9201.50000    12.62559    75.75297    63.69531
9202.00000    12.62148    75.08574    65.58247
9202.50000    12.61738    74.41851    67.46963
9203.00000    12.61327    74.99466    69.35679
9203.50000    12.60917    76.96853    68.75045
9204.00000    12.60506    78.94240    66.70655
9204.50000    12.60096    78.08177    66.82174
9205.00000    12.59685    76.81345    68.30795
9205.50000    12.59275    75.98339    69.79415
9206.00000    12.58864    76.80098    71.28036
9206.50000    12.58454    77.61857    72.76656
9207.00000    12.58043    78.43615    74.25277
9207.50000    12.57633    78.81222    76.14576
9208.00000    12.57222    78.12165    78.33600
9208.50000    12.56812    77.43574    80.52623
9209.00000    12.56401    77.06829    78.80789
9209.50000    12.56815    76.70084    76.66264
9210.00000    12.57535    76.33339    74.51740
9210.50000    12.58255    75.96594    72.37215
9211.00000    12.58975    75.59849    70.22691
9211.50000    12.59695    75.65499    68.08166
9212.00000    12.60415    76.20379    79.15075
9212.50000    12.61135    76.75259    81.80206
9213.00000    12.61855    77.30139    84.45337
9213.50000    12.62575    77.70705    87.10468
9214.00000    12.63296    76.98139    89.75599
9214.50000    12.64016    76.25572    90.36081
9215.00000    12.64736    76.04615    88.88412
9215.50000    12.65456    76.67047    87.40742
9216.00000    12.66176    77.29479    85.93072
9216.50000    12.66896    76.17558    84.45403
9217.00000    12.67616    74.97856    82.97733
9217.50000    12.68336    73.78154    83.41971
9218.00000    12.68797    73.89101    86.38838
9218.50000    12.69204    74.24568    89.35705
9219.00000    12.69611    74.60034    87.16206
9219.50000    12.70017    74.95500    83.34281
9220.00000    12.70424    75.30966    79.52356
9220.50000    12.70831    75.58012    75.70431
9221.00000    12.71238    75.05647    79.53900
9221.50000    12.71645    74.53283    86.64354
9222.00000    12.72052    74.00917    87.24240
9222.50000    12.72459    73.48553    85.19948
9223.00000    12.72866    72.96188    83.15656
9223.50000    12.73273    72.43823    81.11363
9224.00000    12.73680    71.91458    79.07071
9224.50000    12.74087    72.07392    78.39748
9225.00000    12.74493    72.46025    77.73932
9225.50000    12.74900    72.84657    77.08115
9226.00000    12.75307    73.23290    76.42299
9226.50000    12.75714    73.61922    77.11800
9227.00000    12.76123    74.36494    81.25642
9227.50000    12.76533    75.50652    85.39485
9228.00000    12.76943    76.06924    89.53327
9228.50000    12.77352    76.01936    93.67169
9229.00000    12.77762    75.90314    97.81012
9229.50000    12.78172    75.36660    101.94854
9230.00000    12.78581    74.83006    100.23567
9230.50000    12.78991    74.29352    94.90814
9231.00000    12.79401    73.74643    89.58061
9231.50000    12.79810    72.00207    84.25308
9232.00000    12.80220    70.25770    80.36345
9232.50000    12.80630    68.51334    77.68345
9233.00000    12.81040    67.22471    75.00344
9233.50000    12.81449    69.99291    72.32344
9234.00000    12.81859    72.76111    69.64343
9234.50000    12.82269    74.83100    67.80950
9235.00000    12.82678    75.79207    71.05478
9235.50000    12.83088    76.75314    74.30007
9236.00000    12.83498    77.71421    77.54535
9236.50000    12.83907    77.48168    80.79064
9237.00000    12.84317    77.16151    83.72446
9237.50000    12.84727    76.84134    86.30402
9238.00000    12.85137    76.52116    87.21563
9238.50000    12.85546    76.20099    86.19227
9239.00000    12.86009    77.39323    85.16891
9239.50000    12.86483    77.20355    84.14556
9240.00000    12.86956    76.64388    83.12220
9240.50000    12.87429    76.14601    82.09884
9241.00000    12.87902    75.70321    82.19944
9241.50000    12.88375    75.26041    83.95137
9242.00000    12.88848    74.81760    85.70330
9242.50000    12.89321    74.37480    87.16774
9243.00000    12.89794    73.44421    84.05149
9243.50000    12.90267    72.47226    80.93524
9244.00000    12.90740    71.50030    77.81899
9244.50000    12.91213    70.52834    74.70274
9245.00000    12.91686    70.48949    71.58649
9245.50000    12.92159    71.71240    68.47024
9246.00000    12.92633    72.93531    69.48641
9246.50000    12.93106    74.02878    70.60158
9247.00000    12.93579    74.94649    71.71674
9247.50000    12.94052    75.41719    72.83190
9248.00000    12.94525    75.35493    73.94706
9248.50000    12.94998    75.29266    75.06223
9249.00000    12.95471    76.22779    76.17739
9249.50000    12.95944    77.72243    77.29255
9250.00000    12.96417    79.21706    83.19049
9250.50000    12.96890    80.53074    89.42869
9251.00000    12.97363    80.08081    87.47417
9251.50000    12.97836    79.63089    85.03504
9252.00000    12.98310    79.18097    82.59591
9252.50000    12.98783    78.73104    80.15678
9253.00000    12.99256    79.10877    77.71765
9253.50000    12.99729    79.53328    75.27851
9254.00000    13.00202    79.95779    77.29136
9254.50000    13.00675    80.25700    79.97564
9255.00000    13.01148    79.47423    82.65992
9255.50000    13.01621    78.69146    85.34419
9256.00000    13.02094    77.90869    88.02847
9256.50000    13.02567    77.12592    90.71275
9257.00000    13.03040    76.46830    92.29357
9257.50000    13.03513    76.77317    89.15629
9258.00000    13.03986    77.07804    86.01901
9258.50000    13.04459    77.38291    82.88173
9259.00000    13.04932    76.94630    79.74445
9259.50000    13.05406    74.73459    76.60717
9260.00000    13.05879    72.52289    73.46989
9260.50000    13.06352    71.75968    70.33261
9261.00000    13.06825    74.11268    67.19533
9261.50000    13.07298    76.46568    66.36999
9262.00000    13.07771    78.81869    68.99833
9262.50000    13.08244    80.61101    71.62667
