~VERSION INFORMATION
 VERS.                2.0:   CWLS LOG ASCII STANDARD - VERSION 2.0
 WRAP.                 NO:   ONE LINE PER DEPTH STEP
~WELL INFORMATION
#MNEM.UNIT      DATA TYPE    INFORMATION
#----------   ------------   ------------------------------
 STRT.FT          50.0000:   START DEPTH
 STOP.FT        5375.0000:   STOP DEPTH
 STEP.FT           0.5000:   STEP LENGTH
 NULL.          -999.2500:   NULL VALUE
 COMP.  A.N. NORWOOD, INC:   COMPANY
 WELL.        MCINTYRE #1:   WELL
 FLD .  ROJO CABALLOS, S.:   FIELD
 LOC .                   :   LOCATION
 CNTY.              PECOS:   COUNTY
 STAT.              TEXAS:   STATE
 CTRY. UNITED STATES OF AMERICA:   COUNTRY
 SRVC.              Welex:   SERVICE COMPANY
 DATE.        06-May-1983:   LOGDATE
 API .     42371342980000:   API NUMBER
~CURVE INFORMATION
#MNEM.UNIT       API CODE    CURVE DESCRIPTION
#----------   ------------   ------------------------------
 DEPT.F      0   1   0  0:   1 MEASURED DEPTH
 GRD .GAPI   45 310 01 00:   GAMMA RAY FROM DENSITY LOG
 NPOR_LS.DEC 42 890 01 00:   NEUTRON POROSITY LIMESTONE
 CALD.IN     45 280 60 00:   CALIPER FROM DENSITY LOG
 CORR.G/C3   45 356 01 00:   DENSITY CORRECTION
 RHOB.G/C3   45 350 01 00:   BULK DENSITY
 DPOR_LS.DEC 45 890 10 00:   DENSITY POROSITY LIMESTONE
 DT  .US/F   60 500 00 00:   DELTA-T (INTERVAL TRANSIT TIME)
 SPR .MV     07 010 01 00:   SPONTANEOUS POTENTIAL FROM RESISTIVITY LOG
 ILD .OHMM   07 120 46 00:   INDUCTION DEEP RESISTIVITY
 ILM .OHMM   07 120 44 00:   INDUCTION MEDIUM RESISTIVITY
~PARAMETER INFORMATION
#MNEM.UNIT          VALUE    DESCRIPTION
#----------   ------------   ------------------------------
 PD  .                 GL:   PERMANENT DATUM
 EPD .FT             2768:   ELEVATION PERMANENT DATUM
 LMF .                 KB:   LOG MEASURED FROM
 DAPD.FT               10:   FEET ABOVE PERMANENT DATUM
 DMF .                 KB:   DRILLING MEASURED FROM
 EKB .FT             2778:   KELLY BUSHING
 EDF .FT             2777:   DRILLING FLOOR
 EGL .FT             2768:   GROUND LEVEL
 DATE.           05/06/83:   RUN DATE
 RUN .                  1:   RUN NUMBER
 DD  .FT             5380:   DEPTH DRILLER
 DL  .FT             5377:   DEPTH LOGGER
 BLI .FT             5375:   BOTTOM LOG INTERVAL
 TLI .FT               50:   TOP LOG INTERVAL
 CS  .IN            8.625:   CASING SIZE
 CBD .FT             1596:   CASING BOTTOM DRILLER
 CBL .FT             1613:   CASING BOTTOM LOGGER
 BS  .IN             7.75:   BIT SIZE
 BSD .FT             5380:   BIT SIZE AT DEPTH
 DFT .           SALT GEL:   DRILLING FLUID TYPE
 DFD .               10.2:   DRILLING FLUID DENSITY
 DFV .                 33:   DRILLING FLUID VISCOSITY
 DFPH.                9.5:   DRILLING FLUID PH
 DFL .                 18:   DRILLING FLUID LOSS
 MSS .               CIRC:   MUD SAMPLE SOURCE
 RMS .OHMM           0.09:   RESISTIVITY MUD SAMPLE
 MST .DEGF             72:   MUD SAMPLE TEMPERATURE
 RMF .OHMM           0.08:   RESISTIVITY MUD FILTRATE SAMPLE
 MFST.DEGF             72:   MUD FILTRATE SAMPLE TEMPERATURE
 MFSS.               MEAS:   MUD FILTRATE SAMPLE SOURCE
 MCSS.               MEAS:   MUD CAKE SAMPLE SOURCE
 RMB .OHMM          0.059:   RESISTIVITY MUD AT BHT
 BHT .DEGF            112:   BOTTOM HOLE TEMPERATURE
 TCS .HRS               4:   TIME CIRCULATED STOPPED
 MRT .DEGF            112:   MAXIMUM RECORDED TEMPERATURE
 LUN .               3415:   LOGGING UNIT NUMBER
 LUL .             ODESSA:   LOGGING UNIT LOCATION
 ENGI.             LAWSON:   RECORDING ENGINEER
 WITN.            NORWOOD:   WITNESSED BY
 ORIG.      1" 2.5" PRINT:   ORIGIN OF DATA
 UWI .     42371342980000:   UNIQUE WELL ID
~OTHER INFORMATION
~A    DEPT        GRD      NPOR_LS      CALD        CORR        RHOB       DPOR_LS        DT         SPR         ILD         ILM    
# ...
  3954.0000     14.9336     -0.0055      9.4397      0.0129      2.7970     -0.0271     54.3299     -8.1062   -999.2500     25.1205 
  3954.5000     15.9199     -0.0050      9.4400      0.0155      2.7781     -0.0281     53.3542     -8.1149   -999.2500     22.7588 
  3955.0000     15.6901     -0.0060      9.4404      0.0196      2.7781     -0.0367     52.0627     -8.1269   -999.2500     19.4680 
  3955.5000     12.9002     -0.0079      9.4389      0.0264      2.7854     -0.0645     51.0449     -8.1433   -999.2500     16.6531 
  3956.0000     10.0901     -0.0093      9.4289      0.0395      2.8322     -0.0951     50.2247     -8.1597   -999.2500     14.3504 
  3956.5000      9.0468     -0.0101      9.4287      0.0526      2.8837     -0.0995     49.3853     -8.1761   -999.2500     14.1791 
  3957.0000      7.9835     -0.0108      9.4345      0.0621      2.9313     -0.0996     49.0228     -8.1925   -999.2500     14.3748 
  3957.5000      7.2899     -0.0109      9.4410      0.0656      2.9313     -0.0997     48.9066     -8.2089   -999.2500     15.1780 
  3958.0000      5.9946     -0.0108      9.4489      0.0678      2.9289     -0.0998     49.2015     -8.2134   -999.2500     16.6580 
  3958.5000      4.6019     -0.0107      9.4567      0.0678      2.9179     -0.0998     49.6806     -8.2158   -999.2500     18.9881 
  3959.0000      3.6619     -0.0106      9.4641      0.0612      2.9068     -0.0997     49.7991     -8.2091   -999.2500     21.7075 
  3959.5000      3.8675     -0.0104      9.4676      0.0425      2.9018     -0.0996     49.6520     -8.0214   -999.2500     22.9462 
  3960.0000      4.9597     -0.0102      9.4657      0.0236      2.8969     -0.0995     49.5303     -8.0515   -999.2500     22.8500 
  3960.5000      6.2227     -0.0101      9.4639      0.0046      2.8875     -0.0992     49.4189     -8.0525   -999.2500     22.5523 
  3961.0000      7.4857     -0.0100      9.4627     -0.0054      2.8726     -0.0982     49.6078     -8.0023   -999.2500     21.4180 
  3961.5000      8.7487     -0.0095      9.4627     -0.0124      2.8555     -0.0863     50.7684     -7.9299   -999.2500     19.9863 
  3962.0000      9.3991     -0.0088      9.4627     -0.0194      2.8244     -0.0468     54.3526     -7.8612   1979.8087     16.4710 
  3962.5000      9.6793     -0.0090      9.4766     -0.0264      2.6687      0.0021     57.9369     -7.8340   1979.3523     11.5704 
  3963.0000      9.1014     -0.0101      9.5003     -0.0351      2.4635      0.1158     63.0611     -7.9261   1978.8960      8.6596 
  3963.5000      7.6950     -0.0125      9.5341     -0.0366      2.3260      0.2523     67.1801     -7.9490    913.0609      6.8241 
  3964.0000      5.7077     -0.0134      9.8214     -0.0299      2.1885      0.3049     68.1680     -7.9719     64.2951      5.3776 
  3964.5000      3.7205     -0.0136     10.0383     -0.0146      2.1068      0.3739     68.1119     -7.9948     34.5462      4.2378 
  3965.0000      3.0129     -0.0120     10.2068      0.0022      2.0253      0.4291     66.4480     -8.0725     18.5619      3.4200 
  3965.5000      3.5059     -0.0095     10.3753      0.0191      1.9731      0.4373     62.8645     -8.1664     12.1789      3.2712 
  3966.0000      4.2602     -0.0076     10.4246      0.0429      1.9914      0.4012     59.1833     -8.2408     11.1403      3.5881 
  3966.5000      4.4987     -0.0058     10.4395      0.0705      2.0964      0.3415     55.5020     -8.3205     11.1670      5.1887 
  3967.0000      4.4413     -0.0049     10.3876      0.0981      2.2376      0.3074     52.2829     -8.4606     11.5260      7.5981 
  3967.5000      4.9798     -0.0049     10.0114      0.1128      2.4044      0.2616     50.0902     -8.5998     12.3307     11.2296 
  3968.0000      5.5655     -0.0056      9.3322      0.1129      2.4816      0.1689     49.8902     -8.5601     40.7530     16.6836 
  3968.5000      6.1512     -0.0070      9.2580      0.1079      2.6376      0.0114     49.8541     -8.5204    219.2703     24.8848 
  3969.0000      6.8020     -0.0081      9.2371      0.0795      2.7975     -0.0987     49.8924     -8.4807     91.1142     37.1175 
  3969.5000      7.4276     -0.0088      9.2207      0.0512      2.9294     -0.0991     49.8652     -8.6923     38.6645     37.9248 
  3970.0000      7.3819     -0.0092      9.2137      0.0229      2.9303     -0.0991     50.0255     -8.7533    101.7215     33.5015 
  3970.5000      6.7893     -0.0094      9.2069      0.0008      2.9039     -0.0984     50.2554     -8.7143   1908.6768     34.1509 
  3971.0000      6.2628     -0.0093      9.1868     -0.0080      2.8729     -0.0921     50.4954     -8.7172   1937.1586     34.7957 
  3971.5000      5.9814     -0.0092      9.2057     -0.0161      2.8478     -0.0808     50.7056     -8.7123   1937.1586     34.8695 
  3972.0000      5.8981     -0.0091      9.2083     -0.0242      2.8236     -0.0533     50.6413     -8.7338   1937.1586     34.3994 
  3972.5000      5.8147     -0.0090      9.2093     -0.0323      2.8028     -0.0472     50.5735     -8.7405   1937.1586     33.9356 
  3973.0000      6.4001     -0.0089      9.2091     -0.0319      2.8024     -0.0619     50.6697     -8.7068   1937.1586     33.7297 
  3973.5000      6.8224     -0.0088      9.2078     -0.0303      2.8155     -0.0743     50.8471     -8.7651   1937.1586     33.0017 
  3974.0000      7.2315     -0.0087      9.2077      0.0109      2.8455     -0.0992     51.2482     -8.8292   1937.1586     32.0613 
  3974.5000      7.5426     -0.0085      9.2267      0.0500      2.8908   -999.2500     51.4459     -8.8932   1933.2192     25.9553 
  3975.0000      7.4403     -0.0079      9.2270      0.0609      2.9300   -999.2500     51.4914     -8.8981   1908.7188     22.7197 
  3975.5000      7.1471     -0.0074      9.2333      0.0642      2.9314   -999.2500     51.4303     -8.8960   1131.5811     19.8899 
  3976.0000      6.7855     -0.0070      9.2167      0.0628      2.9235   -999.2500     51.3258     -8.9210    770.7424     17.4134 
  3976.5000      6.4396     -0.0072      9.2061      0.0614      2.9156   -999.2500     51.2781     -8.9563    487.4854     16.7445 
  3977.0000      6.4297     -0.0079      9.2040      0.0597      2.9163   -999.2500     51.3519     -8.9917    353.2600     17.2832 
  3977.5000      6.9383     -0.0085      9.2021      0.0571      2.9214   -999.2500     51.4684     -8.9993    344.5539     18.5754 
  3978.0000      7.2096     -0.0091      9.2006      0.0549      2.9302   -999.2500     51.5779     -9.0338    349.0230     21.5667 
  3978.5000      7.7104     -0.0097      9.1991      0.0543      2.9412   -999.2500     51.6563     -9.1549    401.7208     25.6746 
  3979.0000      8.7569     -0.0101      9.1978      0.0501      2.9506   -999.2500     51.5436     -9.2471    495.3884     30.2990 
  3979.5000      9.2660     -0.0103      9.1974      0.0317      2.9566   -999.2500     51.3281     -9.1457    630.0743     32.9761 
  3980.0000      8.8222     -0.0101      9.1974      0.0254      2.9574   -999.2500     51.0367     -9.0595    823.6250     34.2151 
  3980.5000      7.9148     -0.0100      9.1975      0.0242      2.9530   -999.2500     50.7506     -8.9762    952.9993     35.2189 
  3981.0000      7.1437     -0.0100      9.1972      0.0249      2.9463   -999.2500     50.4969     -8.8929    907.3884     35.7285 
  3981.5000      6.7610     -0.0101      9.1968      0.0275      2.9444   -999.2500     50.5046     -8.8097    780.8149     36.0820 
  3982.0000      6.4703     -0.0102      9.1960      0.0358      2.9481   -999.2500     50.7449     -8.7264    671.8977     36.4027 
  3982.5000      6.5596     -0.0102      9.1942      0.0441      2.9560   -999.2500     51.0098     -8.6298    578.1733     36.4840 
  3983.0000      7.1668     -0.0101      9.1939      0.0524      2.9654   -999.2500     51.2383     -8.6366    497.5229     36.2420 
  3983.5000      7.4272     -0.0100      9.1936      0.0491      2.9673   -999.2500     51.4508     -8.6891    456.5461     35.6014 
  3984.0000      7.3507     -0.0100      9.1899      0.0446      2.9672   -999.2500     51.6091     -8.7416    512.6500     34.7692 
