#--------------------------------------------------#
#-------------------ENVERUS, INC.------------------#
#------------------WWW.ENVERUS.COM-----------------#
#------------------COPYRIGHT 2020------------------#
#--------------------------------------------------#
#THIS FILE MAY BE USED ONLY IN ACCORDANCE WITH A CURRENT SUBSCRIPTION AGREEMENT BETWEEN
#THE USER AND ENVERUS, INC. NO PART OF THIS FILE MAY BE REPRODUCED, USED, COPIED,
#MODIFIED, PROPAGATED, OR DISTRIBUTED EXCEPT IN ACCORDANCE WITH THE SUBSCRIPTION
#AGREEMENT. UNAUTHORIZED USE OR DISTRIBUTION OF ALL OR ANY PART OF THIS FILE MAY VIOLATE
#COPYRIGHT, TRADEMARK, AND/OR OTHER LAWS AND IS SUBJECT TO CIVIL AS WELL AS CRIMINAL
#SANCTIONS.
#--------------------------------------------------#
#THIS FILE IS PROVIDED "AS-IS" AND ALL WARRANTIES ARE EXPRESSLY DISCLAIMED, WHETHER
#EXPRESS, ORAL, IMPLIED, STATUTORY OR OTHERWISE, INCLUDING ANY IMPLIED WARRANTY OF FITNESS
#FOR A PARTICULAR PURPOSE, MERCHANTABILITY, TITLE OR NON-INFRINGEMENT, AND ANY WARRANTIES
#ARISING BY VIRTUE OF CUSTOM OF TRADE OR COURSE OF DEALING.  FURTHER, ENVERUS, INC.
#AND ITS LICENSORS DO NOT REPRESENT OR WARRANT THAT THIS FILE WILL MEET USER'S
#REQUIREMENTS OR ARE SUITABLE FOR USER'S NEEDS OR THAT THE DATA OR RESULTS PROVIDED IN
#CONJUNCTION THEREWITH ARE CORRECT, ACCURATE, TIMELY OR RELIABLE. THESE DISCLAIMERS SHALL
#APPLY REGARDLESS OF ANY FAILURE OF ESSENTIAL PURPOSE OF ANY LIMITED REMEDY.  SOME
#JURISDICTIONS DO NOT ALLOW THE EXCLUSION OF CERTAIN WARRANTIES SO SOME OF THE ABOVE
#EXCLUSIONS MAY NOT APPLY. IN NO EVENT SHALL ENVERUS, INC. OR ANY OF ITS AFFILIATES
#BE LIABLE UNDER ANY LEGAL THEORY, WHETHER IN TORT (INCLUDING WITHOUT LIMITATION
#NEGLIGENCE), CONTRACT, STRICT LIABILITY, STATUTORY OR OTHERWISE, FOR ANY SPECIAL,
#INCIDENTAL, CONSEQUENTIAL, EXEMPLARY, PUNITIVE OR INDIRECT DAMAGE OF ANY KIND, INCLUDING
#WITHOUT LIMITATION LOSS OF REVENUE, PROFITS, GOODWILL, USE, AND/OR DATA OR THE COST OF
#PROCUREMENT OF SUBSTITUTE GOODS OR SERVICES, EVEN IF APPRISED OF THE POSSIBILITY OF SUCH
#DAMAGES IN ADVANCE.
#--------------------------------------------------#

~VERSION INFORMATION
VERS. 2.0 : CWLS LOG ASCII STANDARD - VERSION 2.0
WRAP.  NO : ONE LINE PER DEPTH STEP
~WELL INFORMATION
#MNEMONIC     .UNIT              VALUE :DESCRIPTION
STRT       .FT                86 :START DEPTH
STOP       .FT                5215 :STOP DEPTH
STEP       .FT                   0.500 :STEP
NULL       .                  -999.990 :NULL
UWI        .              42389101440000 :UNIQUE WELL ID
API        .              42389101440000 :API NUMBER
COMP       .         :COMPANY
WELL       .         1, :WELL
DATE       .                            :LOG DATE
~CURVE INFORMATION
#MNEMONIC     .UNIT      API CODE :CURVE DESCRIPTION
DEPTH       .FT                      :MEASURED DEPTH
DT.US/FT        UNKNOWN   :DT
GR.API        UNKNOWN   :GR
~A    DEPTH    DT    GR
# ...
 1094     -999.990   28.73
 1094.5     -999.990   32.565
 1095     -999.990   33.749
 1095.5     -999.990   32.682
 1096     -999.990   31.616
 1096.5     -999.990   30.549
 1097     -999.990   29.483
 1097.5     -999.990   29.299
 1098     -999.990   30.625
 1098.5     -999.990   29.463
 1099     -999.990   28.132
 1099.5     -999.990   26.8
 1100     -999.990   27.878
 1100.5     -999.990   30.248
 1101     -999.990   32.619
 1101.5     -999.990   34.99
 1102     -999.990   37.361
 1102.5     -999.990   38.149
 1103     -999.990   36.113
 1103.5     -999.990   36.847
 1104     -999.990   37.702
 1104.5     -999.990   38.557
 1105     -999.990   37.347
 1105.5     -999.990   34.899
 1106     -999.990   33.583
 1106.5     -999.990   34.976
 1107     -999.990   35.106
 1107.5     -999.990   33.209
 1108     -999.990   31.312
 1108.5     -999.990   29.415
 1109     -999.990   28.172
 1109.5     -999.990   30.056
 1110     -999.990   22.113
 1110.5     -999.990   17.188
 1111     -999.990   16.958
 1111.5     -999.990   16.727
 1112     -999.990   16.497
 1112.5     -999.990   16.267
 1113     -999.990   16.037
 1113.5     -999.990   16.093
 1114     -999.990   17.013
 1114.5     -999.990   17.934
 1115     -999.990   18.855
 1115.5     -999.990   19.776
 1116     -999.990   20.696
 1116.5     -999.990   21.911
 1117     -999.990   27.906
 1117.5     -999.990   33.9
 1118     -999.990   38.894
 1118.5     -999.990   35.669
 1119     -999.990   32.443
 1119.5     -999.990   29.218
 1120     -999.990   20.077
 1120.5     -999.990   21.513
 1121     -999.990   21.905
 1121.5     -999.990   20.76
 1122     -999.990   19.614
 1122.5     -999.990   20.336
 1123     -999.990   21.839
 1123.5     -999.990   23.341
 1124     -999.990   24.844
 1124.5     -999.990   25.371
 1125     -999.990   24.463
 1125.5     -999.990   23.554
 1126     -999.990   22.645
 1126.5     -999.990   20.266
 1127     -999.990   19.418
 1127.5     -999.990   18.571
 1128     -999.990   17.723
 1128.5     -999.990   16.876
 1129     -999.990   17.45
 1129.5     -999.990   19.659
 1130     -999.990   20.095
 1130.5     -999.990   20.531
 1131     -999.990   20.968
 1131.5     -999.990   21.404
 1132     -999.990   21.84
 1132.5     -999.990   20.375
 1133     -999.990   18.427
 1133.5     -999.990   16.479
 1134     -999.990   14.531
 1134.5     -999.990   13.02
 1135     -999.990   15.005
 1135.5     -999.990   16.99
 1136     -999.990   18.975
 1136.5     -999.990   20.96
 1137     -999.990   22.818
 1137.5     -999.990   24.409
 1138     -999.990   26
 1138.5     -999.990   27.591
 1139     -999.990   29.183
 1139.5     -999.990   30.46
 1140     -999.990   27.327
 1140.5     -999.990   27.414
 1141     -999.990   29.084
 1141.5     -999.990   30.032
 1142     -999.990   29.124
 1142.5     -999.990   28.215
 1143     -999.990   27.307
 1143.5     -999.990   27.547
 1144     -999.990   28.892
 1144.5     -999.990   30.237
 1145     -999.990   31.581
 1145.5     -999.990   30.017
 1146     -999.990   27.163
 1146.5     -999.990   25.307
 1147     -999.990   25.22
 1147.5     -999.990   25.134
 1148     -999.990   25.048
 1148.5     -999.990   24.961
 1149     -999.990   24.875
 1149.5     -999.990   24.788
 1150     -999.990   17.714
 1150.5     -999.990   19.521
 1151     -999.990   21.329
 1151.5     -999.990   23.136
 1152     -999.990   24.944
 1152.5     -999.990   21.665
 1153     -999.990   18.36
 1153.5     -999.990   15.054
 1154     -999.990   11.748
 1154.5     -999.990   9.469
 1155     -999.990   9.227
 1155.5     -999.990   8.985
 1156     -999.990   8.744
 1156.5     -999.990   8.502
 1157     -999.990   10.31
 1157.5     -999.990   12.695
 1158     -999.990   10.975
 1158.5     -999.990   10.255
 1159     -999.990   12.111
 1159.5     -999.990   13.967
 1160     -999.990   15.823
 1160.5     -999.990   17.68
 1161     -999.990   19.536
 1161.5     -999.990   18.945
 1162     -999.990   16.303
 1162.5     -999.990   13.661
 1163     -999.990   11.019
 1163.5     -999.990   11.103
 1164     -999.990   11.866
 1164.5     -999.990   12.629
 1165     -999.990   13.393
 1165.5     -999.990   14.156
 1166     -999.990   13.768
 1166.5     -999.990   12.511
 1167     -999.990   11.255
 1167.5     -999.990   9.998
 1168     -999.990   9.099
 1168.5     -999.990   8.92
 1169     -999.990   8.741
 1169.5     -999.990   8.562
 1170     -999.990   8.531
 1170.5     -999.990   10.48
 1171     -999.990   12.429
 1171.5     -999.990   14.378
 1172     -999.990   16.327
 1172.5     -999.990   18.288
 1173     -999.990   20.277
 1173.5     -999.990   22.265
 1174     -999.990   22.017
 1174.5     -999.990   18.7
 1175     -999.990   15.384
 1175.5     -999.990   12.465
 1176     -999.990   11.749
 1176.5     -999.990   11.033
 1177     -999.990   10.317
 1177.5     -999.990   9.601
 1178     -999.990   10.579
 1178.5     -999.990   11.74
 1179     -999.990   12.902
 1179.5     -999.990   14.063
 1180     -999.990   15.224
 1180.5     -999.990   16.508
 1181     -999.990   17.855
 1181.5     -999.990   19.201
 1182     -999.990   20.547
 1182.5     -999.990   24.545
 1183     -999.990   20.834
 1183.5     -999.990   17.122
 1184     -999.990   13.411
 1184.5     -999.990   10.295
 1185     -999.990   10.348
 1185.5     -999.990   10.401
 1186     -999.990   10.454
 1186.5     -999.990   10.508
 1187     -999.990   10.561
 1187.5     -999.990   10.614
 1188     -999.990   10.754
 1188.5     -999.990   12.587
 1189     -999.990   14.419
 1189.5     -999.990   19.229
 1190     -999.990   25.558
 1190.5     -999.990   30.659
 1191     -999.990   31.612
 1191.5     -999.990   32.565
 1192     -999.990   33.518
 1192.5     -999.990   34.471
 1193     -999.990   35.424
 1193.5     -999.990   36.225
 1194     -999.990   33.763
 1194.5     -999.990   31.3
 1195     -999.990   28.837
 1195.5     -999.990   26.375
 1196     -999.990   23.912
 1196.5     -999.990   21.45
 1197     -999.990   19.124
 1197.5     -999.990   16.949
 1198     -999.990   14.773
 1198.5     -999.990   12.597
 1199     -999.990   14.215
 1199.5     -999.990   12.367
 1200     -999.990   10.519
 1200.5     -999.990   8.672
 1201     -999.990   8.904
 1201.5     -999.990   9.264
 1202     -999.990   9.625
 1202.5     -999.990   9.985
 1203     -999.990   10.726
 1203.5     -999.990   13.025
 1204     -999.990   15.323
 1204.5     -999.990   17.622
 1205     -999.990   19.921
 1205.5     -999.990   19.08
 1206     -999.990   17.448
 1206.5     -999.990   15.359
 1207     -999.990   13.27
 1207.5     -999.990   11.18
 1208     -999.990   9.091
 1208.5     -999.990   7.002
 1209     -999.990   8.322
 1209.5     -999.990   10.314
 1210     -999.990   9.902
 1210.5     -999.990   9.298
 1211     -999.990   8.695
 1211.5     -999.990   8.092
 1212     -999.990   7.488
 1212.5     -999.990   6.885
 1213     -999.990   6.887
 1213.5     -999.990   8.269
 1214     -999.990   9.652
 1214.5     -999.990   11.035
 1215     -999.990   12.417
 1215.5     -999.990   13.8
 1216     -999.990   14.923
 1216.5     -999.990   14.067
 1217     -999.990   13.212
 1217.5     -999.990   12.356
 1218     -999.990   11.878
 1218.5     -999.990   12.145
 1219     -999.990   12.412
 1219.5     -999.990   11.891
 1220     -999.990   10.548
 1220.5     -999.990   9.204
 1221     -999.990   9.419
 1221.5     -999.990   10.448
 1222     -999.990   11.476
 1222.5     -999.990   12.504
 1223     -999.990   13.533
 1223.5     -999.990   14.561
 1224     -999.990   15.587
 1224.5     -999.990   13.883
 1225     -999.990   12.18
 1225.5     -999.990   10.355
 1226     -999.990   9.32
 1226.5     -999.990   8.284
 1227     -999.990   7.853
 1227.5     -999.990   8.604
 1228     -999.990   9.354
 1228.5     -999.990   10.104
 1229     -999.990   6.532
 1229.5     -999.990   7.514
 1230     -999.990   8.496
 1230.5     -999.990   9.478
 1231     -999.990   10.46
 1231.5     -999.990   11.442
 1232     -999.990   12.423
 1232.5     -999.990   13.405
 1233     -999.990   14.387
