#--------------------------------------------------#
#-------------------ENVERUS, INC.------------------#
#------------------WWW.ENVERUS.COM-----------------#
#------------------COPYRIGHT 2020------------------#
#--------------------------------------------------#
#THIS FILE MAY BE USED ONLY IN ACCORDANCE WITH A CURRENT SUBSCRIPTION AGREEMENT BETWEEN
#THE USER AND ENVERUS, INC. NO PART OF THIS FILE MAY BE REPRODUCED, USED, COPIED,
#MODIFIED, PROPAGATED, OR DISTRIBUTED EXCEPT IN ACCORDANCE WITH THE SUBSCRIPTION
#AGREEMENT. UNAUTHORIZED USE OR DISTRIBUTION OF ALL OR ANY PART OF THIS FILE MAY VIOLATE
#COPYRIGHT, TRADEMARK, AND/OR OTHER LAWS AND IS SUBJECT TO CIVIL AS WELL AS CRIMINAL
#SANCTIONS.
#--------------------------------------------------#
#THIS FILE IS PROVIDED "AS-IS" AND ALL WARRANTIES ARE EXPRESSLY DISCLAIMED, WHETHER
#EXPRESS, ORAL, IMPLIED, STATUTORY OR OTHERWISE, INCLUDING ANY IMPLIED WARRANTY OF FITNESS
#FOR A PARTICULAR PURPOSE, MERCHANTABILITY, TITLE OR NON-INFRINGEMENT, AND ANY WARRANTIES
#ARISING BY VIRTUE OF CUSTOM OF TRADE OR COURSE OF DEALING.  FURTHER, ENVERUS, INC.
#AND ITS LICENSORS DO NOT REPRESENT OR WARRANT THAT THIS FILE WILL MEET USER'S
#REQUIREMENTS OR ARE SUITABLE FOR USER'S NEEDS OR THAT THE DATA OR RESULTS PROVIDED IN
#CONJUNCTION THEREWITH ARE CORRECT, ACCURATE, TIMELY OR RELIABLE. THESE DISCLAIMERS SHALL
#APPLY REGARDLESS OF ANY FAILURE OF ESSENTIAL PURPOSE OF ANY LIMITED REMEDY.  SOME
#JURISDICTIONS DO NOT ALLOW THE EXCLUSION OF CERTAIN WARRANTIES SO SOME OF THE ABOVE
#EXCLUSIONS MAY NOT APPLY. IN NO EVENT SHALL ENVERUS, INC. OR ANY OF ITS AFFILIATES
#BE LIABLE UNDER ANY LEGAL THEORY, WHETHER IN TORT (INCLUDING WITHOUT LIMITATION
#NEGLIGENCE), CONTRACT, STRICT LIABILITY, STATUTORY OR OTHERWISE, FOR ANY SPECIAL,
#INCIDENTAL, CONSEQUENTIAL, EXEMPLARY, PUNITIVE OR INDIRECT DAMAGE OF ANY KIND, INCLUDING
#WITHOUT LIMITATION LOSS OF REVENUE, PROFITS, GOODWILL, USE, AND/OR DATA OR THE COST OF
#PROCUREMENT OF SUBSTITUTE GOODS OR SERVICES, EVEN IF APPRISED OF THE POSSIBILITY OF SUCH
#DAMAGES IN ADVANCE.
#--------------------------------------------------#

~VERSION INFORMATION
VERS. 2.0 : CWLS LOG ASCII STANDARD - VERSION 2.0
WRAP.  NO : ONE LINE PER DEPTH STEP
~WELL INFORMATION
#MNEMONIC     .UNIT              VALUE :DESCRIPTION
STRT       .FT                75 :START DEPTH
STOP       .FT                5648 :STOP DEPTH
STEP       .FT                   0.500 :STEP
NULL       .                  -999.990 :NULL
UWI        .              42371363570000 :UNIQUE WELL ID
API        .              42371363570000 :API NUMBER
COMP       .         APACHE CORPORATION :COMPANY
WELL       .        SCHLOSSER, FRED ESTATE -B-  13 :WELL
DATE       .                16-MAY-1992 :LOG DATE
~CURVE INFORMATION
#MNEMONIC     .UNIT      API CODE :CURVE DESCRIPTION
DEPTH       .FT                      :MEASURED DEPTH
DT.US/FT        UNKNOWN   :DT
GR.API        UNKNOWN   :GR
~A    DEPTH    DT    GR
# ...
 1541     57.622   14.913
 1541.5     60.578   17.975
 1542     63.534   17.757
 1542.5     71.424   17.538
 1543     66.546   16.925
 1543.5     61.668   15.169
 1544     55.842   13.413
 1544.5     57.126   12.056
 1545     57.544   12.088
 1545.5     53.075   12.119
 1546     55.566   12.18
 1546.5     58.058   14.862
 1547     67.285   17.544
 1547.5     70.717   21.937
 1548     72.558   26.341
 1548.5     72.49   27.93
 1549     70.802   26.19
 1549.5     63.47   24.451
 1550     58.73   22.202
 1550.5     50.741   17.298
 1551     52.443   12.394
 1551.5     54.145   9.848
 1552     54.153   8.492
 1552.5     53.538   8.237
 1553     52.923   7.982
 1553.5     52.308   8.375
 1554     51.693   9.137
 1554.5     51.078   9.899
 1555     53.014   10.662
 1555.5     65.24   13.901
 1556     92.621   17.754
 1556.5     85.416   20.024
 1557     77.354   18.516
 1557.5     58.854   17.008
 1558     61.244   12.771
 1558.5     56.803   8.078
 1559     49.844   7.757
 1559.5     48.214   7.435
 1560     48.078   7.113
 1560.5     47.943   6.55
 1561     51.993   5.376
 1561.5     60.726   4.654
 1562     59.356   4.812
 1562.5     58.199   4.97
 1563     59.21   5.129
 1563.5     59.542   5.484
 1564     56.934   6.356
 1564.5     54.326   7.228
 1565     60.292   8.1
 1565.5     67.753   8.972
 1566     74.837   8.142
 1566.5     71.625   6.9
 1567     70.429   5.657
 1567.5     69.557   4.144
 1568     68.39   2.521
 1568.5     67.153   2.737
 1569     67.063   2.952
 1569.5     66.973   3.168
 1570     65.411   3.384
 1570.5     66.469   3.283
 1571     69.403   2.933
 1571.5     69.355   2.583
 1572     66.773   2.578
 1572.5     62.897   4.935
 1573     58.819   7.292
 1573.5     52.192   8.96
 1574     72.495   10.163
 1574.5     65.245   11.366
 1575     60.599   11.192
 1575.5     63.545   10.183
 1576     66.49   9.174
 1576.5     67.415   8.165
 1577     67.617   7.511
 1577.5     67.819   7.644
 1578     68.918   7.778
 1578.5     70.149   8.303
 1579     62.489   12.27
 1579.5     63.337   16.237
 1580     55.945   24.279
 1580.5     56.17   33.309
 1581     53.423   55.305
 1581.5     51.642   89.299
 1582     54.796   84.663
 1582.5     56.033   70.831
 1583     52.204   49.245
 1583.5     50.295   33.041
 1584     49.503   21.023
 1584.5     50.61   10.635
 1585     51.716   5.429
 1585.5     52.232   4.368
 1586     53.014   4.135
 1586.5     54.405   4.336
 1587     55.795   5.973
 1587.5     58.619   7.61
 1588     52.49   9.247
 1588.5     53.931   10.885
 1589     53.998   35.955
 1589.5     54.065   83.07
 1590     56.418   116.765
 1590.5     60.208   107.377
 1591     65.587   95.993
 1591.5     67.479   47.404
 1592     63.317   34.716
 1592.5     59.155   22.028
 1593     57.897   12.683
 1593.5     60.083   7.342
 1594     62.268   3.167
 1594.5     66.077   2.713
 1595     66.926   2.259
 1595.5     66.82   1.805
 1596     66.713   1.627
 1596.5     68.746   2.931
 1597     68.717   4.061
 1597.5     68.386   4.653
 1598     68.091   5.245
 1598.5     68.102   4.653
 1599     68.113   3.519
 1599.5     68.124   3.299
 1600     68.066   3.118
 1600.5     67.961   2.937
 1601     67.876   2.712
 1601.5     68.179   2.39
 1602     68.481   2.069
 1602.5     68.784   1.747
 1603     69.244   1.601
 1603.5     69.728   2.014
 1604     70.212   2.426
 1604.5     69.687   2.838
 1605     70.737   3.25
 1605.5     71.787   3.663
 1606     72.837   4.223
 1606.5     73.396   4.949
 1607     72.434   4.961
 1607.5     70.711   4.959
 1608     69.948   4.34
 1608.5     70.917   3.604
 1609     70.677   2.867
 1609.5     69.013   2.131
 1610     67.349   1.546
 1610.5     67.954   2.211
 1611     68.823   2.877
 1611.5     69.692   3.542
 1612     70.561   4.207
 1612.5     71.43   4.872
 1613     70.634   5.537
 1613.5     68.785   4.906
 1614     69.296   4.168
 1614.5     69.807   3.43
 1615     70.116   2.692
 1615.5     70.052   1.953
 1616     69.988   2.337
 1616.5     69.924   3.071
 1617     69.86   3.805
 1617.5     68.669   4.539
 1618     70.15   5.273
 1618.5     71.896   6.117
 1619     70.679   20.937
 1619.5     64.983   52.114
 1620     60.677   77.79
 1620.5     58.084   111.876
 1621     56.816   144.148
 1621.5     56.765   149.771
 1622     56.592   146.944
 1622.5     56.124   140.77
 1623     55.656   134.595
 1623.5     55.57   73.907
 1624     56.014   49.855
 1624.5     56.645   24.188
 1625     57.456   17.007
 1625.5     58.266   12.715
 1626     59.076   8.557
 1626.5     58.716   7.98
 1627     57.887   7.403
 1627.5     69.758   6.826
 1628     69.764   6.249
 1628.5     68.134   5.672
 1629     67.622   5.095
 1629.5     67.76   4.608
 1630     63.24   4.142
 1630.5     55.566   3.818
 1631     56.074   3.976
 1631.5     56.582   4.135
 1632     55.644   4.293
 1632.5     53.509   4.479
 1633     60.886   4.803
 1633.5     64.896   5.128
 1634     66.558   5.253
 1634.5     67.45   4.41
 1635     67.991   3.568
 1635.5     67.22   2.725
 1636     63.83   2.834
 1636.5     60.595   3.439
 1637     58.346   4.271
 1637.5     56.561   4.7
 1638     60.098   4.253
 1638.5     68.42   3.806
 1639     68.049   3.359
 1639.5     67.679   2.912
 1640     67.308   2.465
 1640.5     68.793   3.198
 1641     71.076   3.997
 1641.5     73.358   4.796
 1642     71.802   4.426
 1642.5     69.584   4.013
 1643     68.701   3.6
 1643.5     67.935   2.899
 1644     68.358   1.946
 1644.5     68.677   1.795
 1645     68.099   2.2
 1645.5     68.074   2.605
 1646     68.582   3.01
 1646.5     69.09   3.205
 1647     69.074   2.955
 1647.5     68.057   2.705
 1648     68.245   2.454
 1648.5     68.434   2.204
 1649     68.529   1.954
 1649.5     68.22   1.704
 1650     67.91   1.454
 1650.5     68.198   1.203
 1651     68.516   0.953
 1651.5     68.611   0.703
 1652     68.383   0.734
 1652.5     68.156   1.216
 1653     67.929   1.698
 1653.5     67.701   2.181
 1654     67.474   2.663
 1654.5     69.462   3.269
 1655     73.106   3.89
 1655.5     71.436   4.51
 1656     71.3   5.077
 1656.5     70.544   4.821
 1657     69.787   4.566
 1657.5     70.222   3.874
 1658     70.726   3.143
 1658.5     71.23   3.187
 1659     71.479   3.244
 1659.5     70.013   3.302
 1660     68.825   3.631
 1660.5     67.883   4.368
 1661     67.297   3.494
 1661.5     67.596   2.62
 1662     69.188   2.43
 1662.5     70.781   2.537
 1663     69.746   2.643
 1663.5     69.583   3.431
 1664     69.704   4.507
 1664.5     69.323   4.584
 1665     68.906   4.35
 1665.5     68.49   3.591
 1666     68.073   2.832
 1666.5     68.746   2.445
 1667     69.714   2.443
 1667.5     70.683   3.193
 1668     71.249   4.158
 1668.5     71.785   5.122
 1669     70.244   6.087
 1669.5     67.759   6.404
 1670     68.394   6.487
 1670.5     68.786   6.265
 1671     68.135   4.507
 1671.5     68.08   3.628
 1672     68.429   3.895
 1672.5     68.779   4.162
 1673     66.657   4.428
 1673.5     63.627   4.376
 1674     58.239   4.243
 1674.5     54.835   4.11
 1675     53.982   3.977
 1675.5     53.188   3.845
 1676     53.934   3.712
 1676.5     54.751   4.16
 1677     56.905   7.713
 1677.5     60.956   10.047
 1678     64.074   10.954
 1678.5     59.305   10.636
 1679     54.147   9.319
 1679.5     52.014   7.58
 1680     54.642   5.841
 1680.5     56.178   5.197
 1681     57.35   4.689
 1681.5     56.266   4.64
 1682     55.183   5.59
 1682.5     61.519   6.54
 1683     68.039   7.356
 1683.5     67.497   7.184
 1684     67.459   6.522
 1684.5     68.086   5.763
 1685     68.713   5.004
 1685.5     69.34   4.42
 1686     69.475   4.107
 1686.5     69.568   3.793
 1687     69.279   3.61
 1687.5     68.99   3.513
 1688     68.7   3.416
 1688.5     68.436   3.247
 1689     68.177   2.739
 1689.5     67.917   2.748
 1690     67.658   2.822
 1690.5     68.164   2.896
 1691     69.011   2.97
 1691.5     69.858   3.417
 1692     70.503   4.105
 1692.5     71.108   4.792
 1693     70.117   5.48
 1693.5     69.004   5.301
 1694     69.169   4.829
 1694.5     69.334   3.596
