~Version Information Block
 VERS.                2.00:     CWLS LOG ASCII STANDARD - VERSION 2.000000
 WRAP.                  NO:     One Line Per Depth Step
#
~Well Information Block
#MNEM.UNIT                     Data                         Information
#----------   ------------------------------------------   ----------------
 STRT.FT                                       50.0000:     START DEPTH
 STOP.FT                                    15192.0000:     STOP DEPTH
 STEP.FT                                        0.5000:     STEP
 NULL.                                       -999.0000:     NULL VALUE
 COMP.                                 MOBIL PRODUCING:     COMPANY
 WELL.                                     ST MCINTYRE:     WELL
 FLD .                                   ROJO CABALLOS:     FIELD
 LOC .                                         UNKNOWN:     LOCATION
 LONG.                                 -103.1618580000:     LONGITUDE
 LATI.                                   31.1192890000:     LATITUDE
 CNTY.                                           PECOS:     COUNTY
 STAT.                                           TEXAS:     STATE
 CTRY.                                           U.S.A:     COUNTRY
 SRVC.                                         UNKNOWN:     SERVICE COMPANY
 DATE.                                         UNKNOWN:     DATE
 API .                                  42371053110000:     API NUMBER
 UWI .                                  42371053110000:     UWI NUMBER
 SLAT.                                       31.119289:     Surface latitude
 SLON.                                     -103.161858:     surface longitude
 TVD .                                              NO:     TVD flag
 WSTA.                                             LOC:     Well status
#
~Curve Information Block
#MNEM.UNIT       API CODE      Curve Description
#----------    -------------   -------------------
 DEPT.FT                   :   Depth in Feet
 DT  .UNKNOWN          UNKNOWN:   DT-Load
 DTedit.ft/s          UNKNOWN:   DT-Load
 GR  .UNKNOWN          UNKNOWN:   GR-Load
#
~Parameter Information Block
#MNEM.UNIT            Value               Description
#----------    --------------------    -------------------
 RUN .                         ONE:    Run Number
 PDAT.                          GL:    Permanent Datum
 EPD .FT                          :    Elevation Of Perm. Datum
 LMF .               KELLY BUSHING:    Log Measured From
 EKB .FT                          :    Elevation Of Kelly Bushing
 DF .FT                           :    Elevation Of Derrick Floor
 GL .FT                           :    Elevation Of Ground Level
 TD  .FT                          :    Total Depth
 CSGD.FT                          :    Casing Bottom (Driller) 1
 CSGL.FT                          :    Casing Bottom (Logger) 1
 MUD .                            :    Drilling Fluid Type
 MUDV .CP                         :    Drilling Fluid Viscosity
 MUDD .LB/USG                     :    Drilling Fluid Density
 FL .ML/30MIN                     :    Drilling Fluid Loss
 PH.                              :    Drilling Fluid Ph
 MUDS .                           :    Mud Sample Source
 RM .OHMM                         :    Resistivity Of Mud Sample
 RMT .DEGF                        :    Mud Sample Temperature
 RMF .OHMM                        :    Mud Filtrate Resistivity
 RMFT.DEGF                        :    Mud Filtrate Sample Temperature
 RMC .OHMM                        :    Mud Cake Resistivity
 RMCT.DEGF                        :    Mud Cake Sample Temperature
 RMB .OHMM                        :    Mud Resistivity At Bht
 TMAX .DEGF                       :    Bottom Hole Temperature
#
~Other Information Block
<DescLogPlotStart>   NEURALOG PLOT DEFINITION
PLOTDEFVERSION: 3
LASFILE: E:\Nair Innovations\42_TEXAS\371_Pecos\Mobil_St McIntyre 1 Pecos_1.las
DEPTHSCALE: 239.999996
RESOLUTION: 200
DEPTHLABELFREQ: 100.000000
HEAVYGRIDFREQ: 50.000000
MEDIUMGRIDFREQ: 50.000000
LIGHTGRIDFREQ: 10.000000
#
#   TRACK 1
#
STARTTRACK: 
 LEFTX: 0.500000 inch
 RIGHTX: 3.000000 inch
 SCALETYPE: Linear
 NUMCHARTDIVISIONS: 10
CURVE: GR    0.000000   150.000000 (255,0,0)      Short_Dash        4     N    
CURVE: DTedit 5571.227500 23879.853500 (0,131,131)    Solid             2     N
ENDTRACK: 
#
#   TRACK 2
#
STARTTRACK: 
 LEFTX: 3.750000 inch
 RIGHTX: 6.250000 inch
 SCALETYPE: Linear
 NUMCHARTDIVISIONS: 10
ENDTRACK: 
#
#   TRACK 3
#
STARTTRACK: 
 LEFTX: 6.250000 inch
 RIGHTX: 8.750000 inch
 SCALETYPE: Linear
 NUMCHARTDIVISIONS: 10
CURVE: DT    190.000000 50.000000  (255,0,131)    Solid             2     N    
ENDTRACK: 
<DescLogPlotEnd>
<DepthTrack type='Reference' track='1' Label='0' color='0' hor='0' />
<Reference font='144,0,-900,0,500,0,16777216,Arial' />
~A DEPTH     DT               DTedit             GR              
# ...
     425.000 94.17320000      10618.73240000   54.33910000     
     425.500 96.12060000      10403.59770000   53.36550000     
     426.000 98.47670000      10154.68650000   51.83050000     
     426.500 98.68330000      10133.42680000   52.17010000     
     427.000 96.92740000      10317.00000000   52.80020000     
     427.500 94.33760000      10600.22750000   55.19290000     
     428.000 98.56750000      10145.33200000   55.60660000     
     428.500 101.03160000     9897.89360000    56.05290000     
     429.000 102.77650000     9729.85060000    56.88450000     
     429.500 101.91520000     9812.07910000    57.58360000     
     430.000 105.37890000     9489.56540000    56.89090000     
     430.500 104.77370000     9544.37990000    55.58670000     
     431.000 99.38100000      10062.28610000   55.50630000     
     431.500 95.44900000      10476.79980000   55.70560000     
     432.000 97.67200000      10238.34860000   57.07730000     
     432.500 98.74490000      10127.10450000   57.39040000     
     433.000 98.65610000      10136.22070000   54.95610000     
     433.500 98.33670000      10169.14360000   52.46310000     
     434.000 99.37300000      10063.09570000   52.37460000     
     434.500 100.05470000     9994.53320000    52.61920000     
     435.000 101.47630000     9854.51760000    52.88950000     
     435.500 103.86760000     9627.64160000    54.78130000     
     436.000 105.10750000     9514.06930000    58.01210000     
     436.500 104.86400000     9536.16110000    58.76950000     
     437.000 104.25490000     9591.87500000    58.57860000     
     437.500 101.88220000     9815.25680000    56.97810000     
     438.000 96.43800000      10369.35640000   51.90090000     
     438.500 95.22960000      10500.93650000   48.70450000     
     439.000 95.90550000      10426.93070000   48.24120000     
     439.500 95.13960000      10510.87010000   48.52000000     
     440.000 93.49660000      10695.57620000   50.66500000     
     440.500 91.89760000      10881.67680000   52.49760000     
     441.000 95.58780000      10461.58590000   53.92880000     
     441.500 96.74500000      10336.45120000   55.34240000     
     442.000 96.77480000      10333.26860000   57.91360000     
     442.500 96.82520000      10327.88960000   58.59750000     
     443.000 98.47710000      10154.64550000   57.63070000     
     443.500 101.84620000     9818.72660000    53.62500000     
     444.000 98.88600000      10112.65530000   51.46150000     
     444.500 98.24760000      10178.36620000   52.91950000     
     445.000 99.52210000      10048.01950000   55.66220000     
     445.500 100.90870000     9909.94820000    58.48800000     
     446.000 100.08370000     9991.63670000    61.84440000     
     446.500 100.51550000     9948.71390000    62.79150000     
     447.000 101.07370000     9893.77050000    62.03750000     
     447.500 101.27530000     9874.07620000    60.04420000     
     448.000 100.29190000     9970.89450000    57.96130000     
     448.500 95.18880000      10505.43750000   53.81650000     
     449.000 93.97640000      10640.96880000   53.76910000     
     449.500 95.46060000      10475.52540000   55.76650000     
     450.000 94.24760000      10610.35060000   59.80570000     
     450.500 93.57790000      10686.28320000   61.51720000     
     451.000 95.68920000      10450.50000000   62.46500000     
     451.500 97.03930000      10305.10350000   63.15990000     
     452.000 96.43880000      9890.84960000    62.80730000     
     452.500 95.97770000      9938.36720000    59.80370000     
     453.000 97.52610000      9780.57710000    55.57100000     
     453.500 97.39940000      9793.29980000    52.21190000     
     454.000 96.55650000      9878.79100000    50.15010000     
     454.500 96.13230000      9922.38480000    50.62710000     
     455.000 95.65990000      9971.38480000    52.18490000     
     455.500 94.25920000      10119.56050000   53.33190000     
     456.000 91.95760000      10372.84080000   53.26380000     
     456.500 89.21530000      10691.68070000   51.99680000     
     457.000 86.47300000      11030.74510000   51.16160000     
     457.500 83.07820000      11481.49220000   51.02800000     
     458.000 83.03300000      11487.74220000   52.21920000     
     458.500 87.03690000      10959.27730000   54.86080000     
     459.000 91.02990000      10478.55270000   59.25020000     
     459.500 94.81120000      10060.64360000   61.48700000     
     460.000 95.94080000      9942.18850000    61.87660000     
     460.500 94.88600000      10052.71190000   60.42330000     
     461.000 90.29700000      10563.60250000   51.12600000     
     461.500 85.24560000      11189.57130000   48.26330000     
     462.000 80.93580000      11785.41020000   49.01140000     
     462.500 76.68520000      12438.66500000   50.68260000     
     463.000 78.50770000      12149.91210000   53.59530000     
     463.500 84.12600000      11338.48830000   57.71100000     
     464.000 89.75500000      10627.39360000   65.45190000     
     464.500 93.82400000      10166.50000000   69.40810000     
     465.000 94.78430000      10063.49800000   69.88590000     
     465.500 95.26880000      10012.31840000   68.70370000     
     466.000 95.57140000      9980.61720000    62.43090000     
     466.500 94.49880000      10093.90140000   59.76860000     
     467.000 91.00320000      10481.62700000   57.99250000     
     467.500 88.31480000      10800.70120000   55.84380000     
     468.000 88.38640000      10791.95020000   53.49610000     
     468.500 90.27600000      10566.05860000   52.62610000     
     469.000 90.94190000      10488.69240000   51.40590000     
     469.500 91.76160000      10394.99900000   49.85330000     
     470.000 93.02700000      10253.59960000   48.19860000     
     470.500 93.29390000      10224.26460000   46.35430000     
     471.000 91.25050000      10453.22070000   45.94770000     
     471.500 89.88950000      10611.49020000   46.66200000     
     472.000 89.06140000      10710.15820000   49.20630000     
     472.500 88.46580000      10782.26460000   51.47370000     
     473.000 88.12330000      10824.17090000   52.05070000     
     473.500 87.69780000      10876.68850000   51.92730000     
     474.000 87.35170000      10919.78420000   51.89870000     
     474.500 89.44690000      10663.99900000   52.34110000     
     475.000 91.53850000      10420.33300000   53.59900000     
     475.500 92.41650000      10321.33590000   55.13430000     
     476.000 93.16370000      10238.55470000   57.07240000     
     476.500 93.27090000      10226.78710000   60.53360000     
     477.000 91.58570000      10414.96190000   61.64500000     
     477.500 90.41920000      10549.32710000   62.04380000     
     478.000 92.61390000      10299.33500000   61.04790000     
     478.500 94.54360000      10089.11820000   58.36850000     
     479.000 96.43810000      9890.92090000    56.20280000     
     479.500 99.12500000      9622.81640000    55.18230000     
     480.000 101.55460000     9392.59770000    55.15630000     
     480.500 101.18410000     9426.99220000    55.87520000     
     481.000 98.91700000      9643.04980000    61.80420000     
     481.500 96.71340000      9862.76560000    67.76140000     
     482.000 95.62220000      9975.31640000    68.58790000     
     482.500 94.32780000      10112.20120000   67.58330000     
     483.000 91.92000000      10377.08590000   63.54020000     
     483.500 89.50940000      10656.55180000   60.04520000     
     484.000 85.24740000      11189.33300000   51.94500000     
     484.500 80.98520000      11778.22170000   45.18920000     
     485.000 78.88110000      12092.39750000   36.25310000     
     485.500 77.51540000      12305.44630000   34.29670000     
     486.000 71.35360000      13368.09380000   33.40830000     
     486.500 67.48840000      14133.71090000   31.66940000     
     487.000 65.85580000      14484.09570000   28.59410000     
