#--------------------------------------------------#
#-------------------ENVERUS, INC.------------------#
#------------------WWW.ENVERUS.COM-----------------#
#------------------COPYRIGHT 2020------------------#
#--------------------------------------------------#
#THIS FILE MAY BE USED ONLY IN ACCORDANCE WITH A CURRENT SUBSCRIPTION AGREEMENT BETWEEN
#THE USER AND ENVERUS, INC. NO PART OF THIS FILE MAY BE REPRODUCED, USED, COPIED,
#MODIFIED, PROPAGATED, OR DISTRIBUTED EXCEPT IN ACCORDANCE WITH THE SUBSCRIPTION
#AGREEMENT. UNAUTHORIZED USE OR DISTRIBUTION OF ALL OR ANY PART OF THIS FILE MAY VIOLATE
#COPYRIGHT, TRADEMARK, AND/OR OTHER LAWS AND IS SUBJECT TO CIVIL AS WELL AS CRIMINAL
#SANCTIONS.
#--------------------------------------------------#
#THIS FILE IS PROVIDED "AS-IS" AND ALL WARRANTIES ARE EXPRESSLY DISCLAIMED, WHETHER
#EXPRESS, ORAL, IMPLIED, STATUTORY OR OTHERWISE, INCLUDING ANY IMPLIED WARRANTY OF FITNESS
#FOR A PARTICULAR PURPOSE, MERCHANTABILITY, TITLE OR NON-INFRINGEMENT, AND ANY WARRANTIES
#ARISING BY VIRTUE OF CUSTOM OF TRADE OR COURSE OF DEALING.  FURTHER, ENVERUS, INC.
#AND ITS LICENSORS DO NOT REPRESENT OR WARRANT THAT THIS FILE WILL MEET USER'S
#REQUIREMENTS OR ARE SUITABLE FOR USER'S NEEDS OR THAT THE DATA OR RESULTS PROVIDED IN
#CONJUNCTION THEREWITH ARE CORRECT, ACCURATE, TIMELY OR RELIABLE. THESE DISCLAIMERS SHALL
#APPLY REGARDLESS OF ANY FAILURE OF ESSENTIAL PURPOSE OF ANY LIMITED REMEDY.  SOME
#JURISDICTIONS DO NOT ALLOW THE EXCLUSION OF CERTAIN WARRANTIES SO SOME OF THE ABOVE
#EXCLUSIONS MAY NOT APPLY. IN NO EVENT SHALL ENVERUS, INC. OR ANY OF ITS AFFILIATES
#BE LIABLE UNDER ANY LEGAL THEORY, WHETHER IN TORT (INCLUDING WITHOUT LIMITATION
#NEGLIGENCE), CONTRACT, STRICT LIABILITY, STATUTORY OR OTHERWISE, FOR ANY SPECIAL,
#INCIDENTAL, CONSEQUENTIAL, EXEMPLARY, PUNITIVE OR INDIRECT DAMAGE OF ANY KIND, INCLUDING
#WITHOUT LIMITATION LOSS OF REVENUE, PROFITS, GOODWILL, USE, AND/OR DATA OR THE COST OF
#PROCUREMENT OF SUBSTITUTE GOODS OR SERVICES, EVEN IF APPRISED OF THE POSSIBILITY OF SUCH
#DAMAGES IN ADVANCE.
#--------------------------------------------------#

~VERSION INFORMATION
VERS. 2.0 : CWLS LOG ASCII STANDARD - VERSION 2.0
WRAP.  NO : ONE LINE PER DEPTH STEP
~WELL INFORMATION
#MNEMONIC     .UNIT              VALUE :DESCRIPTION
STRT       .FT                101 :START DEPTH
STOP       .FT                5444 :STOP DEPTH
STEP       .FT                   0.500 :STEP
NULL       .                  -999.99 :NULL
UWI        .                42389004350000 :UNIQUE WELL ID
API        .                42389004350000 :API NUMBER
COMP       .         :COMPANY
WELL       .        :WELL
DATE       .                 :LOG DATE
FLD       .                 :FIELD NAME
LOC       .                  UNK :LOCATION
CNTY       .                 UNK :COUNTY
STAT       .                 UNK :STATE
CTRY       .                 UNK :COUNTY
SRVC       .                 UNK :SERVICE COMPANY
~CURVE INFORMATION
#MNEMONIC     .UNIT      API CODE :CURVE DESCRIPTION
DEPTH       .FT                      :MEASURED DEPTH
DT.MSEC/FT        UNKNOWN   :DT
GR.API        UNKNOWN   :GR
~A    DEPTH    DT    GR
# ...
 4285     62.9509   3.11114
 4285.5     63.49532   2.84723
 4286     64.03974   2.85364
 4286.5     64.58416   3.21666
 4287     65.12857   3.57968
 4287.5     65.67299   3.9427
 4288     66.21741   4.30572
 4288.5     66.22737   4.06677
 4289     65.33066   3.53866
 4289.5     64.43394   3.01054
 4290     64.05044   2.48242
 4290.5     65.16041   2.22532
 4291     66.27037   2.249
 4291.5     67.17531   2.27268
 4292     64.15133   2.29637
 4292.5     61.12734   2.32005
 4293     62.20784   2.34373
 4293.5     64.91538   2.4578
 4294     64.60383   2.99737
 4294.5     64.29229   3.53694
 4295     63.98075   4.07652
 4295.5     70.23257   4.61609
 4296     69.54179   5.15566
 4296.5     68.85101   5.3053
 4297     68.16023   4.73505
 4297.5     67.46945   4.1648
 4298     67.15585   3.59455
 4298.5     67.33706   3.0243
 4299     67.51827   3.30151
 4299.5     67.13871   4.04209
 4300     65.23665   4.78267
 4300.5     65.27764   5.0413
 4301     66.02505   4.73977
 4301.5     66.77246   4.43824
 4302     67.51987   4.13672
 4302.5     67.99477   3.83519
 4303     68.17597   3.77704
 4303.5     68.35717   3.80301
 4304     68.53837   3.82898
 4304.5     68.71957   3.85495
 4305     68.59336   3.88092
 4305.5     67.58671   3.90689
 4306     67.91089   3.20818
 4306.5     68.23508   2.47427
 4307     68.55926   1.74036
 4307.5     68.88344   1.41409
 4308     69.20763   2.03688
 4308.5     69.53181   2.65967
 4309     69.10471   3.28246
 4309.5     66.98973   3.90525
 4310     67.19718   4.52641
 4310.5     68.07236   4.2944
 4311     68.94754   4.06239
 4311.5     69.82272   3.83037
 4312     70.6979   3.59836
 4312.5     68.98657   3.36635
 4313     67.2331   3.13434
 4313.5     65.47963   3.02953
 4314     63.04917   3.50775
 4314.5     61.50432   3.98597
 4315     61.50482   4.46419
 4315.5     62.2254   4.94241
 4316     64.80512   5.42063
 4316.5     67.38485   5.89885
 4317     69.95264   6.37707
 4317.5     69.44918   6.85529
 4318     68.94572   7.33351
 4318.5     68.44226   6.4972
 4319     68.44018   4.97444
 4319.5     69.37422   3.58791
 4320     70.30825   4.00346
 4320.5     69.78297   4.41902
 4321     61.05152   4.57534
 4321.5     56.89343   4.38331
 4322     54.28356   4.19129
 4322.5     51.6737   3.99926
 4323     45.80051   3.80724
 4323.5     46.97251   3.61522
 4324     48.14451   3.79961
 4324.5     49.3165   4.18559
 4325     49.99073   4.57157
 4325.5     50.1858   4.95755
 4326     50.38087   5.34352
 4326.5     50.57594   5.44588
 4327     50.77102   5.05834
 4327.5     50.96609   4.6708
 4328     51.16116   4.28325
 4328.5     49.0813   3.89571
 4329     48.2598   3.50816
 4329.5     48.7742   3.12062
 4330     49.28861   2.77695
 4330.5     49.80302   3.77437
 4331     48.46718   4.7718
 4331.5     47.01407   5.76922
 4332     47.17001   6.76665
 4332.5     50.15523   7.16924
 4333     53.14044   7.40008
 4333.5     56.12566   7.63092
 4334     59.11088   7.86176
 4334.5     62.09609   8.0683
 4335     65.08131   7.44461
 4335.5     68.06653   6.82091
 4336     68.16322   6.19721
 4336.5     66.90385   5.57352
 4337     65.64449   4.94982
 4337.5     64.38513   4.32613
 4338     64.27087   3.70243
 4338.5     65.10686   3.18937
 4339     64.57043   3.15075
 4339.5     63.96185   3.11214
 4340     63.35328   3.07352
 4340.5     62.7447   3.03491
 4341     63.26131   3.26307
 4341.5     64.09728   3.49623
 4342     64.93325   3.72939
 4342.5     65.76922   3.96255
 4343     66.60518   4.19571
 4343.5     66.15318   4.42887
 4344     65.68768   4.66203
 4344.5     65.22218   4.52271
 4345     64.75668   4.13094
 4345.5     64.29119   3.73916
 4346     63.82569   3.34738
 4346.5     64.09835   2.9556
 4347     64.65801   2.90199
 4347.5     65.21767   3.45816
 4348     65.0004   4.01432
 4348.5     64.12054   4.57049
 4349     63.24068   4.94873
 4349.5     64.16518   4.04141
 4350     65.1996   3.13409
 4350.5     66.23402   2.82916
 4351     67.26843   3.0889
 4351.5     68.30285   3.34864
 4352     69.33726   3.60838
 4352.5     70.37168   3.86812
 4353     71.4061   4.12786
 4353.5     70.29741   4.38761
 4354     66.02624   4.64735
 4354.5     61.75508   4.78724
 4355     57.48392   3.42033
 4355.5     53.84608   2.05343
 4356     51.03388   2.5611
 4356.5     48.22167   3.06978
 4357     45.40946   3.57846
 4357.5     52.13591   4.08714
 4358     51.85349   4.59582
 4358.5     51.57106   5.1045
 4359     51.3086   5.61318
 4359.5     51.27755   5.70072
 4360     52.38801   5.49971
 4360.5     52.49619   5.2987
 4361     51.47629   5.39334
 4361.5     50.45639   5.85968
 4362     49.43648   6.32602
 4362.5     48.41658   6.79235
 4363     48.26837   6.5903
 4363.5     48.3347   6.15513
 4364     48.40102   5.71996
 4364.5     48.46735   5.28479
 4365     48.53367   4.88178
 4365.5     48.59463   5.6222
 4366     48.23104   6.36262
 4366.5     47.86744   6.15931
 4367     47.69052   5.85808
 4367.5     47.79821   5.55685
 4368     47.9059   5.25561
 4368.5     48.01359   4.95438
 4369     48.12128   4.65315
 4369.5     47.91992   4.35192
 4370     47.55643   4.05068
 4370.5     47.21485   3.74945
 4371     47.41607   3.77191
 4371.5     47.6173   4.16773
 4372     47.81852   4.56354
 4372.5     48.01974   4.95935
 4373     48.22097   5.35517
 4373.5     48.42219   5.75098
 4374     48.62341   6.14679
 4374.5     48.82464   6.5426
 4375     49.02586   6.93842
 4375.5     49.01523   7.33423
 4376     48.82864   7.73004
 4376.5     48.64205   7.71958
 4377     48.45546   7.01552
 4377.5     48.26887   6.31145
 4378     48.08228   5.86979
 4378.5     48.20109   6.28205
 4379     48.40802   6.69432
 4379.5     48.61494   7.10658
 4380     48.77565   7.51885
 4380.5     48.43244   7.93112
 4381     48.08923   8.34338
 4381.5     47.74601   8.75565
 4382     47.85841   9.16791
 4382.5     47.99827   9.58018
 4383     48.13814   8.84816
 4383.5     48.278   7.67973
 4384     48.41787   6.51131
 4384.5     48.55774   5.46681
 4385     48.6976   5.76363
 4385.5     48.83747   6.06045
 4386     48.97734   6.35727
 4386.5     49.1172   6.65409
 4387     49.25707   6.95091
 4387.5     49.39693   7.05257
 4388     49.5368   6.6511
 4388.5     49.67667   6.24964
 4389     49.81653   5.84817
 4389.5     49.9564   5.4467
 4390     50.06255   5.52189
 4390.5     49.79036   5.967
 4391     49.51817   6.41211
 4391.5     49.24599   6.59624
 4392     48.9738   6.37527
 4392.5     48.70162   6.15429
 4393     48.42943   5.93331
 4393.5     48.45038   5.71233
 4394     48.54738   5.49136
 4394.5     48.64439   5.27038
 4395     48.7414   5.0494
 4395.5     48.8384   5.26426
 4396     48.83038   5.88686
 4396.5     48.72857   6.50945
 4397     48.62676   7.13205
 4397.5     48.52495   7.75465
 4398     48.42314   8.09706
 4398.5     48.32134   7.45647
 4399     48.21953   6.81588
 4399.5     48.33212   6.17529
 4400     48.53641   5.58324
 4400.5     48.7407   6.17626
 4401     48.94498   6.76929
 4401.5     49.14927   7.36231
 4402     49.35356   7.95534
 4402.5     49.55785   8.54836
 4403     49.36693   9.14138
 4403.5     49.10303   9.73441
 4404     48.83914   9.12019
 4404.5     48.57525   7.79396
 4405     48.31136   6.46773
 4405.5     48.07642   5.14151
 4406     48.1756   4.73824
 4406.5     48.27478   5.3582
 4407     48.37396   5.97816
 4407.5     48.47313   6.59812
 4408     48.57231   7.21809
 4408.5     48.58061   7.83805
 4409     48.36315   8.45801
 4409.5     48.14569   9.07797
 4410     47.92823   9.69793
 4410.5     47.71077   10.31789
 4411     47.50999   10.93785
 4411.5     47.68169   11.55782
 4412     47.8534   13.25584
 4412.5     48.02511   15.1772
 4413     48.19682   17.09855
 4413.5     48.36853   19.0199
 4414     48.54024   20.93654
 4414.5     48.71195   20.9352
 4415     48.88365   20.93385
 4415.5     49.05536   18.89846
 4416     49.21277   16.6315
 4416.5     48.86283   14.36455
 4417     48.51288   12.09759
 4417.5     48.16294   9.83063
 4418     47.81299   7.56368
 4418.5     47.69416   6.32082
 4419     48.07505   5.47584
