#--------------------------------------------------#
#-------------------ENVERUS, INC.------------------#
#------------------WWW.ENVERUS.COM-----------------#
#------------------COPYRIGHT 2020------------------#
#--------------------------------------------------#
#THIS FILE MAY BE USED ONLY IN ACCORDANCE WITH A CURRENT SUBSCRIPTION AGREEMENT BETWEEN
#THE USER AND ENVERUS, INC. NO PART OF THIS FILE MAY BE REPRODUCED, USED, COPIED,
#MODIFIED, PROPAGATED, OR DISTRIBUTED EXCEPT IN ACCORDANCE WITH THE SUBSCRIPTION
#AGREEMENT. UNAUTHORIZED USE OR DISTRIBUTION OF ALL OR ANY PART OF THIS FILE MAY VIOLATE
#COPYRIGHT, TRADEMARK, AND/OR OTHER LAWS AND IS SUBJECT TO CIVIL AS WELL AS CRIMINAL
#SANCTIONS.
#--------------------------------------------------#
#THIS FILE IS PROVIDED "AS-IS" AND ALL WARRANTIES ARE EXPRESSLY DISCLAIMED, WHETHER
#EXPRESS, ORAL, IMPLIED, STATUTORY OR OTHERWISE, INCLUDING ANY IMPLIED WARRANTY OF FITNESS
#FOR A PARTICULAR PURPOSE, MERCHANTABILITY, TITLE OR NON-INFRINGEMENT, AND ANY WARRANTIES
#ARISING BY VIRTUE OF CUSTOM OF TRADE OR COURSE OF DEALING.  FURTHER, ENVERUS, INC.
#AND ITS LICENSORS DO NOT REPRESENT OR WARRANT THAT THIS FILE WILL MEET USER'S
#REQUIREMENTS OR ARE SUITABLE FOR USER'S NEEDS OR THAT THE DATA OR RESULTS PROVIDED IN
#CONJUNCTION THEREWITH ARE CORRECT, ACCURATE, TIMELY OR RELIABLE. THESE DISCLAIMERS SHALL
#APPLY REGARDLESS OF ANY FAILURE OF ESSENTIAL PURPOSE OF ANY LIMITED REMEDY.  SOME
#JURISDICTIONS DO NOT ALLOW THE EXCLUSION OF CERTAIN WARRANTIES SO SOME OF THE ABOVE
#EXCLUSIONS MAY NOT APPLY. IN NO EVENT SHALL ENVERUS, INC. OR ANY OF ITS AFFILIATES
#BE LIABLE UNDER ANY LEGAL THEORY, WHETHER IN TORT (INCLUDING WITHOUT LIMITATION
#NEGLIGENCE), CONTRACT, STRICT LIABILITY, STATUTORY OR OTHERWISE, FOR ANY SPECIAL,
#INCIDENTAL, CONSEQUENTIAL, EXEMPLARY, PUNITIVE OR INDIRECT DAMAGE OF ANY KIND, INCLUDING
#WITHOUT LIMITATION LOSS OF REVENUE, PROFITS, GOODWILL, USE, AND/OR DATA OR THE COST OF
#PROCUREMENT OF SUBSTITUTE GOODS OR SERVICES, EVEN IF APPRISED OF THE POSSIBILITY OF SUCH
#DAMAGES IN ADVANCE.
#--------------------------------------------------#

~VERSION INFORMATION
VERS. 2.0 : CWLS LOG ASCII STANDARD - VERSION 2.0
WRAP.  NO : ONE LINE PER DEPTH STEP
~WELL INFORMATION
#MNEMONIC     .UNIT              VALUE :DESCRIPTION
STRT       .FT                51 :START DEPTH
STOP       .FT                6194 :STOP DEPTH
STEP       .FT                   0.500 :STEP
NULL       .                  -999.990 :NULL
UWI        .              42389004340000 :UNIQUE WELL ID
API        .              42389004340000 :API NUMBER
COMP       .         :COMPANY
WELL       .         1, :WELL
DATE       .                            :LOG DATE
~CURVE INFORMATION
#MNEMONIC     .UNIT      API CODE :CURVE DESCRIPTION
DEPTH       .FT                      :MEASURED DEPTH
GR.API        UNKNOWN   :GR
DT.US/FT        UNKNOWN   :DT
~A    DEPTH    GR    DT
# ...
 5583.5     53.812   74.6
 5584     54.404   73.364
 5584.5     54.996   72.128
 5585     55.587   70.893
 5585.5     56.179   69.79
 5586     56.771   71.52
 5586.5     57.363   72.73
 5587     57.955   72.143
 5587.5     58.546   71.557
 5588     58.53   71.847
 5588.5     57.77   72.675
 5589     57.009   73.503
 5589.5     56.249   73.406
 5590     56.109   72.323
 5590.5     56.472   71.24
 5591     56.836   70.157
 5591.5     56.714   71.189
 5592     55.638   72.345
 5592.5     54.561   73.501
 5593     53.485   74.275
 5593.5     54.817   72.963
 5594     56.532   71.652
 5594.5     58.247   70.34
 5595     59.962   71.035
 5595.5     61.254   72.749
 5596     61.946   74.001
 5596.5     62.639   73.785
 5597     64.883   73.569
 5597.5     69.252   73.353
 5598     73.622   73.697
 5598.5     77.991   74.205
 5599     82.36   74.712
 5599.5     86.73   75.22
 5600     91.099   75.727
 5600.5     89.914   76.234
 5601     87.32   76.12
 5601.5     84.726   75.89
 5602     82.132   76.162
 5602.5     79.539   76.435
 5603     76.945   76.708
 5603.5     74.351   76.981
 5604     76.53   74.889
 5604.5     82.893   77.253
 5605     89.256   84.467
 5605.5     95.619   78.548
 5606     101.982   70.169
 5606.5     108.345   61.789
 5607     114.708   63.019
 5607.5     114.863   65.308
 5608     105.964   67.597
 5608.5     97.064   69.886
 5609     88.164   71.571
 5609.5     79.265   70.472
 5610     73.496   69.373
 5610.5     76.16   69.924
 5611     78.825   70.654
 5611.5     81.489   71.385
 5612     84.153   72.115
 5612.5     86.817   72.845
 5613     89.481   72.292
 5613.5     88.366   70.576
 5614     87.114   69.207
 5614.5     85.862   71.707
 5615     84.674   72.647
 5615.5     84.676   71.927
 5616     84.678   71.208
 5616.5     84.68   71.367
 5617     83.92   72.023
 5617.5     81.997   72.678
 5618     80.075   73.334
 5618.5     78.152   73.91
 5619     76.23   73.976
 5619.5     74.307   74.042
 5620     73.508   74.108
 5620.5     73.877   74.174
 5621     74.246   74.167
 5621.5     74.615   73.943
 5622     74.984   73.389
 5622.5     75.354   72.657
 5623     75.723   71.926
 5623.5     76.092   72.407
 5624     76.461   73.175
 5624.5     75.607   73.944
 5625     74.235   74.712
 5625.5     72.862   74.383
 5626     71.489   73.842
 5626.5     71.44   73.301
 5627     72.398   72.76
 5627.5     73.356   72.546
 5628     74.314   72.836
 5628.5     74.296   73.127
 5629     73.362   73.418
 5629.5     72.427   73.986
 5630     72.799   75.318
 5630.5     74.583   76.649
 5631     76.366   77.98
 5631.5     76.662   79.311
 5632     76.397   79.54
 5632.5     73.701   78.902
 5633     70.346   78.265
 5633.5     67.378   78.483
 5634     66.942   78.736
 5634.5     66.506   78.989
 5635     66.071   79.242
 5635.5     65.635   79.495
 5636     65.2   79.437
 5636.5     65.164   78.116
 5637     65.494   76.795
 5637.5     65.824   75.475
 5638     66.155   74.154
 5638.5     66.485   72.833
 5639     68.627   72.179
 5639.5     71.208   74.253
 5640     73.789   74.203
 5640.5     76.37   74.064
 5641     78.951   73.925
 5641.5     81.532   73.943
 5642     84.113   74.555
 5642.5     86.693   75.167
 5643     85.212   75.78
 5643.5     80.955   76.392
 5644     76.698   76.251
 5644.5     72.441   75.144
 5645     68.185   74.993
 5645.5     65.622   76.202
 5646     64.972   76.515
 5646.5     64.322   75.315
 5647     63.672   74.115
 5647.5     63.022   73.195
 5648     61.257   74.911
 5648.5     59.046   76.626
 5649     56.835   78.342
 5649.5     54.922   79.349
 5650     54.107   78.573
 5650.5     53.292   77.796
 5651     52.477   77.851
 5651.5     51.812   78.246
 5652     52.464   78.642
 5652.5     53.116   78.957
 5653     54.379   76.33
 5653.5     56.929   73.704
 5654     59.479   71.078
 5654.5     62.028   73.471
 5655     62.903   76.294
 5655.5     60.196   78.281
 5656     57.489   79.429
 5656.5     54.782   78.902
 5657     52.075   78.374
 5657.5     50.081   77.847
 5658     50.057   79.131
 5658.5     50.032   80.951
 5659     50.008   75.622
 5659.5     49.983   76.805
 5660     50.151   80.255
 5660.5     50.726   83.465
 5661     51.301   78.003
 5661.5     51.876   72.541
 5662     52.451   67.079
 5662.5     53.026   72.826
 5663     53.601   75.467
 5663.5     54.177   75.199
 5664     54.752   74.931
 5664.5     58.461   74.663
 5665     63.154   74.395
 5665.5     67.847   74.13
 5666     70.003   73.885
 5666.5     70.8   73.641
 5667     71.597   73.397
 5667.5     72.394   72.446
 5668     71.902   71.078
 5668.5     70.525   69.71
 5669     69.149   69.52
 5669.5     67.772   71.289
 5670     66.395   73.059
 5670.5     66.583   74.828
 5671     74.986   76.597
 5671.5     83.388   76.396
 5672     91.791   74.578
 5672.5     100.194   72.76
 5673     108.597   70.942
 5673.5     117   69.124
 5674     114.496   68.005
 5674.5     107.445   67.845
 5675     100.393   67.685
 5675.5     93.341   67.526
 5676     86.289   66.948
 5676.5     81.339   65.996
 5677     79.918   65.045
 5677.5     80.447   66.548
 5678     80.977   68.117
 5678.5     81.506   69.686
 5679     85.12   71.2
 5679.5     88.9   69.602
 5680     92.681   68.004
 5680.5     96.461   66.413
 5681     100.241   67.433
 5681.5     100.722   68.453
 5682     98.117   69.474
 5682.5     95.512   70.494
 5683     95.306   71.514
 5683.5     98.08   72.534
 5684     100.855   73.555
 5684.5     103.63   74.575
 5685     106.404   75.595
 5685.5     108.085   76.615
 5686     109.048   73.682
 5686.5     110.012   72.208
 5687     110.976   71.964
 5687.5     111.94   71.72
 5688     100.425   69.612
 5688.5     87.661   67.325
 5689     74.896   66.227
 5689.5     62.131   73.104
 5690     54.895   74.182
 5690.5     56.348   71.831
 5691     57.8   69.481
 5691.5     59.252   67.13
 5692     59.193   67.475
 5692.5     57.959   74.712
 5693     56.725   78.194
 5693.5     57.049   78.557
 5694     57.915   78.921
 5694.5     58.78   78.814
 5695     59.645   78.255
 5695.5     60.51   77.697
 5696     61.376   77.138
 5696.5     60.207   84.657
 5697     58.407   91.124
 5697.5     56.608   88.228
 5698     54.808   85.332
 5698.5     53.008   82.437
 5699     51.515   79.541
 5699.5     52.728   76.645
 5700     52.778   73.749
 5700.5     52.086   74.309
 5701     51.393   83.259
 5701.5     50.701   92.208
 5702     50.008   93.862
 5702.5     49.316   87.18
 5703     48.623   81.136
 5703.5     49.277   75.199
 5704     49.635   87.312
 5704.5     49.412   75.315
 5705     49.188   67.171
 5705.5     48.965   75.028
 5706     49.982   82.885
 5706.5     51.029   81.892
 5707     52.076   74.849
 5707.5     53.123   68.787
 5708     53.873   72.425
 5708.5     53.875   76.063
 5709     53.876   79.701
 5709.5     54.604   81.658
 5710     57.245   80.321
 5710.5     59.886   78.984
 5711     62.527   78.952
 5711.5     59.953   79.548
 5712     56.802   80.144
 5712.5     53.651   80.739
 5713     50.499   81.335
 5713.5     53.702   81.675
 5714     59.325   81.246
 5714.5     64.948   80.817
 5715     66.367   80.388
 5715.5     66.93   79.96
 5716     67.493   79.531
 5716.5     68.056   79.102
 5717     68.619   77.399
 5717.5     69.182   75.021
 5718     68.827   76.926
 5718.5     67.917   78.888
 5719     67.008   80.85
 5719.5     66.098   82.811
 5720     62.661   84.467
 5720.5     56.846   83.861
 5721     51.312   83.256
 5721.5     50.908   82.65
 5722     50.504   82.242
 5722.5     50.1   82.617
 5723     49.696   82.992
 5723.5     49.291   83.367
 5724     48.887   83.742
 5724.5     49.15   84.117
 5725     50.537   84.102
 5725.5     51.113   83.507
 5726     51.58   82.912
 5726.5     52.048   82.317
 5727     52.515   79.921
 5727.5     53.194   76.897
 5728     54.904   75.652
 5728.5     56.614   76.749
 5729     58.323   77.845
 5729.5     60.033   77.779
 5730     61.743   74.466
 5730.5     63.453   71.154
 5731     65.162   68.687
 5731.5     65.138   77.986
 5732     61.3   83.849
