#--------------------------------------------------#
#-------------------ENVERUS, INC.------------------#
#------------------WWW.ENVERUS.COM-----------------#
#------------------COPYRIGHT 2020------------------#
#--------------------------------------------------#
#THIS FILE MAY BE USED ONLY IN ACCORDANCE WITH A CURRENT SUBSCRIPTION AGREEMENT BETWEEN
#THE USER AND ENVERUS, INC. NO PART OF THIS FILE MAY BE REPRODUCED, USED, COPIED,
#MODIFIED, PROPAGATED, OR DISTRIBUTED EXCEPT IN ACCORDANCE WITH THE SUBSCRIPTION
#AGREEMENT. UNAUTHORIZED USE OR DISTRIBUTION OF ALL OR ANY PART OF THIS FILE MAY VIOLATE
#COPYRIGHT, TRADEMARK, AND/OR OTHER LAWS AND IS SUBJECT TO CIVIL AS WELL AS CRIMINAL
#SANCTIONS.
#--------------------------------------------------#
#THIS FILE IS PROVIDED "AS-IS" AND ALL WARRANTIES ARE EXPRESSLY DISCLAIMED, WHETHER
#EXPRESS, ORAL, IMPLIED, STATUTORY OR OTHERWISE, INCLUDING ANY IMPLIED WARRANTY OF FITNESS
#FOR A PARTICULAR PURPOSE, MERCHANTABILITY, TITLE OR NON-INFRINGEMENT, AND ANY WARRANTIES
#ARISING BY VIRTUE OF CUSTOM OF TRADE OR COURSE OF DEALING.  FURTHER, ENVERUS, INC.
#AND ITS LICENSORS DO NOT REPRESENT OR WARRANT THAT THIS FILE WILL MEET USER'S
#REQUIREMENTS OR ARE SUITABLE FOR USER'S NEEDS OR THAT THE DATA OR RESULTS PROVIDED IN
#CONJUNCTION THEREWITH ARE CORRECT, ACCURATE, TIMELY OR RELIABLE. THESE DISCLAIMERS SHALL
#APPLY REGARDLESS OF ANY FAILURE OF ESSENTIAL PURPOSE OF ANY LIMITED REMEDY.  SOME
#JURISDICTIONS DO NOT ALLOW THE EXCLUSION OF CERTAIN WARRANTIES SO SOME OF THE ABOVE
#EXCLUSIONS MAY NOT APPLY. IN NO EVENT SHALL ENVERUS, INC. OR ANY OF ITS AFFILIATES
#BE LIABLE UNDER ANY LEGAL THEORY, WHETHER IN TORT (INCLUDING WITHOUT LIMITATION
#NEGLIGENCE), CONTRACT, STRICT LIABILITY, STATUTORY OR OTHERWISE, FOR ANY SPECIAL,
#INCIDENTAL, CONSEQUENTIAL, EXEMPLARY, PUNITIVE OR INDIRECT DAMAGE OF ANY KIND, INCLUDING
#WITHOUT LIMITATION LOSS OF REVENUE, PROFITS, GOODWILL, USE, AND/OR DATA OR THE COST OF
#PROCUREMENT OF SUBSTITUTE GOODS OR SERVICES, EVEN IF APPRISED OF THE POSSIBILITY OF SUCH
#DAMAGES IN ADVANCE.
#--------------------------------------------------#

~VERSION INFORMATION
VERS. 2.0 : CWLS LOG ASCII STANDARD - VERSION 2.0
WRAP.  NO : ONE LINE PER DEPTH STEP
~WELL INFORMATION
#MNEMONIC     .UNIT              VALUE :DESCRIPTION
STRT       .FT                101 :START DEPTH
STOP       .FT                5444 :STOP DEPTH
STEP       .FT                   0.500 :STEP
NULL       .                  -999.99 :NULL
UWI        .                42389004350000 :UNIQUE WELL ID
API        .                42389004350000 :API NUMBER
COMP       .         :COMPANY
WELL       .        :WELL
DATE       .                 :LOG DATE
FLD       .                 :FIELD NAME
LOC       .                  UNK :LOCATION
CNTY       .                 UNK :COUNTY
STAT       .                 UNK :STATE
CTRY       .                 UNK :COUNTY
SRVC       .                 UNK :SERVICE COMPANY
~CURVE INFORMATION
#MNEMONIC     .UNIT      API CODE :CURVE DESCRIPTION
DEPTH       .FT                      :MEASURED DEPTH
DT.MSEC/FT        UNKNOWN   :DT
GR.API        UNKNOWN   :GR
~A    DEPTH    DT    GR
 101     -999.99   30.55239
 101.5     -999.99   30.78057
 102     -999.99   31.00876
 102.5     -999.99   31.23694
 103     -999.99   32.04744
 103.5     -999.99   34.11133
 104     -999.99   36.17522
 104.5     -999.99   38.23911
 105     -999.99   40.30301
 105.5     -999.99   39.72543
 106     -999.99   38.8867
 106.5     -999.99   38.04796
 107     -999.99   37.20923
 107.5     -999.99   36.37049
 108     -999.99   36.35269
 108.5     -999.99   37.61158
 109     -999.99   38.87046
 109.5     -999.99   40.12935
 110     -999.99   40.45794
 110.5     -999.99   39.51791
 111     -999.99   38.57788
 111.5     -999.99   37.40511
 112     -999.99   36.22287
 112.5     -999.99   35.04062
 113     -999.99   33.85837
 113.5     -999.99   32.67612
 114     -999.99   33.51718
 114.5     -999.99   34.37919
 115     -999.99   35.24121
 115.5     -999.99   36.10322
 116     -999.99   36.96524
 116.5     -999.99   35.9172
 117     -999.99   34.43025
 117.5     -999.99   32.94329
 118     -999.99   31.45634
 118.5     -999.99   29.96938
 119     -999.99   32.83993
 119.5     -999.99   36.92671
 120     -999.99   40.19039
 120.5     -999.99   40.31215
 121     -999.99   40.43392
 121.5     -999.99   40.73582
 122     -999.99   41.57277
 122.5     -999.99   42.40972
 123     -999.99   43.24667
 123.5     -999.99   44.08362
 124     -999.99   44.92057
 124.5     -999.99   45.22754
 125     -999.99   44.99057
 125.5     -999.99   44.75361
 126     -999.99   44.30722
 126.5     -999.99   43.64945
 127     -999.99   42.99168
 127.5     -999.99   42.33392
 128     -999.99   41.67615
 128.5     -999.99   41.01838
 129     -999.99   40.36062
 129.5     -999.99   40.14347
 130     -999.99   41.77188
 130.5     -999.99   43.40028
 131     -999.99   45.02869
 131.5     -999.99   46.65709
 132     -999.99   48.05879
 132.5     -999.99   48.21084
 133     -999.99   48.3629
 133.5     -999.99   48.51496
 134     -999.99   48.66701
 134.5     -999.99   47.84381
 135     -999.99   45.72474
 135.5     -999.99   43.60566
 136     -999.99   41.48659
 136.5     -999.99   41.26475
 137     -999.99   42.52265
 137.5     -999.99   43.78055
 138     -999.99   45.03845
 138.5     -999.99   46.33988
 139     -999.99   49.49136
 139.5     -999.99   52.64283
 140     -999.99   54.41528
 140.5     -999.99   53.77171
 141     -999.99   53.12814
 141.5     -999.99   51.94797
 142     -999.99   49.63542
 142.5     -999.99   47.32286
 143     -999.99   45.01031
 143.5     -999.99   42.69775
 144     -999.99   42.90247
 144.5     -999.99   43.83533
 145     -999.99   44.76819
 145.5     -999.99   45.43484
 146     -999.99   45.5652
 146.5     -999.99   45.69556
 147     -999.99   45.82592
 147.5     -999.99   45.99012
 148     -999.99   46.2948
 148.5     -999.99   46.59947
 149     -999.99   46.90415
 149.5     -999.99   46.52879
 150     -999.99   45.81997
 150.5     -999.99   45.11115
 151     -999.99   44.40233
 151.5     -999.99   44.20077
 152     -999.99   44.7532
 152.5     -999.99   45.30562
 153     -999.99   47.06242
 153.5     -999.99   50.06319
 154     -999.99   49.59779
 154.5     -999.99   48.69198
 155     -999.99   47.78617
 155.5     -999.99   46.88036
 156     -999.99   45.97455
 156.5     -999.99   46.06866
 157     -999.99   46.19035
 157.5     -999.99   46.32305
 158     -999.99   47.0959
 158.5     -999.99   47.86875
 159     -999.99   48.6416
 159.5     -999.99   49.41446
 160     -999.99   49.74406
 160.5     -999.99   49.39937
 161     -999.99   49.05468
 161.5     -999.99   48.70998
 162     -999.99   46.96683
 162.5     -999.99   46.47663
 163     -999.99   46.06776
 163.5     -999.99   45.83081
 164     -999.99   45.59387
 164.5     -999.99   45.16346
 165     -999.99   44.33274
 165.5     -999.99   43.50202
 166     -999.99   42.6713
 166.5     -999.99   41.90632
 167     -999.99   42.74715
 167.5     -999.99   43.58799
 168     -999.99   44.42883
 168.5     -999.99   45.28985
 169     -999.99   48.17457
 169.5     -999.99   49.36562
 170     -999.99   50.55667
 170.5     -999.99   51.74772
 171     -999.99   52.93877
 171.5     -999.99   54.12982
 172     -999.99   51.21143
 172.5     -999.99   47.28593
 173     -999.99   43.48234
 173.5     -999.99   43.18647
 174     -999.99   42.89059
 174.5     -999.99   42.60423
 175     -999.99   42.60535
 175.5     -999.99   42.60646
 176     -999.99   42.60758
 176.5     -999.99   42.60869
 177     -999.99   42.64377
 177.5     -999.99   42.76549
 178     -999.99   42.88722
 178.5     -999.99   43.00894
 179     -999.99   43.13066
 179.5     -999.99   43.25239
 180     -999.99   43.20341
 180.5     -999.99   42.86239
 181     -999.99   42.52138
 181.5     -999.99   42.18036
 182     -999.99   41.83935
 182.5     -999.99   41.49833
 183     -999.99   41.15732
 183.5     -999.99   40.8163
 184     -999.99   41.66612
 184.5     -999.99   43.47934
 185     -999.99   45.29257
 185.5     -999.99   47.12949
 186     -999.99   49.05682
 186.5     -999.99   48.99585
 187     -999.99   47.25229
 187.5     -999.99   45.50874
 188     -999.99   44.39489
 188.5     -999.99   44.33608
 189     -999.99   44.27726
 189.5     -999.99   45.21722
 190     -999.99   47.66743
 190.5     -999.99   50.11765
 191     -999.99   52.56786
 191.5     -999.99   54.91099
 192     -999.99   53.80685
 192.5     -999.99   52.7027
 193     -999.99   51.59855
 193.5     -999.99   50.77658
 194     -999.99   50.55428
 194.5     -999.99   50.33197
 195     -999.99   50.69223
 195.5     -999.99   51.09945
 196     -999.99   51.50668
 196.5     -999.99   51.99953
 197     -999.99   52.61426
 197.5     -999.99   53.22899
 198     -999.99   53.53248
 198.5     -999.99   53.53361
 199     -999.99   53.53474
 199.5     -999.99   53.53587
 200     -999.99   53.537
 200.5     -999.99   53.53813
 201     -999.99   53.53926
 201.5     -999.99   53.54039
 202     -999.99   53.54152
 202.5     -999.99   53.54265
 203     -999.99   53.42196
 203.5     -999.99   50.41847
 204     -999.99   49.13735
 204.5     -999.99   48.14533
 205     -999.99   47.15331
 205.5     -999.99   46.16129
 206     -999.99   45.47276
 206.5     -999.99   46.15717
 207     -999.99   46.84159
 207.5     -999.99   47.526
 208     -999.99   48.21041
 208.5     -999.99   48.89483
 209     -999.99   49.86833
 209.5     -999.99   50.85312
 210     -999.99   51.83791
 210.5     -999.99   51.23137
 211     -999.99   49.14667
 211.5     -999.99   47.06197
 212     -999.99   44.97727
 212.5     -999.99   44.67584
 213     -999.99   45.24577
 213.5     -999.99   45.8157
 214     -999.99   46.38563
 214.5     -999.99   46.70619
 215     -999.99   46.85828
 215.5     -999.99   46.79669
 216     -999.99   46.59987
 216.5     -999.99   45.78418
 217     -999.99   42.40088
 217.5     -999.99   42.97631
 218     -999.99   43.55175
 218.5     -999.99   44.12719
 219     -999.99   44.70262
 219.5     -999.99   43.78698
 220     -999.99   41.01046
 220.5     -999.99   38.23395
 221     -999.99   37.37871
 221.5     -999.99   36.96557
 222     -999.99   36.55244
 222.5     -999.99   36.13931
 223     -999.99   35.72618
 223.5     -999.99   35.31304
 224     -999.99   35.75016
 224.5     -999.99   36.41698
 225     -999.99   37.08381
 225.5     -999.99   37.54731
 226     -999.99   37.54842
 226.5     -999.99   37.54953
 227     -999.99   37.55063
 227.5     -999.99   37.55174
 228     -999.99   37.55285
 228.5     -999.99   37.55396
 229     -999.99   37.46247
 229.5     -999.99   37.34394
 230     -999.99   37.2254
 230.5     -999.99   36.93099
 231     -999.99   38.76824
 231.5     -999.99   41.54503
 232     -999.99   44.32182
 232.5     -999.99   46.19148
 233     -999.99   46.15926
 233.5     -999.99   46.12704
 234     -999.99   46.09483
 234.5     -999.99   46.06261
 235     -999.99   45.06248
 235.5     -999.99   43.39756
 236     -999.99   41.73264
 236.5     -999.99   40.06772
 237     -999.99   38.4028
 237.5     -999.99   38.82895
 238     -999.99   40.77761
 238.5     -999.99   42.72626
 239     -999.99   44.67491
