###############################################
##         ENVERUS                           ##
##         ESS - Open Hole                   ##
##         PERMIAN / DELAWARE                ##
##         Nov 04 2023  V4.0                 ##
##         42-389-00802-00-00                ##
###############################################
## Copyright 2017-2023  ENVERUS.  All Rights Reserved. 
## Confidential - Property of ENVERUS, use governed by terms and 
## conditions found within the existing Information Services Subscription Agreement 
## (as may be amended, the “ISSA”) between Customer and ENVERUS. 
## 
~VERSION INFORMATION
# MNEM.UNIT                               DATA : DESCRIPTION OF MNEMONIC
#-----.-----     ----------------------------- : -----------------------------
VERS.                                     2.00 : CWLS LOG ASCII STANDARD - VERSION 2.00
WRAP.                                       NO : MULTIPLE LINES PER DEPTH STEP
VEND.                                  ENVERUS : VENDOR
TYPE.                          ESS - OPEN HOLE : ENVERUS ESSENTIAL CURVES – ACCESSIBLE THROUGH ENVERUS PRISM(TM)
DOC.                                  31817456 : ENVERUS HEADER RAW DOCUMENT ID
#___________________________________________________________________________________________________ 
~WELL INFORMATION 
# RyAIq6UWQPnCIzV1aSVljU5sZzU8mzXCuHzh8Tf3VVfaeSb2oya67RMqigcBPLsftsjdPp3J13KbDcbgGgUr7w== 
# MNEM.UNIT                                              DATA : DESCRIPTION OF MNEMONIC 
#-----.-----                    ----------------------------- : ----------------------------- 
CNTY.                                                  REEVES : COUNTY 
STATE.                                                  TEXAS : STATE 
CNTRY.                                                    USA : COUNTRY 
API.                                             42-389-00802 : API (10 Digit) 
API_14.                                    42-389-00802-00-00 : API (14 Digits) 
API_14_std.                                 42-389-00802-0000 : API (14 Digits Standard) 
UWI.                                           42389008020000 : UNIQUE WELL ID 
WELL.                                                      1, : WELL NAME
STRT.FT                                                 103.0 : START DEPTH
STOP.FT                                                5419.0 : STOP DEPTH
STEP.FT                                                   0.5 : STEP BETWEEN DEPTHS
NULL.                                                 -999.25 : NULL VALUE
#___________________________________________________________________________________________________ 
~CURVE INFORMATION 
# MNEM.UNIT           : CURVE DESCRIPTION 
#-----.-----          : ----------------------------- 
 DEPT.FT               : MEASURED DEPTH 
 GR.API                : GAMMA RAY (GR) 
 DT.US/FT              : SONIC DELTA TRANSIT TIME (DT) 
 #___________________________________________________________________________________________________ 
~A         DEPT             GR             DT
# ...
          799.0         10.492       -999.250
          799.5          9.652       -999.250
          800.0          8.812       -999.250
          800.5          7.972       -999.250
          801.0          7.131       -999.250
          801.5          6.291       -999.250
          802.0          6.061       -999.250
          802.5          6.095       -999.250
          803.0          6.130       -999.250
          803.5          6.164       -999.250
          804.0          6.199       -999.250
          804.5          6.233       -999.250
          805.0          6.268       -999.250
          805.5          6.302       -999.250
          806.0          6.337       -999.250
          806.5          6.586       -999.250
          807.0          7.944       -999.250
          807.5          9.302       -999.250
          808.0          8.958       -999.250
          808.5          8.511       -999.250
          809.0          8.065       -999.250
          809.5          7.618       -999.250
          810.0          8.111       -999.250
          810.5          9.806       -999.250
          811.0         11.502       -999.250
          811.5         11.351       -999.250
          812.0         10.306       -999.250
          812.5          9.261       -999.250
          813.0          8.217       -999.250
          813.5          7.172       -999.250
          814.0          6.128       -999.250
          814.5          5.083       -999.250
          815.0          4.038       -999.250
          815.5          2.994       -999.250
          816.0          2.294       -999.250
          816.5          8.109       -999.250
          817.0         13.923       -999.250
          817.5         19.738       -999.250
          818.0         25.553       -999.250
          818.5         31.367       -999.250
          819.0         36.913       -999.250
          819.5         41.194       -999.250
          820.0         45.474       -999.250
          820.5         49.755       -999.250
          821.0         54.035       -999.250
          821.5         58.316       -999.250
          822.0         60.976       -999.250
          822.5         58.146       -999.250
          823.0         55.317       -999.250
          823.5         52.488       -999.250
          824.0         50.439       -999.250
          824.5         51.484       -999.250
          825.0         52.528       -999.250
          825.5         53.573       -999.250
          826.0         54.618       -999.250
          826.5         55.662       -999.250
          827.0         56.707       -999.250
          827.5         57.751       -999.250
          828.0         58.796       -999.250
          828.5         55.514       -999.250
          829.0         51.562       -999.250
          829.5         47.611       -999.250
          830.0         43.660       -999.250
          830.5         37.490       -999.250
          831.0         30.750       -999.250
          831.5         24.011       -999.250
          832.0         17.271       -999.250
          832.5         10.690       -999.250
          833.0         10.591       -999.250
          833.5         10.491       -999.250
          834.0         10.391       -999.250
          834.5         10.291       -999.250
          835.0         10.191       -999.250
          835.5         10.091       -999.250
          836.0          9.991       -999.250
          836.5          9.891       -999.250
          837.0          9.791       -999.250
          837.5          9.691       -999.250
          838.0          9.683       -999.250
          838.5          9.682       -999.250
          839.0          9.682       -999.250
          839.5          9.681       -999.250
          840.0          9.938       -999.250
          840.5         10.538       -999.250
          841.0         11.138       -999.250
          841.5         11.738       -999.250
          842.0         12.338       -999.250
          842.5         12.937       -999.250
          843.0         13.537       -999.250
          843.5         14.323       -999.250
          844.0         15.989       -999.250
          844.5         17.655       -999.250
          845.0         19.321       -999.250
          845.5         20.988       -999.250
          846.0         22.538       -999.250
          846.5         24.052       -999.250
          847.0         25.565       -999.250
          847.5         27.078       -999.250
          848.0         28.591       -999.250
          848.5         30.104       -999.250
          849.0         31.104       -999.250
          849.5         28.027       -999.250
          850.0         24.950       -999.250
          850.5         21.872       -999.250
          851.0         18.795       -999.250
          851.5         15.718       -999.250
          852.0         13.594       -999.250
          852.5         13.313       -999.250
          853.0         13.032       -999.250
          853.5         12.752       -999.250
          854.0         12.471       -999.250
          854.5         12.190       -999.250
          855.0         11.909       -999.250
          855.5         11.628       -999.250
          856.0         11.348       -999.250
          856.5         11.067       -999.250
          857.0         11.260       -999.250
          857.5         11.586       -999.250
          858.0         11.912       -999.250
          858.5         12.238       -999.250
          859.0         12.564       -999.250
          859.5         12.890       -999.250
          860.0         12.486       -999.250
          860.5         11.646       -999.250
          861.0         10.806       -999.250
          861.5          9.966       -999.250
          862.0          9.126       -999.250
          862.5          8.287       -999.250
          863.0          7.447       -999.250
          863.5          7.458       -999.250
          864.0          7.629       -999.250
          864.5          7.799       -999.250
          865.0          7.970       -999.250
          865.5          8.140       -999.250
          866.0          8.311       -999.250
          866.5          8.481       -999.250
          867.0          8.651       -999.250
          867.5          8.254       -999.250
          868.0          7.857       -999.250
          868.5          7.459       -999.250
          869.0          7.062       -999.250
          869.5          6.665       -999.250
          870.0          6.268       -999.250
          870.5          6.247       -999.250
          871.0          7.386       -999.250
          871.5          8.525       -999.250
          872.0          9.665       -999.250
          872.5         10.804       -999.250
          873.0         11.383       -999.250
          873.5         10.260       -999.250
          874.0          9.137       -999.250
          874.5          8.013       -999.250
          875.0          6.890       -999.250
          875.5          5.767       -999.250
          876.0          5.563       -999.250
          876.5          6.029       -999.250
          877.0          6.495       -999.250
          877.5          6.961       -999.250
          878.0          7.427       -999.250
          878.5          7.894       -999.250
          879.0          8.360       -999.250
          879.5          8.826       -999.250
          880.0          9.292       -999.250
          880.5          9.758       -999.250
          881.0          9.897       -999.250
          881.5          9.737       -999.250
          882.0          9.578       -999.250
          882.5          9.418       -999.250
          883.0          9.259       -999.250
          883.5          9.100       -999.250
          884.0          8.940       -999.250
          884.5          8.781       -999.250
          885.0          8.524       -999.250
          885.5          7.342       -999.250
