~Version Information Block
 VERS.                2.00:     CWLS LOG ASCII STANDARD - VERSION 2.000000
 WRAP.                  NO:     One Line Per Depth Step
#
~Well Information Block
#MNEM.UNIT                     Data                         Information
#----------   ------------------------------------------   ----------------
 STRT.FT                                       50.0000:     START DEPTH
 STOP.FT                                    15192.0000:     STOP DEPTH
 STEP.FT                                        0.5000:     STEP
 NULL.                                       -999.0000:     NULL VALUE
 COMP.                                 MOBIL PRODUCING:     COMPANY
 WELL.                                     ST MCINTYRE:     WELL
 FLD .                                   ROJO CABALLOS:     FIELD
 LOC .                                         UNKNOWN:     LOCATION
 LONG.                                 -103.1618580000:     LONGITUDE
 LATI.                                   31.1192890000:     LATITUDE
 CNTY.                                           PECOS:     COUNTY
 STAT.                                           TEXAS:     STATE
 CTRY.                                           U.S.A:     COUNTRY
 SRVC.                                         UNKNOWN:     SERVICE COMPANY
 DATE.                                         UNKNOWN:     DATE
 API .                                  42371053110000:     API NUMBER
 UWI .                                  42371053110000:     UWI NUMBER
 SLAT.                                       31.119289:     Surface latitude
 SLON.                                     -103.161858:     surface longitude
 TVD .                                              NO:     TVD flag
 WSTA.                                             LOC:     Well status
#
~Curve Information Block
#MNEM.UNIT       API CODE      Curve Description
#----------    -------------   -------------------
 DEPT.FT                   :   Depth in Feet
 DT  .UNKNOWN          UNKNOWN:   DT-Load
 DTedit.ft/s          UNKNOWN:   DT-Load
 GR  .UNKNOWN          UNKNOWN:   GR-Load
#
~Parameter Information Block
#MNEM.UNIT            Value               Description
#----------    --------------------    -------------------
 RUN .                         ONE:    Run Number
 PDAT.                          GL:    Permanent Datum
 EPD .FT                          :    Elevation Of Perm. Datum
 LMF .               KELLY BUSHING:    Log Measured From
 EKB .FT                          :    Elevation Of Kelly Bushing
 DF .FT                           :    Elevation Of Derrick Floor
 GL .FT                           :    Elevation Of Ground Level
 TD  .FT                          :    Total Depth
 CSGD.FT                          :    Casing Bottom (Driller) 1
 CSGL.FT                          :    Casing Bottom (Logger) 1
 MUD .                            :    Drilling Fluid Type
 MUDV .CP                         :    Drilling Fluid Viscosity
 MUDD .LB/USG                     :    Drilling Fluid Density
 FL .ML/30MIN                     :    Drilling Fluid Loss
 PH.                              :    Drilling Fluid Ph
 MUDS .                           :    Mud Sample Source
 RM .OHMM                         :    Resistivity Of Mud Sample
 RMT .DEGF                        :    Mud Sample Temperature
 RMF .OHMM                        :    Mud Filtrate Resistivity
 RMFT.DEGF                        :    Mud Filtrate Sample Temperature
 RMC .OHMM                        :    Mud Cake Resistivity
 RMCT.DEGF                        :    Mud Cake Sample Temperature
 RMB .OHMM                        :    Mud Resistivity At Bht
 TMAX .DEGF                       :    Bottom Hole Temperature
#
~Other Information Block
<DescLogPlotStart>   NEURALOG PLOT DEFINITION
PLOTDEFVERSION: 3
LASFILE: E:\Nair Innovations\42_TEXAS\371_Pecos\Mobil_St McIntyre 1 Pecos_1.las
DEPTHSCALE: 239.999996
RESOLUTION: 200
DEPTHLABELFREQ: 100.000000
HEAVYGRIDFREQ: 50.000000
MEDIUMGRIDFREQ: 50.000000
LIGHTGRIDFREQ: 10.000000
#
#   TRACK 1
#
STARTTRACK: 
 LEFTX: 0.500000 inch
 RIGHTX: 3.000000 inch
 SCALETYPE: Linear
 NUMCHARTDIVISIONS: 10
CURVE: GR    0.000000   150.000000 (255,0,0)      Short_Dash        4     N    
CURVE: DTedit 5571.227500 23879.853500 (0,131,131)    Solid             2     N
ENDTRACK: 
#
#   TRACK 2
#
STARTTRACK: 
 LEFTX: 3.750000 inch
 RIGHTX: 6.250000 inch
 SCALETYPE: Linear
 NUMCHARTDIVISIONS: 10
ENDTRACK: 
#
#   TRACK 3
#
STARTTRACK: 
 LEFTX: 6.250000 inch
 RIGHTX: 8.750000 inch
 SCALETYPE: Linear
 NUMCHARTDIVISIONS: 10
CURVE: DT    190.000000 50.000000  (255,0,131)    Solid             2     N    
ENDTRACK: 
<DescLogPlotEnd>
<DepthTrack type='Reference' track='1' Label='0' color='0' hor='0' />
<Reference font='144,0,-900,0,500,0,16777216,Arial' />
~A DEPTH     DT               DTedit             GR              
# ...
    6300.000 87.00600000      11493.46090000   40.87400000     
    6300.500 86.74050000      11528.63960000   42.30660000     
    6301.000 88.54720000      11293.41110000   40.80370000     
    6301.500 90.21830000      11084.22560000   39.08360000     
    6302.000 91.12070000      10974.45510000   39.80650000     
    6302.500 91.84550000      10887.84960000   40.81970000     
    6303.000 93.40940000      10705.56050000   40.81070000     
    6303.500 96.93540000      10316.14840000   38.86710000     
    6304.000 99.52040000      10048.19140000   37.46110000     
    6304.500 108.21090000     9241.21290000    38.86710000     
    6305.000 112.01750000     8927.17680000    40.99910000     
    6305.500 107.20350000     9328.05370000    43.36870000     
    6306.000 93.57840000      10686.22660000   45.57100000     
    6306.500 92.00990000      10868.39550000   46.53620000     
    6307.000 88.87600000      11251.63180000   47.26700000     
    6307.500 84.78500000      11794.53910000   49.71150000     
    6308.000 88.15210000      11344.02930000   49.19890000     
    6308.500 101.39430000     9862.48730000    45.59140000     
    6309.000 94.40630000      10592.51270000   43.98530000     
    6309.500 83.66390000      11952.58590000   43.61700000     
    6310.000 81.08960000      12332.03810000   43.46700000     
    6310.500 83.44980000      11983.25200000   43.45950000     
    6311.000 88.81570000      11259.27150000   43.51580000     
    6311.500 91.92540000      10878.38570000   43.70060000     
    6312.000 95.61430000      10458.68650000   43.55260000     
    6312.500 97.08920000      10299.80660000   42.09950000     
    6313.000 100.17970000     9982.06150000    39.26410000     
    6313.500 102.86010000     9721.94240000    35.97850000     
    6314.000 102.26890000     9778.14360000    34.53270000     
    6314.500 99.64180000      10035.94920000   34.74450000     
    6315.000 91.51530000      10927.13480000   38.59510000     
    6315.500 86.36950000      11578.16110000   41.89620000     
    6316.000 85.67540000      11671.96190000   46.07590000     
    6316.500 87.87770000      11379.45120000   48.40800000     
    6317.000 90.80190000      11012.98540000   49.65980000     
    6317.500 89.28320000      11200.31540000   47.74210000     
    6318.000 88.55180000      11292.82520000   44.86300000     
    6318.500 91.26790000      10956.75490000   42.69110000     
    6319.000 95.54190000      10466.61230000   41.94060000     
    6319.500 98.00590000      10203.46780000   41.65910000     
    6320.000 97.30640000      10276.81640000   40.33950000     
    6320.500 94.18160000      10617.78520000   38.50450000     
    6321.000 92.39860000      10822.67480000   39.36800000     
    6321.500 97.11940000      10296.60350000   36.82570000     
    6322.000 99.91210000      10008.79790000   34.25600000     
    6322.500 99.90530000      10009.47950000   33.30650000     
    6323.000 98.32900000      10169.93950000   34.03090000     
    6323.500 96.13920000      10401.58500000   35.27040000     
    6324.000 95.37270000      10485.18070000   36.19810000     
    6324.500 96.14220000      10401.25980000   37.46030000     
    6325.000 103.14970000     9694.64840000    38.39260000     
    6325.500 113.55960000     8805.94820000    37.99960000     
    6326.000 104.94360000     9528.92770000    39.09370000     
    6326.500 104.95370000     9528.01070000    40.27360000     
    6327.000 106.33180000     9404.52440000    39.78610000     
    6327.500 110.54100000     9046.41700000    38.09570000     
    6328.000 108.34670000     9229.62990000    37.15310000     
    6328.500 105.65010000     9465.20610000    37.16140000     
    6329.000 104.13290000     9603.11330000    37.61980000     
    6329.500 104.27170000     9590.33010000    38.75610000     
    6330.000 117.30940000     8524.46580000    40.62080000     
    6330.500 98.19780000      10183.52730000   42.79190000     
    6331.000 96.62620000      10349.16020000   42.04160000     
    6331.500 96.19350000      10395.71290000   41.12730000     
    6332.000 96.62620000      10349.16020000   40.91160000     
    6332.500 98.89990000      10111.23340000   41.73530000     
    6333.000 99.97060000      10002.94140000   42.92180000     
    6333.500 98.96530000      10104.55180000   42.69190000     
    6334.000 96.06680000      10409.42290000   41.69930000     
    6334.500 93.75200000      10666.43950000   39.99950000     
    6335.000 92.42310000      10819.80570000   38.90300000     
    6335.500 87.07840000      11483.90430000   37.73380000     
    6336.000 87.27140000      11458.50780000   38.38640000     
    6336.500 88.56600000      11291.01460000   38.77600000     
    6337.000 83.25830000      12010.81450000   39.14370000     
    6337.500 82.82400000      12073.79490000   39.22970000     
    6338.000 87.85660000      11382.18460000   38.12930000     
    6338.500 94.51180000      10580.68950000   35.36580000     
    6339.000 91.30410000      10952.41110000   35.31270000     
    6339.500 90.19790000      11086.73240000   37.65250000     
    6340.000 104.08470000     9607.55960000    39.40790000     
    6340.500 95.77720000      10440.89840000   40.89120000     
    6341.000 90.33890000      11069.42870000   42.20570000     
    6341.500 88.32820000      11321.41210000   43.55160000     
    6342.000 88.18300000      11340.05470000   43.96110000     
    6342.500 86.98780000      11495.86520000   40.71460000     
    6343.000 84.54610000      11827.86720000   35.33450000     
    6343.500 82.94760000      12055.80370000   32.20530000     
    6344.000 83.18510000      12021.38380000   30.89230000     
    6344.500 79.39290000      12595.58500000   32.42100000     
    6345.000 80.17710000      12472.38870000   36.30680000     
    6345.500 80.88900000      12362.62010000   39.59860000     
    6346.000 72.50680000      13791.81050000   43.28740000     
    6346.500 70.55830000      14172.67770000   47.13560000     
    6347.000 69.05020000      14482.21680000   50.72910000     
    6347.500 67.07010000      14909.77340000   52.03430000     
    6348.000 64.27250000      15558.75390000   53.17530000     
    6348.500 61.46140000      16270.37500000   56.21080000     
    6349.000 59.84470000      16709.91800000   57.15370000     
    6349.500 57.33970000      17439.92380000   55.01970000     
    6350.000 56.71150000      17633.10940000   50.78700000     
    6350.500 56.37180000      17739.36720000   46.36040000     
    6351.000 56.52830000      17690.25390000   44.26040000     
    6351.500 57.04410000      17530.29690000   43.73270000     
    6352.000 58.15630000      17195.04100000   44.16110000     
    6352.500 58.42130000      17117.04490000   45.81960000     
    6353.000 58.68410000      17040.39060000   48.18130000     
    6353.500 58.96730000      16958.55080000   50.13830000     
    6354.000 57.89010000      17274.11130000   51.95610000     
    6354.500 56.38800000      17734.26950000   53.91930000     
    6355.000 56.27190000      17770.85940000   54.96190000     
    6355.500 56.51770000      17693.57230000   55.22560000     
    6356.000 56.14220000      17811.91410000   55.82160000     
    6356.500 56.54570000      17684.81050000   57.41590000     
    6357.000 57.45580000      17404.68360000   59.13570000     
    6357.500 58.81460000      17002.58010000   59.50570000     
    6358.000 59.48330000      16811.44140000   58.92580000     
    6358.500 59.34740000      16849.93750000   55.87940000     
    6359.000 58.82670000      16999.08400000   53.73490000     
    6359.500 59.21280000      16888.24020000   53.02140000     
    6360.000 60.51430000      16525.01950000   53.08780000     
    6360.500 61.06770000      16375.26860000   55.68870000     
    6361.000 61.86850000      16163.31450000   59.48380000     
    6361.500 62.82850000      15916.34380000   62.68190000     
    6362.000 63.62020000      15718.27830000   63.87120000     
