###############################################
##         ENVERUS                           ##
##         EPlus - Open Hole                 ##
##         PERMIAN / DELAWARE                ##
##         Copyright ©                       ##
##         Enverus Version - V4.0            ##
##         Nov 20 2023                       ##
##         42-389-10253-00-00                ##
###############################################
## Copyright 2017-2023  ENVERUS.  All Rights Reserved. 
## Confidential - Property of ENVERUS, use governed by terms and 
## conditions found within the existing Information Services Subscription Agreement 
## (as may be amended, the “ISSA”) between Customer and ENVERUS. 
## 
#___________________________________________________________________________________________________
~VERSION INFORMATION
# MNEM.UNIT                               DATA : DESCRIPTION OF MNEMONIC
#-----.-----     ----------------------------- : -----------------------------
VERS.                                     2.00 : CWLS LOG ASCII STANDARD - VERSION 2.00
WRAP.                                       NO : MULTIPLE LINES PER DEPTH STEP
VEND.                                  ENVERUS : VENDOR
ENV_TYPE.                    EPLUS - OPEN HOLE : Enverus Essential Plus Curves – Accessible through Enverus Core(TM)
ENV_VERS.                                 V4.0 : EPlus - Open Hole Version number 
ENV_DOC.                              44178784 : ENVERUS Header Document id
ENV_REF.                               PERMIAN : ENVERUS BASIN OR PLAY APPLIED REFERENCE LIMITS 
#___________________________________________________________________________________________________ 
~WELL INFORMATION 
# uyaQ8P8kQDJ9DXFS5hR1PxmExEOYaAUkY5f3/tnOS+scoPAUWgXA1zCIHGRbWCuSuUcwDzaESCjqjWQ81XhadA== 
# MNEM.UNIT                                              DATA : DESCRIPTION OF MNEMONIC 
#-----.-----                    ----------------------------- : ----------------------------- 
CNTY.                                                  REEVES : COUNTY 
STATE.                                                  TEXAS : STATE 
CNTRY.                                                    USA : COUNTRY 
API.                                             42-389-10253 : API (10 Digit) 
API_14.                                    42-389-10253-00-00 : API (14 Digits) 
API_14_std.                                 42-389-10253-0000 : API (14 Digits Standard) 
UWI.                                           42389102530000 : UNIQUE WELL ID
STRT.FT                                                   108 : START DEPTH
STOP.FT                                                  5248 : STOP DEPTH
STEP.FT                                                   0.5 : STEP DEPTH
NULL.                                               -999.2500 : NULL VALUE
WELL.                                       A O  REEVES FEE 1 : WELL NAME 
GR_ELEV.                                                 2779 : GROUND ELEVATION 
SLAT.                                                 31.1575 : SURFACE LATITUDE 
SLONG.                                              -103.3573 : SURFACE LONGITUDE
#___________________________________________________________________________________________________ 
~CURVE INFORMATION 
# MNEM.UNIT           : CURVE DESCRIPTION 
#-----.-----          : ----------------------------- 
DEPT.FT               : MEASURED DEPTH 
GR_E.API              : ENVERUS GAMMA RAY - CLEANED BLENDED AND LUMPED 
GR_F.                 : ENVERUS GAMMA RAY - OUTLIER INDICATOR - 0=(IN BOUNDS) 1=(OUT OF BOUNDS) 2=(REPEATING) 
GR_S.                 : ENVERUS GAMMA RAY - SOURCE INDICATOR 
GR_U.                 : ENVERUS GAMMA RAY - OPTION INDICATOR - 0=(NO OPTION) 1=(OTHER OPTIONS) 
DT_E.US/FT            : ENVERUS SONIC TRAVEL TIME - CLEANED BLENDED AND LUMPED 
DT_F.                 : ENVERUS SONIC TRAVEL TIME - OUTLIER INDICATOR - 0=(IN BOUNDS) 1=(OUT OF BOUNDS) 2=(REPEATING) 
DT_S.                 : ENVERUS SONIC TRAVEL TIME - SOURCE INDICATOR 
DT_U.                 : ENVERUS SONIC TRAVEL TIME - OPTION INDICATOR - 0=(NO OPTION) 1=(OTHER OPTIONS)
#___________________________________________________________________________________________________ 
~A         DEPT           GR_E           GR_F           GR_S           GR_U           DT_E           DT_F           DT_S           DT_U
# ...
        1465.00         12.636           0.00           0.00           0.00     -999.25000        -999.25        -999.25        -999.25
        1465.50         13.245           0.00           0.00           0.00     -999.25000        -999.25        -999.25        -999.25
        1466.00         13.853           0.00           0.00           0.00     -999.25000        -999.25        -999.25        -999.25
        1466.50         14.462           0.00           0.00           0.00     -999.25000        -999.25        -999.25        -999.25
        1467.00         15.070           0.00           0.00           0.00     -999.25000        -999.25        -999.25        -999.25
        1467.50         15.678           0.00           0.00           0.00     -999.25000        -999.25        -999.25        -999.25
        1468.00         16.047           0.00           0.00           0.00     -999.25000        -999.25        -999.25        -999.25
        1468.50         15.032           0.00           0.00           0.00     -999.25000        -999.25        -999.25        -999.25
        1469.00         14.017           0.00           0.00           0.00     -999.25000        -999.25        -999.25        -999.25
        1469.50         15.102           0.00           0.00           0.00     -999.25000        -999.25        -999.25        -999.25
        1470.00         16.823           0.00           0.00           0.00     -999.25000        -999.25        -999.25        -999.25
        1470.50         18.545           0.00           0.00           0.00     -999.25000        -999.25        -999.25        -999.25
        1471.00         18.633           0.00           0.00           0.00     -999.25000        -999.25        -999.25        -999.25
        1471.50         17.525           0.00           0.00           0.00     -999.25000        -999.25        -999.25        -999.25
        1472.00         16.416           0.00           0.00           0.00     -999.25000        -999.25        -999.25        -999.25
        1472.50         15.308           0.00           0.00           0.00     -999.25000        -999.25        -999.25        -999.25
        1473.00         14.849           0.00           0.00           0.00     -999.25000        -999.25        -999.25        -999.25
        1473.50         14.511           0.00           0.00           0.00     -999.25000        -999.25        -999.25        -999.25
        1474.00         14.174           0.00           0.00           0.00     -999.25000        -999.25        -999.25        -999.25
        1474.50         13.837           0.00           0.00           0.00     -999.25000        -999.25        -999.25        -999.25
        1475.00         13.500           0.00           0.00           0.00     -999.25000        -999.25        -999.25        -999.25
        1475.50         13.163           0.00           0.00           0.00     -999.25000        -999.25        -999.25        -999.25
        1476.00         12.826           0.00           0.00           0.00     -999.25000        -999.25        -999.25        -999.25
        1476.50         12.488           0.00           0.00           0.00     -999.25000        -999.25        -999.25        -999.25
        1477.00         12.895           0.00           0.00           0.00     -999.25000        -999.25        -999.25        -999.25
        1477.50         13.804           0.00           0.00           0.00     -999.25000        -999.25        -999.25        -999.25
        1478.00         14.511           0.00           0.00           0.00     -999.25000        -999.25        -999.25        -999.25
        1478.50         14.045           0.00           0.00           0.00     -999.25000        -999.25        -999.25        -999.25
        1479.00         13.578           0.00           0.00           0.00     -999.25000        -999.25        -999.25        -999.25
        1479.50         13.112           0.00           0.00           0.00     -999.25000        -999.25        -999.25        -999.25
        1480.00         12.645           0.00           0.00           0.00     -999.25000        -999.25        -999.25        -999.25
        1480.50         13.992           0.00           0.00           0.00     -999.25000        -999.25        -999.25        -999.25
        1481.00         16.157           0.00           0.00           0.00     -999.25000        -999.25        -999.25        -999.25
        1481.50         16.545           0.00           0.00           0.00     -999.25000        -999.25        -999.25        -999.25
        1482.00         15.466           0.00           0.00           0.00     -999.25000        -999.25        -999.25        -999.25
        1482.50         14.387           0.00           0.00           0.00     -999.25000        -999.25        -999.25        -999.25
        1483.00         14.925           0.00           0.00           0.00     -999.25000        -999.25        -999.25        -999.25
        1483.50         15.796           0.00           0.00           0.00     -999.25000        -999.25        -999.25        -999.25
        1484.00         16.666           0.00           0.00           0.00     -999.25000        -999.25        -999.25        -999.25
        1484.50         16.989           0.00           0.00           0.00     -999.25000        -999.25        -999.25        -999.25
        1485.00         17.057           0.00           0.00           0.00     -999.25000        -999.25        -999.25        -999.25
        1485.50         17.125           0.00           0.00           0.00     -999.25000        -999.25        -999.25        -999.25
        1486.00         17.192           0.00           0.00           0.00     -999.25000        -999.25        -999.25        -999.25
        1486.50         17.260           0.00           0.00           0.00     -999.25000        -999.25        -999.25        -999.25
        1487.00         17.327           0.00           0.00           0.00     -999.25000        -999.25        -999.25        -999.25
        1487.50         17.395           0.00           0.00           0.00     -999.25000        -999.25        -999.25        -999.25
        1488.00         17.463           0.00           0.00           0.00     -999.25000        -999.25        -999.25        -999.25
        1488.50         17.530           0.00           0.00           0.00     -999.25000        -999.25        -999.25        -999.25
        1489.00         17.591           0.00           0.00           0.00     -999.25000        -999.25        -999.25        -999.25
        1489.50         15.864           0.00           0.00           0.00     -999.25000        -999.25        -999.25        -999.25
        1490.00         14.136           0.00           0.00           0.00     -999.25000        -999.25        -999.25        -999.25
        1490.50         13.064           0.00           0.00           0.00     -999.25000        -999.25        -999.25        -999.25
        1491.00         13.446           0.00           0.00           0.00     -999.25000        -999.25        -999.25        -999.25
        1491.50         13.827           0.00           0.00           0.00     -999.25000        -999.25        -999.25        -999.25
        1492.00         14.311           0.00           0.00           0.00     -999.25000        -999.25        -999.25        -999.25
        1492.50         15.246           0.00           0.00           0.00     -999.25000        -999.25        -999.25        -999.25
        1493.00         16.180           0.00           0.00           0.00     -999.25000        -999.25        -999.25        -999.25
        1493.50         17.114           0.00           0.00           0.00     -999.25000        -999.25        -999.25        -999.25
        1494.00         17.454           0.00           0.00           0.00     -999.25000        -999.25        -999.25        -999.25
