###############################################
##         ENVERUS                           ##
##         ESS - Open Hole                   ##
##         PERMIAN / DELAWARE                ##
##         Nov 04 2023  V4.0                 ##
##         42-371-36358-00-00                ##
###############################################
## Copyright 2017-2023  ENVERUS.  All Rights Reserved. 
## Confidential - Property of ENVERUS, use governed by terms and 
## conditions found within the existing Information Services Subscription Agreement 
## (as may be amended, the “ISSA”) between Customer and ENVERUS. 
## 
~VERSION INFORMATION
# MNEM.UNIT                               DATA : DESCRIPTION OF MNEMONIC
#-----.-----     ----------------------------- : -----------------------------
VERS.                                     2.00 : CWLS LOG ASCII STANDARD - VERSION 2.00
WRAP.                                       NO : MULTIPLE LINES PER DEPTH STEP
VEND.                                  ENVERUS : VENDOR
TYPE.                          ESS - OPEN HOLE : ENVERUS ESSENTIAL CURVES – ACCESSIBLE THROUGH ENVERUS PRISM(TM)
DOC.                                  32044985 : ENVERUS HEADER RAW DOCUMENT ID
#___________________________________________________________________________________________________ 
~WELL INFORMATION 
# 9/F+NtSLBEAIaZM9LpLMxALTyCH3LMfPBQiNKTeSadJ6NAezaEZy+3+OEP8rVGNvVB4ifWNnxSKvs1BiqqZA9A== 
# MNEM.UNIT                                              DATA : DESCRIPTION OF MNEMONIC 
#-----.-----                    ----------------------------- : ----------------------------- 
CNTY.                                                   PECOS : COUNTY 
STATE.                                                  TEXAS : STATE 
CNTRY.                                                    USA : COUNTRY 
API.                                             42-371-36358 : API (10 Digit) 
API_14.                                    42-371-36358-00-00 : API (14 Digits) 
API_14_std.                                 42-371-36358-0000 : API (14 Digits Standard) 
UWI.                                           42371363580000 : UNIQUE WELL ID 
WELL.                           SCHLOSSER, FRED ESTATE -B-  9 : WELL NAME
STRT.FT                                                 151.0 : START DEPTH
STOP.FT                                                5707.0 : STOP DEPTH
STEP.FT                                                   0.5 : STEP BETWEEN DEPTHS
NULL.                                                 -999.25 : NULL VALUE
COMP.                                      APACHE CORPORATION : COMPANY 
DATE.                                             07-JUN-1992 : LOG DATE
#___________________________________________________________________________________________________ 
~CURVE INFORMATION 
# MNEM.UNIT           : CURVE DESCRIPTION 
#-----.-----          : ----------------------------- 
 DEPT.FT               : MEASURED DEPTH 
 GR.API                : GAMMA RAY (GR) 
 DT.US/FT              : SONIC DELTA TRANSIT TIME (DT) 
 #___________________________________________________________________________________________________ 
~A         DEPT             GR             DT
# ...
         3805.0          9.210         50.435
         3805.5          8.002         52.190
         3806.0          6.794         55.188
         3806.5          5.782         58.187
         3807.0          5.710         60.427
         3807.5          5.785         57.510
         3808.0          8.336         54.582
         3808.5         10.887         51.626
         3809.0         13.438         50.851
         3809.5         15.989         51.366
         3810.0         14.985         51.882
         3810.5         13.586         51.939
         3811.0         12.187         50.807
         3811.5         10.789         49.674
         3812.0          9.390         49.726
         3812.5          7.991         52.795
         3813.0          6.593         55.863
         3813.5          5.194         58.932
         3814.0          3.795         62.000
         3814.5          2.625         67.903
         3815.0          3.022         69.337
         3815.5          3.419         68.861
         3816.0          3.816         68.661
         3816.5          4.213         68.640
         3817.0          4.610         68.618
         3817.5          4.521         68.623
         3818.0          4.225         68.810
         3818.5          3.929         68.881
         3819.0          3.647         68.896
         3819.5          3.546         68.912
         3820.0          3.445         68.927
         3820.5          3.343         68.942
         3821.0          3.242         68.958
         3821.5          3.141         68.969
         3822.0          3.040         68.973
         3822.5          2.939         68.976
         3823.0          2.838         68.980
         3823.5          2.737         68.983
         3824.0          2.806         68.987
         3824.5          2.876         68.990
         3825.0          2.947         69.024
         3825.5          3.017         69.066
         3826.0          3.088         69.109
         3826.5          3.159         69.087
         3827.0          3.229         69.057
         3827.5          3.300         69.026
         3828.0          3.429         68.996
         3828.5          3.757         68.966
         3829.0          4.085         68.935
         3829.5          4.413         68.905
         3830.0          4.735         68.888
         3830.5          4.184         68.884
         3831.0          3.632         68.880
         3831.5          3.080         68.876
         3832.0          2.998         68.872
         3832.5          3.149         68.867
         3833.0          3.300         68.871
         3833.5          3.451         68.918
         3834.0          3.602         68.964
         3834.5          3.753         69.011
         3835.0          3.904         68.972
         3835.5          4.056         68.832
         3836.0          4.047         68.692
         3836.5          3.887         68.705
         3837.0          3.727         68.755
         3837.5          3.567         68.783
         3838.0          3.407         68.770
         3838.5          3.247         68.756
         3839.0          3.173         68.742
         3839.5          3.125         68.636
         3840.0          3.077         68.480
         3840.5          3.029         68.324
         3841.0          2.981         68.316
         3841.5          2.933         68.346
         3842.0          2.961         68.350
         3842.5          3.097         68.303
         3843.0          3.233         68.256
         3843.5          3.369         68.210
         3844.0          3.505         68.163
         3844.5          4.048         68.116
         3845.0          4.567         68.069
         3845.5          4.169         68.096
         3846.0          3.771         68.125
         3846.5          3.373         68.153
         3847.0          2.975         68.181
         3847.5          3.004         68.209
         3848.0          3.117         68.238
         3848.5          3.230         68.266
         3849.0          3.344         68.270
         3849.5          3.457         68.175
         3850.0          3.501         68.080
         3850.5          3.441         68.212
         3851.0          3.380         68.263
         3851.5          3.320         68.263
         3852.0          3.259         68.263
         3852.5          3.199         68.263
         3853.0          3.138         68.262
         3853.5          3.078         68.222
         3854.0          3.556         68.153
         3854.5          4.139         68.083
         3855.0          3.868         68.050
         3855.5          3.278         68.030
         3856.0          2.688         68.010
         3856.5          2.171         67.991
         3857.0          2.443         67.971
         3857.5          2.715         67.951
         3858.0          2.987         67.931
         3858.5          3.259         67.926
         3859.0          3.379         68.010
         3859.5          3.379         68.094
         3860.0          3.380         68.178
         3860.5          3.380         68.252
         3861.0          3.474         68.024
         3861.5          3.757         68.006
         3862.0          4.040         68.298
         3862.5          4.779         68.347
         3863.0          5.804         66.657
         3863.5          6.829         64.966
         3864.0          7.854         63.153
         3864.5          8.763         58.443
         3865.0          8.764         56.056
         3865.5          8.764         54.914
         3866.0          8.764         53.834
         3866.5          8.765         53.316
         3867.0          8.765         52.798
         3867.5          9.354         52.279
         3868.0          9.958         51.761
         3868.5         10.562         51.851
         3869.0         10.512         52.610
         3869.5         10.132         53.370
         3870.0          9.373         56.758
         3870.5          7.421         59.262
         3871.0          5.469         61.422
         3871.5          3.831         63.581
         3872.0          3.715         65.740
         3872.5          3.599         68.259
         3873.0          3.483         68.083
         3873.5          3.368         67.906
         3874.0          3.252         67.730
         3874.5          3.136         67.553
         3875.0          3.020         67.704
         3875.5          2.904         67.954
         3876.0          2.789         68.088
         3876.5          2.673         68.172
         3877.0          2.752         68.256
         3877.5          2.970         68.340
         3878.0          3.189         68.355
         3878.5          3.408         68.321
         3879.0          3.626         68.288
         3879.5          3.845         68.254
         3880.0          3.936         68.331
         3880.5          3.633         68.421
         3881.0          3.329         68.511
         3881.5          3.169         68.481
         3882.0          3.540         68.375
         3882.5          3.911         68.268
         3883.0          4.282         68.162
         3883.5          3.992         68.055
         3884.0          3.626         67.949
         3884.5          3.260         67.842
         3885.0          2.895         67.898
         3885.5          2.529         68.016
         3886.0          2.360         68.095
         3886.5          2.440         68.083
         3887.0          2.521         68.072
         3887.5          2.602         68.060
         3888.0          2.682         68.046
         3888.5          2.763         68.011
         3889.0          2.716         67.976
         3889.5          2.615         67.952
         3890.0          2.514         67.961
         3890.5          3.102         67.971
         3891.0          4.024         67.980
         3891.5          4.947         67.990
