###############################################
##         ENVERUS                           ##
##         ESS - Open Hole                   ##
##         PERMIAN / DELAWARE                ##
##         Nov 04 2023  V4.0                 ##
##         42-371-32680-00-00                ##
###############################################
## Copyright 2017-2023  ENVERUS.  All Rights Reserved. 
## Confidential - Property of ENVERUS, use governed by terms and 
## conditions found within the existing Information Services Subscription Agreement 
## (as may be amended, the “ISSA”) between Customer and ENVERUS. 
## 
~VERSION INFORMATION
# MNEM.UNIT                               DATA : DESCRIPTION OF MNEMONIC
#-----.-----     ----------------------------- : -----------------------------
VERS.                                     2.00 : CWLS LOG ASCII STANDARD - VERSION 2.00
WRAP.                                       NO : MULTIPLE LINES PER DEPTH STEP
VEND.                                  ENVERUS : VENDOR
TYPE.                          ESS - OPEN HOLE : ENVERUS ESSENTIAL CURVES – ACCESSIBLE THROUGH ENVERUS PRISM(TM)
DOC.                                  31991434 : ENVERUS HEADER RAW DOCUMENT ID
#___________________________________________________________________________________________________ 
~WELL INFORMATION 
# uAv5E/S3ZwrMaovXfwZJbnQ+z8RwnTA5GIEFL0LfM7mdkMX/8iXP+LiYgCnT3sJm4ejuYgXNUZeSPI/Yhcow4w== 
# MNEM.UNIT                                              DATA : DESCRIPTION OF MNEMONIC 
#-----.-----                    ----------------------------- : ----------------------------- 
CNTY.                                                   PECOS : COUNTY 
STATE.                                                  TEXAS : STATE 
CNTRY.                                                    USA : COUNTRY 
API.                                             42-371-32680 : API (10 Digit) 
API_14.                                    42-371-32680-00-00 : API (14 Digits) 
API_14_std.                                 42-371-32680-0000 : API (14 Digits Standard) 
UWI.                                           42371326800000 : UNIQUE WELL ID 
WELL.                                     MARALO - STEWART  1 : WELL NAME
STRT.FT                                                  21.0 : START DEPTH
STOP.FT                                               21630.0 : STOP DEPTH
STEP.FT                                                   0.5 : STEP BETWEEN DEPTHS
NULL.                                                 -999.25 : NULL VALUE
COMP.                                            MARALO, INC. : COMPANY 
DATE.                                             11-DEC-1978 : LOG DATE
#___________________________________________________________________________________________________ 
~CURVE INFORMATION 
# MNEM.UNIT           : CURVE DESCRIPTION 
#-----.-----          : ----------------------------- 
 DEPT.FT               : MEASURED DEPTH 
 GR__D.API             : GAMMA RAY (GR) 
 DT__D.US/FT           : SONIC DELTA TRANSIT TIME (DT) 
 RESD__D.OHMM          : DEEP INDUCTION RESISTIVITY (ILD - ILD) 
 #___________________________________________________________________________________________________ 
~A         DEPT          GR__D          DT__D        RESD__D
# ...
        15003.0        122.005         92.641          3.717
        15003.5        147.432         92.339          4.397
        15004.0        147.232         88.867          5.077
        15004.5        125.131         85.327          5.757
        15005.0        100.050         81.788          6.437
        15005.5         94.957         78.248          7.117
        15006.0        133.698         75.341          7.797
        15006.5        148.725         75.526          8.355
        15007.0        148.546         75.711          8.193
        15007.5        148.368         75.896          8.030
        15008.0        109.948         74.592          7.867
        15008.5         99.597         73.130          7.705
        15009.0        103.747         71.668          7.649
        15009.5        107.897         73.216          7.734
        15010.0        101.495         74.764          7.819
        15010.5         83.799         75.716          7.905
        15011.0         95.336         73.888          8.650
        15011.5        115.335         72.061          9.434
        15012.0        134.256         70.233         10.218
        15012.5        134.034         68.405         10.938
        15013.0        133.812         66.578         10.491
        15013.5        128.409         64.750         10.045
        15014.0         81.431         62.922          9.598
        15014.5         97.583         67.269          9.172
        15015.0        113.735         72.121          8.857
        15015.5        120.570         73.950          9.043
        15016.0        105.824         74.501          9.696
        15016.5         91.078         75.051         10.350
        15017.0         76.332         72.479         11.822
        15017.5         69.632         68.694         13.435
        15018.0         75.701         64.910         15.049
        15018.5         75.055         61.125         16.663
        15019.0         70.020         57.104         18.181
        15019.5         70.782         58.567         19.104
        15020.0         73.441         60.030         20.026
        15020.5         76.100         61.493         20.949
        15021.0         76.764         62.956         22.466
        15021.5         59.362         64.419         24.710
        15022.0         41.960         65.376         26.955
        15022.5         51.920         65.395         29.199
        15023.0         68.060         64.562         29.450
        15023.5         84.200         60.868         29.075
        15024.0         89.139         61.733         28.699
        15024.5         76.060         62.598         28.323
        15025.0         62.981         63.462         27.948
        15025.5         58.662         64.327         27.572
        15026.0         65.705         65.192         27.875
        15026.5         71.445         66.048         30.857
        15027.0         60.074         63.182         33.839
        15027.5         48.702         60.317         36.820
        15028.0         37.331         57.451         39.802
        15028.5         25.960         54.606         42.783
        15029.0         20.825         54.383         45.765
        15029.5         37.450         54.612         48.112
        15030.0         54.075         54.841         48.388
        15030.5         57.009         55.070         48.663
        15031.0         48.649         55.298         48.939
        15031.5         40.289         55.077         49.214
        15032.0         31.928         54.710         49.490
        15032.5         36.925         54.344         49.765
        15033.0         42.884         53.977         50.041
        15033.5         43.074         53.611         50.316
        15034.0         34.983         53.244         50.592
        15034.5         26.891         52.922         50.867
        15035.0         18.800         52.905         51.143
        15035.5         26.887         52.888         51.175
        15036.0         46.622         52.871         49.742
        15036.5         66.358         52.854         48.309
        15037.0         61.978         52.838         46.875
        15037.5         53.732         53.563         45.442
        15038.0         45.487         54.516         44.009
        15038.5         47.856         55.469         42.576
        15039.0         53.559         56.422         41.143
        15039.5         54.250         56.695         38.941
        15040.0         50.027         56.398         36.499
        15040.5         45.803         56.101         34.057
        15041.0         41.580         55.803         31.616
        15041.5         37.356         55.506         29.174
        15042.0         40.929         55.461         27.395
        15042.5         50.233         56.041         26.477
        15043.0         59.538         57.509         25.560
        15043.5         68.842         60.183         24.643
        15044.0         78.147         62.858         23.726
        15044.5         87.451         65.532         22.809
        15045.0         79.575         66.320         21.892
        15045.5         43.173         64.738         20.975
        15046.0         42.396         63.155         21.478
        15046.5         41.619         63.778         22.233
        15047.0         40.842         64.731         22.987
        15047.5         36.102         65.683         23.741
        15048.0         25.671         65.115         24.495
        15048.5         38.364         62.432         25.249
        15049.0         51.057         59.749         26.003
        15049.5         58.964         57.066         26.758
        15050.0         56.999         54.384         27.512
        15050.5         55.035         54.444         28.266
        15051.0         52.915         56.270         28.784
        15051.5         49.657         57.814         28.317
        15052.0         39.097         57.682         27.851
        15052.5         34.989         57.550         27.384
        15053.0         37.601         57.417         26.918
        15053.5         35.637         57.285         26.475
        15054.0         33.673         58.233         26.352
        15054.5         31.708         59.369         26.229
        15055.0         29.744         58.720         26.106
        15055.5         32.390         58.071         25.983
        15056.0         37.244         58.308         28.130
        15056.5         43.402         59.252         30.351
        15057.0         53.506         60.196         32.571
        15057.5         63.610         61.140         34.791
        15058.0         59.326         62.084         37.011
        15058.5         46.010         62.104         39.231
        15059.0         32.693         58.317         45.489
        15059.5         19.376         54.529         52.620
        15060.0          9.618         53.260         59.750
        15060.5         10.722         53.370         66.880
        15061.0         11.825         53.480         72.962
        15061.5         16.636         53.590         70.465
        15062.0         26.565         53.700         67.968
        15062.5         36.493         54.478         65.472
        15063.0         46.422         55.286         62.975
        15063.5         39.080         56.094         60.479
        15064.0         31.329         56.901         57.769
        15064.5         23.577         57.060         55.057
        15065.0         15.826         56.272         52.344
        15065.5         18.545         55.484         49.631
        15066.0         21.966         54.695         46.919
        15066.5         25.387         54.979         44.206
        15067.0         28.808         57.356         41.494
        15067.5         29.252         59.732         38.781
        15068.0         29.663         61.383         36.069
        15068.5         30.074         61.592         34.037
