#--------------------------------------------------#
#-------------------ENVERUS, INC.------------------#
#------------------WWW.ENVERUS.COM-----------------#
#------------------COPYRIGHT 2020------------------#
#--------------------------------------------------#
#THIS FILE MAY BE USED ONLY IN ACCORDANCE WITH A CURRENT SUBSCRIPTION AGREEMENT BETWEEN
#THE USER AND ENVERUS, INC. NO PART OF THIS FILE MAY BE REPRODUCED, USED, COPIED,
#MODIFIED, PROPAGATED, OR DISTRIBUTED EXCEPT IN ACCORDANCE WITH THE SUBSCRIPTION
#AGREEMENT. UNAUTHORIZED USE OR DISTRIBUTION OF ALL OR ANY PART OF THIS FILE MAY VIOLATE
#COPYRIGHT, TRADEMARK, AND/OR OTHER LAWS AND IS SUBJECT TO CIVIL AS WELL AS CRIMINAL
#SANCTIONS.
#--------------------------------------------------#
#THIS FILE IS PROVIDED "AS-IS" AND ALL WARRANTIES ARE EXPRESSLY DISCLAIMED, WHETHER
#EXPRESS, ORAL, IMPLIED, STATUTORY OR OTHERWISE, INCLUDING ANY IMPLIED WARRANTY OF FITNESS
#FOR A PARTICULAR PURPOSE, MERCHANTABILITY, TITLE OR NON-INFRINGEMENT, AND ANY WARRANTIES
#ARISING BY VIRTUE OF CUSTOM OF TRADE OR COURSE OF DEALING.  FURTHER, ENVERUS, INC.
#AND ITS LICENSORS DO NOT REPRESENT OR WARRANT THAT THIS FILE WILL MEET USER'S
#REQUIREMENTS OR ARE SUITABLE FOR USER'S NEEDS OR THAT THE DATA OR RESULTS PROVIDED IN
#CONJUNCTION THEREWITH ARE CORRECT, ACCURATE, TIMELY OR RELIABLE. THESE DISCLAIMERS SHALL
#APPLY REGARDLESS OF ANY FAILURE OF ESSENTIAL PURPOSE OF ANY LIMITED REMEDY.  SOME
#JURISDICTIONS DO NOT ALLOW THE EXCLUSION OF CERTAIN WARRANTIES SO SOME OF THE ABOVE
#EXCLUSIONS MAY NOT APPLY. IN NO EVENT SHALL ENVERUS, INC. OR ANY OF ITS AFFILIATES
#BE LIABLE UNDER ANY LEGAL THEORY, WHETHER IN TORT (INCLUDING WITHOUT LIMITATION
#NEGLIGENCE), CONTRACT, STRICT LIABILITY, STATUTORY OR OTHERWISE, FOR ANY SPECIAL,
#INCIDENTAL, CONSEQUENTIAL, EXEMPLARY, PUNITIVE OR INDIRECT DAMAGE OF ANY KIND, INCLUDING
#WITHOUT LIMITATION LOSS OF REVENUE, PROFITS, GOODWILL, USE, AND/OR DATA OR THE COST OF
#PROCUREMENT OF SUBSTITUTE GOODS OR SERVICES, EVEN IF APPRISED OF THE POSSIBILITY OF SUCH
#DAMAGES IN ADVANCE.
#--------------------------------------------------#

~VERSION INFORMATION
VERS. 2.0 : CWLS LOG ASCII STANDARD - VERSION 2.0
WRAP. NO : ONE LINE PER DEPTH STEP
~WELL INFORMATION
#MNEMONIC     .UNIT              VALUE :DESCRIPTION
STRT       .FT                7.00000 :START DEPTH
STOP       .FT                16581.00000 :STOP DEPTH
STEP       .FT                0.50000 :STEP
NULL       .                -999.25000 :NULL VALUE
UWI       .                42389300260000 :UNIQUE WELL ID
API       .                42389300260000 :API NUMBER
COMP       .                 :COMPANY
WELL       .                 :WELL
FLD       .                 :FIELD
LOC       .                 :LOCATION
CNTY       .                 :COUNTY
STAT       .                 :STATE
CTRY       .                 :COUNTRY
SRVC       .                 :SERVICE COMPANY
DATE       .                 :DATE
~CURVE INFORMATION
#MNEMONIC     .UNIT      API CODE :CURVE DESCRIPTION
DEPTH       .FT                      :MEASURED DEPTH
CAL       .IN        UNKNOWN   :CAL
DT       .US/FT        UNKNOWN   :DT
GR       .GAPI        UNKNOWN   :GR
~A    DEPTH    CAL    DT    GR
# ...
12642.00000    9.33560    71.43530    98.58291
12642.50000    9.31721    72.68439    96.18477
12643.00000    9.29882    69.55469    94.43775
12643.50000    9.28043    66.42499    93.33588
12644.00000    9.26204    63.29530    90.20737
12644.50000    9.24365    63.55938    87.07886
12645.00000    9.22631    73.08972    83.95035
12645.50000    9.24492    81.87778    80.82183
12646.00000    9.26353    85.91805    80.48609
12646.50000    9.28215    88.01567    82.81039
12647.00000    9.30076    86.12897    85.13469
12647.50000    9.31937    84.24227    85.26066
12648.00000    9.32079    77.24438    85.35294
12648.50000    9.30014    63.82165    85.44523
12649.00000    9.27948    69.88405    85.53752
12649.50000    9.25882    75.63991    85.62980
12650.00000    9.26055    78.50697    87.30266
12650.50000    9.27448    81.37402    95.22002
12651.00000    9.28841    84.24108    99.49502
12651.50000    9.30233    86.02512    97.85468
12652.00000    9.31626    81.15321    96.21433
12652.50000    9.32889    61.56683    94.57398
12653.00000    9.31426    65.18718    92.93363
12653.50000    9.29963    68.80754    91.29328
12654.00000    9.28500    72.42789    89.65293
12654.50000    9.27037    76.04824    88.01258
12655.00000    9.25574    75.98733    99.23036
12655.50000    9.24111    75.10515    120.15088
12656.00000    9.22648    74.37934    132.01546
12656.50000    9.21184    73.65353    127.02060
12657.00000    9.19721    73.50231    122.02575
12657.50000    9.18258    76.42281    117.03090
12658.00000    9.19294    80.89637    112.03605
12658.50000    9.25265    86.21197    107.06745
12659.00000    9.31237    87.10912    107.90335
12659.50000    9.34789    84.27028    108.73924
12660.00000    9.32165    71.91263    109.57513
12660.50000    9.29542    70.95538    110.41102
12661.00000    9.26918    72.23261    108.45469
12661.50000    9.24294    73.50984    105.18886
12662.00000    9.21670    74.78707    106.47923
12662.50000    9.19046    74.80133    107.76960
12663.00000    9.17925    73.94016    109.05997
12663.50000    9.20022    75.98011    110.35035
12664.00000    9.22119    78.02005    111.64072
12664.50000    9.24215    78.40147    112.93109
12665.00000    9.22462    77.15082    114.22146
12665.50000    9.18081    71.84955    115.51184
12666.00000    9.13700    67.88772    108.98485
12666.50000    9.09319    65.96900    101.81496
12667.00000    9.04938    65.39232    94.64507
12667.50000    9.00556    67.74291    87.47517
12668.00000    8.96175    71.40212    80.30528
12668.50000    8.91794    74.51395    76.69860
12669.00000    8.87413    73.93659    76.83753
12669.50000    8.88269    73.35923    76.97647
12670.00000    8.91787    72.78188    77.11540
12670.50000    8.95305    74.48569    99.28187
12671.00000    8.98823    76.30400    100.70883
12671.50000    8.95023    82.42442    102.13579
12672.00000    8.90927    77.41039    103.56274
12672.50000    8.86830    71.99883    104.98970
12673.00000    8.84265    67.02110    106.41665
12673.50000    8.91186    66.01872    107.84361
12674.00000    8.98108    70.39373    102.60608
12674.50000    9.05029    74.76875    95.65338
12675.00000    9.11950    78.57026    88.70068
12675.50000    9.18872    80.38822    81.74797
12676.00000    9.25793    82.20618    103.16554
12676.50000    9.32714    76.26994    102.98113
12677.00000    9.36688    72.92054    102.79672
12677.50000    9.30883    72.23400    102.61231
12678.00000    9.25078    71.54746    102.42790
12678.50000    9.19274    72.44568    103.21590
12679.00000    9.13469    73.69804    112.07792
12679.50000    9.28805    74.95040    113.69817
12680.00000    9.36784    76.16179    114.53453
12680.50000    9.34718    75.83527    115.37088
12681.00000    9.32653    75.50875    116.20724
12681.50000    9.30587    76.78779    118.21690
12682.00000    9.28521    78.07783    121.77094
12682.50000    9.30179    79.36787    125.32498
12683.00000    9.34954    77.22433    128.87903
12683.50000    9.39729    74.98995    129.55387
12684.00000    9.44503    72.75557    128.84607
12684.50000    9.49278    70.52119    128.13828
12685.00000    9.47793    70.72172    127.43049
12685.50000    9.42697    72.63007    126.01371
12686.00000    9.37601    76.98440    120.59783
12686.50000    9.32505    78.13347    115.18195
12687.00000    9.27409    77.77461    109.76607
12687.50000    9.34179    72.80501    111.74568
12688.00000    9.52100    68.89520    112.57879
12688.50000    9.64563    70.14211    110.93832
12689.00000    9.53450    71.38901    109.29785
12689.50000    9.42336    72.63592    113.26579
12690.00000    9.31223    70.49002    116.89603
12690.50000    9.29951    67.79649    112.79189
12691.00000    9.29740    65.10296    108.68775
12691.50000    9.29530    65.65149    104.58362
12692.00000    9.29319    66.92167    100.47948
12692.50000    9.29109    69.82295    96.37534
12693.00000    9.28899    73.44232    92.27121
12693.50000    9.28688    77.58978    96.84856
12694.00000    9.28478    75.88823    112.31251
12694.50000    9.28267    77.23160    117.74101
12695.00000    9.28057    79.59005    119.21055
12695.50000    9.27847    81.94850    120.31638
12696.00000    9.27636    78.68675    119.69653
12696.50000    9.31688    78.26341    119.07668
12697.00000    9.43036    78.60369    118.45683
12697.50000    9.54383    78.94396    117.83698
12698.00000    9.57388    79.28424    117.22391
12698.50000    9.46941    79.62451    117.50167
12699.00000    9.36495    76.01040    117.77943
12699.50000    9.26048    76.81333    118.05719
12700.00000    9.15602    77.61627    118.33495
12700.50000    9.07826    78.41921    118.61271
12701.00000    9.16458    78.95878    117.70375
12701.50000    9.25091    78.30168    112.89927
12702.00000    9.33723    77.64458    115.48391
12702.50000    9.42356    76.98748    118.89262
12703.00000    9.38330    70.54653    119.76632
12703.50000    9.33092    70.91722    116.72275
12704.00000    9.27854    71.28790    113.67917
12704.50000    9.22616    72.52564    112.78098
12705.00000    9.16169    75.22225    112.55496
12705.50000    9.08120    77.91886    112.32895
12706.00000    9.00072    78.24137    112.10293
12706.50000    8.92023    76.51534    111.87692
12707.00000    8.83975    74.78932    111.65090
12707.50000    8.81634    75.46838    111.42489
12708.00000    8.96909    77.85486    115.93896
12708.50000    9.12184    80.24134    122.70587
12709.00000    9.27459    80.44542    127.68394
12709.50000    9.42734    78.58243    126.72189
12710.00000    9.58009    76.65213    125.75983
12710.50000    9.51048    74.44563    124.79778
12711.00000    9.43001    72.23912    124.55626
12711.50000    9.34954    71.81695    125.67278
12712.00000    9.26907    72.31697    123.36602
12712.50000    9.18861    72.81700    116.58467
12713.00000    9.12219    73.31702    109.80331
12713.50000    9.16025    74.58099    103.48940
12714.00000    9.19831    76.14749    106.46113
12714.50000    9.23636    77.71398    109.43286
12715.00000    9.27442    78.74054    112.40459
12715.50000    9.31248    76.61809    115.37632
12716.00000    9.35054    74.49564    118.34806
12716.50000    9.32077    72.54454    121.31979
12717.00000    9.28788    71.40467    117.69137
12717.50000    9.25499    70.26480    111.96589
12718.00000    9.22211    70.55439    106.24041
12718.50000    9.18922    73.36316    103.74789
12719.00000    9.15633    76.17193    106.07145
12719.50000    9.20573    78.64589    108.39502
12720.00000    9.30846    79.95508    110.71859
12720.50000    9.41118    80.09169    113.04215
12721.00000    9.51390    80.22829    114.61969
12721.50000    9.61663    80.36490    114.78662
12722.00000    9.71935    79.86839    114.95354
12722.50000    9.82035    78.10457    114.75183
12723.00000    9.70165    75.50241    112.23317
12723.50000    9.58295    72.90025    109.71451
12724.00000    9.46425    72.37579    107.19585
12724.50000    9.35401    75.41975    104.67719
12725.00000    9.39637    78.46372    102.15853
12725.50000    9.43872    81.50768    99.63987
