###############################################
##         ENVERUS                           ##
##         ESS - Open Hole                   ##
##         PERMIAN / DELAWARE                ##
##         Nov 04 2023  V4.0                 ##
##         42-389-10119-00-00                ##
###############################################
## Copyright 2017-2023  ENVERUS.  All Rights Reserved. 
## Confidential - Property of ENVERUS, use governed by terms and 
## conditions found within the existing Information Services Subscription Agreement 
## (as may be amended, the “ISSA”) between Customer and ENVERUS. 
## 
~VERSION INFORMATION
# MNEM.UNIT                               DATA : DESCRIPTION OF MNEMONIC
#-----.-----     ----------------------------- : -----------------------------
VERS.                                     2.00 : CWLS LOG ASCII STANDARD - VERSION 2.00
WRAP.                                       NO : MULTIPLE LINES PER DEPTH STEP
VEND.                                  ENVERUS : VENDOR
TYPE.                          ESS - OPEN HOLE : ENVERUS ESSENTIAL CURVES – ACCESSIBLE THROUGH ENVERUS PRISM(TM)
DOC.                                  32008410 : ENVERUS HEADER RAW DOCUMENT ID
#___________________________________________________________________________________________________ 
~WELL INFORMATION 
# X8E3XgEZRMs+LiTqjMYqety/5rGXYLbzRNciiYBq17B6ClLelYcJjKNVvvPfWOVGxhvISow7q4Dbthq8gKP2Nw== 
# MNEM.UNIT                                              DATA : DESCRIPTION OF MNEMONIC 
#-----.-----                    ----------------------------- : ----------------------------- 
CNTY.                                                  REEVES : COUNTY 
STATE.                                                  TEXAS : STATE 
CNTRY.                                                    USA : COUNTRY 
API.                                             42-389-10119 : API (10 Digit) 
API_14.                                    42-389-10119-00-00 : API (14 Digits) 
API_14_std.                                 42-389-10119-0000 : API (14 Digits Standard) 
UWI.                                           42389101190000 : UNIQUE WELL ID 
WELL.                                                   1-40, : WELL NAME
STRT.FT                                                  58.0 : START DEPTH
STOP.FT                                                5338.0 : STOP DEPTH
STEP.FT                                                   0.5 : STEP BETWEEN DEPTHS
NULL.                                                 -999.25 : NULL VALUE
#___________________________________________________________________________________________________ 
~CURVE INFORMATION 
# MNEM.UNIT           : CURVE DESCRIPTION 
#-----.-----          : ----------------------------- 
 DEPT.FT               : MEASURED DEPTH 
 GR.API                : GAMMA RAY (GR) 
 DT.US/FT              : SONIC DELTA TRANSIT TIME (DT) 
 #___________________________________________________________________________________________________ 
~A         DEPT             GR             DT
# ...
         3538.0          6.232         49.444
         3538.5          6.808         49.278
         3539.0          7.385         49.490
         3539.5          7.962         49.780
         3540.0          8.539         50.070
         3540.5          8.773         50.360
         3541.0          8.628         50.651
         3541.5          8.483         50.542
         3542.0          8.338         50.376
         3542.5          7.588         50.210
         3543.0          6.817         50.044
         3543.5          6.046         49.878
         3544.0          5.275         49.712
         3544.5          4.504         49.546
         3545.0          4.474         49.380
         3545.5          5.341         49.214
         3546.0          6.208         49.048
         3546.5          7.075         49.058
         3547.0          7.942         49.107
         3547.5          8.809         49.155
         3548.0          9.676         49.203
         3548.5         10.543         49.252
         3549.0         10.429         49.300
         3549.5          9.047         49.349
         3550.0          7.664         49.397
         3550.5          6.281         49.446
         3551.0          4.899         49.494
         3551.5          5.227         49.543
         3552.0          5.698         49.591
         3552.5          6.170         49.532
         3553.0          6.641         49.261
         3553.5          7.113         48.990
         3554.0          7.584         48.720
         3554.5          8.056         48.758
         3555.0          8.527         48.869
         3555.5          8.999         48.980
         3556.0          9.470         49.091
         3556.5          9.942         49.202
         3557.0         11.648         49.313
         3557.5         13.493         49.424
         3558.0         15.337         49.535
         3558.5         15.409         49.646
         3559.0         12.759         49.757
         3559.5         10.109         49.868
         3560.0          8.807         49.979
         3560.5          9.675         49.981
         3561.0         10.542         49.784
         3561.5         11.409         49.586
         3562.0         10.365         49.388
         3562.5          7.782         49.191
         3563.0          7.967         49.330
         3563.5          8.153         49.541
         3564.0          8.338         49.752
         3564.5          8.524         49.964
         3565.0          8.709         49.015
         3565.5          8.895         47.860
         3566.0          9.080         47.858
         3566.5          9.266         48.183
         3567.0          9.452         48.509
         3567.5          9.637         48.835
         3568.0          9.823         49.160
         3568.5         10.008         49.486
         3569.0         10.194         49.774
         3569.5         10.379         49.987
         3570.0         12.746         50.201
         3570.5         15.533         50.414
         3571.0         18.894         50.628
         3571.5         23.377         50.841
         3572.0         27.024         51.055
         3572.5         25.147         50.844
         3573.0         22.251         50.574
         3573.5         19.356         50.305
         3574.0         16.460         50.036
         3574.5         13.564         49.767
         3575.0         10.669         57.274
         3575.5          9.760         61.187
         3576.0          9.307         65.099
         3576.5          8.855         69.012
         3577.0          8.403         72.888
         3577.5          7.950         74.584
         3578.0          7.498         76.280
         3578.5          7.046         75.741
         3579.0          6.593         67.432
         3579.5          6.141         66.167
         3580.0          5.688         65.404
         3580.5          5.383         65.878
         3581.0          5.449         66.353
         3581.5          5.514         66.827
         3582.0          5.580         67.302
         3582.5          5.646         67.776
         3583.0          5.711         67.575
         3583.5          5.777         67.265
         3584.0          5.843         66.954
         3584.5          5.908         66.644
         3585.0          5.974         66.333
         3585.5          6.040         66.023
         3586.0          6.105         65.713
         3586.5          6.171         65.402
         3587.0          6.236         66.006
         3587.5          6.302         66.865
         3588.0          6.077         67.305
         3588.5          5.754         66.939
         3589.0          5.432         66.573
         3589.5          5.110         66.206
         3590.0          4.787         65.840
         3590.5          4.465         65.313
         3591.0          4.143         64.382
         3591.5          4.321         64.876
         3592.0          4.683         65.859
         3592.5          5.044         66.843
         3593.0          5.406         66.882
         3593.5          5.768         66.718
         3594.0          6.130         66.554
         3594.5          6.491         66.389
         3595.0          6.634         66.225
         3595.5          5.986         66.061
         3596.0          5.337         66.053
         3596.5          4.689         66.428
         3597.0          4.040         66.803
         3597.5          3.547         67.179
         3598.0          3.668         67.554
         3598.5          3.790         67.642
         3599.0          3.911         67.171
         3599.5          4.032         66.700
         3600.0          4.154         65.286
         3600.5          4.275         63.642
         3601.0          4.396         62.660
         3601.5          4.478         64.614
         3602.0          4.384         66.568
         3602.5          4.290         67.806
         3603.0          4.195         67.624
         3603.5          4.101         67.442
         3604.0          4.006         67.260
         3604.5          3.912         67.078
         3605.0          3.818         66.897
         3605.5          3.723         66.715
         3606.0          3.629         66.533
         3606.5          3.534         66.673
         3607.0          3.440         66.897
         3607.5          3.346         67.121
         3608.0          3.251         70.351
         3608.5          3.157         73.366
         3609.0          3.062         76.380
         3609.5          2.968         78.947
         3610.0          2.874         78.505
         3610.5          2.779         66.801
         3611.0          2.751         67.031
         3611.5          3.146         67.260
         3612.0          3.541         67.489
         3612.5          3.936         67.718
         3613.0          4.331         67.695
         3613.5          4.726         67.616
         3614.0          5.121         67.537
         3614.5          5.516         67.458
         3615.0          5.911         67.103
         3615.5          6.306         66.124
         3616.0          6.634         65.146
         3616.5          6.457         65.321
         3617.0          6.279         65.902
         3617.5          6.102         66.483
         3618.0          5.925         67.064
         3618.5          5.747         67.401
         3619.0          5.570         67.184
         3619.5          5.393         66.966
         3620.0          5.215         66.846
         3620.5          5.038         66.966
         3621.0          4.861         67.087
         3621.5          4.683         67.207
         3622.0          4.506         67.328
         3622.5          4.328         67.449
         3623.0          4.151         67.481
         3623.5          3.974         67.308
         3624.0          3.796         67.135
         3624.5          3.619         66.963
