~VERSION INFORMATION
 VERS.                2.0:   CWLS LOG ASCII STANDARD - VERSION 2.0
 WRAP.                 NO:   ONE LINE PER DEPTH STEP
~WELL INFORMATION
#MNEM.UNIT      DATA TYPE    INFORMATION
#----------   ------------   ------------------------------
 STRT.FT          50.0000:   START DEPTH
 STOP.FT        5375.0000:   STOP DEPTH
 STEP.FT           0.5000:   STEP LENGTH
 NULL.          -999.2500:   NULL VALUE
 COMP.  A.N. NORWOOD, INC:   COMPANY
 WELL.        MCINTYRE #1:   WELL
 FLD .  ROJO CABALLOS, S.:   FIELD
 LOC .                   :   LOCATION
 CNTY.              PECOS:   COUNTY
 STAT.              TEXAS:   STATE
 CTRY. UNITED STATES OF AMERICA:   COUNTRY
 SRVC.              Welex:   SERVICE COMPANY
 DATE.        06-May-1983:   LOGDATE
 API .     42371342980000:   API NUMBER
~CURVE INFORMATION
#MNEM.UNIT       API CODE    CURVE DESCRIPTION
#----------   ------------   ------------------------------
 DEPT.F      0   1   0  0:   1 MEASURED DEPTH
 GRD .GAPI   45 310 01 00:   GAMMA RAY FROM DENSITY LOG
 NPOR_LS.DEC 42 890 01 00:   NEUTRON POROSITY LIMESTONE
 CALD.IN     45 280 60 00:   CALIPER FROM DENSITY LOG
 CORR.G/C3   45 356 01 00:   DENSITY CORRECTION
 RHOB.G/C3   45 350 01 00:   BULK DENSITY
 DPOR_LS.DEC 45 890 10 00:   DENSITY POROSITY LIMESTONE
 DT  .US/F   60 500 00 00:   DELTA-T (INTERVAL TRANSIT TIME)
 SPR .MV     07 010 01 00:   SPONTANEOUS POTENTIAL FROM RESISTIVITY LOG
 ILD .OHMM   07 120 46 00:   INDUCTION DEEP RESISTIVITY
 ILM .OHMM   07 120 44 00:   INDUCTION MEDIUM RESISTIVITY
~PARAMETER INFORMATION
#MNEM.UNIT          VALUE    DESCRIPTION
#----------   ------------   ------------------------------
 PD  .                 GL:   PERMANENT DATUM
 EPD .FT             2768:   ELEVATION PERMANENT DATUM
 LMF .                 KB:   LOG MEASURED FROM
 DAPD.FT               10:   FEET ABOVE PERMANENT DATUM
 DMF .                 KB:   DRILLING MEASURED FROM
 EKB .FT             2778:   KELLY BUSHING
 EDF .FT             2777:   DRILLING FLOOR
 EGL .FT             2768:   GROUND LEVEL
 DATE.           05/06/83:   RUN DATE
 RUN .                  1:   RUN NUMBER
 DD  .FT             5380:   DEPTH DRILLER
 DL  .FT             5377:   DEPTH LOGGER
 BLI .FT             5375:   BOTTOM LOG INTERVAL
 TLI .FT               50:   TOP LOG INTERVAL
 CS  .IN            8.625:   CASING SIZE
 CBD .FT             1596:   CASING BOTTOM DRILLER
 CBL .FT             1613:   CASING BOTTOM LOGGER
 BS  .IN             7.75:   BIT SIZE
 BSD .FT             5380:   BIT SIZE AT DEPTH
 DFT .           SALT GEL:   DRILLING FLUID TYPE
 DFD .               10.2:   DRILLING FLUID DENSITY
 DFV .                 33:   DRILLING FLUID VISCOSITY
 DFPH.                9.5:   DRILLING FLUID PH
 DFL .                 18:   DRILLING FLUID LOSS
 MSS .               CIRC:   MUD SAMPLE SOURCE
 RMS .OHMM           0.09:   RESISTIVITY MUD SAMPLE
 MST .DEGF             72:   MUD SAMPLE TEMPERATURE
 RMF .OHMM           0.08:   RESISTIVITY MUD FILTRATE SAMPLE
 MFST.DEGF             72:   MUD FILTRATE SAMPLE TEMPERATURE
 MFSS.               MEAS:   MUD FILTRATE SAMPLE SOURCE
 MCSS.               MEAS:   MUD CAKE SAMPLE SOURCE
 RMB .OHMM          0.059:   RESISTIVITY MUD AT BHT
 BHT .DEGF            112:   BOTTOM HOLE TEMPERATURE
 TCS .HRS               4:   TIME CIRCULATED STOPPED
 MRT .DEGF            112:   MAXIMUM RECORDED TEMPERATURE
 LUN .               3415:   LOGGING UNIT NUMBER
 LUL .             ODESSA:   LOGGING UNIT LOCATION
 ENGI.             LAWSON:   RECORDING ENGINEER
 WITN.            NORWOOD:   WITNESSED BY
 ORIG.      1" 2.5" PRINT:   ORIGIN OF DATA
 UWI .     42371342980000:   UNIQUE WELL ID
~OTHER INFORMATION
~A    DEPT        GRD      NPOR_LS      CALD        CORR        RHOB       DPOR_LS        DT         SPR         ILD         ILM    
# ...
  4899.5000      7.9206     -0.0093      9.1275      0.0582      2.9406   -999.2500     48.4098    -37.3875   -999.2500     22.6497 
  4900.0000      8.8148     -0.0093      9.1047      0.0580      2.9314   -999.2500     48.4537    -37.5395   -999.2500     23.0429 
  4900.5000      9.2417     -0.0092      9.0820      0.0479      2.9152   -999.2500     48.5464    -37.6853   -999.2500     23.1898 
  4901.0000      9.4561     -0.0093      9.0592      0.0377      2.8946     -0.0998     48.5947    -37.7675   -999.2500     23.6240 
  4901.5000      9.5443     -0.0093      9.0379      0.0276      2.8748     -0.0913     48.6072    -37.9941   -999.2500     23.9041 
  4902.0000      9.3707     -0.0094      9.0366      0.0195      2.8718     -0.0991     48.5023    -38.1154   -999.2500     24.0576 
  4902.5000      9.0269     -0.0094      9.0353      0.0195      2.8834     -0.0992     48.3974    -38.3532   -999.2500     24.2015 
  4903.0000      8.6832     -0.0094      9.0340      0.0250      2.9155     -0.0994     48.3249    -38.8307   -999.2500     24.4079 
  4903.5000      8.4395     -0.0095      9.0327      0.0305      2.9475     -0.0995     48.2794    -39.0065   -999.2500     24.8414 
  4904.0000      8.3495     -0.0095      9.0314      0.0360      2.9684     -0.0996     48.3180    -39.1823   -999.2500     25.0541 
  4904.5000      8.2235     -0.0096      9.0301      0.0356      2.9535     -0.0998     48.3772    -39.6726   -999.2500     25.1334 
  4905.0000      7.8292     -0.0096      9.0288      0.0087      2.9235     -0.0985     48.4604    -39.9272   -999.2500     25.2847 
  4905.5000      7.4349     -0.0096      9.0275     -0.0115      2.9048     -0.0913     48.6042    -40.1655   -999.2500     25.3756 
  4906.0000      7.3153     -0.0097      9.0262     -0.0217      2.8893     -0.0862     48.7784    -40.3794   -999.2500     25.4667 
  4906.5000      7.6216     -0.0097      9.0249     -0.0107      2.8738     -0.0928     48.9526    -40.5934   -999.2500     25.5581 
  4907.0000      7.9997     -0.0098      9.0236      0.0012      2.8583     -0.0976     49.0215    -40.8029   -999.2500     25.6499 
  4907.5000      7.8365     -0.0098      9.0223      0.0022      2.8657     -0.0979     49.1027    -40.9952   -999.2500     25.7420 
  4908.0000      7.2562     -0.0099      9.0210     -0.0019      2.8834     -0.0839     49.1487    -41.1325   -999.2500     25.7421 
  4908.5000      6.8668     -0.0099      9.0197     -0.0079      2.8679     -0.0753     49.1749    -41.2503   -999.2500     25.6079 
  4909.0000      6.8424     -0.0099      9.0184     -0.0139      2.8524     -0.0667     49.1017    -41.3686   -999.2500     25.5391 
  4909.5000      7.0989     -0.0100      9.0171     -0.0147      2.8369     -0.0596     49.0773    -41.4870   -999.2500     25.5356 
  4910.0000      7.4294     -0.0100      9.0158     -0.0091      2.8324     -0.0711     49.0375    -41.6054   -999.2500     25.6749 
  4910.5000      7.7598     -0.0101      9.0144      0.0027      2.8476     -0.0840     48.9808    -41.7238   -999.2500     25.8662 
  4911.0000      7.7849     -0.0100      9.0131      0.0145      2.8785     -0.0943     48.8898    -41.8294   -999.2500     26.0333 
  4911.5000      7.5975     -0.0099      9.0118      0.0263      2.9001     -0.0994     48.7680    -41.9348   -999.2500     26.0487 
  4912.0000      6.6377     -0.0098      9.0105      0.0290      2.9069     -0.0994     48.6208    -42.0401   -999.2500     26.0780 
  4912.5000      5.9563     -0.0097      9.0092      0.0227      2.9075   -999.2500     48.4914    -42.0783   -999.2500     26.1192 
  4913.0000      6.7113     -0.0096      9.0079      0.0060      2.8997   -999.2500     48.4944    -42.2211   -999.2500     26.2900 
  4913.5000      8.3887     -0.0095      9.0066     -0.0102      2.8884   -999.2500     48.4975    -42.3639   -999.2500     26.3634 
  4914.0000      9.2823     -0.0093      9.0053     -0.0102      2.8823   -999.2500     48.5093    -42.5067   -999.2500     26.3715 
  4914.5000      9.5039     -0.0092      9.0040     -0.0073      2.8831   -999.2500     48.5813    -42.6495   -999.2500     26.2166 
  4915.0000      9.2324     -0.0091      9.0027     -0.0026      2.8905   -999.2500     48.5864    -42.7971   -999.2500     26.2205 
  4915.5000      8.0008     -0.0090      9.0014      0.0030      2.9028   -999.2500     48.5580    -42.9907   -999.2500     26.2788 
  4916.0000      6.7377     -0.0089      9.0001      0.0129      2.9151   -999.2500     48.4964    -43.0807   -999.2500     26.3371 
  4916.5000      6.3129     -0.0088      8.9988      0.0229      2.9274   -999.2500     48.5420    -43.1581   -999.2500     26.3956 
  4917.0000      6.7539     -0.0086      8.9975      0.0291      2.9320   -999.2500     48.5735    -42.9219   1955.3306     26.4543 
  4917.5000      7.4143     -0.0085      8.9962      0.0302      2.9356   -999.2500     48.5428    -42.6101   1956.6825     26.4866 
  4918.0000      7.8879     -0.0085      8.9949      0.0278      2.9358   -999.2500     48.5163    -42.3765   1921.5748     26.5077 
  4918.5000      8.5271     -0.0085      8.9936      0.0229      2.9351   -999.2500     48.5051    -42.8481   1780.5370     26.6383 
  4919.0000      8.9486     -0.0085      8.9923      0.0093      2.9273     -0.0992     48.4722    -43.2573   1649.8517     26.8179 
  4919.5000      9.2525     -0.0085      8.9910     -0.0043      2.9048     -0.0983     48.4882    -43.5563   1528.7582     26.9666 
  4920.0000      9.6388     -0.0085      8.9897     -0.0146      2.8824     -0.0888     48.5217    -43.6771   1511.2367     27.1048 
  4920.5000      9.6206     -0.0085      8.9886     -0.0157      2.8713     -0.0888     48.5618    -43.6771   1623.3833     27.2516 
  4921.0000      9.5322     -0.0085      8.9876     -0.0119      2.8673     -0.0892     48.5431    -43.6771   1743.8512     27.2980 
  4921.5000      9.1265     -0.0085      8.9865      0.0151      2.8774     -0.0938     48.4752    -43.6770   1873.2599     27.3125 
  4922.0000      8.4357     -0.0085      8.9854      0.0382      2.9184     -0.0967     48.4681    -43.6770   1915.6996     27.3271 
  4922.5000      8.0564     -0.0085      8.9844      0.0414      2.9245     -0.0982     48.4677    -43.6547   1935.5120     27.3968 
  4923.0000      8.0555     -0.0085      8.9833      0.0366      2.9111     -0.0982     48.4677    -43.6090   1948.2330     27.5010 
  4923.5000      8.1210     -0.0085      8.9822      0.0149      2.8897     -0.0942     48.4677    -43.6449   1948.9230     27.6027 
  4924.0000      8.1454     -0.0085      8.9811     -0.0068      2.8684     -0.0838     48.4971    -43.6807   1949.3724     27.6120 
  4924.5000      8.0744     -0.0085      8.9801     -0.0208      2.8470     -0.0771     48.5448    -43.7166   1949.8219     27.6214 
  4925.0000      7.9909     -0.0085      8.9790     -0.0232      2.8424     -0.0748     48.5798    -43.7545   1946.8613     27.5945 
  4925.5000      7.9884     -0.0085      8.9779     -0.0177      2.8467     -0.0735     48.5866    -43.7511   1926.3998     27.5286 
  4926.0000      7.8690     -0.0085      8.9768     -0.0019      2.8821     -0.0981     48.5517    -43.7001   1872.8557     27.4628 
  4926.5000      7.4976     -0.0085      8.9758      0.0308      2.9264   -999.2500     48.4839    -43.6491   1787.4827     27.5714 
  4927.0000      7.3829     -0.0085      8.9747      0.0556      2.9354   -999.2500     48.4680    -43.6001   1706.0004     27.8211 
  4927.5000      7.3889     -0.0085      8.9736      0.0612      2.9372   -999.2500     48.4682    -43.5524   1628.2334     28.0459 
  4928.0000      7.7187     -0.0085      8.9726      0.0633      2.9392   -999.2500     48.4685    -43.1817   1554.0114     28.2319 
  4928.5000      8.7111     -0.0085      8.9715      0.0507      2.9412   -999.2500     48.4688    -43.0134   1483.1718     28.4191 
  4929.0000     10.1075     -0.0085      8.9704      0.0285      2.9427   -999.2500     48.4691    -43.6744   1415.5623     28.6075 
  4929.5000     10.8206     -0.0085      8.9693      0.0272      2.9427   -999.2500     48.4694    -44.0543   1375.5304     28.7972 
