###############################################
##         ENVERUS                           ##
##         ESS - Open Hole                   ##
##         PERMIAN / DELAWARE                ##
##         Nov 04 2023  V4.0                 ##
##         42-371-36358-00-00                ##
###############################################
## Copyright 2017-2023  ENVERUS.  All Rights Reserved. 
## Confidential - Property of ENVERUS, use governed by terms and 
## conditions found within the existing Information Services Subscription Agreement 
## (as may be amended, the “ISSA”) between Customer and ENVERUS. 
## 
~VERSION INFORMATION
# MNEM.UNIT                               DATA : DESCRIPTION OF MNEMONIC
#-----.-----     ----------------------------- : -----------------------------
VERS.                                     2.00 : CWLS LOG ASCII STANDARD - VERSION 2.00
WRAP.                                       NO : MULTIPLE LINES PER DEPTH STEP
VEND.                                  ENVERUS : VENDOR
TYPE.                          ESS - OPEN HOLE : ENVERUS ESSENTIAL CURVES – ACCESSIBLE THROUGH ENVERUS PRISM(TM)
DOC.                                  32044985 : ENVERUS HEADER RAW DOCUMENT ID
#___________________________________________________________________________________________________ 
~WELL INFORMATION 
# 9/F+NtSLBEAIaZM9LpLMxALTyCH3LMfPBQiNKTeSadJ6NAezaEZy+3+OEP8rVGNvVB4ifWNnxSKvs1BiqqZA9A== 
# MNEM.UNIT                                              DATA : DESCRIPTION OF MNEMONIC 
#-----.-----                    ----------------------------- : ----------------------------- 
CNTY.                                                   PECOS : COUNTY 
STATE.                                                  TEXAS : STATE 
CNTRY.                                                    USA : COUNTRY 
API.                                             42-371-36358 : API (10 Digit) 
API_14.                                    42-371-36358-00-00 : API (14 Digits) 
API_14_std.                                 42-371-36358-0000 : API (14 Digits Standard) 
UWI.                                           42371363580000 : UNIQUE WELL ID 
WELL.                           SCHLOSSER, FRED ESTATE -B-  9 : WELL NAME
STRT.FT                                                 151.0 : START DEPTH
STOP.FT                                                5707.0 : STOP DEPTH
STEP.FT                                                   0.5 : STEP BETWEEN DEPTHS
NULL.                                                 -999.25 : NULL VALUE
COMP.                                      APACHE CORPORATION : COMPANY 
DATE.                                             07-JUN-1992 : LOG DATE
#___________________________________________________________________________________________________ 
~CURVE INFORMATION 
# MNEM.UNIT           : CURVE DESCRIPTION 
#-----.-----          : ----------------------------- 
 DEPT.FT               : MEASURED DEPTH 
 GR.API                : GAMMA RAY (GR) 
 DT.US/FT              : SONIC DELTA TRANSIT TIME (DT) 
 #___________________________________________________________________________________________________ 
~A         DEPT             GR             DT
# ...
         4501.0          7.455         49.404
         4501.5          7.161         49.294
         4502.0          7.800         49.307
         4502.5          9.275         49.464
         4503.0         10.750         49.621
         4503.5         12.224         49.799
         4504.0         12.801         50.097
         4504.5         11.651         51.650
         4505.0         10.181         54.498
         4505.5          7.455         57.346
         4506.0          5.413         60.236
         4506.5          4.698         63.333
         4507.0          3.982         66.430
         4507.5          3.267         66.172
         4508.0          4.291         64.662
         4508.5          6.104         63.151
         4509.0          6.636         60.737
         4509.5          7.033         57.065
         4510.0          7.050         51.511
         4510.5          5.483         49.936
         4511.0          3.917         49.638
         4511.5          4.308         49.340
         4512.0          5.387         49.312
         4512.5          6.467         49.351
         4513.0          6.568         49.389
         4513.5          6.338         49.428
         4514.0          6.108         49.467
         4514.5          6.063         49.506
         4515.0          6.283         49.545
         4515.5          6.830         49.708
         4516.0          8.143         49.897
         4516.5          9.455         50.087
         4517.0         10.719         50.276
         4517.5          9.115         50.466
         4518.0          7.511         50.656
         4518.5          5.907         50.654
         4519.0          7.874         50.613
         4519.5          9.647         50.661
         4520.0          9.502         50.709
         4520.5          9.289         50.757
         4521.0          7.784         50.805
         4521.5          6.279         50.759
         4522.0          7.064         50.701
         4522.5          8.092         50.644
         4523.0          9.120         50.584
         4523.5          8.883         50.270
         4524.0          8.521         50.010
         4524.5          7.417         49.971
         4525.0          6.536         49.932
         4525.5          6.890         49.892
         4526.0          7.244         49.853
         4526.5          7.598         49.814
         4527.0          7.820         49.775
         4527.5          7.784         49.672
         4528.0          7.749         49.559
         4528.5          7.713         49.448
         4529.0          7.735         49.455
         4529.5          8.246         49.462
         4530.0          8.757         49.469
         4530.5          8.501         49.476
         4531.0          7.911         49.484
         4531.5          7.321         49.491
         4532.0          6.731         49.498
         4532.5          6.141         49.505
         4533.0          5.551         49.512
         4533.5          4.961         49.520
         4534.0          4.917         49.601
         4534.5          5.686         49.684
         4535.0          6.456         49.767
         4535.5          7.225         49.850
         4536.0          7.995         49.933
         4536.5          8.764         49.948
         4537.0          9.534         49.924
         4537.5          9.986         49.900
         4538.0          9.166         50.031
         4538.5          8.347         50.283
         4539.0          7.527         50.535
         4539.5          6.707         50.770
         4540.0          6.148         50.557
         4540.5          6.132         50.368
         4541.0          6.117         50.213
         4541.5          6.101         50.059
         4542.0          6.086         49.925
         4542.5          6.070         49.824
         4543.0          6.055         49.724
         4543.5          6.039         49.624
         4544.0          6.024         49.605
         4544.5          6.008         49.594
         4545.0          5.912         49.584
         4545.5          5.771         49.573
         4546.0          5.631         49.562
         4546.5          5.490         49.552
         4547.0          5.350         49.541
         4547.5          5.323         49.530
         4548.0          5.758         49.520
         4548.5          6.193         49.515
         4549.0          6.628         49.517
         4549.5          7.063         49.519
         4550.0          7.498         49.520
         4550.5          7.918         49.522
         4551.0          8.265         49.524
         4551.5          8.612         49.526
         4552.0          8.959         49.527
         4552.5          9.306         49.529
         4553.0          9.653         49.531
         4553.5          9.999         49.533
         4554.0         10.346         49.535
         4554.5         10.693         49.536
         4555.0         10.354         49.536
         4555.5          9.777         49.536
         4556.0          9.199         49.536
         4556.5          8.621         49.536
         4557.0          8.043         49.535
         4557.5          7.465         49.535
         4558.0          7.216         49.535
         4558.5          7.557         49.535
         4559.0          7.898         49.535
         4559.5          8.239         49.534
         4560.0          8.580         49.534
         4560.5          8.998         49.533
         4561.0          9.431         49.524
         4561.5          9.864         49.515
         4562.0         10.297         49.506
         4562.5         10.117         49.498
         4563.0          9.886         49.489
         4563.5          9.656         49.502
         4564.0          9.426         49.549
         4564.5          9.195         49.595
         4565.0          8.965         49.642
         4565.5          8.803         49.689
         4566.0          8.837         49.735
         4566.5          8.872         49.782
         4567.0          8.906         49.829
         4567.5          8.941         49.875
         4568.0          8.517         49.922
         4568.5          7.920         49.969
         4569.0          7.322         49.929
         4569.5          6.998         49.699
         4570.0          7.118         49.631
         4570.5          7.238         49.634
         4571.0          7.358         49.636
         4571.5          7.479         49.638
         4572.0          7.823         49.641
         4572.5          8.852         49.643
         4573.0          9.880         49.646
         4573.5         10.908         49.648
         4574.0         10.508         49.651
         4574.5          9.351         49.653
         4575.0          8.193         49.655
         4575.5          7.751         49.658
         4576.0          7.791         49.660
         4576.5          7.830         49.663
         4577.0          7.870         49.665
         4577.5          7.582         49.668
         4578.0          7.132         49.670
         4578.5          6.681         49.672
         4579.0          7.455         49.675
         4579.5          8.310         49.822
         4580.0          8.943         49.992
         4580.5          8.859         50.163
         4581.0          8.774         50.194
         4581.5          8.690         50.220
         4582.0          8.136         50.258
         4582.5          7.278         50.409
         4583.0          6.421         50.561
         4583.5          7.434         50.712
         4584.0          9.924         50.602
         4584.5         12.414         50.492
         4585.0         12.718         50.382
         4585.5         12.783         50.272
         4586.0         12.046         50.259
         4586.5         10.459         50.283
         4587.0          9.379         50.307
         4587.5          8.580         50.331
