#--------------------------------------------------#
#-------------------ENVERUS, INC.------------------#
#------------------WWW.ENVERUS.COM-----------------#
#------------------COPYRIGHT 2020------------------#
#--------------------------------------------------#
#THIS FILE MAY BE USED ONLY IN ACCORDANCE WITH A CURRENT SUBSCRIPTION AGREEMENT BETWEEN
#THE USER AND ENVERUS, INC. NO PART OF THIS FILE MAY BE REPRODUCED, USED, COPIED,
#MODIFIED, PROPAGATED, OR DISTRIBUTED EXCEPT IN ACCORDANCE WITH THE SUBSCRIPTION
#AGREEMENT. UNAUTHORIZED USE OR DISTRIBUTION OF ALL OR ANY PART OF THIS FILE MAY VIOLATE
#COPYRIGHT, TRADEMARK, AND/OR OTHER LAWS AND IS SUBJECT TO CIVIL AS WELL AS CRIMINAL
#SANCTIONS.
#--------------------------------------------------#
#THIS FILE IS PROVIDED "AS-IS" AND ALL WARRANTIES ARE EXPRESSLY DISCLAIMED, WHETHER
#EXPRESS, ORAL, IMPLIED, STATUTORY OR OTHERWISE, INCLUDING ANY IMPLIED WARRANTY OF FITNESS
#FOR A PARTICULAR PURPOSE, MERCHANTABILITY, TITLE OR NON-INFRINGEMENT, AND ANY WARRANTIES
#ARISING BY VIRTUE OF CUSTOM OF TRADE OR COURSE OF DEALING.  FURTHER, ENVERUS, INC.
#AND ITS LICENSORS DO NOT REPRESENT OR WARRANT THAT THIS FILE WILL MEET USER'S
#REQUIREMENTS OR ARE SUITABLE FOR USER'S NEEDS OR THAT THE DATA OR RESULTS PROVIDED IN
#CONJUNCTION THEREWITH ARE CORRECT, ACCURATE, TIMELY OR RELIABLE. THESE DISCLAIMERS SHALL
#APPLY REGARDLESS OF ANY FAILURE OF ESSENTIAL PURPOSE OF ANY LIMITED REMEDY.  SOME
#JURISDICTIONS DO NOT ALLOW THE EXCLUSION OF CERTAIN WARRANTIES SO SOME OF THE ABOVE
#EXCLUSIONS MAY NOT APPLY. IN NO EVENT SHALL ENVERUS, INC. OR ANY OF ITS AFFILIATES
#BE LIABLE UNDER ANY LEGAL THEORY, WHETHER IN TORT (INCLUDING WITHOUT LIMITATION
#NEGLIGENCE), CONTRACT, STRICT LIABILITY, STATUTORY OR OTHERWISE, FOR ANY SPECIAL,
#INCIDENTAL, CONSEQUENTIAL, EXEMPLARY, PUNITIVE OR INDIRECT DAMAGE OF ANY KIND, INCLUDING
#WITHOUT LIMITATION LOSS OF REVENUE, PROFITS, GOODWILL, USE, AND/OR DATA OR THE COST OF
#PROCUREMENT OF SUBSTITUTE GOODS OR SERVICES, EVEN IF APPRISED OF THE POSSIBILITY OF SUCH
#DAMAGES IN ADVANCE.
#--------------------------------------------------#

~VERSION INFORMATION
VERS. 2.0 : CWLS LOG ASCII STANDARD - VERSION 2.0
WRAP.  NO : ONE LINE PER DEPTH STEP
~WELL INFORMATION
#MNEMONIC     .UNIT              VALUE :DESCRIPTION
STRT       .FT                102 :START DEPTH
STOP       .FT                5463 :STOP DEPTH
STEP       .FT                   0.500 :STEP
NULL       .                  -999.990 :NULL
UWI        .              42371363560000 :UNIQUE WELL ID
API        .              42371363560000 :API NUMBER
COMP       .         APACHE CORPORATION :COMPANY
WELL       .        SCHLOSSER, FRED ESTATE -B-  11 :WELL
DATE       .                22-JUN-1992 :LOG DATE
~CURVE INFORMATION
#MNEMONIC     .UNIT      API CODE :CURVE DESCRIPTION
DEPTH       .FT                      :MEASURED DEPTH
DT.US/FT        UNKNOWN   :DT
GR.API        UNKNOWN   :GR
~A    DEPTH    DT    GR
# ...
 5372     79.484   45.236
 5372.5     83.277   45.444
 5373     84.269   49.096
 5373.5     85.26   52.748
 5374     85.208   52.089
 5374.5     83.658   51.289
 5375     82.004   50.488
 5375.5     79.421   50.562
 5376     80.006   52.112
 5376.5     80.228   53.663
 5377     76.361   53.034
 5377.5     79.041   51.434
 5378     81.869   48.672
 5378.5     81.15   44.993
 5379     80.11   41.601
 5379.5     81.252   39.775
 5380     83.625   37.949
 5380.5     84.97   36.123
 5381     85.227   37.155
 5381.5     85.484   38.356
 5382     85.74   39.558
 5382.5     85.997   39.303
 5383     86.254   38.772
 5383.5     86.437   38.241
 5384     86.437   37.71
 5384.5     86.437   38.345
 5385     86.353   39.685
 5385.5     86.099   41.025
 5386     85.844   42.365
 5386.5     85.725   42.925
 5387     85.816   42.672
 5387.5     85.496   42.418
 5388     84.498   42.164
 5388.5     84.246   45.092
 5389     83.994   49.352
 5389.5     83.741   51.011
 5390     83.935   50.105
 5390.5     84.245   49.199
 5391     84.09   48.293
 5391.5     83.936   47.972
 5392     83.947   49.261
 5392.5     84.888   50.099
 5393     84.889   49.137
 5393.5     84.605   48.175
 5394     84.321   47.212
 5394.5     84.007   46.25
 5395     83.916   45.978
 5395.5     84.069   47.137
 5396     84.223   46.67
 5396.5     84.131   45.403
 5397     83.817   44.137
 5397.5     83.825   42.87
 5398     83.999   43.357
 5398.5     83.706   44.872
 5399     81.807   46.387
 5399.5     83.282   46.538
 5400     86.204   45.508
 5400.5     86.545   44.477
 5401     86.686   43.446
 5401.5     86.827   42.286
 5402     86.817   40.815
 5402.5     86.739   39.344
 5403     86.661   37.873
 5403.5     86.583   37.685
 5404     86.538   38.126
 5404.5     86.727   38.567
 5405     86.916   39.007
 5405.5     87.106   39.448
 5406     87.14   39.889
 5406.5     86.866   40.33
 5407     86.595   40.77
 5407.5     86.338   41.211
 5408     86.08   43.805
 5408.5     86.239   44.895
 5409     86.504   45.547
 5409.5     86.712   45.304
 5410     86.318   44.476
 5410.5     85.923   43.648
 5411     85.927   44.221
 5411.5     86.108   45.573
 5412     86.289   44.784
 5412.5     86.218   43.97
 5413     86.143   43.533
 5413.5     86.068   44.302
 5414     85.993   45.071
 5414.5     85.918   45.84
 5415     85.438   44.189
 5415.5     84.205   42.31
 5416     82.746   42.089
 5416.5     82.273   41.894
 5417     82.125   42.276
 5417.5     82.334   44.355
 5418     83.199   46.121
 5418.5     83.944   46.665
 5419     84.608   47.209
 5419.5     84.711   47.753
 5420     84.444   48.297
 5420.5     83.109   48.841
 5421     83.119   49.385
 5421.5     83.129   49.989
 5422     83.138   50.615
 5422.5     80.826   51.24
 5423     80.21   51.865
 5423.5     79.595   57.175
 5424     79.363   62.543
 5424.5     80.262   69.969
 5425     80.643   71.868
 5425.5     71.321   72.824
 5426     68.967   73.781
 5426.5     69.187   74.738
 5427     69.144   76.176
 5427.5     68.941   78.793
 5428     68.739   81.243
 5428.5     68.536   80.517
 5429     68.633   79.792
 5429.5     68.92   79.067
 5430     69.207   77.314
 5430.5     69.494   75.744
 5431     69.781   77.768
 5431.5     69.442   79.792
 5432     68.994   81.816
 5432.5     69.33   83.139
 5433     69.666   82.532
 5433.5     70.002   81.926
 5434     70.21   81.32
 5434.5     68.485   80.714
 5435     66.599   80.107
 5435.5     64.313   78.244
 5436     66.484   76.369
 5436.5     67.743   74.493
 5437     66.703   72.617
 5437.5     67.098   70.741
 5438     68.056   71.143
 5438.5     68.008   74.678
 5439     67.675   78.214
 5439.5     67.342   -999.990
 5440     69.648   -999.990
 5440.5     72.428   -999.990
 5441     72.577   -999.990
 5441.5     72.058   -999.990
 5442     71.454   -999.990
 5442.5     70.728   -999.990
 5443     70.464   -999.990
 5443.5     71.253   -999.990
 5444     72.041   -999.990
 5444.5     71.492   -999.990
 5445     70.662   -999.990
 5445.5     70.261   -999.990
 5446     71.59   -999.990
 5446.5     72.431   -999.990
 5447     71.71   -999.990
 5447.5     71.473   -999.990
 5448     71.486   -999.990
 5448.5     71.058   -999.990
 5449     70.001   -999.990
 5449.5     69.866   -999.990
 5450     69.767   -999.990
 5450.5     70.261   -999.990
 5451     70.693   -999.990
 5451.5     70.753   -999.990
 5452     70.814   -999.990
 5452.5     69.649   -999.990
 5453     68.509   -999.990
 5453.5     67.568   -999.990
 5454     67.05   -999.990
 5454.5     67.378   -999.990
 5455     67.706   -999.990
 5455.5     68.034   -999.990
 5456     68.159   -999.990
 5456.5     67.702   -999.990
 5457     67.245   -999.990
 5457.5     66.657   -999.990
 5458     65.811   -999.990
 5458.5     66.051   -999.990
 5459     66.635   -999.990
 5459.5     67.204   -999.990
 5460     67.193   -999.990
 5460.5     67.181   -999.990
 5461     67.17   -999.990
 5461.5     67.158   -999.990
 5462     67.147   -999.990
 5462.5     67.136   -999.990
 5463     67.124   -999.990
