~VERSION INFORMATION
VERS.           1.2   :CWLS Log ASCII Standard - VERSION 1.2
WRAP.           NO    :One Line per depth step
PROD.  Schlumberger   :LAS Producer
PROG.  DLIS to ASCII 17C0-152                          :LAS Program name and version
CREA.        2014/05/28 16:07                          :LAS Creation date {YYYY/MM/DD hh:mm}
DLIS_CREA.  2014-May-27 22:17                          :DLIS Creation date and time {YYYY-MMM-DD hh:mm}
SOURCE.     db5fefe1-f67d-4e3f-8816-ab53d5f8be46       :DLIS File Name
#--------------------------------------------------
~WELL INFORMATION
#MNEM.UNIT      DATA             DESCRIPTION
#---- ------ --------------   -----------------------------
# Enverus has updated the API/UWI.  The previous names are renamed to  PREV_API / PREV_UWI
API.  API (14 Digits with Dashes) : 42-389-34023-90-00
UWI.              UNIQUE WELL ID : 42389340239000

STRT .F      9586.5000       :START DEPTH     
STOP .F      10811.5000      :STOP DEPTH     
STEP .F       0.5000         :STEP       
NULL .          -999.25      :NULL VALUE
COMP .                 COMPANY:  J. Cleo Thompson                   
WELL .                    WELL:  Okapi State Unit B35 #2H           
FLD  .                   FIELD:  Wolfbone (Trend Area)              
LOC  .                LOCATION:  260' FNL & 500' FEL                
CNTY .                  COUNTY:  Reeves                             
STAT .                   STATE:  Texas                              
CTRY .                 COUNTRY:                                     
SRVC .         SERVICE COMPANY:  Schlumberger                       
LATI .DEG             LATITUDE:  31.112200 degrees                  
LONG .DEG            LONGITUDE:  -103.28900 degrees                 
PREV_API  .              API NUMBER:  42-389-34023                       
DATE .                LOG DATE:  27-May-2014
PREV_UWI  .          UNIQUE WELL ID:                                     
#-----------------------------------------------------------------------------
~PARAMETER INFORMATION
#MNEM.UNIT    VALUE                      DESCRIPTION
#---- -----   --------------------       ------------------------
CN   .        J. Cleo Thompson           :Company Name
WN   .        Okapi State Unit B35 #2H   :Well Name
FN   .        Wolfbone (Trend Area)      :Field Name
FL   .        260' FNL & 500' FEL        :Field Location
FL1  .        Section  35  Block  50 T8S  Abstract 4369 :Field Location, Line 1
COUN .        Reeves                     :County or Parish
STAT .        Texas                      :State or Province
NATI .                                   :Nation
DATE .        27-May-2014                :Tools Above Rotary Table Date
APIN .        42-389-34023               :API Well Number
SECT .        35                         :Section
TOWN .        50 T8S                     :Township
RANG .        4369                       :Range
DMF  .        KB                         :Drilling Measured From (Name of Drilling Elevation Reference)
LMF  .        KB                         :Logging Measured From (Name of Logging Elevation Reference)
PDAT .        GL                         :Permanent Datum
ENGI .        AJ Massis                  :Engineer s Name
WITN .        Bennie McNett              :Witness s Name
LATI .        31.112200 degrees          :Latitude
LONG .        -103.28900 degrees         :Longitude
LUL  .        Midland                    :Logging Unit Location
LUN  .        9105                       :Logging Unit Number
RUN  .        1B                         :Run Number
SON  .                                   :Service Order Number
BHT  .DEGF     162.00000                 :Bottom Hole Temperature
BS   .IN         8.50000                 :Bit Size
MDEN .G/C3       2.71000                 :Matrix Density for Density Porosity
DFD  .LB/G      10.70000                 :Drilling Fluid Density
DFV  .S         46.00000                 :Drilling Fluid Viscosity
DFL  .C3        10.00000                 :Drilling Fluid Loss
RMFS .OHMM       0.30000                 :Resistivity of Mud Filtrate Sample
EKB  .F       2829.00000                 :Elevation of Kelly Bushing
EGL  .F       2807.00000                 :Elevation of Ground Level
BLI  .F       11012.00000                :Bottom Log Interval
BSAL .PPM     132000.00000               :Borehole Salinity
FLEV .F          8.00000                 :Depth of Drilling Fluid Level to LMF (Log Measured From)
MCST .DEGF      68.00000                 :Mudcake Sample Temperature
MFST .DEGF      80.20000                 :Mud Filtrate Sample Temperature
MRT  .DEGF     162.00000                 :Maximum Recorded Temperature
MST  .DEGF      80.20000                 :Mud Sample Temperature
RMCS .OHMM    -999.25000                 :Resistivity of Mud Cake Sample
RMS  .OHMM       0.30000                 :Resistivity of Mud Sample
RW   .OHMM       1.00000                 :Connate Water Resistivity
TDD  .F       11012.00000                :Driller Total Depth
TDL  .F       11012.00000                :Logger Total Depth
TLI  .F       9676.00000                 :Top Log Interval
HIDE .        Wolfbone (Trend Area)      :Header Identifier
MATR .        LIME                       :Rock Matrix for Neutron Porosity Corrections
FNUM .           1.00000                 :F-Numerator for Formation Factor Formula
FEXP .           2.00000                 :Exponent "m" for Formation Factor Formula
DFT  .        Salt Brine                 :Drilling Fluid Type
DFPH .           9.00000                 :Drilling Fluid pH
MCSS .                                   :Mudcake Sample Source
MFSS .                                   :Mud Filtrate Sample Source
FD   .G/C3       1.10000                 :Fluid Density
MSS  .        Active Tank                :Mud Sample Source
OS1  .                                   :Other Services Line 1
OS2  .                                   :Other Services Line 2
OS3  .                                   :Other Services Line 3
OS4  .                                   :Other Services Line 4
OS5  .                                   :Other Services Line 5
R1   .        Tools run as per toolsketch :Remarks Line 1
R2   .        Logs performed on a Limestone matrix (2.71

g/cc  47.6 us/ft ). Mud Properties  MW =

10.7 g/cc  FD = 1.1 g/cc. :Remarks Line 2
R3   .        Max recorded temperature from downhole

thermometer = 162 degF. :Remarks Line 3
R4   .        Logs run from TD to casing. GR & Neutron

logged from casing to 200ft as per client

request. :Remarks Line 4
R5   .        Tools got stuck near TD and calipers had to be closed in order to get free. :Remarks Line 5
R6   .        Well was washed out for many intervals. :Remarks Line 6
R7   .        Repeat done at casing due to getting stuck at TD :Remarks Line 7
R8   .                                   :Remarks Line 8
TCS  .        18 00 00                   :Time Circulation Stopped
TLAB .        16 19 01                   :Time Logger At Bottom
EPD  .C3         2807.000000             :Elevation of Permanent Datum above Mean Sea Level
APD  .F          22.000000               :Elevation of Depth Reference (LMF) above Permanent Datum
#-----------------------------------------------------------------------------
~CURVE INFORMATION
#MNEM.UNIT   API CODE                                  DESCRIPTION
#---- -----  --------                                  -----------------------
DEPT .F                                                :DEPTH (BOREHOLE) {F12.4}
CDF  .LBF                                              :Calibrated Downhole Force {F11.4}
CTEM .DEGF                                             :Cartridge Temperature {F11.4}
DCAL .IN                                               :Differential Caliper {F11.4}
DTCO .US/F                                             :Delta-T Compressional {F11.4}
DTSM .US/F                                             :Delta-T Shear {F11.4}
ED   .F                                                :East Departure {F11.4}
GR_EDTC.GAPI                                           :Gamma Ray {F11.4}
GTEM .DEGF                                             :Generalized Borehole Temperature {F11.4}
HAZI .DEG                                              :Hole Azimuth Relative to True North {F11.4}
HAZIM.DEG                                              :Memorized Hole Azimuth {F11.4}
ITT  .S                                                :Integrated Transit Time {F11.4}
ND   .F                                                :North Departure {F11.4}
P1AZ .DEG                                              :Pad 1 Azimuth in Horizontal Plane (0 = True North) {F11.4}
PR   .                                                 :Poisson s Ratio {F11.4}
RB   .DEG                                              :Relative Bearing {F11.4}
SDEV .DEG                                              :Sonde Deviation {F11.4}
SDEVM.DEG                                              :Memorized Sonde Deviation {F11.4}
SPHI .CFCF                                             :Sonic Porosity {F11.4}
STIT .F                                                :Stuck Tool Indicator, Total {F11.4}
TENS .LBF                                              :Cable Tension {F11.4}
#-----------------------------------------------------------------------------
# 
#      DEPT        CDF        CTEM       DCAL       DTCO       DTSM        ED      GR_EDTC      GTEM       HAZI      HAZIM       ITT         ND        P1AZ        PR         RB        SDEV      SDEVM       SPHI       STIT       TENS
#
~A  
# ...
  10076.5000  1242.3433   165.5529     0.2577    82.0769   132.0557     0.0000    78.6248   154.0144   269.1651   270.1832     0.0538     0.0000   322.4983     0.1853    53.3194     1.8194     1.8736     0.2438     0.0000  3921.0000
  10077.0000  1234.8110   165.5529     0.2598    81.6364   131.4014     0.0000    76.3094   154.0187   270.1674   270.1550     0.0538     0.0000   320.0747     0.1857    49.8928     1.8308     1.8736     0.2407     0.0000  3935.7500
  10077.5000  1220.7870   165.5529     0.2598    80.3774   130.9535     0.0000    76.8313   154.0230   271.1808   269.6848     0.0537     0.0000   318.0004     0.1978    46.8049     1.8445     1.8524     0.2318     0.0000  3915.0000
  10078.0000  1217.5594   165.5529     0.2577    80.3664   130.6208     0.0000    79.3401   154.0272   271.8235   268.9182     0.0537     0.0000   315.9490     0.1954    44.1104     1.8556     1.8145     0.2317     0.0000  3937.3337
  10078.5000  1223.2299   165.5529     0.2688    77.0133   129.4584     0.0000    81.8905   154.0315   271.9111   268.0808     0.0536     0.0000   313.5613     0.2261    41.6349     1.8572     1.7703     0.2080     0.0000  3937.0000
  10079.0000  1227.5970   165.5529     0.2577    78.3911   128.6467     0.0000    82.9103   154.0358   271.3665   267.4188     0.0536     0.0000   310.5576     0.2047    39.1765     1.8475     1.7332     0.2178     0.0000  3939.0000
  10079.5000  1227.8324   165.5529     0.2577    77.7887   127.8168     0.0000    82.7590   154.0400   270.3284   267.1077     0.0536     0.0000   307.4282     0.2059    37.0859     1.8269     1.7139     0.2135     0.0000  3935.0000
  10080.0000  1227.6385   165.5529     0.2688    77.7924   128.6201     0.0000    78.5396   154.0443   269.0883   267.1885     0.0535     0.0000   304.4758     0.2116    35.3739     1.8024     1.7181     0.2135     0.0000  3928.0002
  10080.5000  1219.6691   165.5529     0.2577    78.4072   128.6411     0.0000    76.0467   154.0486   268.0382   267.5425     0.0535     0.0000   301.8702     0.2045    33.8190     1.7817     1.7445     0.2179     0.0000  3912.0000
  10081.0000  1226.0328   165.5529     0.2577    78.7167   128.4793     0.0000    74.7357   154.0529   267.4565   267.9693     0.0535     0.0000   299.3688     0.1995    31.9002     1.7719     1.7840     0.2201     0.0000  3934.0002
  10081.5000  1221.9948   165.5529     0.2688    79.2649   128.5613     0.0000    77.4433   154.0571   267.5127   268.3033     0.0534     0.0000   296.6020     0.1934    29.0777     1.7768     1.8232     0.2239     0.0000  3897.6667
  10082.0000  1222.5184   165.5529     0.2688    79.3516   128.6646     0.0000    78.8007   154.0614   268.1023   268.4543     0.0534     0.0000   294.0443     0.1931    25.9312     1.7964     1.8477     0.2246     0.0000  3922.6667
  10082.5000  1222.3275   165.5529     0.2688    79.1255   128.2803     0.0000    86.2641   154.0657   268.9688   268.4466     0.0533     0.0000   291.4654     0.1929    22.4866     1.8251     1.8483     0.2230     0.0000  3902.6665
  10083.0000  1218.6676   165.5529     0.2598    78.3232   128.9717     0.0000    90.1099   154.0699   269.7459   268.3672     0.0533     0.0000   288.7163     0.2079    18.9613     1.8547     1.8232     0.2173     0.0000  3910.3333
  10083.5000  1215.8282   165.5529     0.2709    76.6236   127.9658     0.0000    92.8532   154.0742   270.1832   268.3260     0.0533     0.0000   285.9928     0.2205    15.8014     1.8736     1.7890     0.2053     0.0000  3927.3337
  10084.0000  1214.7435   165.5529     0.2577    76.0640   127.2275     0.0000    93.1875   154.0785   270.1550   268.3578     0.0532     0.0000   283.1572     0.2219    12.9952     1.8736     1.7392     0.2013     0.0000  3910.5002
  10084.5000  1218.2347   165.5529     0.2709    74.1399   125.0853     0.0000    91.9363   154.0827   269.6848   268.5027     0.0532     0.0000   280.2179     0.2292    10.5280     1.8524     1.6957     0.1877     0.0000  3903.0002
  10085.0000  1220.1946   165.5529     0.2598    72.8832   123.1085     0.0000    92.2668   154.0870   268.9182   268.6729     0.0531     0.0000   277.2908     0.2302     8.3689     1.8145     1.6708     0.1788     0.0000  3927.6665
  10085.5000  1218.6996   165.5529     0.2709    72.2470   123.1199     0.0000    83.3847   154.0912   268.0808   268.7315     0.0531     0.0000   274.3232     0.2374     6.2396     1.7703     1.6708     0.1743     0.0000  3931.5000
  10086.0000  1218.8433   165.5529     0.2820    72.0851   122.7947     0.0000    75.3246   154.0955   267.4188   268.5750     0.0531     0.0000   271.3499     0.2371     3.9292     1.7332     1.6934     0.1732     0.0000  3936.6667
  10086.5000  1219.9468   165.5529     0.2598    72.1712   122.9165     0.0000    73.8689   154.0998   267.1077   268.1996     0.0530     0.0000   268.5654     0.2369     1.4568     1.7139     1.7289     0.1738     0.0000  3955.6665
  10087.0000  1218.0433   165.5529     0.2820    72.7597   123.4348     0.0000    75.9658   154.1041   267.1460   267.7041     0.0530     0.0000   266.3615     0.2338   359.2162     1.7154     1.7636     0.1779     0.0000  3925.0000
  10087.5000  1214.7251   165.5529     0.2820    73.9243   124.6588     0.0000    87.5544   154.1083   267.4586   267.2487     0.0530     0.0000   263.6258     0.2288   356.1690     1.7379     1.7844     0.1862     0.0000  3954.0002
  10088.0000  1206.9042   165.5529     0.2820    74.6318   128.2273     0.0000    88.0662   154.1126   267.8863   267.0266     0.0529     0.0000   261.1170     0.2438   353.2339     1.7759     1.7831     0.1912     0.0000  3930.3335
  10088.5000  1208.7463   165.5529     0.2709    76.5006   129.4577     0.0000    89.3387   154.1169   268.2461   267.1823     0.0529     0.0000   258.5729     0.2317   350.3315     1.8163     1.7593     0.2044     0.0000  3924.3335
  10089.0000  1204.8264   165.5529     0.2820    78.6115   131.7161     0.0000    88.0603   154.1211   268.4393   267.7701     0.0528     0.0000   255.8238     0.2234   347.3907     1.8446     1.7196     0.2193     0.0000  3945.3333
  10089.5000  1207.6428   165.5529     0.2820    80.0276   133.8153     0.0000    89.9432   154.1254   268.4605   268.4773     0.0528     0.0000   252.9471     0.2216   344.4944     1.8504     1.6849     0.2293     0.0000  3953.0000
  10090.0000  1208.9863   165.5529     0.2709    80.5722   134.8445     0.0000    91.6924   154.1297   268.3813   269.4522     0.0528     0.0000   249.9130     0.2224   341.5403     1.8301     1.6485     0.2332     0.0000  3984.0000
  10090.5000  1212.3521   165.5529     0.2820    80.2037   135.2163     0.0000    88.1338   154.1339   268.3260   270.1893     0.0527     0.0000   246.8098     0.2286   338.4933     1.7890     1.6283     0.2306     0.0000  3974.6670
  10091.0000  1210.8655   165.5529     0.2597    78.0584   134.9827     0.0000    85.3344   154.1382   268.3578   270.3879     0.0527     0.0000   243.8670     0.2488   335.5191     1.7392     1.6277     0.2154     0.0000  3984.0000
  10091.5000  1208.7094   165.5529     0.2597    66.5457   133.0192     0.0000    87.3312   154.1425   268.5027   269.9455     0.0526     0.0000   240.9230     0.3331   332.4305     1.6957     1.6430     0.1340     0.0000  3998.0000
  10092.0000  1208.1246   165.5529     0.2486    61.3928   131.0647     0.0000    90.3255   154.1467   268.6729   269.0154     0.0526     0.0000   238.0731     0.3595   329.4107     1.6708     1.6664     0.0975     0.0000  3971.0002
  10092.5000  1207.6154   165.5529     0.2354    56.2400   129.9997     0.0000    87.8114   154.1510   268.7315   267.9346     0.0526     0.0000   235.2405     0.3849   326.5202     1.6708     1.6877     0.0611     0.0000  3969.7500
  10093.0000  1208.1304   165.5529     0.2375    61.1422   128.1842     0.0000    74.8681   154.1553   268.5750   267.0999     0.0526     0.0000   232.2688     0.3527   323.7056     1.6934     1.6980     0.0958     0.0000  3972.6670
  10093.5000  1209.1678   165.5529     0.2153    62.2319   125.1154     0.0000    57.9483   154.1595   268.1996   266.8379     0.0525     0.0000   229.5645     0.3356   321.3772     1.7289     1.6924     0.1035     0.0000  3974.6665
