#--------------------------------------------------#
#-------------------ENVERUS, INC.------------------#
#------------------WWW.ENVERUS.COM-----------------#
#------------------COPYRIGHT 2020------------------#
#--------------------------------------------------#
#THIS FILE MAY BE USED ONLY IN ACCORDANCE WITH A CURRENT SUBSCRIPTION AGREEMENT BETWEEN
#THE USER AND ENVERUS, INC. NO PART OF THIS FILE MAY BE REPRODUCED, USED, COPIED,
#MODIFIED, PROPAGATED, OR DISTRIBUTED EXCEPT IN ACCORDANCE WITH THE SUBSCRIPTION
#AGREEMENT. UNAUTHORIZED USE OR DISTRIBUTION OF ALL OR ANY PART OF THIS FILE MAY VIOLATE
#COPYRIGHT, TRADEMARK, AND/OR OTHER LAWS AND IS SUBJECT TO CIVIL AS WELL AS CRIMINAL
#SANCTIONS.
#--------------------------------------------------#
#THIS FILE IS PROVIDED "AS-IS" AND ALL WARRANTIES ARE EXPRESSLY DISCLAIMED, WHETHER
#EXPRESS, ORAL, IMPLIED, STATUTORY OR OTHERWISE, INCLUDING ANY IMPLIED WARRANTY OF FITNESS
#FOR A PARTICULAR PURPOSE, MERCHANTABILITY, TITLE OR NON-INFRINGEMENT, AND ANY WARRANTIES
#ARISING BY VIRTUE OF CUSTOM OF TRADE OR COURSE OF DEALING.  FURTHER, ENVERUS, INC.
#AND ITS LICENSORS DO NOT REPRESENT OR WARRANT THAT THIS FILE WILL MEET USER'S
#REQUIREMENTS OR ARE SUITABLE FOR USER'S NEEDS OR THAT THE DATA OR RESULTS PROVIDED IN
#CONJUNCTION THEREWITH ARE CORRECT, ACCURATE, TIMELY OR RELIABLE. THESE DISCLAIMERS SHALL
#APPLY REGARDLESS OF ANY FAILURE OF ESSENTIAL PURPOSE OF ANY LIMITED REMEDY.  SOME
#JURISDICTIONS DO NOT ALLOW THE EXCLUSION OF CERTAIN WARRANTIES SO SOME OF THE ABOVE
#EXCLUSIONS MAY NOT APPLY. IN NO EVENT SHALL ENVERUS, INC. OR ANY OF ITS AFFILIATES
#BE LIABLE UNDER ANY LEGAL THEORY, WHETHER IN TORT (INCLUDING WITHOUT LIMITATION
#NEGLIGENCE), CONTRACT, STRICT LIABILITY, STATUTORY OR OTHERWISE, FOR ANY SPECIAL,
#INCIDENTAL, CONSEQUENTIAL, EXEMPLARY, PUNITIVE OR INDIRECT DAMAGE OF ANY KIND, INCLUDING
#WITHOUT LIMITATION LOSS OF REVENUE, PROFITS, GOODWILL, USE, AND/OR DATA OR THE COST OF
#PROCUREMENT OF SUBSTITUTE GOODS OR SERVICES, EVEN IF APPRISED OF THE POSSIBILITY OF SUCH
#DAMAGES IN ADVANCE.
#--------------------------------------------------#

~VERSION INFORMATION
VERS. 2.0 : CWLS LOG ASCII STANDARD - VERSION 2.0
WRAP. NO : ONE LINE PER DEPTH STEP
~WELL INFORMATION
#MNEMONIC     .UNIT              VALUE :DESCRIPTION
STRT       .FT                38.00000 :START DEPTH
STOP       .FT                20083.00000 :STOP DEPTH
STEP       .FT                0.50000 :STEP
NULL       .                -999.25000 :NULL VALUE
UWI       .                42389302750000 :UNIQUE WELL ID
API       .                42389302750000 :API NUMBER
COMP       .                 :COMPANY
WELL       .                 :WELL
FLD       .                 :FIELD
LOC       .                 :LOCATION
CNTY       .                 :COUNTY
STAT       .                 :STATE
CTRY       .                 :COUNTRY
SRVC       .                 :SERVICE COMPANY
DATE       .                 :DATE
~CURVE INFORMATION
#MNEMONIC     .UNIT      API CODE :CURVE DESCRIPTION
DEPTH       .FT                      :MEASURED DEPTH
CAL       .IN        UNKNOWN   :CAL
DT       .US/FT        UNKNOWN   :DT
GR       .GAPI        UNKNOWN   :GR
~A    DEPTH    CAL    DT    GR
# ...
10198.50000    12.98570    80.06689    69.16482
10199.00000    12.99057    80.22009    66.18307
10199.50000    12.99544    80.37329    66.87821
10200.00000    13.00030    80.52649    68.50704
10200.50000    13.00517    80.67969    70.13587
10201.00000    13.01004    80.83289    71.76469
10201.50000    13.01491    80.98609    72.93591
10202.00000    13.01978    80.62438    71.17527
10202.50000    13.02465    78.73030    69.41464
10203.00000    13.02952    76.83622    67.65401
10203.50000    13.03439    74.94213    65.89338
10204.00000    13.03925    75.07115    64.13275
10204.50000    13.03418    75.64620    64.68961
10205.00000    13.02889    76.22126    66.57959
10205.50000    13.02361    76.79632    68.46958
10206.00000    13.01832    77.37138    70.35956
10206.50000    13.01304    77.94643    72.24955
10207.00000    13.00775    78.52149    74.13953
10207.50000    13.00247    79.09655    76.02952
10208.00000    12.99718    77.78873    76.89243
10208.50000    12.99189    76.52066    75.65170
10209.00000    12.98661    75.60411    74.41097
10209.50000    12.98132    74.68757    73.17024
10210.00000    12.97604    73.77103    71.92951
10210.50000    12.97075    72.85448    70.68878
10211.00000    12.96547    71.93794    69.44805
10211.50000    12.96018    71.02140    68.20732
10212.00000    12.95490    71.42711    67.39907
10212.50000    12.94961    72.00745    66.69942
10213.00000    12.94432    72.58779    65.99977
10213.50000    12.93904    73.16813    65.30012
10214.00000    12.93375    73.74847    64.60047
10214.50000    12.92847    74.32881    64.75006
10215.00000    12.92318    74.88096    66.45452
10215.50000    12.91790    73.81976    68.15897
10216.00000    12.91261    72.75857    69.86343
10216.50000    12.90733    71.69737    71.56789
10217.00000    12.90204    71.45722    69.10915
10217.50000    12.89676    72.30434    64.81935
10218.00000    12.89147    73.15146    60.52956
10218.50000    12.88619    73.99858    61.91417
10219.00000    12.88090    74.84570    64.11567
10219.50000    12.87561    75.31491    66.31717
10220.00000    12.87033    75.32290    68.51866
10220.50000    12.86504    75.33089    70.72016
10221.00000    12.85976    75.33888    72.92166
10221.50000    12.85447    75.34686    72.05463
10222.00000    12.84919    75.35485    70.89848
10222.50000    12.84390    75.36284    69.74233
10223.00000    12.83862    75.37082    68.58618
10223.50000    12.83333    73.78967    68.60879
10224.00000    12.82805    71.93133    71.79891
10224.50000    12.82276    70.07299    69.87582
10225.00000    12.81747    68.21465    67.95274
10225.50000    12.81219    70.97225    66.02965
10226.00000    12.80690    73.84635    64.10656
10226.50000    12.80162    76.72046    62.18347
10227.00000    12.79633    79.49465    60.26039
10227.50000    12.79105    77.74982    58.33730
10228.00000    12.78576    76.00499    74.16177
10228.50000    12.78048    74.26017    72.88065
10229.00000    12.77519    72.08890    67.95381
10229.50000    12.76991    67.02251    63.02696
10230.00000    12.76462    61.95611    58.10012
10230.50000    12.75934    56.88972    53.17328
10231.00000    12.75405    51.82332    48.24643
10231.50000    12.74847    52.83326    43.31959
10232.00000    12.74218    57.21248    38.39274
10232.50000    12.73589    61.83154    33.46590
10233.00000    12.72960    66.51147    28.53905
10233.50000    12.72331    71.19141    35.97002
10234.00000    12.71702    72.73130    46.85491
10234.50000    12.71073    72.33525    57.73979
10235.00000    12.70444    71.93920    61.33096
10235.50000    12.70865    72.47330    62.28658
10236.00000    12.71875    74.60931    63.24220
10236.50000    12.72885    76.74531    64.19783
10237.00000    12.73896    78.56152    65.28235
10237.50000    12.74906    78.26536    69.26411
10238.00000    12.75916    77.96919    73.24587
10238.50000    12.76926    77.67302    72.73367
10239.00000    12.77936    77.37686    70.38554
10239.50000    12.78947    77.08069    69.55495
10240.00000    12.79957    76.37099    68.72436
10240.50000    12.80967    75.65881    67.89378
10241.00000    12.81977    74.94662    67.06319
10241.50000    12.82987    74.23443    66.23260
10242.00000    12.83998    74.59318    65.40201
10242.50000    12.83845    75.09290    64.44221
10243.00000    12.82735    75.59262    63.01403
10243.50000    12.81625    72.32788    61.58585
10244.00000    12.80515    68.87384    60.15767
10244.50000    12.79405    65.41979    58.50474
10245.00000    12.78294    61.96574    54.78357
10245.50000    12.77184    58.51170    51.06240
10246.00000    12.76074    62.94425    47.34123
10246.50000    12.74964    71.11941    43.62005
10247.00000    12.73854    75.87483    41.62773
10247.50000    12.72743    79.76526    47.80988
10248.00000    12.71633    79.34472    53.99202
10248.50000    12.70523    78.92419    60.17417
10249.00000    12.71189    78.50366    66.35632
10249.50000    12.73060    78.08312    72.53847
10250.00000    12.74932    76.57441    78.72061
10250.50000    12.76803    75.05678    78.69850
10251.00000    12.78675    74.30154    77.16650
10251.50000    12.80546    74.85409    75.63450
10252.00000    12.82418    75.40665    74.10250
10252.50000    12.84289    75.95920    72.57049
10253.00000    12.83903    75.57316    71.03849
10253.50000    12.83447    74.01719    69.50648
10254.00000    12.82992    72.46122    67.97448
10254.50000    12.82536    70.90525    66.44248
10255.00000    12.82080    69.34928    64.91047
10255.50000    12.81625    67.79331    63.37847
10256.00000    12.81169    66.61381    61.84647
10256.50000    12.80713    65.55147    60.31446
10257.00000    12.80257    64.48914    58.78246
10257.50000    12.79802    67.60147    57.25046
10258.00000    12.79346    72.57856    55.71845
10258.50000    12.78890    75.45027    58.33436
10259.00000    12.78435    78.32198    60.95399
10259.50000    12.77979    80.15497    63.57363
10260.00000    12.77523    80.49127    66.19327
10260.50000    12.77295    80.82757    68.81291
10261.00000    12.79550    81.16387    71.24402
10261.50000    12.81804    81.45648    71.03871
10262.00000    12.84059    80.96951    70.83340
10262.50000    12.86314    80.48253    70.62809
10263.00000    12.88569    79.99555    73.32039
10263.50000    12.89125    79.50857    77.39457
10264.00000    12.89276    79.02160    77.70957
10264.50000    12.89426    78.57988    76.61403
10265.00000    12.89577    79.13743    75.51848
10265.50000    12.89727    79.69498    74.42294
10266.00000    12.89878    80.25254    74.10287
10266.50000    12.90029    80.81009    74.25474
10267.00000    12.90179    78.94009    74.40661
10267.50000    12.90329    75.64388    74.55848
10268.00000    12.90480    72.34767    74.71035
10268.50000    12.90631    69.05145    74.86222
10269.00000    12.90781    65.75524    75.01409
10269.50000    12.90932    68.93672    66.21411
10270.00000    12.91082    73.58251    56.00562
10270.50000    12.91233    77.05491    54.36258
10271.00000    12.91383    77.12876    58.53276
10271.50000    12.91534    77.20262    62.70293
10272.00000    12.91684    78.24107    66.87310
10272.50000    12.91835    79.42423    68.76417
10273.00000    12.91985    80.60739    69.69066
10273.50000    12.92136    81.02883    70.61715
10274.00000    12.92286    79.71613    71.54365
10274.50000    12.92437    78.40344    72.47014
10275.00000    12.92587    77.09075    73.39663
10275.50000    12.92738    75.77805    74.32275
10276.00000    12.92889    74.46536    70.87536
10276.50000    12.93039    73.15266    67.42797
10277.00000    12.93190    71.83997    63.98058
10277.50000    12.93340    70.52728    60.53319
10278.00000    12.93491    69.21458    57.69842
10278.50000    12.93641    67.90189    61.33968
10279.00000    12.93792    76.12112    64.98094
10279.50000    12.93942    75.00801    68.62220
10280.00000    12.94093    73.89490    72.26346
10280.50000    12.94243    72.78178    75.90472
10281.00000    12.94394    72.85276    72.48852
10281.50000    12.94544    73.65546    68.01032
