###############################################
##         ENVERUS                           ##
##         EPlus - Open Hole                 ##
##         PERMIAN / DELAWARE                ##
##         Copyright ©                       ##
##         Enverus Version - V4.0            ##
##         Nov 19 2023                       ##
##         42-371-10615-00-00                ##
###############################################
## Copyright 2017-2023  ENVERUS.  All Rights Reserved. 
## Confidential - Property of ENVERUS, use governed by terms and 
## conditions found within the existing Information Services Subscription Agreement 
## (as may be amended, the “ISSA”) between Customer and ENVERUS. 
## 
#___________________________________________________________________________________________________
~VERSION INFORMATION
# MNEM.UNIT                               DATA : DESCRIPTION OF MNEMONIC
#-----.-----     ----------------------------- : -----------------------------
VERS.                                     2.00 : CWLS LOG ASCII STANDARD - VERSION 2.00
WRAP.                                       NO : MULTIPLE LINES PER DEPTH STEP
VEND.                                  ENVERUS : VENDOR
ENV_TYPE.                    EPLUS - OPEN HOLE : Enverus Essential Plus Curves – Accessible through Enverus Core(TM)
ENV_VERS.                                 V4.0 : EPlus - Open Hole Version number 
ENV_DOC.                              32912129 : ENVERUS Header Document id
ENV_REF.                               PERMIAN : ENVERUS BASIN OR PLAY APPLIED REFERENCE LIMITS 
#___________________________________________________________________________________________________ 
~WELL INFORMATION 
# uyaQ8P8kQDJ9DXFS5hR1PxmExEOYaAUkY5f3/tnOS+scoPAUWgXA1zCIHGRbWCuSuUcwDzaESCjqjWQ81XhadA== 
# MNEM.UNIT                                              DATA : DESCRIPTION OF MNEMONIC 
#-----.-----                    ----------------------------- : ----------------------------- 
CNTY.                                                   PECOS : COUNTY 
STATE.                                                  TEXAS : STATE 
CNTRY.                                                    USA : COUNTRY 
API.                                             42-371-10615 : API (10 Digit) 
API_14.                                    42-371-10615-00-00 : API (14 Digits) 
API_14_std.                                 42-371-10615-0000 : API (14 Digits Standard) 
UWI.                                           42371106150000 : UNIQUE WELL ID
STRT.FT                                                    88 : START DEPTH
STOP.FT                                                  6434 : STOP DEPTH
STEP.FT                                                   0.5 : STEP DEPTH
NULL.                                               -999.2500 : NULL VALUE
WELL.                                               MCCARTY 1 : WELL NAME 
GR_ELEV.                                                 2761 : GROUND ELEVATION 
SLAT.                                                 31.1448 : SURFACE LATITUDE 
SLONG.                                              -103.1919 : SURFACE LONGITUDE
#___________________________________________________________________________________________________ 
~CURVE INFORMATION 
# MNEM.UNIT           : CURVE DESCRIPTION 
#-----.-----          : ----------------------------- 
DEPT.FT               : MEASURED DEPTH 
GR_E.API              : ENVERUS GAMMA RAY - CLEANED BLENDED AND LUMPED 
GR_F.                 : ENVERUS GAMMA RAY - OUTLIER INDICATOR - 0=(IN BOUNDS) 1=(OUT OF BOUNDS) 2=(REPEATING) 
GR_S.                 : ENVERUS GAMMA RAY - SOURCE INDICATOR 
GR_U.                 : ENVERUS GAMMA RAY - OPTION INDICATOR - 0=(NO OPTION) 1=(OTHER OPTIONS) 
DT_E.US/FT            : ENVERUS SONIC TRAVEL TIME - CLEANED BLENDED AND LUMPED 
DT_F.                 : ENVERUS SONIC TRAVEL TIME - OUTLIER INDICATOR - 0=(IN BOUNDS) 1=(OUT OF BOUNDS) 2=(REPEATING) 
DT_S.                 : ENVERUS SONIC TRAVEL TIME - SOURCE INDICATOR 
DT_U.                 : ENVERUS SONIC TRAVEL TIME - OPTION INDICATOR - 0=(NO OPTION) 1=(OTHER OPTIONS)
#___________________________________________________________________________________________________ 
~A         DEPT           GR_E           GR_F           GR_S           GR_U           DT_E           DT_F           DT_S           DT_U
          88.00          0.715           0.00           0.00           0.00     -999.25000        -999.25        -999.25        -999.25
          88.50          0.999           0.00           0.00           0.00     -999.25000        -999.25        -999.25        -999.25
          89.00          1.283           0.00           0.00           0.00     -999.25000        -999.25        -999.25        -999.25
          89.50          1.567           0.00           0.00           0.00     -999.25000        -999.25        -999.25        -999.25
          90.00          1.851           0.00           0.00           0.00     -999.25000        -999.25        -999.25        -999.25
          90.50          2.135           0.00           0.00           0.00     -999.25000        -999.25        -999.25        -999.25
          91.00          2.419           0.00           0.00           0.00     -999.25000        -999.25        -999.25        -999.25
          91.50          2.703           0.00           0.00           0.00     -999.25000        -999.25        -999.25        -999.25
          92.00          3.966           0.00           0.00           0.00     -999.25000        -999.25        -999.25        -999.25
          92.50          5.371           0.00           0.00           0.00     -999.25000        -999.25        -999.25        -999.25
          93.00         10.088           0.00           0.00           0.00     -999.25000        -999.25        -999.25        -999.25
          93.50         14.991           0.00           0.00           0.00     -999.25000        -999.25        -999.25        -999.25
          94.00         19.894           0.00           0.00           0.00     -999.25000        -999.25        -999.25        -999.25
          94.50         24.798           0.00           0.00           0.00     -999.25000        -999.25        -999.25        -999.25
          95.00         31.353           0.00           0.00           0.00     -999.25000        -999.25        -999.25        -999.25
          95.50         34.898           0.00           0.00           0.00     -999.25000        -999.25        -999.25        -999.25
          96.00         36.202           0.00           0.00           0.00     -999.25000        -999.25        -999.25        -999.25
          96.50         36.614           0.00           0.00           0.00     -999.25000        -999.25        -999.25        -999.25
          97.00         36.672           0.00           0.00           0.00     -999.25000        -999.25        -999.25        -999.25
          97.50         36.731           0.00           0.00           0.00     -999.25000        -999.25        -999.25        -999.25
          98.00         36.012           0.00           0.00           0.00     -999.25000        -999.25        -999.25        -999.25
          98.50         33.807           0.00           0.00           0.00     -999.25000        -999.25        -999.25        -999.25
          99.00         31.080           0.00           0.00           0.00     -999.25000        -999.25        -999.25        -999.25
          99.50         27.620           0.00           0.00           0.00     -999.25000        -999.25        -999.25        -999.25
         100.00         24.161           0.00           0.00           0.00     -999.25000        -999.25        -999.25        -999.25
         100.50         20.701           0.00           0.00           0.00     -999.25000        -999.25        -999.25        -999.25
         101.00         19.072           0.00           0.00           0.00     -999.25000        -999.25        -999.25        -999.25
         101.50         18.873           0.00           0.00           0.00     -999.25000        -999.25        -999.25        -999.25
         102.00         18.673           0.00           0.00           0.00     -999.25000        -999.25        -999.25        -999.25
         102.50         18.473           0.00           0.00           0.00     -999.25000        -999.25        -999.25        -999.25
         103.00         18.642           0.00           0.00           0.00     -999.25000        -999.25        -999.25        -999.25
         103.50         18.963           0.00           0.00           0.00     -999.25000        -999.25        -999.25        -999.25
         104.00         19.285           0.00           0.00           0.00     -999.25000        -999.25        -999.25        -999.25
         104.50         19.607           0.00           0.00           0.00     -999.25000        -999.25        -999.25        -999.25
         105.00         19.929           0.00           0.00           0.00     -999.25000        -999.25        -999.25        -999.25
         105.50         20.250           0.00           0.00           0.00     -999.25000        -999.25        -999.25        -999.25
         106.00         20.572           0.00           0.00           0.00     -999.25000        -999.25        -999.25        -999.25
         106.50         20.073           0.00           0.00           0.00     -999.25000        -999.25        -999.25        -999.25
         107.00         18.670           0.00           0.00           0.00     -999.25000        -999.25        -999.25        -999.25
         107.50         17.266           0.00           0.00           0.00     -999.25000        -999.25        -999.25        -999.25
         108.00         16.966           0.00           0.00           0.00     -999.25000        -999.25        -999.25        -999.25
         108.50         17.448           0.00           0.00           0.00     -999.25000        -999.25        -999.25        -999.25
         109.00         18.230           0.00           0.00           0.00     -999.25000        -999.25        -999.25        -999.25
         109.50         20.437           0.00           0.00           0.00     -999.25000        -999.25        -999.25        -999.25
         110.00         22.644           0.00           0.00           0.00     -999.25000        -999.25        -999.25        -999.25
         110.50         24.350           0.00           0.00           0.00     -999.25000        -999.25        -999.25        -999.25
         111.00         24.782           0.00           0.00           0.00     -999.25000        -999.25        -999.25        -999.25
         111.50         25.215           0.00           0.00           0.00     -999.25000        -999.25        -999.25        -999.25
         112.00         25.648           0.00           0.00           0.00     -999.25000        -999.25        -999.25        -999.25
         112.50         26.081           0.00           0.00           0.00     -999.25000        -999.25        -999.25        -999.25
         113.00         26.514           0.00           0.00           0.00     -999.25000        -999.25        -999.25        -999.25
         113.50         26.911           0.00           0.00           0.00     -999.25000        -999.25        -999.25        -999.25
         114.00         25.442           0.00           0.00           0.00     -999.25000        -999.25        -999.25        -999.25
         114.50         23.973           0.00           0.00           0.00     -999.25000        -999.25        -999.25        -999.25
         115.00         22.841           0.00           0.00           0.00     -999.25000        -999.25        -999.25        -999.25
         115.50         24.044           0.00           0.00           0.00     -999.25000        -999.25        -999.25        -999.25
         116.00         25.248           0.00           0.00           0.00     -999.25000        -999.25        -999.25        -999.25
         116.50         25.208           0.00           0.00           0.00     -999.25000        -999.25        -999.25        -999.25
         117.00         24.674           0.00           0.00           0.00     -999.25000        -999.25        -999.25        -999.25
