###############################################
##         ENVERUS                           ##
##         ESS - Open Hole                   ##
##         PERMIAN / DELAWARE                ##
##         Nov 04 2023  V4.0                 ##
##         42-389-30075-00-00                ##
###############################################
## Copyright 2017-2023  ENVERUS.  All Rights Reserved. 
## Confidential - Property of ENVERUS, use governed by terms and 
## conditions found within the existing Information Services Subscription Agreement 
## (as may be amended, the “ISSA”) between Customer and ENVERUS. 
## 
~VERSION INFORMATION
# MNEM.UNIT                               DATA : DESCRIPTION OF MNEMONIC
#-----.-----     ----------------------------- : -----------------------------
VERS.                                     2.00 : CWLS LOG ASCII STANDARD - VERSION 2.00
WRAP.                                       NO : MULTIPLE LINES PER DEPTH STEP
VEND.                                  ENVERUS : VENDOR
TYPE.                          ESS - OPEN HOLE : ENVERUS ESSENTIAL CURVES – ACCESSIBLE THROUGH ENVERUS PRISM(TM)
DOC.                                  32306518 : ENVERUS HEADER RAW DOCUMENT ID
#___________________________________________________________________________________________________ 
~WELL INFORMATION 
# kPY+8M9YT4rQMtoZY4hkcKqQFbcx8dAfbukAxGfLCr0mY2TilAra5+x7Ygngqds2nYZXTdz9AGmqNniTAH+qTQ== 
# MNEM.UNIT                                              DATA : DESCRIPTION OF MNEMONIC 
#-----.-----                    ----------------------------- : ----------------------------- 
CNTY.                                                  REEVES : COUNTY 
STATE.                                                  TEXAS : STATE 
CNTRY.                                                    USA : COUNTRY 
API.                                             42-389-30075 : API (10 Digit) 
API_14.                                    42-389-30075-00-00 : API (14 Digits) 
API_14_std.                                 42-389-30075-0000 : API (14 Digits Standard) 
UWI.                                           42389300750000 : UNIQUE WELL ID 
WELL.                                        CAMPBELL STATE 1 : WELL NAME
STRT.FT                                                   5.0 : START DEPTH
STOP.FT                                               20980.0 : STOP DEPTH
STEP.FT                                                   0.5 : STEP BETWEEN DEPTHS
NULL.                                                 -999.25 : NULL VALUE
#___________________________________________________________________________________________________ 
~CURVE INFORMATION 
# MNEM.UNIT           : CURVE DESCRIPTION 
#-----.-----          : ----------------------------- 
 DEPT.FT               : MEASURED DEPTH 
 CALI.IN               : CALIPER (CAL - CAL) 
 GR.API                : GAMMA RAY (GR) 
 DT.US/FT              : SONIC DELTA TRANSIT TIME (DT) 
 NPHI.V/V              : NEUTRON POROSITY (NPHI) 
 #___________________________________________________________________________________________________ 
~A         DEPT           CALI             GR             DT           NPHI
# ...
           58.0       -999.250         24.110         56.968     -999.25000
           58.5       -999.250         23.597         56.942     -999.25000
           59.0       -999.250         23.083         56.916     -999.25000
           59.5       -999.250         22.570         56.890     -999.25000
           60.0       -999.250         22.057         56.864     -999.25000
           60.5       -999.250         21.543         56.838     -999.25000
           61.0       -999.250         21.030         56.812     -999.25000
           61.5       -999.250         20.517         56.786     -999.25000
           62.0       -999.250         20.076         56.760     -999.25000
           62.5       -999.250         19.875         56.734     -999.25000
           63.0       -999.250         19.675         56.708     -999.25000
           63.5       -999.250         19.474         56.682     -999.25000
           64.0       -999.250         19.273         56.656     -999.25000
           64.5       -999.250         19.072         56.630     -999.25000
           65.0       -999.250         18.871         56.604     -999.25000
           65.5       -999.250         18.670         56.578     -999.25000
           66.0       -999.250         18.470         56.552     -999.25000
           66.5       -999.250         18.269         56.525     -999.25000
           67.0       -999.250         18.068         56.499     -999.25000
           67.5       -999.250         17.867         56.473     -999.25000
           68.0       -999.250         17.666         56.486     -999.25000
           68.5       -999.250         17.465         56.502     -999.25000
           69.0       -999.250         17.265         56.518     -999.25000
           69.5       -999.250         17.064         56.534     -999.25000
           70.0       -999.250         16.863         56.550     -999.25000
           70.5       -999.250         16.662         56.566     -999.25000
           71.0       -999.250         16.461         56.582     -999.25000
           71.5       -999.250         16.260         56.598     -999.25000
           72.0       -999.250         16.060         56.614     -999.25000
           72.5       -999.250         15.859         56.630     -999.25000
           73.0       -999.250         15.661         56.646     -999.25000
           73.5       -999.250         15.555         56.662     -999.25000
           74.0       -999.250         15.449         56.678     -999.25000
           74.5       -999.250         15.343         56.694     -999.25000
           75.0       -999.250         15.237         56.710     -999.25000
           75.5       -999.250         15.131         56.726     -999.25000
           76.0       -999.250         15.025         56.742     -999.25000
           76.5       -999.250         14.919         56.758     -999.25000
           77.0       -999.250         14.813         56.774     -999.25000
           77.5       -999.250         14.707         56.764     -999.25000
           78.0       -999.250         14.601         56.711     -999.25000
           78.5       -999.250         14.495         56.657     -999.25000
           79.0       -999.250         15.330         56.604     -999.25000
           79.5       -999.250         16.685         56.551     -999.25000
           80.0       -999.250         18.040         56.497     -999.25000
           80.5       -999.250         18.308         56.444     -999.25000
           81.0       -999.250         17.934         56.391     -999.25000
           81.5       -999.250         17.559         56.350     -999.25000
           82.0       -999.250         17.185         56.364     -999.25000
           82.5       -999.250         16.810         56.378     -999.25000
           83.0       -999.250         16.436         56.392     -999.25000
           83.5       -999.250         16.061         56.407     -999.25000
           84.0       -999.250         15.687         56.421     -999.25000
           84.5       -999.250         15.779         56.435     -999.25000
           85.0       -999.250         16.193         56.449     -999.25000
           85.5       -999.250         16.606         56.463     -999.25000
           86.0       -999.250         17.020         56.477     -999.25000
           86.5       -999.250         17.434         56.491     -999.25000
           87.0       -999.250         17.847         56.505     -999.25000
           87.5       -999.250         17.808         56.519     -999.25000
           88.0       -999.250         17.646         56.533     -999.25000
           88.5       -999.250         17.484         56.547     -999.25000
           89.0       -999.250         17.322         56.561     -999.25000
           89.5       -999.250         17.159         56.575     -999.25000
           90.0       -999.250         16.997         56.589     -999.25000
           90.5       -999.250         16.835         56.603     -999.25000
           91.0       -999.250         16.673         56.617     -999.25000
           91.5       -999.250         16.510         56.631     -999.25000
           92.0       -999.250         16.348         56.645     -999.25000
           92.5       -999.250         16.186         56.659     -999.25000
           93.0       -999.250         16.024         56.673     -999.25000
           93.5       -999.250         15.886         56.687     -999.25000
           94.0       -999.250         15.886         56.701     -999.25000
           94.5       -999.250         15.885         56.715     -999.25000
           95.0       -999.250         15.885         56.730     -999.25000
           95.5       -999.250         15.884         56.744     -999.25000
           96.0       -999.250         15.884         56.758     -999.25000
           96.5       -999.250         15.884         56.772     -999.25000
           97.0       -999.250         15.883         56.786     -999.25000
           97.5       -999.250         15.883         56.800     -999.25000
           98.0       -999.250         15.882         56.814     -999.25000
           98.5       -999.250         15.929         56.828     -999.25000
           99.0       -999.250         16.077         56.842     -999.25000
           99.5       -999.250         16.226         56.856     -999.25000
          100.0       -999.250         16.374         56.870     -999.25000
          100.5       -999.250         16.522         56.884     -999.25000
          101.0       -999.250         16.671         56.898     -999.25000
          101.5       -999.250         16.819         56.912     -999.25000
          102.0       -999.250         16.968         56.926     -999.25000
          102.5       -999.250         17.116         56.940     -999.25000
          103.0       -999.250         17.265         56.954     -999.25000
          103.5       -999.250         17.413         56.968     -999.25000
          104.0       -999.250         17.562         56.949     -999.25000
          104.5       -999.250         17.710         56.899     -999.25000
          105.0       -999.250         17.858         56.848     -999.25000
          105.5       -999.250         18.007         56.797     -999.25000
          106.0       -999.250         18.155         56.746     -999.25000
          106.5       -999.250         18.158         56.696     -999.25000
          107.0       -999.250         18.158         56.645     -999.25000
          107.5       -999.250         18.157         56.594     -999.25000
          108.0       -999.250         18.157         56.543     -999.25000
          108.5       -999.250         18.156         56.492     -999.25000
          109.0       -999.250         18.156         56.442     -999.25000
          109.5       -999.250         18.155         56.391     -999.25000
          110.0       -999.250         18.155         56.340     -999.25000
          110.5       -999.250         18.154         56.289     -999.25000
