~Version Information Block
 VERS.                2.00:     CWLS LOG ASCII STANDARD - VERSION 2.000000
 WRAP.                  NO:     One Line Per Depth Step
#
~Well Information Block
#MNEM.UNIT                     Data                         Information
#----------   ------------------------------------------   ----------------
 STRT.FT                                       50.0000:     START DEPTH
 STOP.FT                                    15192.0000:     STOP DEPTH
 STEP.FT                                        0.5000:     STEP
 NULL.                                       -999.0000:     NULL VALUE
 COMP.                                 MOBIL PRODUCING:     COMPANY
 WELL.                                     ST MCINTYRE:     WELL
 FLD .                                   ROJO CABALLOS:     FIELD
 LOC .                                         UNKNOWN:     LOCATION
 LONG.                                 -103.1618580000:     LONGITUDE
 LATI.                                   31.1192890000:     LATITUDE
 CNTY.                                           PECOS:     COUNTY
 STAT.                                           TEXAS:     STATE
 CTRY.                                           U.S.A:     COUNTRY
 SRVC.                                         UNKNOWN:     SERVICE COMPANY
 DATE.                                         UNKNOWN:     DATE
 API .                                  42371053110000:     API NUMBER
 UWI .                                  42371053110000:     UWI NUMBER
 SLAT.                                       31.119289:     Surface latitude
 SLON.                                     -103.161858:     surface longitude
 TVD .                                              NO:     TVD flag
 WSTA.                                             LOC:     Well status
#
~Curve Information Block
#MNEM.UNIT       API CODE      Curve Description
#----------    -------------   -------------------
 DEPT.FT                   :   Depth in Feet
 DT  .UNKNOWN          UNKNOWN:   DT-Load
 DTedit.ft/s          UNKNOWN:   DT-Load
 GR  .UNKNOWN          UNKNOWN:   GR-Load
#
~Parameter Information Block
#MNEM.UNIT            Value               Description
#----------    --------------------    -------------------
 RUN .                         ONE:    Run Number
 PDAT.                          GL:    Permanent Datum
 EPD .FT                          :    Elevation Of Perm. Datum
 LMF .               KELLY BUSHING:    Log Measured From
 EKB .FT                          :    Elevation Of Kelly Bushing
 DF .FT                           :    Elevation Of Derrick Floor
 GL .FT                           :    Elevation Of Ground Level
 TD  .FT                          :    Total Depth
 CSGD.FT                          :    Casing Bottom (Driller) 1
 CSGL.FT                          :    Casing Bottom (Logger) 1
 MUD .                            :    Drilling Fluid Type
 MUDV .CP                         :    Drilling Fluid Viscosity
 MUDD .LB/USG                     :    Drilling Fluid Density
 FL .ML/30MIN                     :    Drilling Fluid Loss
 PH.                              :    Drilling Fluid Ph
 MUDS .                           :    Mud Sample Source
 RM .OHMM                         :    Resistivity Of Mud Sample
 RMT .DEGF                        :    Mud Sample Temperature
 RMF .OHMM                        :    Mud Filtrate Resistivity
 RMFT.DEGF                        :    Mud Filtrate Sample Temperature
 RMC .OHMM                        :    Mud Cake Resistivity
 RMCT.DEGF                        :    Mud Cake Sample Temperature
 RMB .OHMM                        :    Mud Resistivity At Bht
 TMAX .DEGF                       :    Bottom Hole Temperature
#
~Other Information Block
<DescLogPlotStart>   NEURALOG PLOT DEFINITION
PLOTDEFVERSION: 3
LASFILE: E:\Nair Innovations\42_TEXAS\371_Pecos\Mobil_St McIntyre 1 Pecos_1.las
DEPTHSCALE: 239.999996
RESOLUTION: 200
DEPTHLABELFREQ: 100.000000
HEAVYGRIDFREQ: 50.000000
MEDIUMGRIDFREQ: 50.000000
LIGHTGRIDFREQ: 10.000000
#
#   TRACK 1
#
STARTTRACK: 
 LEFTX: 0.500000 inch
 RIGHTX: 3.000000 inch
 SCALETYPE: Linear
 NUMCHARTDIVISIONS: 10
CURVE: GR    0.000000   150.000000 (255,0,0)      Short_Dash        4     N    
CURVE: DTedit 5571.227500 23879.853500 (0,131,131)    Solid             2     N
ENDTRACK: 
#
#   TRACK 2
#
STARTTRACK: 
 LEFTX: 3.750000 inch
 RIGHTX: 6.250000 inch
 SCALETYPE: Linear
 NUMCHARTDIVISIONS: 10
ENDTRACK: 
#
#   TRACK 3
#
STARTTRACK: 
 LEFTX: 6.250000 inch
 RIGHTX: 8.750000 inch
 SCALETYPE: Linear
 NUMCHARTDIVISIONS: 10
CURVE: DT    190.000000 50.000000  (255,0,131)    Solid             2     N    
ENDTRACK: 
<DescLogPlotEnd>
<DepthTrack type='Reference' track='1' Label='0' color='0' hor='0' />
<Reference font='144,0,-900,0,500,0,16777216,Arial' />
~A DEPTH     DT               DTedit             GR              
# ...
    7300.000 64.08200000      15605.00590000   43.52660000     
    7300.500 64.21170000      15573.48540000   46.95020000     
    7301.000 64.51510000      15500.24800000   51.03300000     
    7301.500 64.42040000      15523.03220000   53.17510000     
    7302.000 64.46640000      15511.95700000   52.67920000     
    7302.500 64.76250000      15441.03520000   50.32080000     
    7303.000 64.43660000      15519.13090000   47.80300000     
    7303.500 64.14070000      15590.72460000   45.98970000     
    7304.000 63.97440000      15631.25290000   45.73550000     
    7304.500 63.78960000      15676.53610000   46.87680000     
    7305.000 63.39420000      15774.31350000   48.24190000     
    7305.500 62.67470000      15955.40140000   49.81790000     
    7306.000 62.90770000      15896.30570000   52.18880000     
    7306.500 64.43400000      15519.75680000   56.11540000     
    7307.000 67.84410000      14739.67480000   61.99430000     
    7307.500 69.67130000      14353.11230000   72.25900000     
    7308.000 71.55260000      13975.73340000   87.52800000     
    7308.500 73.84110000      13542.59280000   90.18090000     
    7309.000 74.82090000      13365.25000000   84.56670000     
    7309.500 75.38820000      13264.67580000   77.88170000     
    7310.000 73.84700000      13541.51170000   75.61740000     
    7310.500 73.44460000      13615.70410000   75.44230000     
    7311.000 74.04580000      13505.15530000   73.97530000     
    7311.500 74.13810000      13488.34180000   74.11680000     
    7312.000 75.12100000      13311.85640000   74.19410000     
    7312.500 76.15210000      13131.61430000   71.57800000     
    7313.000 76.41740000      13086.02540000   70.59860000     
    7313.500 76.01720000      13154.91800000   73.96460000     
    7314.000 75.61430000      13225.01070000   78.74390000     
    7314.500 76.10690000      13139.41210000   84.95720000     
    7315.000 76.34270000      13098.83010000   82.71110000     
    7315.500 76.15370000      13131.33790000   77.50700000     
    7316.000 74.56320000      13411.44140000   73.29600000     
    7316.500 73.96690000      13519.56050000   68.82290000     
    7317.000 73.75680000      13558.07230000   67.34220000     
    7317.500 73.57730000      13591.14840000   69.39450000     
    7318.000 73.57210000      13592.10940000   73.32100000     
    7318.500 73.76790000      13556.03220000   79.01260000     
    7319.000 74.42440000      13436.45310000   86.34720000     
    7319.500 74.74840000      13378.21290000   92.69470000     
    7320.000 74.76860000      13374.59860000   97.25220000     
    7320.500 75.80380000      13191.95020000   99.17960000     
    7321.000 76.59010000      13056.51760000   99.64250000     
    7321.500 77.55570000      12893.95800000   100.26440000    
    7322.000 78.56570000      12728.20120000   101.67710000    
    7322.500 79.15980000      12632.67480000   99.86680000     
    7323.000 78.97420000      12662.36330000   93.21330000     
    7323.500 76.82750000      13016.17290000   80.01840000     
    7324.000 75.35310000      13270.85350000   72.71510000     
    7324.500 73.31950000      13638.93550000   69.24770000     
    7325.000 70.95410000      14093.61820000   66.96420000     
    7325.500 70.19230000      14246.57710000   64.41210000     
    7326.000 69.97310000      14291.20610000   62.15830000     
    7326.500 70.35270000      14214.09570000   61.98260000     
    7327.000 70.18080000      14248.91110000   62.15950000     
    7327.500 69.55140000      14377.85640000   62.41250000     
    7328.000 70.50630000      14183.12890000   63.42930000     
    7328.500 70.81100000      14122.10060000   62.66280000     
    7329.000 70.18910000      14247.22560000   60.38240000     
    7329.500 69.58080000      14371.78030000   55.71860000     
    7330.000 68.89780000      14514.25200000   54.07630000     
    7330.500 68.81840000      14530.99800000   54.46130000     
    7331.000 68.90470000      14512.79790000   57.32430000     
    7331.500 69.60490000      14366.80570000   61.26960000     
    7332.000 70.46880000      14190.67680000   66.03640000     
    7332.500 71.21640000      14041.70900000   69.27270000     
    7333.000 71.66080000      13954.63090000   70.08020000     
    7333.500 71.65030000      13956.67580000   67.57340000     
    7334.000 71.24510000      14036.05270000   61.69440000     
    7334.500 70.68430000      14147.41210000   56.19030000     
    7335.000 69.97570000      14290.67480000   52.25750000     
    7335.500 69.14950000      14461.42090000   51.22380000     
    7336.000 68.41280000      14617.14650000   53.92870000     
    7336.500 68.58580000      14580.27730000   56.05440000     
    7337.000 69.46620000      14395.49020000   58.88300000     
    7337.500 69.96670000      14292.51370000   65.26170000     
    7338.000 70.43860000      14196.76170000   69.64440000     
    7338.500 72.10130000      13869.37500000   71.27580000     
    7339.000 73.18300000      13664.37600000   70.03170000     
    7339.500 72.04710000      13879.80960000   68.47770000     
    7340.000 71.03630000      14077.30960000   62.67530000     
    7340.500 70.48450000      14187.51660000   58.18020000     
    7341.000 70.09460000      14266.43460000   56.34030000     
    7341.500 69.83140000      14320.20610000   54.00050000     
    7342.000 68.71090000      14553.73140000   52.53520000     
    7342.500 68.16890000      14669.44630000   54.31290000     
    7343.000 68.81640000      14531.41990000   56.90880000     
    7343.500 70.05570000      14274.35550000   59.51400000     
    7344.000 74.90840000      13349.63770000   64.01220000     
    7344.500 74.72900000      13381.68650000   69.62880000     
    7345.000 73.49560000      13606.25680000   71.39830000     
    7345.500 73.30100000      13642.37790000   68.42300000     
    7346.000 72.65470000      13763.73440000   58.15200000     
    7346.500 72.31770000      13827.87300000   53.99820000     
    7347.000 70.67520000      14149.23440000   54.83000000     
    7347.500 67.81880000      14745.17380000   57.19930000     
    7348.000 69.71040000      14345.06150000   60.88230000     
    7348.500 72.40280000      13811.62010000   64.37150000     
    7349.000 73.58780000      13589.20900000   65.68970000     
    7349.500 74.65320000      13395.27340000   67.00950000     
    7350.000 74.73430000      13380.73730000   68.72450000     
    7350.500 73.74610000      13560.03910000   69.14930000     
    7351.000 73.18530000      13663.94530000   67.27970000     
    7351.500 72.76010000      13743.79590000   64.24650000     
    7352.000 71.17270000      14050.33110000   64.91500000     
    7352.500 69.56870000      14374.28030000   66.47530000     
    7353.000 69.03750000      14484.88180000   66.95480000     
    7353.500 68.71450000      14552.96880000   63.63740000     
    7354.000 68.53080000      14591.97950000   62.60970000     
    7354.500 67.92770000      14721.53520000   61.46640000     
    7355.000 67.67680000      14776.11130000   59.52030000     
    7355.500 67.56820000      14799.86130000   56.66830000     
    7356.000 67.69480000      14772.18260000   52.34190000     
    7356.500 68.17800000      14667.48730000   48.31060000     
    7357.000 68.95430000      14502.35840000   48.54020000     
    7357.500 69.74060000      14338.84960000   52.11070000     
    7358.000 70.48830000      14186.75200000   56.20910000     
    7358.500 71.79830000      13927.90620000   62.07550000     
    7359.000 72.85290000      13726.29000000   73.90830000     
    7359.500 73.63070000      13581.29200000   89.56470000     
    7360.000 74.41700000      13437.79000000   113.48020000    
    7360.500 75.92900000      13170.19820000   125.95310000    
    7361.000 76.98620000      12989.34080000   143.34280000    
    7361.500 76.50880000      13070.39260000   152.54830000    
    7362.000 76.72940000      13032.81350000   153.95090000    
