#--------------------------------------------------#
#-------------------ENVERUS, INC.------------------#
#------------------WWW.ENVERUS.COM-----------------#
#------------------COPYRIGHT 2020------------------#
#--------------------------------------------------#
#THIS FILE MAY BE USED ONLY IN ACCORDANCE WITH A CURRENT SUBSCRIPTION AGREEMENT BETWEEN
#THE USER AND ENVERUS, INC. NO PART OF THIS FILE MAY BE REPRODUCED, USED, COPIED,
#MODIFIED, PROPAGATED, OR DISTRIBUTED EXCEPT IN ACCORDANCE WITH THE SUBSCRIPTION
#AGREEMENT. UNAUTHORIZED USE OR DISTRIBUTION OF ALL OR ANY PART OF THIS FILE MAY VIOLATE
#COPYRIGHT, TRADEMARK, AND/OR OTHER LAWS AND IS SUBJECT TO CIVIL AS WELL AS CRIMINAL
#SANCTIONS.
#--------------------------------------------------#
#THIS FILE IS PROVIDED "AS-IS" AND ALL WARRANTIES ARE EXPRESSLY DISCLAIMED, WHETHER
#EXPRESS, ORAL, IMPLIED, STATUTORY OR OTHERWISE, INCLUDING ANY IMPLIED WARRANTY OF FITNESS
#FOR A PARTICULAR PURPOSE, MERCHANTABILITY, TITLE OR NON-INFRINGEMENT, AND ANY WARRANTIES
#ARISING BY VIRTUE OF CUSTOM OF TRADE OR COURSE OF DEALING.  FURTHER, ENVERUS, INC.
#AND ITS LICENSORS DO NOT REPRESENT OR WARRANT THAT THIS FILE WILL MEET USER'S
#REQUIREMENTS OR ARE SUITABLE FOR USER'S NEEDS OR THAT THE DATA OR RESULTS PROVIDED IN
#CONJUNCTION THEREWITH ARE CORRECT, ACCURATE, TIMELY OR RELIABLE. THESE DISCLAIMERS SHALL
#APPLY REGARDLESS OF ANY FAILURE OF ESSENTIAL PURPOSE OF ANY LIMITED REMEDY.  SOME
#JURISDICTIONS DO NOT ALLOW THE EXCLUSION OF CERTAIN WARRANTIES SO SOME OF THE ABOVE
#EXCLUSIONS MAY NOT APPLY. IN NO EVENT SHALL ENVERUS, INC. OR ANY OF ITS AFFILIATES
#BE LIABLE UNDER ANY LEGAL THEORY, WHETHER IN TORT (INCLUDING WITHOUT LIMITATION
#NEGLIGENCE), CONTRACT, STRICT LIABILITY, STATUTORY OR OTHERWISE, FOR ANY SPECIAL,
#INCIDENTAL, CONSEQUENTIAL, EXEMPLARY, PUNITIVE OR INDIRECT DAMAGE OF ANY KIND, INCLUDING
#WITHOUT LIMITATION LOSS OF REVENUE, PROFITS, GOODWILL, USE, AND/OR DATA OR THE COST OF
#PROCUREMENT OF SUBSTITUTE GOODS OR SERVICES, EVEN IF APPRISED OF THE POSSIBILITY OF SUCH
#DAMAGES IN ADVANCE.
#--------------------------------------------------#

# EXPORTED FROM DI TRANSFORM
# DI TRANSFORM - A PRODUCT OF DRILLINGINFO, INC. - WWW.DRILLINGINFO.COM
#
~VERSION INFORMATION
 VERS.        2.0 : LAS ASCII STANDARD - VERSION 2.0
 WRAP.         NO : ONE LINE PER DEPTH STEP

~WELL INFORMATION
#MNEM.UNIT       DATA TYPE       INFORMATION
#---------       ---------       -----------
 STRT.FT           190 : START DEPTH
 STOP.FT         12010 : STOP DEPTH
 STEP.FT           0.5 : STEP LENGTH
 NULL.         -999.25 : NULL VALUE
 UWI.   42389335580000 : UNIQUE WELL ID
 API.   42389335580000 : WELL IDENTIFIER
 COMP.                 : COMPANY
 WELL.          DRD_55 : WELL NAME
 FLD.                  : FIELD NAME
 LOC.                  : WELL LOCATION
 CNTY.                 : COUNTY
 STAT.                 : STATE OR PROVINCE
 CTRY.                 : COUNTRY
 SRVC.                 : SERVICE COMPANY
 DATE.                 : DATE

~CURVE INFORMATION
#MNEM.UNIT       API CODE       CURVE DESCRIPTION
#---------       --------       -----------------
 DEPT.FT          : <MEASURED DEPTH>
 CAL.IN           : CALIPER
 DPHI.%           : DENSITY POROSITY
 DT.US/FT         : SONIC
 GR.GAPI          : GAMMA RAY
 NPHI.%           : NEUTRON POROSITY
 RHOB.G/CM3       : DENSITY

~PARAMETER INFORMATION
#MNEM.UNIT       VALUE       DESCRIPTION
#---------       -----       -----------
 EKB.FT      2793 : ELEVATION ABOVE MSL

~A      DEPT         CAL        DPHI          DT          GR        NPHI        RHOB
# ...
     10117.5       8.834      16.609      83.242     93.1482     22.8976      2.4524
       10118       8.834     15.5061     83.8306     92.9943     22.1548       2.457
     10118.5       8.834     15.8135     83.9919     93.4996     26.6216      2.4619
       10119       8.834     14.8219     83.9919     90.0371     22.2983      2.4516
     10119.5       8.834     15.5481     83.9482     92.7171     21.2162       2.454
       10120       8.834     15.7017     83.7475     94.9904     21.3645      2.4568
     10120.5       8.834     15.8487     83.5672      85.936     22.6979      2.4589
       10121       8.834     15.2919      83.067     90.4478     24.1592      2.4635
     10121.5       8.834     15.6518     82.2355     92.6344     25.0787      2.4854
       10122       8.834     14.9835     81.0737     85.1806     23.9207      2.5191
     10122.5       8.834     12.4912     80.1262     82.6047     23.0198      2.5364
       10123       8.834     10.2096     79.6818     83.5378     22.7979      2.4939
     10123.5       8.834     12.8749     79.9175     81.2406     22.6127      2.4846
       10124       8.834     13.7352     80.8111     87.6507     20.1686      2.4912
     10124.5       8.834      13.216      81.297     96.7443     21.5559      2.5004
       10125       8.834     13.9135     80.7815     96.7163     20.9412      2.5145
     10125.5       8.834     12.4837     79.0973     90.7618      22.493       2.525
       10126       8.834     11.7136     76.9125      82.758     23.3706      2.5306
     10126.5       8.834     10.7733     75.4654     63.9376     19.6812      2.5147
       10127       8.834     10.9697     75.4064     71.6683      15.904      2.5034
     10127.5       8.834     12.7562     76.2815     86.1338     17.2132       2.528
       10128       8.834     12.5176     77.3366     95.7222     18.3573       2.507
     10128.5       8.834     10.7533     77.9331      91.162     18.9564      2.4914
       10129       8.834      13.509     78.1263     94.5752     20.3208      2.4691
     10129.5       8.834      13.444     77.7461     95.1892     22.5009      2.4634
       10130       8.834     15.2022     76.0043     93.6533     19.1927      2.5505
     10130.5       8.834      14.534     72.8698     75.5418     19.8494      2.5974
       10131       8.834      9.5324     67.9711     53.3762      21.056      2.6476
     10131.5       8.834      5.0384     63.2674     42.6754     18.4193      2.6628
       10132       8.834      3.0795     59.9195     32.3062      8.2899      2.6214
     10132.5       8.834      3.5028     59.4164      29.172      8.4812      2.6025
       10133       8.834      5.7754     61.0031     42.0686      9.2502      2.5977
     10133.5       8.834       7.386     63.4089     83.9407     10.7229      2.5957
       10134       8.834      7.3736     65.4327     73.8981     12.9965      2.5931
     10134.5       8.834       6.557     66.5794     49.8766      8.8621      2.5825
       10135       8.834      5.8137      68.162     56.1424      7.8155       2.541
     10135.5       8.834     10.2661     70.7869     68.5829     15.7405      2.4943
       10136       8.834     12.4239     75.4092     97.7608     16.3427      2.4531
     10136.5       8.834     13.2131     79.5695     108.776     14.8129       2.434
       10137       8.834     18.0291     82.2301    114.7854     16.1575      2.4631
     10137.5       8.834     16.7044      81.442    108.8746      24.432      2.4901
       10138       8.834      14.133     77.3346    102.0322     23.7429      2.5441
     10138.5       8.834      9.5953     72.3853     75.6721     17.5021      2.5833
       10139      8.8869      8.3676     67.0383     45.5999     17.0228      2.5811
     10139.5       8.915      6.7424     64.8573     37.0931     13.8131      2.5456
       10140      8.9251      9.6624     64.7461     61.4709     11.3458       2.526
     10140.5       8.915     11.2694     68.0874     73.4141     10.9623      2.5234
       10141      8.8745     12.1881     70.1314     80.7112     13.3777       2.537
     10141.5      8.8745      10.635     69.8369     75.7264     15.6863      2.5534
       10142      8.8745      9.7653     67.3583     60.9885     14.5854      2.5788
     10142.5      8.8745      8.1869     64.3534     51.9105     11.8189      2.6125
       10143      8.8745      4.4867     61.5703     49.3841      8.8263      2.6363
     10143.5      8.8745      4.3093     59.4597     52.8421      8.0682      2.6473
       10144      8.8745      3.5065     58.3916      58.209      7.2439      2.6592
     10144.5      8.8745      2.4726      58.607     53.6622      7.6273      2.6413
       10145      8.8745      4.7753     60.0563     63.0028        7.98      2.5858
     10145.5      8.8745      8.8305     62.4371     70.3099      9.8742      2.5575
       10146      8.8745      9.0238     65.5198     74.9974     10.3213      2.5499
     10146.5      8.8745      9.8972     67.3325     74.1893     11.8905      2.5448
       10147      8.8745     10.1356     67.7269     70.5839     14.4688      2.5537
     10147.5      8.8745     10.0885     67.2723     62.5753      13.259      2.5773
       10148      8.8745      7.0651     66.6127     56.5256     12.1485      2.5703
     10148.5      8.8745      8.8163     66.9861     62.5115     11.3466      2.5461
       10149      8.8745     10.0222     69.0478     74.2515     14.7438      2.5343
     10149.5      8.8745     10.7294     71.7257     83.3508     16.2136      2.5189
       10150      8.8745     11.0137     75.2282     91.5038     18.9704       2.506
     10150.5      8.8745     12.6851     77.8962    105.8506     22.3879      2.4967
       10151      8.8745     13.1486     80.2577    113.5667     21.1453       2.489
     10151.5      8.8745     13.1405     81.6477    113.5628     25.1573      2.4824
       10152      8.8745     14.4298     81.3366    113.6194     26.3313      2.4848
     10152.5      8.8745     13.6995     79.3933     116.249     24.0343      2.5021
       10153      8.8745     13.1966     74.9926     85.4009      21.903      2.5739
     10153.5      8.8813     10.1327     69.4497     59.6994     18.8678      2.6693
       10154      8.8745      3.6521     62.4483     32.1548     14.7683      2.6918
     10154.5      8.8745      1.1456     57.9863     20.6559      6.8474      2.6812
       10155      8.8745      0.6372     55.4439     24.1705      4.3989      2.6668
     10155.5      8.8745      2.1887     56.6233     33.8323      3.9539      2.6116
       10156      8.8745      2.0375     62.1724     52.3754     12.6985      2.5468
     10156.5      8.8745      8.5038     67.6959     71.4999     17.4081      2.5278
       10157      8.8745     10.7986     72.0815     81.7273     16.2034      2.5299
     10157.5      8.8745       11.34     73.6686     77.8405     18.7284      2.5355
       10158      8.8745     11.1839     72.8843      68.466      19.485      2.5456
     10158.5      8.8745     10.1547     70.9469     59.7334      17.525      2.5528
       10159      8.8745      9.7983     69.2309     60.3684     14.1614      2.5461
     10159.5      8.8745     10.6271     69.0975     59.5195     12.9861      2.5354
       10160      8.8745      10.255     70.6601     55.9022     13.0535      2.5228
     10160.5      8.8745     10.6884     73.4029     85.5476      17.426      2.5086
       10161      8.8745     11.3576     76.3427    100.8904     16.7515      2.4964
     10161.5      8.8791     13.3199     77.5916    102.2523     16.3493      2.5247
       10162       8.915     11.6796     77.6532     89.6819     22.0857      2.5478
     10162.5       8.915      9.7461     77.3405     83.8057     19.1926      2.5218
       10163       8.915     12.0742     77.0278     87.4847     20.9335      2.5072
     10163.5       8.915     11.7489     77.3714     98.4947     20.6533      2.5144
       10164       8.915     12.4033     77.9692    106.7905     19.5576      2.5206
     10164.5       8.915     11.6415     78.4521    103.4083     20.0094      2.5283
