~VERSION INFORMATION
 VERS.                2.0:   CWLS LOG ASCII STANDARD - VERSION 2.0
 WRAP.                 NO:   ONE LINE PER DEPTH STEP
~WELL INFORMATION
#MNEM.UNIT      DATA TYPE    INFORMATION
#----------   ------------   ------------------------------
 STRT.FT           0.0000:   START DEPTH
 STOP.FT        7147.0000:   STOP DEPTH
 STEP.FT           0.5000:   STEP LENGTH
 NULL.          -999.2500:   NULL VALUE
 COMP. MOBIL PRODUCING TEXAS & NEW MEEXICO INC:   COMPANY
 WELL. SCHLOSER FRED ESTATE B #2:   WELL
 FLD .      ROJO CABALLOS:   FIELD
 LOC .                   :   LOCATION
 CNTY.              PECOS:   COUNTY
 STAT.              TEXAS:   STATE
 CTRY. UNITED STATES OF AMERICA:   COUNTRY
 SRVC.       Schlumberger:   SERVICE COMPANY
 DATE.        10-Jun-1980:   LOGDATE
 API .     42371330900000:   API NUMBER
~CURVE INFORMATION
#MNEM.UNIT       API CODE    CURVE DESCRIPTION
#----------   ------------   ------------------------------
 DEPT.F                  :   
 GRD .GAPI   45 310 01 00:   GAMMA RAY FROM DENSITY LOG
 GRR .GAPI   11 310 01 00:   GAMMA RAY FROM RESISTIVITY LOG
 GRS .GAPI   60 310 01 00:   GAMMA RAY FROM SONIC LOG
 DT  .US/F   60 500 00 00:   DELTA-T (INTERVAL TRANSIT TIME)
 CALD.IN     45 280 60 00:   CALIPER FROM DENSITY LOG
 CORR.G/C3   45 356 01 00:   DENSITY CORRECTION
 RHOB.G/C3   45 350 01 00:   BULK DENSITY
 NPHI_LS.DEC 42 890 01 00:   NEUTRON POROSITY LIMESTONE
 DPHI_LS.DEC 45 890 10 00:   DENSITY POROSITY LIMESTONE
 LLD .OHMM   11 220 10 00:   LATEROLOG DEEP RESISTIVITY
 LLS .OHMM   11 220 09 00:   LATEROLOG SHALLOW RESISTIVITY
~PARAMETER INFORMATION
#MNEM.UNIT          VALUE    DESCRIPTION
#----------   ------------   ------------------------------
 PD  .                 GL:   PERMANENT DATUM
 EPD .FT             2752:   ELEVATION PERMANENT DATUM
 LMF .                 KB:   LOG MEASURED FROM
 DAPD.FT               13:   FEET ABOVE PERMANENT DATUM
 DMF .                 KB:   DRILLING MEASURED FROM
 EKB .FT             2765:   KELLY BUSHING
 EDF .FT             2764:   DRILLING FLOOR
 EGL .FT             2752:   GROUND LEVEL
 DATE.           06/10/80:   RUN DATE
 RUN .                  1:   RUN NUMBER
 DD  .FT             7150:   DEPTH DRILLER
 DL  .FT             7150:   DEPTH LOGGER
 BLI .FT             7147:   BOTTOM LOG INTERVAL
 TLI .FT             5000:   TOP LOG INTERVAL
 CS  .IN            8.625:   CASING SIZE
 CBD .FT             1919:   CASING BOTTOM DRILLER
 CBL .FT             1904:   CASING BOTTOM LOGGER
 BS  .IN            7.875:   BIT SIZE
 BSD .FT             7150:   BIT SIZE AT DEPTH
 DFT .              BRINE:   DRILLING FLUID TYPE
 DFD .                 10:   DRILLING FLUID DENSITY
 DFV .                 35:   DRILLING FLUID VISCOSITY
 DFPH.                9.5:   DRILLING FLUID PH
 DFL .                 20:   DRILLING FLUID LOSS
 MSS .               CIRC:   MUD SAMPLE SOURCE
 RMS .OHMM           .055:   RESISTIVITY MUD SAMPLE
 MST .DEGF             73:   MUD SAMPLE TEMPERATURE
 RMF .OHMM           .055:   RESISTIVITY MUD FILTRATE SAMPLE
 MFST.DEGF             73:   MUD FILTRATE SAMPLE TEMPERATURE
 MFSS.                  M:   MUD FILTRATE SAMPLE SOURCE
 RMB .OHMM            .03:   RESISTIVITY MUD AT BHT
 BHT .DEGF            107:   BOTTOM HOLE TEMPERATURE
 TCS .HRS            1615:   TIME CIRCULATED STOPPED
 TLAB.HRS            0300:   TIME LOGGER AT BOTTOM
 MRT .DEGF            107:   MAXIMUM RECORDED TEMPERATURE
 LUN .               8024:   LOGGING UNIT NUMBER
 LUL .               MONA:   LOGGING UNIT LOCATION
 ENGI.           MC BRIDE:   RECORDING ENGINEER
 CLNT.            :   CLIENT CODE
 ORIG.      1" 2.5" PRINT:   ORIGIN OF DATA
 UWI .     42371330900000:   UNIQUE WELL ID
 
~OTHER INFORMATION
~A    DEPT     GRD        GRR         GRS        DT       CALD       CORR       RHOB      NPHI_LS    DPHI_LS      LLD        LLS   
# ...
 6527.0000    59.3032    60.4803    64.4029    66.1477     9.5172     0.0014     2.5525     0.1604     0.1031     9.0234     9.0778
 6527.5000    62.8184    61.9570    67.2755    66.2266     9.5177    -0.0003     2.5392     0.1693     0.1098     9.0030     9.0510
 6528.0000    69.7991    66.5632    71.0592    66.5292     9.5182    -0.0003     2.5329     0.1785     0.1107     9.9555    10.0982
 6528.5000    80.3943    73.2165    79.9234    67.9974     9.5187    -0.0003     2.5386     0.1877     0.1088    12.4304    12.7188
 6529.0000    92.6392    84.9729    91.7556    69.7184     9.5182     0.0062     2.5443     0.2018     0.1021    15.4620    15.6661
 6529.5000   107.5219   100.1085   106.5733    71.7656     9.5204     0.0073     2.5500     0.2206     0.1010    19.3950    19.2965
 6530.0000   122.3823   115.8434   121.8599    75.9430     9.5295     0.0067     2.5557     0.2527     0.0998    23.5502    23.7681
 6530.5000   139.3633   140.1631   133.0659    76.4277     9.5423     0.0043     2.5614     0.2788     0.0986    28.0524    27.5487
 6531.0000   129.0354   140.7968   135.4149    73.7685     9.5623     0.0013     2.5685     0.2925     0.0937    30.5213    31.1581
 6531.5000   118.4438   135.9154   126.2332    69.2335     9.5823    -0.0013     2.5750     0.2700     0.0860    39.2514    40.4100
 6532.0000    91.3850   127.7726   107.1244    63.7686     9.6023    -0.0025     2.5844     0.2159     0.0739    49.4173    49.9330
 6532.5000    64.3567    79.5182    79.3494    60.7655     9.6224    -0.0026     2.5941     0.1453     0.0729    47.2509    48.6818
 6533.0000    50.2577    55.5852    58.0323    59.9043     9.6467    -0.0015     2.5903     0.1057     0.0788    35.9663    37.0555
 6533.5000    41.5316    46.9233    49.7399    60.7553     9.6773     0.0088     2.5838     0.0970     0.0842    24.9072    25.9234
 6534.0000    41.2356    42.3456    44.9422    61.6157     9.7079     0.0230     2.5788     0.0989     0.0825    18.0352    18.3048
 6534.5000    41.4730    41.3132    43.3252    62.6336     9.7384     0.0272     2.5862     0.1051     0.0755    12.9874    13.5060
 6535.0000    42.0839    41.6147    43.5972    63.0897     9.7705     0.0276     2.5869     0.1115     0.0747    10.1685    11.3156
 6535.5000    42.7355    42.2238    44.7507    63.4035     9.8181     0.0229     2.5775     0.1152     0.0806     8.3001     9.4805
 6536.0000    43.3468    43.0958    43.6389    63.6269     9.8730     0.0183     2.5672     0.1179     0.0895     7.5149     9.0492
 6536.5000    43.9985    45.3502    41.1815    63.8503     9.9108     0.0151     2.5567     0.1207     0.0975     7.0949     8.6932
 6537.0000    44.6103    48.5530    40.9353    65.1525     9.9187     0.0078     2.5451     0.1289     0.1037     6.7097     8.0881
 6537.5000    50.5845    52.2506    44.0653    67.1614     9.9536     0.0020     2.5268     0.1437     0.1148     6.0976     7.4708
 6538.0000    66.2275    57.8902    52.5271    69.3813     9.9886    -0.0001     2.5062     0.1616     0.1281     5.4307     6.1098
 6538.5000    76.6939    68.1762    62.0020    70.8461    10.0235     0.0016     2.5049     0.1796     0.1292     5.1980     5.4165
 6539.0000    84.0849    79.1443    71.8627    70.8892    10.0735     0.0046     2.5114     0.2010     0.1242     6.0717     5.9551
 6539.5000    81.5462    87.1834    79.4527    70.3130    10.1433     0.0073     2.5201     0.2011     0.1187     7.1348     7.0282
 6540.0000    69.2452    86.2026    80.8752    69.0583    10.1954     0.0068     2.5235     0.1871     0.1166     8.3840     9.0116
 6540.5000    62.4728    76.2782    75.4872    67.6884    10.2475     0.0059     2.5246     0.1688     0.1160     9.2100     9.1239
 6541.0000    59.3501    66.9031    69.3687    67.4265    10.2967    -0.0001     2.5236     0.1605     0.1163     8.9037     8.2863
 6541.5000    57.4893    61.2692    64.2178    67.2842    10.3296    -0.0058     2.5224     0.1600     0.1171     8.1100     7.7019
 6542.0000    57.1051    63.1007    62.9594    67.3743    10.3708    -0.0064     2.5197     0.1622     0.1200     7.3846     7.2112
 6542.5000    58.5705    63.8503    63.9781    67.3729    10.4190    -0.0060     2.5165     0.1651     0.1233     6.9346     6.7517
 6543.0000    59.8795    62.1297    62.7281    66.9834    10.4834    -0.0037     2.5157     0.1655     0.1229     6.8510     6.4972
 6543.5000    61.2258    60.4276    59.9974    66.7475    10.5229    -0.0001     2.5208     0.1657     0.1193     6.7684     6.3267
 6544.0000    62.5258    59.0557    60.3247    66.9303    10.5461     0.0035     2.5290     0.1675     0.1160     6.6868     6.1259
 6544.5000    62.5482    60.0307    62.8561    67.5714    10.5693     0.0072     2.5355     0.1749     0.1115     6.5135     5.8921
 6545.0000    61.8293    61.6343    65.9255    68.2265    10.5863     0.0108     2.5315     0.1799     0.1115     6.1850     5.7162
 6545.5000    60.6595    62.6191    68.0933    68.9274    10.5905     0.0141     2.5274     0.1786     0.1138     5.9941     5.5316
 6546.0000    59.4895    62.6360    65.2435    69.1818    10.5948     0.0158     2.5161     0.1793     0.1200     5.8141     5.0891
 6546.5000    58.2823    61.0189    62.0912    69.3356    10.5991     0.0011     2.5044     0.1848     0.1274     5.8115     4.7976
 6547.0000    57.1121    59.4283    60.4810    69.3036    10.6033     0.0004     2.4922     0.1886     0.1352     5.8089     4.7950
 6547.5000    56.7755    58.4667    60.3392    69.2997    10.6076     0.0004     2.4855     0.1892     0.1407     5.8064     4.7777
 6548.0000    56.7611    61.0866    60.8480    69.3949    10.6119     0.0045     2.4827     0.1867     0.1424     5.8038     4.7409
 6548.5000    59.4291    65.4830    62.0995    69.7616    10.6161     0.0080     2.4803     0.1869     0.1444     5.8012     4.6988
 6549.0000    61.1142    68.1009    63.0162    70.1764    10.6203     0.0114     2.4780     0.1871     0.1466     5.6742     4.5170
 6549.5000    62.7229    66.4263    62.8754    70.4814    10.6241     0.0128     2.4756     0.1886     0.1493     5.5044     4.3399
 6550.0000    61.2878    62.2022    62.1571    70.8977    10.6279     0.0142     2.4758     0.1911     0.1483     5.3397     4.1848
 6550.5000    59.1228    59.1098    59.6499    71.2896    10.6317     0.0155     2.4832     0.1936     0.1434     5.1799     4.0307
 6551.0000    56.7612    56.9852    60.4512    71.5723    10.6355     0.0167     2.4878     0.2020     0.1400     4.9733     3.9044
 6551.5000    56.3581    56.4149    61.9063    71.7493    10.6393     0.0167     2.4879     0.2102     0.1394     4.8451     3.6804
 6552.0000    57.8061    56.8191    62.1478    72.0229    10.6432     0.0167     2.4809     0.2122     0.1402     4.6868     3.4253
 6552.5000    59.3029    57.6219    62.3568    72.3212    10.6433     0.0119     2.4756     0.2141     0.1416     4.0382     3.0079
 6553.0000    60.7510    58.6190    63.4334    72.5151    10.6406     0.0065     2.4681     0.2184     0.1510     3.8619     2.9012
 6553.5000    61.6620    59.9192    64.3209    72.9329    10.6375     0.0028     2.4500     0.2235     0.1631     3.6962     2.7791
 6554.0000    60.4205    60.7961    65.1265    73.2069    10.6338     0.0017     2.4479     0.2216     0.1713     3.5377     2.6577
 6554.5000    58.4054    57.5110    63.8387    73.3775    10.6300     0.0070     2.4458     0.2198     0.1693     3.3927     2.5337
 6555.0000    56.4650    54.0793    63.9446    73.6908    10.6263     0.0138     2.4387     0.2201     0.1652     3.2575     2.4531
 6555.5000    55.0675    51.8377    66.5503    74.4268    10.6226     0.0098     2.4332     0.2222     0.1648     3.0743     2.3301
 6556.0000    54.4637    49.2550    64.1542    75.1726    10.6188     0.0034     2.4269     0.2286     0.1786     2.6770     2.1130
 6556.5000    52.8192    48.1276    60.5648    75.8970    10.6151    -0.0019     2.4015     0.2372     0.1952     2.3984     1.8744
 6557.0000    50.0361    48.0559    57.6147    76.1674    10.6071     0.0036     2.3915     0.2476     0.2040     2.2347     1.6485
