#--------------------------------------------------#
#-------------------ENVERUS, INC.------------------#
#------------------WWW.ENVERUS.COM-----------------#
#------------------COPYRIGHT 2020------------------#
#--------------------------------------------------#
#THIS FILE MAY BE USED ONLY IN ACCORDANCE WITH A CURRENT SUBSCRIPTION AGREEMENT BETWEEN
#THE USER AND ENVERUS, INC. NO PART OF THIS FILE MAY BE REPRODUCED, USED, COPIED,
#MODIFIED, PROPAGATED, OR DISTRIBUTED EXCEPT IN ACCORDANCE WITH THE SUBSCRIPTION
#AGREEMENT. UNAUTHORIZED USE OR DISTRIBUTION OF ALL OR ANY PART OF THIS FILE MAY VIOLATE
#COPYRIGHT, TRADEMARK, AND/OR OTHER LAWS AND IS SUBJECT TO CIVIL AS WELL AS CRIMINAL
#SANCTIONS.
#--------------------------------------------------#
#THIS FILE IS PROVIDED "AS-IS" AND ALL WARRANTIES ARE EXPRESSLY DISCLAIMED, WHETHER
#EXPRESS, ORAL, IMPLIED, STATUTORY OR OTHERWISE, INCLUDING ANY IMPLIED WARRANTY OF FITNESS
#FOR A PARTICULAR PURPOSE, MERCHANTABILITY, TITLE OR NON-INFRINGEMENT, AND ANY WARRANTIES
#ARISING BY VIRTUE OF CUSTOM OF TRADE OR COURSE OF DEALING.  FURTHER, ENVERUS, INC.
#AND ITS LICENSORS DO NOT REPRESENT OR WARRANT THAT THIS FILE WILL MEET USER'S
#REQUIREMENTS OR ARE SUITABLE FOR USER'S NEEDS OR THAT THE DATA OR RESULTS PROVIDED IN
#CONJUNCTION THEREWITH ARE CORRECT, ACCURATE, TIMELY OR RELIABLE. THESE DISCLAIMERS SHALL
#APPLY REGARDLESS OF ANY FAILURE OF ESSENTIAL PURPOSE OF ANY LIMITED REMEDY.  SOME
#JURISDICTIONS DO NOT ALLOW THE EXCLUSION OF CERTAIN WARRANTIES SO SOME OF THE ABOVE
#EXCLUSIONS MAY NOT APPLY. IN NO EVENT SHALL ENVERUS, INC. OR ANY OF ITS AFFILIATES
#BE LIABLE UNDER ANY LEGAL THEORY, WHETHER IN TORT (INCLUDING WITHOUT LIMITATION
#NEGLIGENCE), CONTRACT, STRICT LIABILITY, STATUTORY OR OTHERWISE, FOR ANY SPECIAL,
#INCIDENTAL, CONSEQUENTIAL, EXEMPLARY, PUNITIVE OR INDIRECT DAMAGE OF ANY KIND, INCLUDING
#WITHOUT LIMITATION LOSS OF REVENUE, PROFITS, GOODWILL, USE, AND/OR DATA OR THE COST OF
#PROCUREMENT OF SUBSTITUTE GOODS OR SERVICES, EVEN IF APPRISED OF THE POSSIBILITY OF SUCH
#DAMAGES IN ADVANCE.
#--------------------------------------------------#

~VERSION INFORMATION
VERS. 2.0 : CWLS LOG ASCII STANDARD - VERSION 2.0
WRAP.  NO : ONE LINE PER DEPTH STEP
~WELL INFORMATION
#MNEMONIC     .UNIT              VALUE :DESCRIPTION
STRT       .FT                101 :START DEPTH
STOP       .FT                5444 :STOP DEPTH
STEP       .FT                   0.500 :STEP
NULL       .                  -999.99 :NULL
UWI        .                42389004350000 :UNIQUE WELL ID
API        .                42389004350000 :API NUMBER
COMP       .         :COMPANY
WELL       .        :WELL
DATE       .                 :LOG DATE
FLD       .                 :FIELD NAME
LOC       .                  UNK :LOCATION
CNTY       .                 UNK :COUNTY
STAT       .                 UNK :STATE
CTRY       .                 UNK :COUNTY
SRVC       .                 UNK :SERVICE COMPANY
~CURVE INFORMATION
#MNEMONIC     .UNIT      API CODE :CURVE DESCRIPTION
DEPTH       .FT                      :MEASURED DEPTH
DT.MSEC/FT        UNKNOWN   :DT
GR.API        UNKNOWN   :GR
~A    DEPTH    DT    GR
# ...
 4688.5     48.95396   6.17363
 4689     48.96866   5.84668
 4689.5     48.98335   6.63444
 4690     48.94626   7.70027
 4690.5     48.86045   8.52332
 4691     48.77465   8.02402
 4691.5     48.68884   7.52472
 4692     48.60304   7.03149
 4692.5     48.51723   7.42683
 4693     48.43143   7.82217
 4693.5     48.34562   8.2175
 4694     48.25982   8.02649
 4694.5     48.17401   7.72678
 4695     48.08821   7.42706
 4695.5     48.16977   7.12735
 4696     48.43087   6.82763
 4696.5     48.69197   6.52791
 4697     48.95307   6.79039
 4697.5     49.21417   7.5314
 4698     49.47527   8.27241
 4698.5     49.73637   9.01343
 4699     49.99747   9.75444
 4699.5     50.25857   10.49545
 4700     50.51967   10.83257
 4700.5     50.16641   9.58167
 4701     49.80316   8.33078
 4701.5     49.43992   7.07989
 4702     49.07667   5.829
 4702.5     48.71342   4.5781
 4703     48.35018   3.32721
 4703.5     48.06861   3.99678
 4704     48.16285   4.81175
 4704.5     48.25708   5.62672
 4705     48.35132   6.44168
 4705.5     48.44556   7.25665
 4706     48.53979   8.07162
 4706.5     48.63403   8.15606
 4707     48.72826   7.73328
 4707.5     48.8225   7.31051
 4708     48.91673   6.88773
 4708.5     48.7673   6.46496
 4709     48.51356   6.04218
 4709.5     48.25982   5.61941
 4710     48.00607   5.19663
 4710.5     47.75233   4.77385
 4711     47.64553   7.73015
 4711.5     47.713   7.43052
 4712     47.78048   7.13088
 4712.5     47.84796   6.83125
 4713     47.91544   6.53161
 4713.5     47.98292   6.23198
 4714     48.05039   6.70913
 4714.5     48.11787   7.30217
 4715     48.18535   7.89521
 4715.5     48.25283   8.48825
 4716     48.10403   9.08129
 4716.5     47.95136   9.60923
 4717     47.79869   9.22421
 4717.5     47.64601   8.83919
 4718     47.49334   8.45417
 4718.5     47.34067   8.06916
 4719     47.188   7.68414
 4719.5     47.06847   7.29912
 4720     47.2211   6.9141
 4720.5     47.37374   6.52908
 4721     47.52637   6.14406
 4721.5     47.67901   5.75904
 4722     47.83164   5.41219
 4722.5     47.98427   6.00525
 4723     48.13691   6.22135
 4723.5     48.28954   5.98819
 4724     48.44218   5.75503
 4724.5     48.58183   5.52187
 4725     48.60041   5.28871
 4725.5     48.619   5.49913
 4726     48.63758   5.87649
 4726.5     48.65616   6.25385
 4727     48.67474   6.6312
 4727.5     48.69332   7.00856
 4728     48.7119   7.38592
 4728.5     48.73048   6.83076
 4729     48.74907   6.20485
 4729.5     48.76765   5.57894
 4730     48.74978   4.95302
 4730.5     48.70498   4.32711
 4731     48.66018   3.91029
 4731.5     48.61539   4.60206
 4732     48.60522   5.29383
 4732.5     48.65394   5.9856
 4733     48.70266   6.67738
 4733.5     48.75138   7.36915
 4734     48.80011   8.06092
 4734.5     48.84883   7.96534
 4735     48.89755   7.70316
 4735.5     48.94628   7.44099
 4736     48.995   7.17882
 4736.5     49.04372   7.26397
 4737     49.09244   7.56024
 4737.5     49.10889   7.85652
 4738     49.11943   8.15279
 4738.5     49.12997   7.68298
 4739     49.14052   7.15914
 4739.5     49.15106   7.34513
 4740     49.1616   7.67114
 4740.5     49.10232   7.99715
 4741     48.98194   8.32316
 4741.5     48.86157   8.64917
 4742     48.74119   8.70541
 4742.5     48.62081   8.55516
 4743     48.50044   8.40492
 4743.5     48.38006   8.25468
 4744     48.25968   8.10443
 4744.5     48.13931   7.95419
 4745     48.01893   7.88419
 4745.5     48.04137   8.04539
 4746     48.17804   8.20658
 4746.5     48.3147   8.36778
 4747     48.45137   8.52897
 4747.5     48.58804   8.69017
 4748     48.72471   8.45667
 4748.5     48.86138   7.77259
 4749     48.99805   7.08851
 4749.5     49.13471   6.40443
 4750     49.27138   6.94968
 4750.5     49.40805   7.81193
 4751     49.54472   8.67417
 4751.5     49.5636   9.53641
 4752     49.43168   10.39865
 4752.5     49.29977   11.26089
 4753     49.16786   10.55842
 4753.5     49.03595   9.83511
 4754     48.90403   9.11181
 4754.5     48.77212   8.38851
 4755     48.64021   7.66521
 4755.5     48.5083   6.94191
 4756     48.37639   7.47986
 4756.5     48.24447   8.57568
 4757     48.20364   9.6715
 4757.5     48.29252   10.76732
 4758     48.3814   11.86313
 4758.5     48.47028   12.07182
 4759     48.55917   10.99341
 4759.5     48.64805   9.91499
 4760     48.73693   8.83658
 4760.5     48.82581   7.75816
 4761     48.82773   6.97741
 4761.5     48.74768   7.63634
 4762     48.66763   8.29527
 4762.5     48.58758   8.9542
 4763     48.50753   9.61313
 4763.5     48.67997   10.27206
 4764     48.92106   10.93099
 4764.5     49.16215   11.58992
 4765     49.40324   12.24885
 4765.5     49.4147   12.90778
 4766     49.25027   12.03858
 4766.5     49.08585   10.43854
 4767     48.92142   8.83849
 4767.5     48.757   7.77982
 4768     48.59258   7.18152
 4768.5     54.93497   6.58323
 4769     57.96567   7.01656
 4769.5     57.98807   7.54373
 4770     58.01047   8.0709
 4770.5     58.03287   8.59808
 4771     58.05527   8.94108
 4771.5     58.07766   8.39729
 4772     55.53755   7.8535
 4772.5     52.50294   7.30971
 4773     52.16335   6.76592
 4773.5     52.45587   6.22213
 4774     52.74839   6.02667
 4774.5     52.83655   6.36014
 4775     51.36241   6.69361
 4775.5     51.08181   7.02708
 4776     51.71506   7.36056
 4776.5     52.3483   7.69403
 4777     52.98155   8.0275
 4777.5     53.6148   8.36097
 4778     54.24804   8.69444
 4778.5     54.88129   8.02799
 4779     56.16511   7.33006
 4779.5     61.28983   6.63212
 4780     66.41456   5.93419
 4780.5     65.66409   5.40869
 4781     64.28486   5.40753
 4781.5     62.90564   5.40637
 4782     61.52641   5.40522
 4782.5     60.89229   5.17438
 4783     60.08116   4.76648
 4783.5     57.57371   4.35858
 4784     55.06625   3.95068
 4784.5     53.13961   3.54278
 4785     55.03566   3.13488
 4785.5     56.93171   3.64424
 4786     58.82776   4.40198
 4786.5     60.72381   5.15973
 4787     62.61986   5.91747
 4787.5     64.51591   6.63241
 4788     66.16664   6.28725
 4788.5     66.24747   5.9421
 4789     66.32831   5.59694
 4789.5     66.40914   5.25179
 4790     61.54102   4.90664
 4790.5     59.99208   4.56148
 4791     60.64637   4.52621
 4791.5     59.27326   5.66899
 4792     57.90015   6.81178
 4792.5     59.1609   7.95457
 4793     60.99071   8.09032
 4793.5     62.82052   7.26215
 4794     64.65032   6.43398
 4794.5     65.68373   5.60581
 4795     65.9848   4.77764
 4795.5     66.28587   3.94947
 4796     66.58694   3.1213
 4796.5     66.50009   3.12265
 4797     65.50346   3.49317
 4797.5     64.50684   3.54186
 4798     63.84364   3.36192
 4798.5     64.69504   3.18198
 4799     65.54643   3.00205
 4799.5     66.39782   2.82211
 4800     67.24921   2.77774
 4800.5     66.15454   3.01149
 4801     64.91294   3.24523
 4801.5     63.67134   3.47898
 4802     63.4284   3.71273
 4802.5     65.48855   3.94648
 4803     67.3182   4.18022
 4803.5     67.79854   4.41397
 4804     68.27888   4.64772
 4804.5     68.75921   4.88147
 4805     68.2218   4.93048
 4805.5     66.40677   4.59396
 4806     64.59175   4.25743
 4806.5     62.77672   3.92091
 4807     60.9617   3.73994
 4807.5     59.14667   4.69512
 4808     55.85839   5.65031
 4808.5     52.15718   6.60549
 4809     48.45596   7.56067
 4809.5     48.66888   7.9245
 4810     50.09142   7.28403
 4810.5     51.51397   6.64355
 4811     51.7165   6.00307
 4811.5     50.92499   5.36259
 4812     50.77296   4.72211
 4812.5     51.34852   4.08163
 4813     51.92408   3.4951
 4813.5     51.19377   5.44667
 4814     50.17584   7.39825
 4814.5     49.15791   8.40688
 4815     48.7818   7.83627
 4815.5     48.67565   7.26565
 4816     48.5695   6.69503
 4816.5     48.46334   6.12441
 4817     48.35719   5.5538
 4817.5     48.25104   5.75529
 4818     48.14489   6.47547
 4818.5     48.03874   7.19564
 4819     47.93259   7.91582
 4819.5     48.09587   7.25985
 4820     48.33691   6.90582
 4820.5     48.57795   7.43972
 4821     48.7919   7.97362
 4821.5     48.70736   7.7589
 4822     48.62282   7.22091
