#--------------------------------------------------#
#-------------------ENVERUS, INC.------------------#
#------------------WWW.ENVERUS.COM-----------------#
#------------------COPYRIGHT 2020------------------#
#--------------------------------------------------#
#THIS FILE MAY BE USED ONLY IN ACCORDANCE WITH A CURRENT SUBSCRIPTION AGREEMENT BETWEEN
#THE USER AND ENVERUS, INC. NO PART OF THIS FILE MAY BE REPRODUCED, USED, COPIED,
#MODIFIED, PROPAGATED, OR DISTRIBUTED EXCEPT IN ACCORDANCE WITH THE SUBSCRIPTION
#AGREEMENT. UNAUTHORIZED USE OR DISTRIBUTION OF ALL OR ANY PART OF THIS FILE MAY VIOLATE
#COPYRIGHT, TRADEMARK, AND/OR OTHER LAWS AND IS SUBJECT TO CIVIL AS WELL AS CRIMINAL
#SANCTIONS.
#--------------------------------------------------#
#THIS FILE IS PROVIDED "AS-IS" AND ALL WARRANTIES ARE EXPRESSLY DISCLAIMED, WHETHER
#EXPRESS, ORAL, IMPLIED, STATUTORY OR OTHERWISE, INCLUDING ANY IMPLIED WARRANTY OF FITNESS
#FOR A PARTICULAR PURPOSE, MERCHANTABILITY, TITLE OR NON-INFRINGEMENT, AND ANY WARRANTIES
#ARISING BY VIRTUE OF CUSTOM OF TRADE OR COURSE OF DEALING.  FURTHER, ENVERUS, INC.
#AND ITS LICENSORS DO NOT REPRESENT OR WARRANT THAT THIS FILE WILL MEET USER'S
#REQUIREMENTS OR ARE SUITABLE FOR USER'S NEEDS OR THAT THE DATA OR RESULTS PROVIDED IN
#CONJUNCTION THEREWITH ARE CORRECT, ACCURATE, TIMELY OR RELIABLE. THESE DISCLAIMERS SHALL
#APPLY REGARDLESS OF ANY FAILURE OF ESSENTIAL PURPOSE OF ANY LIMITED REMEDY.  SOME
#JURISDICTIONS DO NOT ALLOW THE EXCLUSION OF CERTAIN WARRANTIES SO SOME OF THE ABOVE
#EXCLUSIONS MAY NOT APPLY. IN NO EVENT SHALL ENVERUS, INC. OR ANY OF ITS AFFILIATES
#BE LIABLE UNDER ANY LEGAL THEORY, WHETHER IN TORT (INCLUDING WITHOUT LIMITATION
#NEGLIGENCE), CONTRACT, STRICT LIABILITY, STATUTORY OR OTHERWISE, FOR ANY SPECIAL,
#INCIDENTAL, CONSEQUENTIAL, EXEMPLARY, PUNITIVE OR INDIRECT DAMAGE OF ANY KIND, INCLUDING
#WITHOUT LIMITATION LOSS OF REVENUE, PROFITS, GOODWILL, USE, AND/OR DATA OR THE COST OF
#PROCUREMENT OF SUBSTITUTE GOODS OR SERVICES, EVEN IF APPRISED OF THE POSSIBILITY OF SUCH
#DAMAGES IN ADVANCE.
#--------------------------------------------------#

~VERSION INFORMATION
VERS. 2.0 : CWLS LOG ASCII STANDARD - VERSION 2.0
WRAP.  NO : ONE LINE PER DEPTH STEP
~WELL INFORMATION
#MNEMONIC     .UNIT              VALUE :DESCRIPTION
STRT       .FT                75 :START DEPTH
STOP       .FT                5648 :STOP DEPTH
STEP       .FT                   0.500 :STEP
NULL       .                  -999.990 :NULL
UWI        .              42371363570000 :UNIQUE WELL ID
API        .              42371363570000 :API NUMBER
COMP       .         APACHE CORPORATION :COMPANY
WELL       .        SCHLOSSER, FRED ESTATE -B-  13 :WELL
DATE       .                16-MAY-1992 :LOG DATE
~CURVE INFORMATION
#MNEMONIC     .UNIT      API CODE :CURVE DESCRIPTION
DEPTH       .FT                      :MEASURED DEPTH
DT.US/FT        UNKNOWN   :DT
GR.API        UNKNOWN   :GR
~A    DEPTH    DT    GR
# ...
 4013.5     48.859   12.378
 4014     48.819   11.616
 4014.5     48.779   11.889
 4015     48.705   12.704
 4015.5     48.613   13.519
 4016     48.52   14.242
 4016.5     48.428   13.047
 4017     48.455   11.853
 4017.5     48.594   10.659
 4018     48.733   9.464
 4018.5     48.872   8.658
 4019     49.011   8.817
 4019.5     49.15   8.976
 4020     49.305   9.134
 4020.5     49.546   14.115
 4021     49.661   18.21
 4021.5     49.376   17.303
 4022     49.091   16.395
 4022.5     48.806   15.487
 4023     48.862   14.579
 4023.5     49.038   13.764
 4024     49.213   14.275
 4024.5     49.388   14.787
 4025     49.564   15.417
 4025.5     49.739   17.328
 4026     49.681   19.24
 4026.5     49.239   21.152
 4027     48.797   22.673
 4027.5     48.649   20.202
 4028     48.779   17.732
 4028.5     48.909   15.261
 4029     49.04   12.791
 4029.5     49.17   11.678
 4030     49.3   11.116
 4030.5     49.43   10.554
 4031     49.561   9.991
 4031.5     49.313   10.626
 4032     48.399   11.982
 4032.5     48.821   13.337
 4033     48.96   14.241
 4033.5     48.628   13.751
 4034     48.297   13.262
 4034.5     48.314   12.772
 4035     48.402   12.282
 4035.5     48.49   11.792
 4036     51.757   10.935
 4036.5     52.136   9.887
 4037     48.399   8.839
 4037.5     48.197   8.439
 4038     48.972   8.415
 4038.5     49.747   8.392
 4039     50.522   8.369
 4039.5     49.654   8.345
 4040     48.729   8.806
 4040.5     47.954   9.464
 4041     48.485   10.123
 4041.5     48.649   9.741
 4042     48.463   8.98
 4042.5     48.277   8.219
 4043     48.089   7.457
 4043.5     47.677   6.696
 4044     47.265   7.062
 4044.5     46.853   8.306
 4045     47.187   9.549
 4045.5     50.686   10.793
 4046     54.185   10.685
 4046.5     63.974   10.531
 4047     74.528   7.815
 4047.5     76.026   4.547
 4048     73.924   3.234
 4048.5     71.821   3.136
 4049     65.057   3.037
 4049.5     51.887   2.939
 4050     47.423   3.25
 4050.5     47.152   6.584
 4051     46.881   7.183
 4051.5     46.609   7.392
 4052     46.338   7.601
 4052.5     46.768   7.5
 4053     47.864   6.443
 4053.5     49.209   5.386
 4054     48.485   5.245
 4054.5     47.761   5.604
 4055     47.167   7.894
 4055.5     47.355   10.053
 4056     47.543   10.19
 4056.5     47.773   10.328
 4057     48.111   8.72
 4057.5     48.964   6.406
 4058     49.246   4.974
 4058.5     49.236   5.552
 4059     49.225   6.13
 4059.5     49.126   6.708
 4060     48.734   7.286
 4060.5     48.342   7.864
 4061     48.213   8.442
 4061.5     48.204   8.489
 4062     48.195   8.318
 4062.5     48.186   8.147
 4063     48.315   8.378
 4063.5     48.557   9.018
 4064     48.798   9.658
 4064.5     49.04   10.298
 4065     49.19   10.648
 4065.5     49.212   10.089
 4066     49.233   9.529
 4066.5     49.254   8.97
 4067     49.276   8.41
 4067.5     49.297   6.393
 4068     49.318   4.28
 4068.5     49.293   4.1
 4069     48.81   3.971
 4069.5     48.328   3.843
 4070     47.846   5.931
 4070.5     47.364   7.632
 4071     47.244   7.263
 4071.5     47.332   6.895
 4072     47.419   6.527
 4072.5     47.507   6.824
 4073     47.594   7.479
 4073.5     47.681   8.133
 4074     47.708   8.788
 4074.5     47.728   8.457
 4075     47.487   7.914
 4075.5     47.246   7.372
 4076     47.005   7.112
 4076.5     47.149   7.043
 4077     47.379   6.973
 4077.5     47.608   7.22
 4078     47.539   7.97
 4078.5     47.298   8.72
 4079     47.108   8.881
 4079.5     47.438   8.686
 4080     47.768   8.491
 4080.5     48.098   8.297
 4081     48.428   8.102
 4081.5     48.673   7.908
 4082     48.734   7.784
 4082.5     48.794   7.762
 4083     48.855   7.74
 4083.5     48.756   7.718
 4084     48.495   7.696
 4084.5     48.548   7.674
 4085     48.821   7.652
 4085.5     49.095   7.63
 4086     49.368   7.608
 4086.5     49.642   7.586
 4087     49.479   7.564
 4087.5     49.214   7.404
 4088     48.949   7.233
 4088.5     48.683   7.062
 4089     48.418   6.89
 4089.5     48.153   6.719
 4090     48.136   6.548
 4090.5     48.428   7.171
 4091     48.719   8.606
 4091.5     49.01   10.041
 4092     49.301   11.476
 4092.5     49.574   11.562
 4093     49.333   11.053
 4093.5     49.092   10.544
 4094     48.851   10.507
 4094.5     48.61   10.689
 4095     48.059   10.87
 4095.5     47.472   10.387
 4096     47.733   9.611
 4096.5     48.406   8.835
 4097     49.08   8.095
 4097.5     49.753   8.513
 4098     49.592   8.931
 4098.5     49.284   9.349
 4099     48.976   9.766
 4099.5     48.09   9.817
 4100     47.57   9.16
 4100.5     47.617   8.502
 4101     47.663   7.845
 4101.5     47.71   7.909
 4102     47.862   8.31
 4102.5     48.314   8.711
 4103     48.767   8.342
 4103.5     49.219   7.639
 4104     49.184   6.936
 4104.5     48.519   6.233
 4105     47.855   5.53
 4105.5     47.85   4.942
 4106     47.923   5.425
 4106.5     47.995   5.908
 4107     48.068   6.391
 4107.5     48.173   6.685
 4108     48.518   6.45
 4108.5     48.863   6.216
 4109     49.341   5.981
 4109.5     49.835   5.746
 4110     50.329   5.977
 4110.5     48.789   9.757
 4111     46.879   10.742
 4111.5     48.356   10.366
 4112     48.537   9.989
 4112.5     48.718   9.612
 4113     48.899   9.235
 4113.5     49.361   8.553
 4114     49.074   7.76
 4114.5     48.519   6.966
 4115     48.869   6.172
 4115.5     49.452   5.378
 4116     50.035   5.05
 4116.5     50.618   4.947
 4117     49.987   6.313
 4117.5     49.324   7.678
 4118     48.66   8.899
 4118.5     48.299   8.851
 4119     48.017   8.803
 4119.5     47.736   8.223
 4120     47.455   7.462
 4120.5     47.291   6.701
 4121     47.13   6.073
 4121.5     47.001   5.756
 4122     47.122   5.44
 4122.5     47.243   5.123
 4123     47.364   4.806
 4123.5     47.792   4.489
 4124     48.962   4.276
 4124.5     49.906   5.352
 4125     50.626   6.429
 4125.5     49.393   7.505
 4126     48.422   8.582
 4126.5     48.031   9.064
 4127     48.674   8.713
 4127.5     49.119   8.361
 4128     49.164   8.009
 4128.5     49.209   7.658
 4129     47.984   7.306
 4129.5     46.958   7.834
 4130     46.694   12.139
 4130.5     47.2   15.628
 4131     48.99   13.931
 4131.5     49.167   12.234
 4132     48.311   10.536
 4132.5     47.455   8.839
 4133     46.599   8.379
 4133.5     47.188   8.865
 4134     47.977   9.351
 4134.5     48.765   9.837
 4135     49.606   9.963
 4135.5     50.535   9.287
 4136     51.225   8.61
 4136.5     50.432   7.934
 4137     49.638   7.221
 4137.5     49.79   6.46
 4138     50.032   5.699
 4138.5     49.964   5.624
 4139     49.36   6.523
 4139.5     48.756   7.423
 4140     48.431   8.297
 4140.5     49.315   7.932
 4141     49.857   7.568
 4141.5     49.495   7.204
 4142     49.133   6.84
 4142.5     48.816   7.112
 4143     48.937   7.993
 4143.5     49.058   8.875
 4144     48.719   9.071
 4144.5     48.309   8.689
 4145     47.899   8.306
 4145.5     48.017   8.932
 4146     48.379   9.595
 4146.5     48.862   10.259
 4147     49.491   10.359
 4147.5     50.121   9.413
 4148     50.439   8.467
 4148.5     50.536   7.521
 4149     50.632   6.574
 4149.5     50.72   5.912
 4150     50.794   5.707
 4150.5     50.868   5.502
 4151     50.942   5.297
 4151.5     51.016   5.092
 4152     51.09   4.887
 4152.5     50.835   4.682
 4153     50.418   4.478
 4153.5     50.001   6.082
 4154     49.795   8.355
 4154.5     50.605   11.241
 4155     51.415   13.394
 4155.5     52.226   14.042
 4156     51.36   14.691
 4156.5     49.642   14.829
 4157     49.511   11.749
 4157.5     49.881   9.102
 4158     50.26   8.876
 4158.5     50.534   8.651
 4159     50.504   8.425
 4159.5     50.474   8.199
 4160     50.722   7.974
 4160.5     51.084   7.748
 4161     51.178   7.522
 4161.5     50.981   7.653
 4162     50.784   7.842
 4162.5     50.586   8.03
 4163     50.831   8.219
 4163.5     51.084   8.407
 4164     51.338   8.596
 4164.5     51.313   8.785
 4165     51.217   8.666
 4165.5     51.121   8.056
 4166     51.07   7.447
 4166.5     51.049   6.932
 4167     51.027   6.931
