#--------------------------------------------------#
#-------------------ENVERUS, INC.------------------#
#------------------WWW.ENVERUS.COM-----------------#
#------------------COPYRIGHT 2020------------------#
#--------------------------------------------------#
#THIS FILE MAY BE USED ONLY IN ACCORDANCE WITH A CURRENT SUBSCRIPTION AGREEMENT BETWEEN
#THE USER AND ENVERUS, INC. NO PART OF THIS FILE MAY BE REPRODUCED, USED, COPIED,
#MODIFIED, PROPAGATED, OR DISTRIBUTED EXCEPT IN ACCORDANCE WITH THE SUBSCRIPTION
#AGREEMENT. UNAUTHORIZED USE OR DISTRIBUTION OF ALL OR ANY PART OF THIS FILE MAY VIOLATE
#COPYRIGHT, TRADEMARK, AND/OR OTHER LAWS AND IS SUBJECT TO CIVIL AS WELL AS CRIMINAL
#SANCTIONS.
#--------------------------------------------------#
#THIS FILE IS PROVIDED "AS-IS" AND ALL WARRANTIES ARE EXPRESSLY DISCLAIMED, WHETHER
#EXPRESS, ORAL, IMPLIED, STATUTORY OR OTHERWISE, INCLUDING ANY IMPLIED WARRANTY OF FITNESS
#FOR A PARTICULAR PURPOSE, MERCHANTABILITY, TITLE OR NON-INFRINGEMENT, AND ANY WARRANTIES
#ARISING BY VIRTUE OF CUSTOM OF TRADE OR COURSE OF DEALING.  FURTHER, ENVERUS, INC.
#AND ITS LICENSORS DO NOT REPRESENT OR WARRANT THAT THIS FILE WILL MEET USER'S
#REQUIREMENTS OR ARE SUITABLE FOR USER'S NEEDS OR THAT THE DATA OR RESULTS PROVIDED IN
#CONJUNCTION THEREWITH ARE CORRECT, ACCURATE, TIMELY OR RELIABLE. THESE DISCLAIMERS SHALL
#APPLY REGARDLESS OF ANY FAILURE OF ESSENTIAL PURPOSE OF ANY LIMITED REMEDY.  SOME
#JURISDICTIONS DO NOT ALLOW THE EXCLUSION OF CERTAIN WARRANTIES SO SOME OF THE ABOVE
#EXCLUSIONS MAY NOT APPLY. IN NO EVENT SHALL ENVERUS, INC. OR ANY OF ITS AFFILIATES
#BE LIABLE UNDER ANY LEGAL THEORY, WHETHER IN TORT (INCLUDING WITHOUT LIMITATION
#NEGLIGENCE), CONTRACT, STRICT LIABILITY, STATUTORY OR OTHERWISE, FOR ANY SPECIAL,
#INCIDENTAL, CONSEQUENTIAL, EXEMPLARY, PUNITIVE OR INDIRECT DAMAGE OF ANY KIND, INCLUDING
#WITHOUT LIMITATION LOSS OF REVENUE, PROFITS, GOODWILL, USE, AND/OR DATA OR THE COST OF
#PROCUREMENT OF SUBSTITUTE GOODS OR SERVICES, EVEN IF APPRISED OF THE POSSIBILITY OF SUCH
#DAMAGES IN ADVANCE.
#--------------------------------------------------#

~VERSION INFORMATION
VERS. 2.0 : CWLS LOG ASCII STANDARD - VERSION 2.0
WRAP.  NO : ONE LINE PER DEPTH STEP
~WELL INFORMATION
#MNEMONIC     .UNIT              VALUE :DESCRIPTION
STRT       .FT                51 :START DEPTH
STOP       .FT                6194 :STOP DEPTH
STEP       .FT                   0.500 :STEP
NULL       .                  -999.990 :NULL
UWI        .              42389004340000 :UNIQUE WELL ID
API        .              42389004340000 :API NUMBER
COMP       .         :COMPANY
WELL       .         1, :WELL
DATE       .                            :LOG DATE
~CURVE INFORMATION
#MNEMONIC     .UNIT      API CODE :CURVE DESCRIPTION
DEPTH       .FT                      :MEASURED DEPTH
GR.API        UNKNOWN   :GR
DT.US/FT        UNKNOWN   :DT
~A    DEPTH    GR    DT
# ...
 2381.5     171.922   52.852
 2382     139.565   51.88
 2382.5     107.208   51.37
 2383     74.851   51.485
 2383.5     42.494   51.6
 2384     17.485   51.715
 2384.5     18.287   51.83
 2385     19.088   51.945
 2385.5     19.89   52.684
 2386     20.692   56.26
 2386.5     21.493   59.836
 2387     22.295   63.412
 2387.5     23.097   66.988
 2388     23.899   70.563
 2388.5     23.657   74.139
 2389     21.496   74.717
 2389.5     19.178   68.893
 2390     16.218   63.068
 2390.5     13.258   57.244
 2391     10.824   51.419
 2391.5     10.794   47.012
 2392     10.763   47.931
 2392.5     10.733   48.85
 2393     10.702   49.769
 2393.5     9.986   50.688
 2394     9.156   51.858
 2394.5     8.326   52.816
 2395     7.496   52.689
 2395.5     6.666   52.562
 2396     6.19   52.436
 2396.5     6.829   52.309
 2397     7.467   52.182
 2397.5     8.105   55.081
 2398     8.744   59.593
 2398.5     9.382   64.105
 2399     10.021   68.618
 2399.5     10.659   73.13
 2400     11.297   77.642
 2400.5     11.936   81.021
 2401     11.841   76.305
 2401.5     11.466   71.59
 2402     11.091   68.555
 2402.5     10.716   68.391
 2403     10.341   68.228
 2403.5     9.967   68.064
 2404     9.592   67.9
 2404.5     9.217   67.737
 2405     8.842   61.416
 2405.5     8.467   55.044
 2406     8.337   48.673
 2406.5     8.655   44.742
 2407     8.974   46.38
 2407.5     9.292   48.018
 2408     9.611   49.656
 2408.5     9.93   50.999
 2409     10.248   51.503
 2409.5     10.135   52.008
 2410     9.955   52.513
 2410.5     10.26   52.943
 2411     10.768   52.842
 2411.5     11.276   52.741
 2412     11.784   52.64
 2412.5     11.894   52.539
 2413     11.353   52.438
 2413.5     10.812   52.338
 2414     10.271   52.237
 2414.5     9.73   52.153
 2415     9.189   52.451
 2415.5     8.648   52.749
 2416     8.107   52.698
 2416.5     7.566   52.587
 2417     7.471   52.476
 2417.5     7.785   52.527
 2418     8.1   52.677
 2418.5     8.414   52.826
 2419     8.728   52.975
 2419.5     9.043   53.125
 2420     9.357   53.274
 2420.5     9.672   53.423
 2421     9.986   53.573
 2421.5     10.301   53.722
 2422     10.615   53.871
 2422.5     10.93   54.021
 2423     11.387   54.17
 2423.5     12.429   55.961
 2424     13.471   60.389
 2424.5     14.514   64.817
 2425     15.556   69.244
 2425.5     16.598   73.672
 2426     17.641   78.1
 2426.5     18.683   81.421
 2427     19.725   77.653
 2427.5     18.131   73.886
 2428     15.696   70.118
 2428.5     13.261   69.413
 2429     11.055   69.271
 2429.5     11.14   69.13
 2430     11.225   68.988
 2430.5     11.31   68.839
 2431     11.395   62.77
 2431.5     11.48   56.702
 2432     11.565   50.633
 2432.5     11.65   44.564
 2433     11.558   45.713
 2433.5     11.307   47.818
 2434     11.057   49.923
 2434.5     10.806   50.861
 2435     10.555   51.107
 2435.5     10.304   51.353
 2436     10.053   51.599
 2436.5     9.802   51.845
 2437     9.551   51.848
 2437.5     9.301   51.849
 2438     9.05   51.849
 2438.5     8.799   51.849
 2439     8.867   51.849
 2439.5     9.115   51.849
 2440     9.362   51.849
 2440.5     9.61   51.936
 2441     9.858   52.147
 2441.5     10.105   52.358
 2442     10.353   52.57
 2442.5     10.601   52.781
 2443     10.849   53.105
 2443.5     12.328   53.462
 2444     14.166   53.818
 2444.5     16.003   54.175
 2445     17.84   54.532
 2445.5     19.678   54.482
 2446     21.515   54.114
 2446.5     18.322   53.746
 2447     14.756   53.379
 2447.5     11.19   53.019
 2448     8.448   52.89
 2448.5     7.981   52.76
 2449     7.515   52.63
 2449.5     7.049   52.645
 2450     6.583   53.05
 2450.5     6.117   53.455
 2451     5.65   53.86
 2451.5     5.184   53.935
 2452     4.718   53.999
 2452.5     4.252   54.063
 2453     4.362   54.128
 2453.5     4.96   54.192
 2454     5.558   54.256
 2454.5     6.156   54.32
 2455     6.754   54.384
 2455.5     7.352   54.356
 2456     7.95   54.308
 2456.5     8.548   54.261
 2457     9.146   54.214
 2457.5     9.744   54.167
 2458     10.342   54.12
 2458.5     10.94   54.073
 2459     11.538   54.026
 2459.5     11.046   53.978
 2460     10.552   53.931
 2460.5     10.058   53.884
 2461     9.565   53.801
 2461.5     9.071   53.707
 2462     8.578   53.613
 2462.5     8.084   53.52
 2463     8.36   53.426
 2463.5     9.048   53.332
 2464     9.736   53.238
 2464.5     10.423   53.145
 2465     10.76   53.078
 2465.5     10.375   53.048
 2466     9.99   53.017
 2466.5     9.604   52.987
 2467     9.219   52.957
 2467.5     8.834   52.927
 2468     8.641   52.897
 2468.5     8.953   52.867
 2469     9.265   53.077
 2469.5     9.576   53.325
 2470     9.888   53.573
 2470.5     10.855   53.822
 2471     13.326   54.07
 2471.5     15.797   54.318
 2472     18.099   54.546
 2472.5     17.594   54.095
 2473     17.089   53.643
 2473.5     16.585   53.192
 2474     16.08   52.741
 2474.5     15.575   52.289
 2475     15.071   52.239
 2475.5     14.566   52.653
 2476     14.061   53.068
 2476.5     14.068   53.521
 2477     14.167   54.18
 2477.5     14.06   54.839
 2478     13.336   54.942
 2478.5     12.612   55.002
 2479     11.888   55.062
 2479.5     11.164   55.122
 2480     10.548   56.162
 2480.5     11.478   57.877
 2481     12.246   59.592
 2481.5     11.818   61.308
 2482     11.39   62.76
 2482.5     10.962   63.142
 2483     10.534   63.524
 2483.5     10.554   66.74
 2484     10.895   71.056
 2484.5     11.237   75.007
 2485     11.579   69.395
 2485.5     11.92   63.782
 2486     12.262   58.169
 2486.5     12.366   52.557
 2487     12.257   46.944
 2487.5     12.202   45.029
 2488     12.451   48.078
 2488.5     12.7   51.128
 2489     12.949   52.631
 2489.5     13.198   53.111
 2490     13.447   53.592
 2490.5     12.412   54.072
 2491     11.325   54.062
 2491.5     10.239   53.872
 2492     9.787   53.682
 2492.5     9.956   53.492
 2493     10.124   54.467
 2493.5     10.293   56.906
 2494     10.461   59.346
 2494.5     10.63   61.785
 2495     10.799   64.225
 2495.5     10.967   66.664
 2496     11.098   69.103
 2496.5     10.761   71.543
 2497     10.424   73.982
 2497.5     10.086   75.502
 2498     9.749   74.955
 2498.5     9.412   74.408
 2499     9.075   73.86
 2499.5     8.738   72.842
 2500     8.401   71.528
 2500.5     8.064   70.214
 2501     7.727   68.899
 2501.5     8.067   67.631
 2502     8.696   68.529
 2502.5     9.326   69.427
 2503     9.956   70.324
 2503.5     10.586   69.966
 2504     11.216   67.821
 2504.5     11.846   68.795
 2505     12.476   69.769
 2505.5     12.68   70.684
 2506     12.433   69.766
 2506.5     12.186   68.849
 2507     11.939   67.931
 2507.5     11.892   67.014
 2508     11.892   67.136
 2508.5     11.892   67.892
 2509     11.701   68.649
 2509.5     11.365   69.021
 2510     11.03   68.278
 2510.5     10.694   67.535
 2511     10.358   66.792
 2511.5     10.023   66.049
 2512     9.687   65.306
 2512.5     9.351   66.469
 2513     9.016   68.212
 2513.5     8.68   69.955
 2514     8.345   71.699
 2514.5     8.463   73.333
 2515     8.722   72.897
 2515.5     8.981   72.461
 2516     9.24   71.961
 2516.5     9.499   71.053
 2517     9.759   70.144
 2517.5     9.743   54.206
 2518     9.01   53.787
 2518.5     8.278   53.368
 2519     7.546   53.781
 2519.5     7.645   54.389
 2520     9.056   54.997
 2520.5     10.466   55.605
 2521     11.26   56.213
 2521.5     10.96   56.821
 2522     10.804   61.195
 2522.5     11.222   65.725
 2523     11.641   70.255
 2523.5     12.06   70.919
 2524     12.478   67.759
 2524.5     12.122   64.599
 2525     11.656   61.439
 2525.5     11.19   58.28
 2526     10.724   58.013
 2526.5     10.258   63.372
 2527     9.792   68.732
 2527.5     9.326   71.94
 2528     8.86   72.142
 2528.5     8.394   72.345
 2529     7.928   71.573
 2529.5     7.462   70.351
 2530     7.18   69.129
 2530.5     7.61   67.908
 2531     8.039   67.597
 2531.5     8.469   67.897
 2532     8.899   68.197
 2532.5     9.328   68.497
 2533     9.758   68.797
