###############################################
##         ENVERUS                           ##
##         ESS - Open Hole                   ##
##         PERMIAN / DELAWARE                ##
##         Nov 04 2023  V4.0                 ##
##         42-389-10119-00-00                ##
###############################################
## Copyright 2017-2023  ENVERUS.  All Rights Reserved. 
## Confidential - Property of ENVERUS, use governed by terms and 
## conditions found within the existing Information Services Subscription Agreement 
## (as may be amended, the “ISSA”) between Customer and ENVERUS. 
## 
~VERSION INFORMATION
# MNEM.UNIT                               DATA : DESCRIPTION OF MNEMONIC
#-----.-----     ----------------------------- : -----------------------------
VERS.                                     2.00 : CWLS LOG ASCII STANDARD - VERSION 2.00
WRAP.                                       NO : MULTIPLE LINES PER DEPTH STEP
VEND.                                  ENVERUS : VENDOR
TYPE.                          ESS - OPEN HOLE : ENVERUS ESSENTIAL CURVES – ACCESSIBLE THROUGH ENVERUS PRISM(TM)
DOC.                                  32008410 : ENVERUS HEADER RAW DOCUMENT ID
#___________________________________________________________________________________________________ 
~WELL INFORMATION 
# X8E3XgEZRMs+LiTqjMYqety/5rGXYLbzRNciiYBq17B6ClLelYcJjKNVvvPfWOVGxhvISow7q4Dbthq8gKP2Nw== 
# MNEM.UNIT                                              DATA : DESCRIPTION OF MNEMONIC 
#-----.-----                    ----------------------------- : ----------------------------- 
CNTY.                                                  REEVES : COUNTY 
STATE.                                                  TEXAS : STATE 
CNTRY.                                                    USA : COUNTRY 
API.                                             42-389-10119 : API (10 Digit) 
API_14.                                    42-389-10119-00-00 : API (14 Digits) 
API_14_std.                                 42-389-10119-0000 : API (14 Digits Standard) 
UWI.                                           42389101190000 : UNIQUE WELL ID 
WELL.                                                   1-40, : WELL NAME
STRT.FT                                                  58.0 : START DEPTH
STOP.FT                                                5338.0 : STOP DEPTH
STEP.FT                                                   0.5 : STEP BETWEEN DEPTHS
NULL.                                                 -999.25 : NULL VALUE
#___________________________________________________________________________________________________ 
~CURVE INFORMATION 
# MNEM.UNIT           : CURVE DESCRIPTION 
#-----.-----          : ----------------------------- 
 DEPT.FT               : MEASURED DEPTH 
 GR.API                : GAMMA RAY (GR) 
 DT.US/FT              : SONIC DELTA TRANSIT TIME (DT) 
 #___________________________________________________________________________________________________ 
~A         DEPT             GR             DT
# ...
         3190.0          8.296         67.102
         3190.5          7.999         67.171
         3191.0          7.702         67.241
         3191.5          7.404         67.310
         3192.0          7.752         67.380
         3192.5          8.739         67.449
         3193.0          9.726         67.519
         3193.5         10.713         67.588
         3194.0         11.700         67.658
         3194.5         12.687         67.660
         3195.0         13.673         67.469
         3195.5         14.660         67.278
         3196.0         18.523         67.088
         3196.5         18.121         66.897
         3197.0         17.719         66.706
         3197.5         19.699         66.516
         3198.0         21.860         66.325
         3198.5         24.020         66.184
         3199.0         26.181         66.310
         3199.5         28.342         66.437
         3200.0         31.937         66.563
         3200.5         29.924         66.690
         3201.0         27.910         66.816
         3201.5         25.897         66.943
         3202.0         25.768         67.069
         3202.5         25.918         67.196
         3203.0         26.068         67.322
         3203.5         26.218         67.371
         3204.0         26.368         67.137
         3204.5         26.518         66.903
         3205.0         17.921         66.668
         3205.5         17.357         66.498
         3206.0         16.793         66.679
         3206.5         16.229         66.859
         3207.0         16.033         67.040
         3207.5         16.384         67.221
         3208.0         16.736         67.402
         3208.5         17.088         67.583
         3209.0         16.477         67.686
         3209.5         15.744         67.498
         3210.0         15.012         67.310
         3210.5         14.279         67.122
         3211.0         13.547         66.934
         3211.5         12.815         66.814
         3212.0         12.729         67.073
         3212.5         13.618         67.333
         3213.0         14.506         67.592
         3213.5         15.395         67.573
         3214.0         16.283         67.431
         3214.5         16.011         67.290
         3215.0         14.847         67.149
         3215.5         15.505         67.008
         3216.0         16.164         67.009
         3216.5         16.822         67.086
         3217.0         17.480         67.164
         3217.5         16.550         67.241
         3218.0         15.346         67.318
         3218.5         15.217         67.396
         3219.0         16.975         67.473
         3219.5         18.733         67.394
         3220.0         20.492         67.237
         3220.5         19.643         67.081
         3221.0         18.245         66.924
         3221.5         16.848         66.801
         3222.0         15.450         66.921
         3222.5         14.053         67.042
         3223.0         12.655         67.162
         3223.5         11.257         67.282
         3224.0         11.485         67.219
         3224.5         11.978         67.055
         3225.0         12.471         66.925
         3225.5         12.965         67.057
         3226.0         13.458         67.190
         3226.5         13.951         67.322
         3227.0         14.444         67.455
         3227.5         14.542         67.549
         3228.0         13.826         67.416
         3228.5         13.111         67.284
         3229.0         12.395         67.152
         3229.5         11.679         67.019
         3230.0         10.963         66.887
         3230.5         10.248         66.754
         3231.0         10.001         66.622
         3231.5         10.680         66.529
         3232.0         11.359         66.919
         3232.5         12.037         67.309
         3233.0         12.396         67.400
         3233.5         12.061         67.312
         3234.0         11.726         67.223
         3234.5         11.391         67.135
         3235.0         11.056         67.047
         3235.5         10.721         66.958
         3236.0         10.386         66.953
         3236.5         10.051         67.006
         3237.0         10.870         67.058
         3237.5         11.956         67.111
         3238.0         12.707         67.164
         3238.5         12.659         67.217
         3239.0         12.611         67.270
         3239.5         12.562         67.323
         3240.0         12.514         67.178
         3240.5         12.466         66.900
         3241.0         13.616         66.622
         3241.5         15.096         66.345
         3242.0         16.575         66.291
         3242.5         17.634         66.437
         3243.0         17.465         66.583
         3243.5         17.296         66.730
         3244.0         18.192         66.876
         3244.5         22.255         67.023
         3245.0         23.811         67.169
         3245.5         24.392         67.158
         3246.0         24.972         67.030
         3246.5         25.553         66.903
         3247.0         26.133         66.775
         3247.5         26.714         66.648
         3248.0         27.294         66.520
         3248.5         27.875         66.528
         3249.0         27.876         66.658
         3249.5         25.256         66.789
         3250.0         22.636         66.919
         3250.5         22.493         67.050
         3251.0         23.382         67.181
         3251.5         23.765         67.132
         3252.0         22.008         66.941
         3252.5         20.251         66.750
         3253.0         18.494         66.559
         3253.5         17.102         66.510
         3254.0         17.054         66.596
         3254.5         17.006         66.683
         3255.0         16.958         66.770
         3255.5         16.910         66.857
         3256.0         16.862         66.943
         3256.5         19.431         67.030
         3257.0         23.098         67.117
         3257.5         23.117         67.204
         3258.0         21.325         67.290
         3258.5         19.532         67.377
         3259.0         17.676         67.464
         3259.5         15.541         67.540
         3260.0         13.405         67.405
         3260.5         11.270         67.271
         3261.0          9.751         67.136
         3261.5         10.478         67.002
         3262.0         11.206         66.867
         3262.5         11.933         66.733
         3263.0         12.661         66.598
         3263.5         13.388         66.676
         3264.0         14.116         66.756
         3264.5         14.844         66.837
         3265.0         15.571         66.917
         3265.5         16.299         66.997
         3266.0         15.895         67.078
         3266.5         14.927         67.158
         3267.0         13.958         67.238
         3267.5         12.990         67.319
         3268.0         12.022         67.399
         3268.5         11.054         67.479
         3269.0         10.086         67.554
         3269.5          9.434         67.390
         3270.0         10.210         67.225
         3270.5         10.986         67.060
         3271.0         11.761         66.895
         3271.5         11.292         66.731
         3272.0         10.190         67.020
         3272.5          9.387         67.323
         3273.0         10.045         67.619
         3273.5         10.703         67.399
         3274.0         11.361         67.179
         3274.5         12.019         66.959
         3275.0         10.293         66.739
         3275.5          9.778         70.725
         3276.0         10.568         69.112
         3276.5         11.358         67.500
