###############################################
##         ENVERUS                           ##
##         ESS - Open Hole                   ##
##         PERMIAN / DELAWARE                ##
##         Nov 04 2023  V4.0                 ##
##         42-389-00931-00-00                ##
###############################################
## Copyright 2017-2023  ENVERUS.  All Rights Reserved. 
## Confidential - Property of ENVERUS, use governed by terms and 
## conditions found within the existing Information Services Subscription Agreement 
## (as may be amended, the “ISSA”) between Customer and ENVERUS. 
## 
~VERSION INFORMATION
# MNEM.UNIT                               DATA : DESCRIPTION OF MNEMONIC
#-----.-----     ----------------------------- : -----------------------------
VERS.                                     2.00 : CWLS LOG ASCII STANDARD - VERSION 2.00
WRAP.                                       NO : MULTIPLE LINES PER DEPTH STEP
VEND.                                  ENVERUS : VENDOR
TYPE.                          ESS - OPEN HOLE : ENVERUS ESSENTIAL CURVES – ACCESSIBLE THROUGH ENVERUS PRISM(TM)
DOC.                                  31935239 : ENVERUS HEADER RAW DOCUMENT ID
#___________________________________________________________________________________________________ 
~WELL INFORMATION 
# S9zL0tdqvH3y2XIpNbXcuKF0SeIoK+7NE6VaQ02nn2+shQHF2oZWL/5TS96hefD+9qjP/MIJWV/WOidK809eGw== 
# MNEM.UNIT                                              DATA : DESCRIPTION OF MNEMONIC 
#-----.-----                    ----------------------------- : ----------------------------- 
CNTY.                                                  REEVES : COUNTY 
STATE.                                                  TEXAS : STATE 
CNTRY.                                                    USA : COUNTRY 
API.                                             42-389-00931 : API (10 Digit) 
API_14.                                    42-389-00931-00-00 : API (14 Digits) 
API_14_std.                                 42-389-00931-0000 : API (14 Digits Standard) 
UWI.                                           42389009310000 : UNIQUE WELL ID 
WELL.                                                      1, : WELL NAME
STRT.FT                                                 101.0 : START DEPTH
STOP.FT                                                5373.0 : STOP DEPTH
STEP.FT                                                   0.5 : STEP BETWEEN DEPTHS
NULL.                                                 -999.25 : NULL VALUE
#___________________________________________________________________________________________________ 
~CURVE INFORMATION 
# MNEM.UNIT           : CURVE DESCRIPTION 
#-----.-----          : ----------------------------- 
 DEPT.FT               : MEASURED DEPTH 
 GR.API                : GAMMA RAY (GR) 
 DT.US/FT              : SONIC DELTA TRANSIT TIME (DT) 
 #___________________________________________________________________________________________________ 
~A         DEPT             GR             DT
# ...
          797.0         48.108       -999.250
          797.5         49.191       -999.250
          798.0         49.697       -999.250
          798.5         48.760       -999.250
          799.0         47.824       -999.250
          799.5         46.888       -999.250
          800.0         45.951       -999.250
          800.5         46.166       -999.250
          801.0         46.450       -999.250
          801.5         46.734       -999.250
          802.0         47.018       -999.250
          802.5         47.412       -999.250
          803.0         48.575       -999.250
          803.5         49.738       -999.250
          804.0         50.901       -999.250
          804.5         51.756       -999.250
          805.0         50.847       -999.250
          805.5         49.939       -999.250
          806.0         49.220       -999.250
          806.5         49.452       -999.250
          807.0         49.685       -999.250
          807.5         49.595       -999.250
          808.0         48.683       -999.250
          808.5         48.079       -999.250
          809.0         47.004       -999.250
          809.5         45.880       -999.250
          810.0         45.125       -999.250
          810.5         46.578       -999.250
          811.0         48.556       -999.250
          811.5         47.806       -999.250
          812.0         47.056       -999.250
          812.5         46.306       -999.250
          813.0         46.771       -999.250
          813.5         47.747       -999.250
          814.0         48.723       -999.250
          814.5         49.699       -999.250
          815.0         50.675       -999.250
          815.5         51.254       -999.250
          816.0         49.089       -999.250
          816.5         46.923       -999.250
          817.0         44.758       -999.250
          817.5         42.593       -999.250
          818.0         40.427       -999.250
          818.5         38.262       -999.250
          819.0         38.944       -999.250
          819.5         40.352       -999.250
          820.0         41.760       -999.250
          820.5         43.168       -999.250
          821.0         44.577       -999.250
          821.5         44.157       -999.250
          822.0         43.204       -999.250
          822.5         42.250       -999.250
          823.0         41.297       -999.250
          823.5         40.343       -999.250
          824.0         39.390       -999.250
          824.5         40.866       -999.250
          825.0         42.939       -999.250
          825.5         44.888       -999.250
          826.0         46.273       -999.250
          826.5         47.658       -999.250
          827.0         49.043       -999.250
          827.5         50.428       -999.250
          828.0         51.812       -999.250
          828.5         53.197       -999.250
          829.0         53.912       -999.250
          829.5         53.088       -999.250
          830.0         52.265       -999.250
          830.5         51.441       -999.250
          831.0         50.617       -999.250
          831.5         50.440       -999.250
          832.0         50.543       -999.250
          832.5         50.646       -999.250
          833.0         50.750       -999.250
          833.5         50.853       -999.250
          834.0         50.956       -999.250
          834.5         51.060       -999.250
          835.0         52.314       -999.250
          835.5         53.580       -999.250
          836.0         54.845       -999.250
          836.5         54.246       -999.250
          837.0         52.121       -999.250
          837.5         49.996       -999.250
          838.0         47.871       -999.250
          838.5         49.320       -999.250
          839.0         49.299       -999.250
          839.5         48.449       -999.250
          840.0         47.599       -999.250
          840.5         46.750       -999.250
          841.0         45.900       -999.250
          841.5         45.532       -999.250
          842.0         46.759       -999.250
          842.5         47.986       -999.250
          843.0         49.213       -999.250
          843.5         50.440       -999.250
          844.0         50.832       -999.250
          844.5         50.260       -999.250
          845.0         49.687       -999.250
          845.5         49.115       -999.250
          846.0         49.613       -999.250
          846.5         50.614       -999.250
          847.0         51.615       -999.250
          847.5         52.615       -999.250
          848.0         53.616       -999.250
          848.5         54.293       -999.250
          849.0         52.174       -999.250
          849.5         50.055       -999.250
          850.0         47.936       -999.250
          850.5         45.818       -999.250
          851.0         44.971       -999.250
          851.5         45.825       -999.250
          852.0         46.620       -999.250
          852.5         45.800       -999.250
          853.0         44.980       -999.250
          853.5         44.160       -999.250
          854.0         43.340       -999.250
          854.5         42.519       -999.250
          855.0         41.699       -999.250
          855.5         41.500       -999.250
          856.0         43.068       -999.250
          856.5         44.635       -999.250
          857.0         46.203       -999.250
          857.5         47.771       -999.250
          858.0         49.339       -999.250
          858.5         50.906       -999.250
          859.0         51.755       -999.250
          859.5         52.546       -999.250
          860.0         53.337       -999.250
          860.5         55.358       -999.250
          861.0         58.212       -999.250
          861.5         61.066       -999.250
          862.0         63.603       -999.250
          862.5         62.802       -999.250
          863.0         62.002       -999.250
          863.5         61.202       -999.250
          864.0         60.402       -999.250
          864.5         59.601       -999.250
          865.0         58.934       -999.250
          865.5         58.333       -999.250
          866.0         57.732       -999.250
          866.5         57.131       -999.250
          867.0         56.530       -999.250
          867.5         55.929       -999.250
          868.0         55.328       -999.250
          868.5         55.378       -999.250
          869.0         55.493       -999.250
          869.5         56.508       -999.250
          870.0         58.437       -999.250
          870.5         60.365       -999.250
          871.0         61.128       -999.250
          871.5         61.131       -999.250
          872.0         61.133       -999.250
          872.5         61.135       -999.250
          873.0         61.137       -999.250
          873.5         61.139       -999.250
          874.0         61.141       -999.250
          874.5         61.143       -999.250
          875.0         61.145       -999.250
          875.5         61.147       -999.250
          876.0         60.818       -999.250
          876.5         58.330       -999.250
          877.0         55.842       -999.250
          877.5         53.353       -999.250
          878.0         50.865       -999.250
          878.5         52.351       -999.250
          879.0         55.433       -999.250
          879.5         58.514       -999.250
          880.0         61.596       -999.250
          880.5         63.599       -999.250
          881.0         63.098       -999.250
          881.5         62.596       -999.250
          882.0         62.095       -999.250
          882.5         61.594       -999.250
          883.0         62.680       -999.250
          883.5         63.796       -999.250
