###############################################
##         ENVERUS                           ##
##         ESS - Open Hole                   ##
##         PERMIAN / DELAWARE                ##
##         Nov 04 2023  V4.0                 ##
##         42-371-36358-00-00                ##
###############################################
## Copyright 2017-2023  ENVERUS.  All Rights Reserved. 
## Confidential - Property of ENVERUS, use governed by terms and 
## conditions found within the existing Information Services Subscription Agreement 
## (as may be amended, the “ISSA”) between Customer and ENVERUS. 
## 
~VERSION INFORMATION
# MNEM.UNIT                               DATA : DESCRIPTION OF MNEMONIC
#-----.-----     ----------------------------- : -----------------------------
VERS.                                     2.00 : CWLS LOG ASCII STANDARD - VERSION 2.00
WRAP.                                       NO : MULTIPLE LINES PER DEPTH STEP
VEND.                                  ENVERUS : VENDOR
TYPE.                          ESS - OPEN HOLE : ENVERUS ESSENTIAL CURVES – ACCESSIBLE THROUGH ENVERUS PRISM(TM)
DOC.                                  32044985 : ENVERUS HEADER RAW DOCUMENT ID
#___________________________________________________________________________________________________ 
~WELL INFORMATION 
# 9/F+NtSLBEAIaZM9LpLMxALTyCH3LMfPBQiNKTeSadJ6NAezaEZy+3+OEP8rVGNvVB4ifWNnxSKvs1BiqqZA9A== 
# MNEM.UNIT                                              DATA : DESCRIPTION OF MNEMONIC 
#-----.-----                    ----------------------------- : ----------------------------- 
CNTY.                                                   PECOS : COUNTY 
STATE.                                                  TEXAS : STATE 
CNTRY.                                                    USA : COUNTRY 
API.                                             42-371-36358 : API (10 Digit) 
API_14.                                    42-371-36358-00-00 : API (14 Digits) 
API_14_std.                                 42-371-36358-0000 : API (14 Digits Standard) 
UWI.                                           42371363580000 : UNIQUE WELL ID 
WELL.                           SCHLOSSER, FRED ESTATE -B-  9 : WELL NAME
STRT.FT                                                 151.0 : START DEPTH
STOP.FT                                                5707.0 : STOP DEPTH
STEP.FT                                                   0.5 : STEP BETWEEN DEPTHS
NULL.                                                 -999.25 : NULL VALUE
COMP.                                      APACHE CORPORATION : COMPANY 
DATE.                                             07-JUN-1992 : LOG DATE
#___________________________________________________________________________________________________ 
~CURVE INFORMATION 
# MNEM.UNIT           : CURVE DESCRIPTION 
#-----.-----          : ----------------------------- 
 DEPT.FT               : MEASURED DEPTH 
 GR.API                : GAMMA RAY (GR) 
 DT.US/FT              : SONIC DELTA TRANSIT TIME (DT) 
 #___________________________________________________________________________________________________ 
~A         DEPT             GR             DT
          151.0         46.752       -999.250
          151.5         46.741       -999.250
          152.0         45.796       -999.250
          152.5         44.851       -999.250
          153.0         43.294       -999.250
          153.5         41.216       -999.250
          154.0         39.138       -999.250
          154.5         40.386       -999.250
          155.0         41.711       -999.250
          155.5         43.037       -999.250
          156.0         44.363       -999.250
          156.5         46.658       -999.250
          157.0         49.554       -999.250
          157.5         49.170       -999.250
          158.0         48.750       -999.250
          158.5         48.331       -999.250
          159.0         46.904       -999.250
          159.5         45.088       -999.250
          160.0         43.273       -999.250
          160.5         42.308       -999.250
          161.0         43.484       -999.250
          161.5         42.995       -999.250
          162.0         41.900       -999.250
          162.5         40.805       -999.250
          163.0         41.978       -999.250
          163.5         43.670       -999.250
          164.0         45.363       -999.250
          164.5         47.055       -999.250
          165.0         47.681       -999.250
          165.5         46.773       -999.250
          166.0         45.985       -999.250
          166.5         46.971       -999.250
          167.0         47.957       -999.250
          167.5         46.727       -999.250
          168.0         45.265       -999.250
          168.5         43.803       -999.250
          169.0         42.341       -999.250
          169.5         40.879       -999.250
          170.0         42.101       -999.250
          170.5         44.473       -999.250
          171.0         46.845       -999.250
          171.5         45.994       -999.250
          172.0         44.410       -999.250
          172.5         42.825       -999.250
          173.0         41.241       -999.250
          173.5         39.074       -999.250
          174.0         37.794       -999.250
          174.5         37.277       -999.250
          175.0         38.969       -999.250
          175.5         39.506       -999.250
          176.0         39.049       -999.250
          176.5         38.592       -999.250
          177.0         38.135       -999.250
          177.5         38.909       -999.250
          178.0         39.835       -999.250
          178.5         40.760       -999.250
          179.0         41.201       -999.250
          179.5         41.200       -999.250
          180.0         41.199       -999.250
          180.5         41.199       -999.250
          181.0         41.198       -999.250
          181.5         41.197       -999.250
          182.0         41.197       -999.250
          182.5         41.196       -999.250
          183.0         42.594       -999.250
          183.5         44.516       -999.250
          184.0         46.438       -999.250
          184.5         47.610       -999.250
          185.0         46.728       -999.250
          185.5         45.847       -999.250
          186.0         44.965       -999.250
          186.5         43.996       -999.250
          187.0         42.775       -999.250
          187.5         41.554       -999.250
          188.0         40.333       -999.250
          188.5         39.710       -999.250
          189.0         39.369       -999.250
          189.5         39.028       -999.250
          190.0         38.768       -999.250
          190.5         42.835       -999.250
          191.0         46.175       -999.250
          191.5         46.175       -999.250
          192.0         45.960       -999.250
          192.5         44.284       -999.250
          193.0         42.608       -999.250
          193.5         40.932       -999.250
          194.0         39.256       -999.250
          194.5         38.820       -999.250
          195.0         40.145       -999.250
          195.5         41.471       -999.250
          196.0         42.787       -999.250
          196.5         44.125       -999.250
          197.0         45.652       -999.250
          197.5         47.180       -999.250
          198.0         48.707       -999.250
          198.5         50.234       -999.250
          199.0         51.761       -999.250
          199.5         52.624       -999.250
          200.0         50.320       -999.250
          200.5         48.017       -999.250
          201.0         47.018       -999.250
          201.5         47.517       -999.250
          202.0         47.031       -999.250
          202.5         44.968       -999.250
          203.0         42.906       -999.250
          203.5         43.246       -999.250
          204.0         44.810       -999.250
          204.5         46.373       -999.250
          205.0         47.936       -999.250
          205.5         50.799       -999.250
          206.0         53.971       -999.250
          206.5         56.642       -999.250
          207.0         55.697       -999.250
          207.5         54.753       -999.250
          208.0         53.808       -999.250
          208.5         52.864       -999.250
          209.0         53.644       -999.250
          209.5         55.103       -999.250
          210.0         55.475       -999.250
          210.5         55.065       -999.250
          211.0         53.972       -999.250
          211.5         52.326       -999.250
          212.0         50.680       -999.250
          212.5         49.029       -999.250
          213.0         47.002       -999.250
          213.5         45.128       -999.250
          214.0         45.463       -999.250
          214.5         45.797       -999.250
          215.0         45.419       -999.250
          215.5         44.530       -999.250
          216.0         43.641       -999.250
          216.5         41.436       -999.250
          217.0         38.849       -999.250
          217.5         36.263       -999.250
          218.0         34.864       -999.250
          218.5         36.009       -999.250
          219.0         37.155       -999.250
          219.5         39.023       -999.250
          220.0         41.098       -999.250
          220.5         43.172       -999.250
          221.0         45.247       -999.250
          221.5         46.276       -999.250
          222.0         47.151       -999.250
          222.5         48.025       -999.250
          223.0         48.900       -999.250
          223.5         49.775       -999.250
          224.0         51.990       -999.250
          224.5         56.141       -999.250
          225.0         59.879       -999.250
          225.5         60.131       -999.250
          226.0         59.223       -999.250
          226.5         56.920       -999.250
          227.0         54.616       -999.250
          227.5         56.758       -999.250
          228.0         60.419       -999.250
          228.5         61.474       -999.250
          229.0         62.329       -999.250
          229.5         63.183       -999.250
          230.0         64.038       -999.250
          230.5         64.276       -999.250
          231.0         63.145       -999.250
          231.5         62.014       -999.250
          232.0         59.533       -999.250
          232.5         56.936       -999.250
          233.0         57.432       -999.250
          233.5         57.931       -999.250
          234.0         58.475       -999.250
          234.5         59.461       -999.250
          235.0         60.446       -999.250
          235.5         59.802       -999.250
          236.0         59.126       -999.250
          236.5         58.451       -999.250
          237.0         57.776       -999.250
          237.5         57.101       -999.250
