~Version Information Block
 VERS.                2.00:     CWLS LOG ASCII STANDARD - VERSION 2.000000
 WRAP.                  NO:     One Line Per Depth Step
#
~Well Information Block
#MNEM.UNIT                     Data                         Information
#----------   ------------------------------------------   ----------------
 STRT.FT                                     1000.0000:     START DEPTH
 STOP.FT                                    15733.0000:     STOP DEPTH
 STEP.FT                                        0.5000:     STEP
 NULL.                                       -999.0000:     NULL VALUE
 COMP.                                 MOBIL PRODUCING:     COMPANY
 WELL.                                    IB-WEATHERBY:     WELL
 FLD .                                   ROJO CABALLOS:     FIELD
 LOC .                                         UNKNOWN:     LOCATION
 LONG.                                 -103.1458890000:     LONGITUDE
 LATI.                                   31.1330510000:     LATITUDE
 CNTY.                                           PECOS:     COUNTY
 STAT.                                           TEXAS:     STATE
 CTRY.                                           U.S.A:     COUNTRY
 SRVC.                                         UNKNOWN:     SERVICE COMPANY
 DATE.                                         UNKNOWN:     DATE
 API .                                  42371057360000:     API NUMBER
 UWI .                                  42371057360000:     UWI NUMBER
 SLAT.                                       31.133051:     Surface latitude
 SLON.                                     -103.145889:     surface longitude
 TVD .                                              NO:     TVD flag
 WSTA.                                             LOC:     Well status
#
~Curve Information Block
#MNEM.UNIT       API CODE      Curve Description
#----------    -------------   -------------------
 DEPT.FT                   :   Depth in Feet
 DT  .UNKNOWN          UNKNOWN:   DT-Load
 DTedit.ft/s          UNKNOWN:   DT-Load
 GR  .UNKNOWN          UNKNOWN:   GR-Load
 GR_org.UNKNOWN          UNKNOWN:   GR_org-Load
#
~Parameter Information Block
#MNEM.UNIT            Value               Description
#----------    --------------------    -------------------
 RUN .                         ONE:    Run Number
 PDAT.                          GL:    Permanent Datum
 EPD .FT                          :    Elevation Of Perm. Datum
 LMF .               KELLY BUSHING:    Log Measured From
 EKB .FT                          :    Elevation Of Kelly Bushing
 DF .FT                           :    Elevation Of Derrick Floor
 GL .FT                           :    Elevation Of Ground Level
 TD  .FT                          :    Total Depth
 CSGD.FT                          :    Casing Bottom (Driller) 1
 CSGL.FT                          :    Casing Bottom (Logger) 1
 MUD .                            :    Drilling Fluid Type
 MUDV .CP                         :    Drilling Fluid Viscosity
 MUDD .LB/USG                     :    Drilling Fluid Density
 FL .ML/30MIN                     :    Drilling Fluid Loss
 PH.                              :    Drilling Fluid Ph
 MUDS .                           :    Mud Sample Source
 RM .OHMM                         :    Resistivity Of Mud Sample
 RMT .DEGF                        :    Mud Sample Temperature
 RMF .OHMM                        :    Mud Filtrate Resistivity
 RMFT.DEGF                        :    Mud Filtrate Sample Temperature
 RMC .OHMM                        :    Mud Cake Resistivity
 RMCT.DEGF                        :    Mud Cake Sample Temperature
 RMB .OHMM                        :    Mud Resistivity At Bht
 TMAX .DEGF                       :    Bottom Hole Temperature
#
~Other Information Block
<DescLogPlotStart>   NEURALOG PLOT DEFINITION
PLOTDEFVERSION: 3
LASFILE: E:\Nair Innovations\42_TEXAS\371_Pecos\Mobil_IB-Weatherby 1 Pecos_1.la
DEPTHSCALE: 239.999996
RESOLUTION: 200
DEPTHLABELFREQ: 100.000000
HEAVYGRIDFREQ: 50.000000
MEDIUMGRIDFREQ: 50.000000
LIGHTGRIDFREQ: 10.000000
#
#   TRACK 1
#
STARTTRACK: 
 LEFTX: 0.500000 inch
 RIGHTX: 3.000000 inch
 SCALETYPE: Linear
 NUMCHARTDIVISIONS: 10
CURVE: GR    0.000000   150.000000 (255,0,0)      Short_Dash        4     N    
CURVE: DTedit 6637.927700 24453.046900 (0,131,131)    Solid             2     N
CURVE: GR_org -999.990000 109.000000 (255,0,255)    Solid             2     N  
ENDTRACK: 
#
#   TRACK 2
#
STARTTRACK: 
 LEFTX: 3.750000 inch
 RIGHTX: 6.250000 inch
 SCALETYPE: Linear
 NUMCHARTDIVISIONS: 10
ENDTRACK: 
#
#   TRACK 3
#
STARTTRACK: 
 LEFTX: 6.250000 inch
 RIGHTX: 8.750000 inch
 SCALETYPE: Linear
 NUMCHARTDIVISIONS: 10
CURVE: DT    190.000000 50.000000  (255,0,131)    Solid             2     N    
ENDTRACK: 
<DescLogPlotEnd>
<DepthTrack type='Reference' track='1' Label='0' color='0' hor='0' />
<Reference font='144,0,-900,0,500,0,16777216,Arial' />
~A DEPTH     DT               DTedit             GR               GR_org            
# ...
    4019.500 52.63420000      18999.05270000   -999.00000000    -999.00000000   
    4020.000 53.29840000      18762.28910000   -999.00000000    -999.00000000   
    4020.500 53.29840000      18762.28910000   -999.00000000    -999.00000000   
    4021.000 53.13490000      18820.02340000   -999.00000000    -999.00000000   
    4021.500 53.13490000      18820.02340000   -999.00000000    -999.00000000   
    4022.000 58.78740000      17010.44730000   -999.00000000    -999.00000000   
    4022.500 58.78740000      17010.44730000   -999.00000000    -999.00000000   
    4023.000 56.43500000      17719.50000000   -999.00000000    -999.00000000   
    4023.500 56.43500000      17719.50000000   -999.00000000    -999.00000000   
    4024.000 66.35160000      15071.22660000   -999.00000000    -999.00000000   
    4024.500 66.35160000      15071.22660000   -999.00000000    -999.00000000   
    4025.000 68.78740000      14537.54590000   -999.00000000    -999.00000000   
    4025.500 68.78740000      14537.54590000   -999.00000000    -999.00000000   
    4026.000 69.20450000      14449.92770000   -999.00000000    -999.00000000   
    4026.500 69.20450000      14449.92770000   -999.00000000    -999.00000000   
    4027.000 66.17220000      15112.08590000   -999.00000000    -999.00000000   
    4027.500 66.17220000      15112.08590000   -999.00000000    -999.00000000   
    4028.000 52.34000000      19105.84570000   -999.00000000    -999.00000000   
    4028.500 52.34000000      19105.84570000   -999.00000000    -999.00000000   
    4029.000 48.53200000      20604.96090000   -999.00000000    -999.00000000   
    4029.500 48.53200000      20604.96090000   -999.00000000    -999.00000000   
    4030.000 47.57360000      21020.06050000   -999.00000000    -999.00000000   
    4030.500 47.57360000      21020.06050000   -999.00000000    -999.00000000   
    4031.000 52.42370000      19075.34180000   -999.00000000    -999.00000000   
    4031.500 52.42370000      19075.34180000   -999.00000000    -999.00000000   
    4032.000 53.12590000      18823.21090000   -999.00000000    -999.00000000   
    4032.500 53.12590000      18823.21090000   -999.00000000    -999.00000000   
    4033.000 53.87370000      18561.93360000   -999.00000000    -999.00000000   
    4033.500 53.87370000      18561.93360000   -999.00000000    -999.00000000   
    4034.000 54.77850000      18255.33790000   -999.00000000    -999.00000000   
    4034.500 54.77850000      18255.33790000   -999.00000000    -999.00000000   
    4035.000 53.65840000      18636.41020000   -999.00000000    -999.00000000   
    4035.500 53.65840000      18636.41020000   -999.00000000    -999.00000000   
    4036.000 52.62740000      19001.50980000   -999.00000000    -999.00000000   
    4036.500 52.62740000      19001.50980000   -999.00000000    -999.00000000   
    4037.000 58.07710000      17218.49020000   -999.00000000    -999.00000000   
    4037.500 58.07710000      17218.49020000   -999.00000000    -999.00000000   
    4038.000 70.08360000      14268.67290000   -999.00000000    -999.00000000   
    4038.500 70.08360000      14268.67290000   -999.00000000    -999.00000000   
    4039.000 72.06410000      13876.53420000   -999.00000000    -999.00000000   
    4039.500 72.06410000      13876.53420000   -999.00000000    -999.00000000   
    4040.000 74.15520000      13485.23140000   -999.00000000    -999.00000000   
    4040.500 74.15520000      13485.23140000   -999.00000000    -999.00000000   
    4041.000 69.94690000      14296.55960000   -999.00000000    -999.00000000   
    4041.500 69.94690000      14296.55960000   -999.00000000    -999.00000000   
    4042.000 67.17250000      14887.04390000   -999.00000000    -999.00000000   
    4042.500 67.17250000      14887.04390000   -999.00000000    -999.00000000   
    4043.000 68.57900000      14581.72270000   -999.00000000    -999.00000000   
    4043.500 68.57900000      14581.72270000   -999.00000000    -999.00000000   
    4044.000 69.18120000      14454.79490000   -999.00000000    -999.00000000   
    4044.500 69.18120000      14454.79490000   -999.00000000    -999.00000000   
    4045.000 69.67830000      14351.67090000   -999.00000000    -999.00000000   
    4045.500 69.67830000      14351.67090000   -999.00000000    -999.00000000   
    4046.000 66.49960000      15037.68360000   -999.00000000    -999.00000000   
    4046.500 66.49960000      15037.68360000   -999.00000000    -999.00000000   
    4047.000 65.30910000      15311.80270000   -999.00000000    -999.00000000   
    4047.500 65.30910000      15311.80270000   -999.00000000    -999.00000000   
    4048.000 66.24910000      15094.54490000   -999.00000000    -999.00000000   
    4048.500 66.24910000      15094.54490000   -999.00000000    -999.00000000   
    4049.000 66.18330000      15109.55270000   -999.00000000    -999.00000000   
    4049.500 66.18330000      15109.55270000   -999.00000000    -999.00000000   
    4050.000 67.18030000      14885.31640000   -999.00000000    -999.00000000   
    4050.500 67.18030000      14885.31640000   -999.00000000    -999.00000000   
    4051.000 66.40030000      15060.17290000   -999.00000000    -999.00000000   
    4051.500 66.40030000      15060.17290000   -999.00000000    -999.00000000   
    4052.000 66.26270000      15091.44630000   -999.00000000    -999.00000000   
    4052.500 66.26270000      15091.44630000   -999.00000000    -999.00000000   
    4053.000 63.39110000      15775.08500000   -999.00000000    -999.00000000   
    4053.500 63.39110000      15775.08500000   -999.00000000    -999.00000000   
    4054.000 69.22520000      14445.60740000   -999.00000000    -999.00000000   
    4054.500 69.22520000      14445.60740000   -999.00000000    -999.00000000   
    4055.000 69.52730000      14382.83980000   -999.00000000    -999.00000000   
    4055.500 69.52730000      14382.83980000   -999.00000000    -999.00000000   
    4056.000 70.08110000      14269.18260000   -999.00000000    -999.00000000   
    4056.500 70.08110000      14269.18260000   -999.00000000    -999.00000000   
    4057.000 71.50020000      13985.97560000   -999.00000000    -999.00000000   
    4057.500 71.50020000      13985.97560000   -999.00000000    -999.00000000   
    4058.000 67.63980000      14784.19530000   -999.00000000    -999.00000000   
    4058.500 67.63980000      14784.19530000   -999.00000000    -999.00000000   
    4059.000 68.89270000      14515.32620000   -999.00000000    -999.00000000   
    4059.500 68.89270000      14515.32620000   -999.00000000    -999.00000000   
    4060.000 67.32130000      14854.14060000   -999.00000000    -999.00000000   
    4060.500 67.32130000      14854.14060000   -999.00000000    -999.00000000   
    4061.000 66.71350000      14989.46970000   -999.00000000    -999.00000000   
    4061.500 66.71350000      14989.46970000   -999.00000000    -999.00000000   
    4062.000 68.87630000      14518.78320000   -999.00000000    -999.00000000   
    4062.500 68.87630000      14518.78320000   -999.00000000    -999.00000000   
    4063.000 70.20520000      14243.95900000   -999.00000000    -999.00000000   
    4063.500 70.20520000      14243.95900000   -999.00000000    -999.00000000   
    4064.000 71.51660000      13982.76760000   -999.00000000    -999.00000000   
    4064.500 71.51660000      13982.76760000   -999.00000000    -999.00000000   
    4065.000 55.99580000      17858.48240000   -999.00000000    -999.00000000   
    4065.500 55.99580000      17858.48240000   -999.00000000    -999.00000000   
    4066.000 47.98140000      20841.41020000   -999.00000000    -999.00000000   
    4066.500 47.98140000      20841.41020000   -999.00000000    -999.00000000   
    4067.000 49.00420000      20406.41410000   -999.00000000    -999.00000000   
    4067.500 49.00420000      20406.41410000   -999.00000000    -999.00000000   
    4068.000 51.21470000      19525.64450000   -999.00000000    -999.00000000   
    4068.500 51.21470000      19525.64450000   -999.00000000    -999.00000000   
