#--------------------------------------------------#
#-------------------ENVERUS, INC.------------------#
#------------------WWW.ENVERUS.COM-----------------#
#------------------COPYRIGHT 2020------------------#
#--------------------------------------------------#
#THIS FILE MAY BE USED ONLY IN ACCORDANCE WITH A CURRENT SUBSCRIPTION AGREEMENT BETWEEN
#THE USER AND ENVERUS, INC. NO PART OF THIS FILE MAY BE REPRODUCED, USED, COPIED,
#MODIFIED, PROPAGATED, OR DISTRIBUTED EXCEPT IN ACCORDANCE WITH THE SUBSCRIPTION
#AGREEMENT. UNAUTHORIZED USE OR DISTRIBUTION OF ALL OR ANY PART OF THIS FILE MAY VIOLATE
#COPYRIGHT, TRADEMARK, AND/OR OTHER LAWS AND IS SUBJECT TO CIVIL AS WELL AS CRIMINAL
#SANCTIONS.
#--------------------------------------------------#
#THIS FILE IS PROVIDED "AS-IS" AND ALL WARRANTIES ARE EXPRESSLY DISCLAIMED, WHETHER
#EXPRESS, ORAL, IMPLIED, STATUTORY OR OTHERWISE, INCLUDING ANY IMPLIED WARRANTY OF FITNESS
#FOR A PARTICULAR PURPOSE, MERCHANTABILITY, TITLE OR NON-INFRINGEMENT, AND ANY WARRANTIES
#ARISING BY VIRTUE OF CUSTOM OF TRADE OR COURSE OF DEALING.  FURTHER, ENVERUS, INC.
#AND ITS LICENSORS DO NOT REPRESENT OR WARRANT THAT THIS FILE WILL MEET USER'S
#REQUIREMENTS OR ARE SUITABLE FOR USER'S NEEDS OR THAT THE DATA OR RESULTS PROVIDED IN
#CONJUNCTION THEREWITH ARE CORRECT, ACCURATE, TIMELY OR RELIABLE. THESE DISCLAIMERS SHALL
#APPLY REGARDLESS OF ANY FAILURE OF ESSENTIAL PURPOSE OF ANY LIMITED REMEDY.  SOME
#JURISDICTIONS DO NOT ALLOW THE EXCLUSION OF CERTAIN WARRANTIES SO SOME OF THE ABOVE
#EXCLUSIONS MAY NOT APPLY. IN NO EVENT SHALL ENVERUS, INC. OR ANY OF ITS AFFILIATES
#BE LIABLE UNDER ANY LEGAL THEORY, WHETHER IN TORT (INCLUDING WITHOUT LIMITATION
#NEGLIGENCE), CONTRACT, STRICT LIABILITY, STATUTORY OR OTHERWISE, FOR ANY SPECIAL,
#INCIDENTAL, CONSEQUENTIAL, EXEMPLARY, PUNITIVE OR INDIRECT DAMAGE OF ANY KIND, INCLUDING
#WITHOUT LIMITATION LOSS OF REVENUE, PROFITS, GOODWILL, USE, AND/OR DATA OR THE COST OF
#PROCUREMENT OF SUBSTITUTE GOODS OR SERVICES, EVEN IF APPRISED OF THE POSSIBILITY OF SUCH
#DAMAGES IN ADVANCE.
#--------------------------------------------------#

# EXPORTED FROM DI TRANSFORM
# DI TRANSFORM - A PRODUCT OF DRILLINGINFO, INC. - WWW.DRILLINGINFO.COM
#
~VERSION INFORMATION
 VERS.        2.0 : LAS ASCII STANDARD - VERSION 2.0
 WRAP.         NO : ONE LINE PER DEPTH STEP

~WELL INFORMATION
#MNEM.UNIT       DATA TYPE       INFORMATION
#---------       ---------       -----------
 STRT.FT           100 : START DEPTH
 STOP.FT         18040 : STOP DEPTH
 STEP.FT           0.5 : STEP LENGTH
 NULL.         -999.25 : NULL VALUE
 UWI.   42371302980000 : UNIQUE WELL ID
 API.   42371302980000 : WELL IDENTIFIER
 COMP.                 : COMPANY
 WELL.          DRD_55 : WELL NAME
 FLD.                  : FIELD NAME
 LOC.                  : WELL LOCATION
 CNTY.                 : COUNTY
 STAT.                 : STATE OR PROVINCE
 CTRY.                 : COUNTRY
 SRVC.                 : SERVICE COMPANY
 DATE.                 : DATE

~CURVE INFORMATION
#MNEM.UNIT       API CODE       CURVE DESCRIPTION
#---------       --------       -----------------
 DEPT.FT        : <MEASURED DEPTH>
 CAL.IN         : CALIPER
 DT.US/FT       : SONIC
 GR.GAPI        : GAMMA RAY

~PARAMETER INFORMATION
#MNEM.UNIT       VALUE       DESCRIPTION
#---------       -----       -----------

~A       DEPT         CAL          DT          GR
# ...
         7460     14.6443     75.4783    127.7544
       7460.5     14.8693     76.0637    129.1061
         7461     14.9729     77.3433    126.6369
       7461.5     15.0765     78.1163    123.4052
         7462     15.1801     78.4277    122.5207
       7462.5     15.3117     79.2347    123.2629
         7463     15.2767     79.7807    125.3693
       7463.5     15.2308     80.4972    123.6295
         7464     15.2308     82.7658     119.466
       7464.5     15.1903     83.0026     117.283
         7465     15.1053     81.3129    116.9421
       7465.5     15.0017     79.2977    121.0418
         7466     14.8024     77.1919    124.2039
       7466.5      14.455     76.7865    123.0112
         7467     14.2861     78.0528    121.3229
       7467.5      14.223     78.3367    124.9483
         7468     14.1599     78.5133     124.129
       7468.5     14.1377     79.5526    120.4229
         7469     14.1377      78.297     112.511
       7469.5     14.1781     74.6073    100.7585
         7470     14.1781     71.1903      99.168
       7470.5     14.1683     67.8156      93.582
         7471     13.9755     67.3853     87.4829
       7471.5     13.9498     69.3337     83.2548
         7472     14.0534     70.8735     83.8938
       7472.5     14.2591     70.5056     86.5072
         7473     14.2576     67.8955     92.3299
       7473.5      14.142     65.8882     91.4744
         7474     14.0006     66.1849     86.3908
       7474.5     13.7849     68.8854     84.2105
         7475     13.7328     71.8839     86.2095
       7475.5     13.7328     74.1974    103.0127
         7476     13.7328     73.2597    114.0308
       7476.5     13.6945     68.9413    119.9864
         7477     13.6923     66.4053    115.9773
       7477.5     13.6923     65.5501    103.5663
         7478     13.6923     66.0284      98.947
       7478.5     13.6996     67.3712     84.6194
         7479     13.7029     69.6881     78.9474
       7479.5     13.6923     70.6694     78.6632
         7480     13.6923     70.8953     80.0749
       7480.5     13.6755     71.8704       82.32
         7481     13.6518     73.6336     85.5852
       7481.5     13.6113     73.8748     91.6845
         7482     13.6113     72.2736    103.0366
       7482.5     13.6113     71.2841    106.2649
         7483     13.6113     70.4945    106.3935
       7483.5     13.5709     70.4423    105.3576
         7484     13.5709     71.6005    104.8583
       7484.5     13.5709     72.0478    105.7999
         7485     13.5709     72.6694    107.4433
       7485.5     13.5709     74.9301    108.9073
         7486     13.5709     77.6037    109.5383
       7486.5     13.5709     80.6674    112.0151
         7487     13.5709     81.8305    114.3194
       7487.5     13.6113     81.3864    119.3737
         7488     13.6113     79.0259    122.7016
       7488.5     13.5566     75.3448    119.6485
         7489     13.4935      71.812    111.3088
       7489.5     13.4899     69.5104    101.7758
         7490     13.4899     68.5935     99.7517
       7490.5     13.4899     68.0422     93.3948
         7491     13.4958     68.3227     88.6051
       7491.5     13.5994     68.8935      88.664
         7492     13.6113     69.4007     91.1995
       7492.5     13.6113     71.0692     91.9028
         7493     13.6672     73.3138     92.7126
       7493.5     13.6923     75.2604     92.7126
         7494     13.6923     77.5139     94.0253
       7494.5     13.6923     77.0047    101.0122
         7495     13.6674     74.5414    104.0805
       7495.5     13.6448     72.4739     101.717
         7496     13.6113     72.1625     99.7734
       7496.5     13.6231     72.1651     93.5427
         7497     13.6518     72.3548      91.498
       7497.5     13.6518     73.1191     92.5549
         7498     13.6518     73.7078     99.0304
       7498.5      13.673     74.8481    103.5474
         7499     13.6923     76.9976    103.6102
       7499.5     13.6923     78.7052    104.5679
         7500     13.6923     80.6978    106.9636
       7500.5     13.6923     82.8502    108.8091
         7501     13.7328     84.0924    106.9861
       7501.5     13.7733     81.2187    101.6685
         7502     13.8138     77.4197     99.2435
       7502.5     13.8138     72.6926     96.5659
         7503     13.8138     64.7295     93.8437
       7503.5     13.8138     61.0285     81.9449
         7504     13.8138     60.2032     70.1734
       7504.5     13.8635     61.9233     63.1947
         7505     13.8947     63.7063     61.5385
       7505.5     13.8947     67.4394       64.26
         7506     13.8947     70.4709     69.0344
       7506.5     13.8947     73.3282     77.5928
         7507      13.936     77.5616     83.6645
       7507.5     13.9757     78.7914    100.7014
         7508     14.0622     77.8081    107.6289
       7508.5     14.0972     76.8047    112.4192
         7509     14.0972     76.3297    118.0308
       7509.5     14.0238      77.371    127.2541
         7510     13.9607     78.4412    131.5968
       7510.5     13.8947     79.5453    140.2176
         7511     13.8947     78.2908    147.5211
       7511.5     13.9352     74.4367    155.1375
         7512     13.9352      71.857    156.1773
       7512.5     13.9352     68.5711    142.2562
         7513     13.9059     68.2999    123.6213
       7513.5     13.8947      70.516    117.9278
         7514     13.9352     72.7434      121.58
       7514.5     13.9352     74.7701    133.1121
         7515     13.9352     76.4879    143.9747
       7515.5     13.8738     77.0333     151.652
         7516     13.8512     77.5729    150.3293
       7516.5     13.7733     78.3915    148.9879
         7517     13.7733     78.5801    149.3373
       7517.5     13.7733     78.3671    153.9987
         7518     13.7733     77.6762    161.3725
       7518.5     13.7382      76.734    165.6943
         7519     13.7328     76.7107    162.7035
       7519.5     13.7328     77.8406     155.702
         7520     13.7328      78.756    152.8165
       7520.5     13.8179      80.115    154.6559
         7521     13.8947     81.6595    153.7162
       7521.5     13.8947      81.246    146.8806
         7522     13.8947     79.4524    139.4515
       7522.5     13.8543     76.8117    135.9608
         7523     13.7775     73.1962    130.8648
       7523.5     13.7733     71.6543    119.0309
         7524     13.7733     71.2764    115.5798
       7524.5     13.7964        70.8    114.7488
         7525     13.8138     71.7394    116.3057
       7525.5     13.7454     74.4347    121.2807
         7526     13.7328     76.2492    126.5621
       7526.5     13.6923     78.7078    132.7245
         7527     13.6923     81.1469    139.9698
       7527.5     13.7296     81.9499    148.1466
         7528     13.7927     82.6841    155.7418
       7528.5     13.8122     83.2049    160.6455
         7529     13.7328     83.2049    168.7357
       7529.5     13.7328     82.9424    178.2394
         7530     13.7328      82.631    182.9099
       7530.5     13.7328     82.2531    186.6034
         7531     13.7328     81.6227    185.8979
       7531.5     13.7328     82.5698    184.4572
         7532     13.7328     83.4329    183.4213
       7532.5     13.7938     82.6505    183.0956
         7533     13.8165     80.5397     174.644
       7533.5     13.8543     77.9487    154.1495
         7534     13.8543     75.1277    135.6524
       7534.5     13.8843     74.7013    123.2982
         7535     13.9352     74.9656    123.0374
       7535.5     13.9352     75.2685    128.3465
         7536     13.9985      76.167    133.2016
       7536.5     14.0302     76.9894    137.8258
         7537     14.0302      78.317    142.4074
       7537.5     13.9811     78.7798    149.1397
         7538     13.9563     77.1936    149.1286
       7538.5       13.94     73.1796    146.8244
         7539     13.8636     68.2908    141.5439
       7539.5     13.8543      62.849    124.3802
