###############################################
##         ENVERUS                           ##
##         ESS - Open Hole                   ##
##         PERMIAN / DELAWARE                ##
##         Nov 04 2023  V4.0                 ##
##         42-371-32680-00-00                ##
###############################################
## Copyright 2017-2023  ENVERUS.  All Rights Reserved. 
## Confidential - Property of ENVERUS, use governed by terms and 
## conditions found within the existing Information Services Subscription Agreement 
## (as may be amended, the “ISSA”) between Customer and ENVERUS. 
## 
~VERSION INFORMATION
# MNEM.UNIT                               DATA : DESCRIPTION OF MNEMONIC
#-----.-----     ----------------------------- : -----------------------------
VERS.                                     2.00 : CWLS LOG ASCII STANDARD - VERSION 2.00
WRAP.                                       NO : MULTIPLE LINES PER DEPTH STEP
VEND.                                  ENVERUS : VENDOR
TYPE.                          ESS - OPEN HOLE : ENVERUS ESSENTIAL CURVES – ACCESSIBLE THROUGH ENVERUS PRISM(TM)
DOC.                                  31991434 : ENVERUS HEADER RAW DOCUMENT ID
#___________________________________________________________________________________________________ 
~WELL INFORMATION 
# uAv5E/S3ZwrMaovXfwZJbnQ+z8RwnTA5GIEFL0LfM7mdkMX/8iXP+LiYgCnT3sJm4ejuYgXNUZeSPI/Yhcow4w== 
# MNEM.UNIT                                              DATA : DESCRIPTION OF MNEMONIC 
#-----.-----                    ----------------------------- : ----------------------------- 
CNTY.                                                   PECOS : COUNTY 
STATE.                                                  TEXAS : STATE 
CNTRY.                                                    USA : COUNTRY 
API.                                             42-371-32680 : API (10 Digit) 
API_14.                                    42-371-32680-00-00 : API (14 Digits) 
API_14_std.                                 42-371-32680-0000 : API (14 Digits Standard) 
UWI.                                           42371326800000 : UNIQUE WELL ID 
WELL.                                     MARALO - STEWART  1 : WELL NAME
STRT.FT                                                  21.0 : START DEPTH
STOP.FT                                               21630.0 : STOP DEPTH
STEP.FT                                                   0.5 : STEP BETWEEN DEPTHS
NULL.                                                 -999.25 : NULL VALUE
COMP.                                            MARALO, INC. : COMPANY 
DATE.                                             11-DEC-1978 : LOG DATE
#___________________________________________________________________________________________________ 
~CURVE INFORMATION 
# MNEM.UNIT           : CURVE DESCRIPTION 
#-----.-----          : ----------------------------- 
 DEPT.FT               : MEASURED DEPTH 
 GR__D.API             : GAMMA RAY (GR) 
 DT__D.US/FT           : SONIC DELTA TRANSIT TIME (DT) 
 RESD__D.OHMM          : DEEP INDUCTION RESISTIVITY (ILD - ILD) 
 #___________________________________________________________________________________________________ 
~A         DEPT          GR__D          DT__D        RESD__D
# ...
        20415.0         45.700         55.448        137.069
        20415.5         45.892         55.931        290.966
        20416.0         45.816         56.415        335.894
        20416.5         45.740         56.171        334.535
        20417.0         45.664         55.792        323.262
        20417.5         45.588         55.413        311.989
        20418.0         48.829         55.034        300.716
        20418.5         50.864         54.655        289.443
        20419.0         50.824         55.373        259.282
        20419.5         50.784         57.116        206.585
        20420.0         50.744         57.124        141.429
        20420.5         50.704         57.132        112.551
        20421.0         57.704         57.141        110.704
        20421.5         58.625         57.149        108.858
        20422.0         56.135         57.157        107.012
        20422.5         53.645         62.485        105.166
        20423.0         53.864         62.810        108.355
        20423.5         55.918         63.134        123.122
        20424.0         57.973         63.459        137.889
        20424.5         60.027         63.783        152.656
        20425.0         60.516         64.108        148.473
        20425.5         59.521         60.810        123.881
        20426.0         58.526         61.448        106.992
        20426.5         59.236         62.249         98.181
        20427.0         61.669         63.049         89.922
        20427.5         64.102         63.849         99.957
        20428.0         66.534         64.650        113.082
        20428.5         68.967         65.267        149.714
        20429.0         68.695         64.185        143.112
        20429.5         66.867         63.102        134.283
        20430.0         65.039         62.020        138.785
        20430.5         63.211         60.937        182.164
        20431.0         61.383         59.855        225.542
        20431.5         58.246         58.772        268.921
        20432.0         54.822         57.690        273.293
        20432.5         51.399         56.607        263.126
        20433.0         47.975         55.525        252.959
        20433.5         44.552         54.064        242.793
        20434.0         41.128         53.298        232.626
        20434.5         37.940         53.971        233.493
        20435.0         39.661         54.643        254.210
        20435.5         41.383         55.316        274.927
        20436.0         42.313         55.154        414.621
        20436.5         39.383         54.371        699.004
        20437.0         36.453         53.587        636.380
        20437.5         33.523         52.803        573.755
        20438.0         30.593         52.020        465.924
        20438.5         30.175         51.236        355.135
        20439.0         30.838         51.548        310.007
        20439.5         31.502         51.902        297.212
        20440.0         32.165         52.257        284.417
        20440.5         32.828         52.611        256.264
        20441.0         33.491         52.966        207.457
        20441.5         39.649         53.320        143.624
        20442.0         46.797         54.285        150.408
        20442.5         53.945         55.281        159.283
        20443.0         56.731         55.626        168.158
        20443.5         54.777         55.422        177.033
        20444.0         52.822         55.218        108.283
        20444.5         50.868         55.015         95.667
        20445.0         58.477         54.811         83.051
        20445.5         66.432         54.932         79.801
        20446.0         67.136         56.554         93.639
        20446.5         65.417         56.310        107.476
        20447.0         63.698         56.066        120.853
        20447.5         61.979         55.822        116.012
        20448.0         61.856         55.578        111.171
        20448.5         64.336         55.334        106.330
        20449.0         66.816         55.090        101.489
        20449.5         69.296         55.019         96.134
        20450.0         71.776         55.676         90.474
        20450.5         74.255         56.333         84.815
        20451.0         76.735         56.990         81.555
        20451.5         78.759         57.646         87.944
        20452.0         76.414         58.303         98.238
        20452.5         74.068         58.960        112.167
        20453.0         71.723         58.246        126.095
        20453.5         69.378         57.389        130.468
        20454.0         67.032         56.532        121.578
        20454.5         66.772         55.675        124.821
        20455.0         67.081         54.875        155.106
        20455.5         63.549         55.667        211.963
        20456.0         58.209         55.967        259.310
        20456.5         52.869         55.098        301.441
        20457.0         47.529         54.228        341.353
        20457.5         42.189         53.359        317.863
        20458.0         37.251         53.737        294.373
        20458.5         40.401         54.216        286.997
        20459.0         43.550         54.695        311.927
        20459.5         45.689         54.849        336.857
        20460.0         44.764         54.521        361.788
        20460.5         43.839         54.194        336.788
        20461.0         43.376         53.866        310.479
        20461.5         44.413         53.539        284.171
        20462.0         45.450         53.614        257.862
        20462.5         44.977         53.900        252.166
        20463.0         43.983         54.077        263.403
        20463.5         42.989         53.729        274.639
        20464.0         42.906         53.380        285.875
        20464.5         43.600         53.031        297.111
        20465.0         42.759         52.683        303.719
        20465.5         41.918         52.334        295.763
        20466.0         41.077         52.347        282.218
        20466.5         40.236         52.521        263.815
        20467.0         39.394         52.695        245.412
        20467.5         38.553         52.908        222.347
        20468.0         40.827         53.129        196.076
        20468.5         45.185         53.457        169.616
        20469.0         49.542         53.937        141.739
        20469.5         53.900         54.417        122.986
        20470.0         58.258         54.897        119.680
        20470.5         62.615         55.377        116.374
        20471.0         63.166         55.857        113.068
        20471.5         62.285         56.337        120.627
        20472.0         61.404         56.817        132.503
        20472.5         60.523         56.768        160.199
        20473.0         59.642         56.686        200.234
        20473.5         58.092         56.604        242.159
        20474.0         52.073         56.522        286.424
        20474.5         46.055         55.926        331.429
        20475.0         40.037         54.995        378.043
        20475.5         34.018         54.065        424.658
        20476.0         32.158         53.134        471.272
        20476.5         31.055         52.204        490.692
        20477.0         29.951         51.611        432.476
        20477.5         28.847         51.140        377.055
        20478.0         29.845         50.668        408.446
        20478.5         30.936         50.244        439.836
        20479.0         32.026         50.509        438.669
        20479.5         33.116         50.773        418.451
        20480.0         34.281         51.037        299.587
        20480.5         35.463         51.301        262.289
