###############################################
##         ENVERUS                           ##
##         ESS - Open Hole                   ##
##         PERMIAN / DELAWARE                ##
##         Nov 04 2023  V4.0                 ##
##         42-371-36358-00-00                ##
###############################################
## Copyright 2017-2023  ENVERUS.  All Rights Reserved. 
## Confidential - Property of ENVERUS, use governed by terms and 
## conditions found within the existing Information Services Subscription Agreement 
## (as may be amended, the “ISSA”) between Customer and ENVERUS. 
## 
~VERSION INFORMATION
# MNEM.UNIT                               DATA : DESCRIPTION OF MNEMONIC
#-----.-----     ----------------------------- : -----------------------------
VERS.                                     2.00 : CWLS LOG ASCII STANDARD - VERSION 2.00
WRAP.                                       NO : MULTIPLE LINES PER DEPTH STEP
VEND.                                  ENVERUS : VENDOR
TYPE.                          ESS - OPEN HOLE : ENVERUS ESSENTIAL CURVES – ACCESSIBLE THROUGH ENVERUS PRISM(TM)
DOC.                                  32044985 : ENVERUS HEADER RAW DOCUMENT ID
#___________________________________________________________________________________________________ 
~WELL INFORMATION 
# 9/F+NtSLBEAIaZM9LpLMxALTyCH3LMfPBQiNKTeSadJ6NAezaEZy+3+OEP8rVGNvVB4ifWNnxSKvs1BiqqZA9A== 
# MNEM.UNIT                                              DATA : DESCRIPTION OF MNEMONIC 
#-----.-----                    ----------------------------- : ----------------------------- 
CNTY.                                                   PECOS : COUNTY 
STATE.                                                  TEXAS : STATE 
CNTRY.                                                    USA : COUNTRY 
API.                                             42-371-36358 : API (10 Digit) 
API_14.                                    42-371-36358-00-00 : API (14 Digits) 
API_14_std.                                 42-371-36358-0000 : API (14 Digits Standard) 
UWI.                                           42371363580000 : UNIQUE WELL ID 
WELL.                           SCHLOSSER, FRED ESTATE -B-  9 : WELL NAME
STRT.FT                                                 151.0 : START DEPTH
STOP.FT                                                5707.0 : STOP DEPTH
STEP.FT                                                   0.5 : STEP BETWEEN DEPTHS
NULL.                                                 -999.25 : NULL VALUE
COMP.                                      APACHE CORPORATION : COMPANY 
DATE.                                             07-JUN-1992 : LOG DATE
#___________________________________________________________________________________________________ 
~CURVE INFORMATION 
# MNEM.UNIT           : CURVE DESCRIPTION 
#-----.-----          : ----------------------------- 
 DEPT.FT               : MEASURED DEPTH 
 GR.API                : GAMMA RAY (GR) 
 DT.US/FT              : SONIC DELTA TRANSIT TIME (DT) 
 #___________________________________________________________________________________________________ 
~A         DEPT             GR             DT
# ...
         2326.0          6.738         62.251
         2326.5          7.041         59.627
         2327.0          7.343         57.002
         2327.5          7.425         58.126
         2328.0          7.139         60.845
         2328.5          6.853         63.565
         2329.0          6.566         65.191
         2329.5          6.280         62.948
         2330.0          5.993         60.704
         2330.5          5.698         58.461
         2331.0          5.096         59.313
         2331.5          4.493         60.708
         2332.0          3.891         62.103
         2332.5          3.289         63.498
         2333.0          2.686         64.893
         2333.5          2.084         66.288
         2334.0          2.110         67.683
         2334.5          2.150         68.231
         2335.0          2.189         68.651
         2335.5          2.229         68.829
         2336.0          2.268         68.824
         2336.5          2.308         68.819
         2337.0          2.347         68.814
         2337.5          2.387         68.810
         2338.0          2.426         68.803
         2338.5          2.466         68.791
         2339.0          2.505         68.779
         2339.5          2.646         68.766
         2340.0          3.212         68.695
         2340.5          3.778         68.254
         2341.0          4.345         68.065
         2341.5          4.911         67.968
         2342.0          5.282         68.013
         2342.5          5.298         68.123
         2343.0          5.314         68.190
         2343.5          5.330         68.100
         2344.0          5.346         68.011
         2344.5          5.362         67.921
         2345.0          5.378         67.831
         2345.5          5.394         67.446
         2346.0          5.410         66.783
         2346.5          5.426         66.120
         2347.0          5.137         66.279
         2347.5          4.348         67.184
         2348.0          3.559         68.089
         2348.5          2.770         68.791
         2349.0          2.133         69.064
         2349.5          2.385         69.299
         2350.0          2.638         69.529
         2350.5          2.890         69.691
         2351.0          3.142         69.535
         2351.5          3.395         69.378
         2352.0          3.647         69.222
         2352.5          3.899         69.065
         2353.0          4.151         68.909
         2353.5          4.346         68.836
         2354.0          3.874         68.857
         2354.5          3.402         68.878
         2355.0          2.930         68.899
         2355.5          2.458         68.920
         2356.0          1.986         68.941
         2356.5          2.546         68.962
         2357.0          3.176         68.983
         2357.5          3.805         68.972
         2358.0          4.202         68.869
         2358.5          4.084         68.767
         2359.0          3.966         68.665
         2359.5          3.847         68.591
         2360.0          3.729         68.564
         2360.5          3.611         68.537
         2361.0          3.492         68.510
         2361.5          3.374         68.529
         2362.0          3.256         68.569
         2362.5          3.138         68.609
         2363.0          3.019         68.649
         2363.5          2.901         68.611
         2364.0          3.894         68.572
         2364.5          5.125         68.534
         2365.0          6.175         68.495
         2365.5          5.696         68.343
         2366.0          5.217         68.071
         2366.5          4.738         67.800
         2367.0          4.259         67.528
         2367.5          3.780         67.683
         2368.0          3.301         67.922
         2368.5          3.065         68.161
         2369.0          3.122         68.400
         2369.5          3.179         68.565
         2370.0          3.236         67.831
         2370.5          3.292         66.258
         2371.0          3.349         64.603
         2371.5          3.406         62.792
         2372.0          3.462         60.790
         2372.5          3.519         55.727
         2373.0          3.576         53.204
         2373.5          3.633         52.534
         2374.0          3.677         52.528
         2374.5          3.711         52.522
         2375.0          3.745         52.516
         2375.5          3.780         52.495
         2376.0          3.814         52.425
         2376.5          3.848         52.354
         2377.0          3.883         52.284
         2377.5          3.917         52.328
         2378.0          3.951         52.578
         2378.5          3.986         52.829
         2379.0          4.020         53.079
         2379.5          4.054         53.329
         2380.0          4.089         53.262
         2380.5          4.123         53.196
         2381.0          4.157         53.149
         2381.5          4.192         53.109
         2382.0          4.226         53.158
         2382.5          4.260         53.423
         2383.0          4.295         53.687
         2383.5          4.329         53.952
         2384.0          4.363         54.217
         2384.5          4.398         54.481
         2385.0          4.432         54.746
         2385.5          4.466         55.010
         2386.0          4.501         54.892
         2386.5          4.535         54.537
         2387.0          4.570         54.182
         2387.5          4.990         53.827
         2388.0          6.080         53.803
         2388.5          7.171         53.873
         2389.0          8.262         53.944
         2389.5          8.659         53.903
         2390.0          8.810         53.573
         2390.5          8.961         53.243
         2391.0         11.239         53.562
         2391.5         13.684         54.232
         2392.0         13.517         54.901
         2392.5         13.351         55.473
         2393.0         11.910         54.523
         2393.5          9.124         53.573
         2394.0          6.337         52.623
         2394.5          3.995         52.568
         2395.0          3.996         52.624
         2395.5          3.997         52.975
         2396.0          3.998         53.325
         2396.5          4.071         53.676
         2397.0          4.393         53.881
         2397.5          4.714         53.760
         2398.0          5.035         53.720
         2398.5          5.673         53.907
         2399.0          6.344         54.095
         2399.5          6.830         54.282
         2400.0          6.496         53.481
         2400.5          6.162         52.637
         2401.0          5.827         52.258
         2401.5          5.493         52.268
         2402.0          5.662         52.370
         2402.5          6.103         52.472
         2403.0          6.544         52.575
         2403.5          6.985         52.677
         2404.0          7.426         52.779
         2404.5          7.327         52.538
         2405.0          7.105         52.204
         2405.5          6.852         52.053
         2406.0          6.304         52.046
         2406.5          5.757         52.039
         2407.0          5.209         52.023
         2407.5          5.497         51.908
         2408.0          6.039         51.793
         2408.5          6.582         51.678
         2409.0          7.124         51.595
         2409.5          7.002         51.643
         2410.0          6.752         51.671
         2410.5          6.501         51.574
         2411.0          6.251         51.476
         2411.5          7.674         51.392
         2412.0         10.191         51.460
         2412.5         11.700         51.861
