#--------------------------------------------------#
#-------------------ENVERUS, INC.------------------#
#------------------WWW.ENVERUS.COM-----------------#
#------------------COPYRIGHT 2020------------------#
#--------------------------------------------------#
#THIS FILE MAY BE USED ONLY IN ACCORDANCE WITH A CURRENT SUBSCRIPTION AGREEMENT BETWEEN
#THE USER AND ENVERUS, INC. NO PART OF THIS FILE MAY BE REPRODUCED, USED, COPIED,
#MODIFIED, PROPAGATED, OR DISTRIBUTED EXCEPT IN ACCORDANCE WITH THE SUBSCRIPTION
#AGREEMENT. UNAUTHORIZED USE OR DISTRIBUTION OF ALL OR ANY PART OF THIS FILE MAY VIOLATE
#COPYRIGHT, TRADEMARK, AND/OR OTHER LAWS AND IS SUBJECT TO CIVIL AS WELL AS CRIMINAL
#SANCTIONS.
#--------------------------------------------------#
#THIS FILE IS PROVIDED "AS-IS" AND ALL WARRANTIES ARE EXPRESSLY DISCLAIMED, WHETHER
#EXPRESS, ORAL, IMPLIED, STATUTORY OR OTHERWISE, INCLUDING ANY IMPLIED WARRANTY OF FITNESS
#FOR A PARTICULAR PURPOSE, MERCHANTABILITY, TITLE OR NON-INFRINGEMENT, AND ANY WARRANTIES
#ARISING BY VIRTUE OF CUSTOM OF TRADE OR COURSE OF DEALING.  FURTHER, ENVERUS, INC.
#AND ITS LICENSORS DO NOT REPRESENT OR WARRANT THAT THIS FILE WILL MEET USER'S
#REQUIREMENTS OR ARE SUITABLE FOR USER'S NEEDS OR THAT THE DATA OR RESULTS PROVIDED IN
#CONJUNCTION THEREWITH ARE CORRECT, ACCURATE, TIMELY OR RELIABLE. THESE DISCLAIMERS SHALL
#APPLY REGARDLESS OF ANY FAILURE OF ESSENTIAL PURPOSE OF ANY LIMITED REMEDY.  SOME
#JURISDICTIONS DO NOT ALLOW THE EXCLUSION OF CERTAIN WARRANTIES SO SOME OF THE ABOVE
#EXCLUSIONS MAY NOT APPLY. IN NO EVENT SHALL ENVERUS, INC. OR ANY OF ITS AFFILIATES
#BE LIABLE UNDER ANY LEGAL THEORY, WHETHER IN TORT (INCLUDING WITHOUT LIMITATION
#NEGLIGENCE), CONTRACT, STRICT LIABILITY, STATUTORY OR OTHERWISE, FOR ANY SPECIAL,
#INCIDENTAL, CONSEQUENTIAL, EXEMPLARY, PUNITIVE OR INDIRECT DAMAGE OF ANY KIND, INCLUDING
#WITHOUT LIMITATION LOSS OF REVENUE, PROFITS, GOODWILL, USE, AND/OR DATA OR THE COST OF
#PROCUREMENT OF SUBSTITUTE GOODS OR SERVICES, EVEN IF APPRISED OF THE POSSIBILITY OF SUCH
#DAMAGES IN ADVANCE.
#--------------------------------------------------#

~VERSION INFORMATION
VERS. 2.0 : CWLS LOG ASCII STANDARD - VERSION 2.0
WRAP.  NO : ONE LINE PER DEPTH STEP
~WELL INFORMATION
#MNEMONIC     .UNIT              VALUE :DESCRIPTION
STRT       .FT                101 :START DEPTH
STOP       .FT                5444 :STOP DEPTH
STEP       .FT                   0.500 :STEP
NULL       .                  -999.99 :NULL
UWI        .                42389004350000 :UNIQUE WELL ID
API        .                42389004350000 :API NUMBER
COMP       .         :COMPANY
WELL       .        :WELL
DATE       .                 :LOG DATE
FLD       .                 :FIELD NAME
LOC       .                  UNK :LOCATION
CNTY       .                 UNK :COUNTY
STAT       .                 UNK :STATE
CTRY       .                 UNK :COUNTY
SRVC       .                 UNK :SERVICE COMPANY
~CURVE INFORMATION
#MNEMONIC     .UNIT      API CODE :CURVE DESCRIPTION
DEPTH       .FT                      :MEASURED DEPTH
DT.MSEC/FT        UNKNOWN   :DT
GR.API        UNKNOWN   :GR
~A    DEPTH    DT    GR
# ...
 3612     66.95519   2.88878
 3612.5     67.29787   2.84486
 3613     67.15936   2.80094
 3613.5     66.76677   2.83512
 3614     66.81922   3.43337
 3614.5     67.2303   4.03161
 3615     67.64138   4.62986
 3615.5     67.48611   5.2281
 3616     67.28502   5.45138
 3616.5     67.08393   5.041
 3617     66.88284   4.63063
 3617.5     66.89935   4.22025
 3618     67.79807   3.80987
 3618.5     68.69679   3.3995
 3619     69.59551   2.98912
 3619.5     70.49423   2.60382
 3620     69.57544   2.9291
 3620.5     66.53588   3.25439
 3621     63.49633   3.57968
 3621.5     60.45677   3.90496
 3622     57.41722   4.23025
 3622.5     54.37767   4.55553
 3623     51.33811   4.88082
 3623.5     49.06286   5.20611
 3624     51.10889   5.53139
 3624.5     53.07837   5.85668
 3625     53.18237   6.18197
 3625.5     53.28637   6.50725
 3626     53.39037   6.21039
 3626.5     53.22898   5.8576
 3627     52.59984   5.5048
 3627.5     51.97071   5.152
 3628     51.34158   4.79921
 3628.5     50.71244   4.44641
 3629     49.83038   4.46751
 3629.5     47.26133   4.71224
 3630     47.60681   4.95698
 3630.5     47.95229   5.20171
 3631     48.29777   5.44644
 3631.5     48.64325   5.69118
 3632     48.98873   5.63688
 3632.5     49.33421   5.52303
 3633     49.67969   5.40918
 3633.5     49.61897   5.29533
 3634     49.39469   5.18147
 3634.5     49.17041   5.06762
 3635     48.9595   4.95377
 3635.5     49.08074   4.83992
 3636     49.20198   4.72607
 3636.5     49.32321   4.61222
 3637     49.44445   4.49837
 3637.5     49.56569   4.38451
 3638     49.68692   4.33672
 3638.5     49.80816   4.51101
 3639     49.92939   4.6853
 3639.5     49.24651   4.85959
 3640     48.76348   5.03387
 3640.5     48.7558   5.20816
 3641     48.74812   5.38245
 3641.5     48.74045   5.20398
 3642     48.73277   4.99212
 3642.5     48.72509   4.78027
 3643     48.71742   4.56842
 3643.5     48.70974   4.35656
 3644     48.80526   4.63387
 3644.5     48.94375   5.15727
 3645     49.08225   5.68068
 3645.5     49.22075   6.20409
 3646     49.35925   6.31622
 3646.5     49.49775   5.91293
 3647     49.63625   5.50965
 3647.5     49.63613   5.2719
 3648     49.3772   5.42117
 3648.5     49.11828   5.57045
 3649     48.85935   5.71972
 3649.5     48.8359   5.869
 3650     48.92562   6.00089
 3650.5     49.01535   5.67951
 3651     49.10507   5.35813
 3651.5     49.1948   5.03676
 3652     49.28452   4.71538
 3652.5     49.37425   4.394
 3653     49.46397   4.07263
 3653.5     49.5537   3.75125
 3654     49.64342   3.42988
 3654.5     49.73315   3.45235
 3655     49.82288   3.66159
 3655.5     49.65107   3.87083
 3656     49.29841   4.08007
 3656.5     48.94575   4.28932
 3657     48.59309   4.30263
 3657.5     48.24043   4.00017
 3658     47.88777   3.69771
 3658.5     47.88883   4.10873
 3659     48.73304   4.74362
 3659.5     49.57725   5.37851
 3660     50.42146   6.0134
 3660.5     50.80989   5.98538
 3661     50.90429   5.37988
 3661.5     50.99869   5.1193
 3662     51.0931   5.2935
 3662.5     51.1875   5.46771
 3663     50.78879   5.64192
 3663.5     50.3221   5.81613
 3664     49.85541   5.99033
 3664.5     49.41871   6.09186
 3665     49.09633   5.68856
 3665.5     49.09594   5.28526
 3666     49.28159   4.88197
 3666.5     49.46724   4.47867
 3667     49.65289   4.57755
 3667.5     49.83854   5.39816
 3668     50.02419   6.21877
 3668.5     50.20983   7.03937
 3669     50.39548   7.85998
 3669.5     50.02712   8.68058
 3670     49.47358   9.42087
 3670.5     48.92004   8.90649
 3671     48.72046   8.3921
 3671.5     52.54802   7.87771
 3672     56.37558   7.36332
 3672.5     60.20315   6.84894
 3673     64.03071   6.33455
 3673.5     62.39647   5.82016
 3674     59.53144   5.30577
 3674.5     56.66642   4.79139
 3675     53.80139   4.277
 3675.5     44.02261   4.63877
 3676     45.0895   5.60759
 3676.5     46.1564   6.02429
 3677     47.2233   5.82252
 3677.5     47.83888   5.62074
 3678     47.96012   6.058
 3678.5     48.08137   7.83462
 3679     49.10201   7.93941
 3679.5     50.28141   7.40138
 3680     51.01549   6.86335
 3680.5     50.07944   6.32532
 3681     49.14339   5.79511
 3681.5     48.20734   5.87997
 3682     47.99431   5.96483
 3682.5     48.37698   6.04968
 3683     48.75965   5.92976
 3683.5     48.89778   5.39424
 3684     48.65614   4.85871
 3684.5     48.41449   4.32319
 3685     48.87431   3.78766
 3685.5     49.5465   3.25214
 3686     50.21869   2.71661
 3686.5     50.68527   3.40153
 3687     48.80888   5.17755
 3687.5     46.93249   6.95356
 3688     47.45656   8.72958
 3688.5     50.63319   10.5056
 3689     53.80983   10.04103
 3689.5     56.98647   8.72201
 3690     60.1631   7.40298
 3690.5     63.33974   6.08396
 3691     66.51638   4.8162
 3691.5     69.59428   4.60809
 3692     66.84185   4.39999
 3692.5     64.08941   4.19188
 3693     63.73557   3.98377
 3693.5     63.53434   3.77566
 3694     63.3331   3.56755
 3694.5     63.70136   3.35944
 3695     64.22038   3.15133
 3695.5     64.73939   3.18962
 3696     65.25841   3.36022
 3696.5     65.77743   3.53082
 3697     65.79564   3.70142
 3697.5     65.36007   3.87202
 3698     64.9245   4.04263
 3698.5     65.91338   4.21323
 3699     65.83346   4.27454
 3699.5     65.53122   4.05592
 3700     65.22897   3.8373
 3700.5     64.92673   3.61868
 3701     65.56195   3.40006
 3701.5     65.89501   3.18144
 3702     65.67066   2.96281
 3702.5     65.44631   2.74419
 3703     65.22196   2.52557
 3703.5     65.90473   2.30695
 3704     66.26445   2.62184
 3704.5     65.8287   3.04038
 3705     65.39295   3.32368
 3705.5     65.77824   3.06433
 3706     66.49036   2.80498
 3706.5     67.20247   2.54563
 3707     67.91459   2.61625
 3707.5     68.6267   2.98159
 3708     69.33882   3.34693
 3708.5     68.90127   3.71228
 3709     68.35614   4.07762
 3709.5     68.38494   3.94055
 3710     68.54064   3.6632
 3710.5     68.69633   3.38585
 3711     68.80567   3.1085
 3711.5     68.62458   2.83115
 3712     68.44349   2.5538
 3712.5     68.26241   2.36756
 3713     68.08132   2.27627
 3713.5     68.26878   2.18499
 3714     68.48047   2.0937
 3714.5     68.69216   2.00241
 3715     68.90385   2.03031
 3715.5     68.77741   2.44126
 3716     68.52564   2.8522
 3716.5     68.27387   3.26315
 3717     68.02209   3.66436
 3717.5     67.77032   3.48263
 3718     67.51855   3.3009
 3718.5     67.68862   3.11917
 3719     68.4115   2.93744
 3719.5     68.42658   2.7557
 3720     68.31704   2.73211
 3720.5     68.2075   2.75617
 3721     68.09796   2.78023
 3721.5     67.98842   2.8043
 3722     67.88921   2.82836
 3722.5     67.91903   2.85242
 3723     67.94885   3.29833
 3723.5     67.97866   4.24119
 3724     68.00848   5.18404
 3724.5     68.0383   5.68385
 3725     68.06811   5.02716
 3725.5     68.09793   4.37047
 3726     68.12774   3.71378
 3726.5     68.15756   3.0571
 3727     68.18738   2.40041
 3727.5     68.21719   1.75189
 3728     68.24701   2.05075
 3728.5     68.27683   2.3496
 3729     68.30664   2.64846
 3729.5     68.33646   2.94732
 3730     68.36627   2.87666
 3730.5     68.39609   2.70829
 3731     68.42591   2.53992
 3731.5     68.45572   2.37154
 3732     68.39774   2.24047
 3732.5     68.28819   2.62472
 3733     68.17864   3.00897
 3733.5     68.06909   3.39321
 3734     67.95954   3.59279
 3734.5     67.84999   3.48428
 3735     68.17733   3.37578
 3735.5     68.57971   3.26728
 3736     68.98209   3.15878
 3736.5     69.38447   3.05027
 3737     69.78684   2.94177
 3737.5     70.18922   2.84512
 3738     70.5916   3.26005
 3738.5     70.99398   3.67499
 3739     67.66153   4.08992
 3739.5     64.14163   4.50485
 3740     60.62173   4.91978
 3740.5     54.14462   5.33472
 3741     50.11595   5.74965
 3741.5     51.36443   6.16458
 3742     52.61292   6.57952
 3742.5     52.41761   7.21318
 3743     51.6283   8.04718
 3743.5     52.9018   8.88119
 3744     55.45456   8.94968
 3744.5     58.00731   8.90566
 3745     60.56007   8.86165
 3745.5     63.11282   8.67434
 3746     65.66558   7.88897
