#--------------------------------------------------#
#-------------------ENVERUS, INC.------------------#
#------------------WWW.ENVERUS.COM-----------------#
#------------------COPYRIGHT 2020------------------#
#--------------------------------------------------#
#THIS FILE MAY BE USED ONLY IN ACCORDANCE WITH A CURRENT SUBSCRIPTION AGREEMENT BETWEEN
#THE USER AND ENVERUS, INC. NO PART OF THIS FILE MAY BE REPRODUCED, USED, COPIED,
#MODIFIED, PROPAGATED, OR DISTRIBUTED EXCEPT IN ACCORDANCE WITH THE SUBSCRIPTION
#AGREEMENT. UNAUTHORIZED USE OR DISTRIBUTION OF ALL OR ANY PART OF THIS FILE MAY VIOLATE
#COPYRIGHT, TRADEMARK, AND/OR OTHER LAWS AND IS SUBJECT TO CIVIL AS WELL AS CRIMINAL
#SANCTIONS.
#--------------------------------------------------#
#THIS FILE IS PROVIDED "AS-IS" AND ALL WARRANTIES ARE EXPRESSLY DISCLAIMED, WHETHER
#EXPRESS, ORAL, IMPLIED, STATUTORY OR OTHERWISE, INCLUDING ANY IMPLIED WARRANTY OF FITNESS
#FOR A PARTICULAR PURPOSE, MERCHANTABILITY, TITLE OR NON-INFRINGEMENT, AND ANY WARRANTIES
#ARISING BY VIRTUE OF CUSTOM OF TRADE OR COURSE OF DEALING.  FURTHER, ENVERUS, INC.
#AND ITS LICENSORS DO NOT REPRESENT OR WARRANT THAT THIS FILE WILL MEET USER'S
#REQUIREMENTS OR ARE SUITABLE FOR USER'S NEEDS OR THAT THE DATA OR RESULTS PROVIDED IN
#CONJUNCTION THEREWITH ARE CORRECT, ACCURATE, TIMELY OR RELIABLE. THESE DISCLAIMERS SHALL
#APPLY REGARDLESS OF ANY FAILURE OF ESSENTIAL PURPOSE OF ANY LIMITED REMEDY.  SOME
#JURISDICTIONS DO NOT ALLOW THE EXCLUSION OF CERTAIN WARRANTIES SO SOME OF THE ABOVE
#EXCLUSIONS MAY NOT APPLY. IN NO EVENT SHALL ENVERUS, INC. OR ANY OF ITS AFFILIATES
#BE LIABLE UNDER ANY LEGAL THEORY, WHETHER IN TORT (INCLUDING WITHOUT LIMITATION
#NEGLIGENCE), CONTRACT, STRICT LIABILITY, STATUTORY OR OTHERWISE, FOR ANY SPECIAL,
#INCIDENTAL, CONSEQUENTIAL, EXEMPLARY, PUNITIVE OR INDIRECT DAMAGE OF ANY KIND, INCLUDING
#WITHOUT LIMITATION LOSS OF REVENUE, PROFITS, GOODWILL, USE, AND/OR DATA OR THE COST OF
#PROCUREMENT OF SUBSTITUTE GOODS OR SERVICES, EVEN IF APPRISED OF THE POSSIBILITY OF SUCH
#DAMAGES IN ADVANCE.
#--------------------------------------------------#

~VERSION INFORMATION
VERS. 2.0 : CWLS LOG ASCII STANDARD - VERSION 2.0
WRAP.  NO : ONE LINE PER DEPTH STEP
~WELL INFORMATION
#MNEMONIC     .UNIT              VALUE :DESCRIPTION
STRT       .FT                51 :START DEPTH
STOP       .FT                6194 :STOP DEPTH
STEP       .FT                   0.500 :STEP
NULL       .                  -999.990 :NULL
UWI        .              42389004340000 :UNIQUE WELL ID
API        .              42389004340000 :API NUMBER
COMP       .         :COMPANY
WELL       .         1, :WELL
DATE       .                            :LOG DATE
~CURVE INFORMATION
#MNEMONIC     .UNIT      API CODE :CURVE DESCRIPTION
DEPTH       .FT                      :MEASURED DEPTH
GR.API        UNKNOWN   :GR
DT.US/FT        UNKNOWN   :DT
~A    DEPTH    GR    DT
# ...
 5285     171.415   80.937
 5285.5     185   83.357
 5286     166.493   84.894
 5286.5     147.987   75.209
 5287     129.48   65.524
 5287.5     110.974   63.626
 5288     92.467   66.052
 5288.5     73.961   68.477
 5289     57.509   70.903
 5289.5     49.922   72.417
 5290     49.17   71.613
 5290.5     48.419   70.809
 5291     47.667   70.98
 5291.5     46.915   72.152
 5292     46.164   73.325
 5292.5     48.342   74.497
 5293     52.621   74.417
 5293.5     56.901   74.198
 5294     61.18   75.116
 5294.5     65.459   76.034
 5295     67.835   76.953
 5295.5     65.511   77.871
 5296     63.187   77.115
 5296.5     60.863   75.623
 5297     61.493   74.131
 5297.5     62.271   72.639
 5298     63.049   71.147
 5298.5     63.409   69.655
 5299     60.525   73.653
 5299.5     57.641   78.23
 5300     54.758   82.806
 5300.5     53.454   85.193
 5301     52.67   85.138
 5301.5     51.886   84.616
 5302     51.101   84.093
 5302.5     50.317   84.181
 5303     49.533   85.729
 5303.5     48.749   87.277
 5304     47.964   87.452
 5304.5     48.151   86.399
 5305     48.759   85.347
 5305.5     49.367   84.369
 5306     49.976   85.184
 5306.5     50.584   85.999
 5307     51.192   86.814
 5307.5     51.8   86.833
 5308     52.409   86.271
 5308.5     52.276   85.709
 5309     51.948   85.148
 5309.5     51.62   84.149
 5310     51.292   83.55
 5310.5     50.963   83.617
 5311     50.635   83.507
 5311.5     50.307   83.261
 5312     49.979   83.015
 5312.5     49.651   82.769
 5313     49.323   82.862
 5313.5     49.627   83.186
 5314     50.315   83.509
 5314.5     51.003   83.832
 5315     51.691   84.155
 5315.5     52.379   84.215
 5316     51.119   84.241
 5316.5     49.075   84.328
 5317     47.17   84.489
 5317.5     47.513   84.65
 5318     47.857   84.396
 5318.5     48.201   83.859
 5319     48.545   84.399
 5319.5     48.713   84.939
 5320     47.668   85.478
 5320.5     46.623   85.528
 5321     46.182   85.11
 5321.5     47.245   84.692
 5322     48.308   84.273
 5322.5     49.37   83.855
 5323     50.433   83.437
 5323.5     51.496   83.019
 5324     51.565   82.6
 5324.5     50.824   82.182
 5325     50.083   82.071
 5325.5     49.342   84.647
 5326     48.602   85.839
 5326.5     48.245   85.073
 5327     48.666   84.308
 5327.5     49.087   83.543
 5328     49.508   82.861
 5328.5     49.928   83.096
 5329     50.349   82.97
 5329.5     49.763   82.371
 5330     48.863   81.772
 5330.5     47.962   81.173
 5331     47.061   81.181
 5331.5     46.161   82.551
 5332     47.03   83.921
 5332.5     48.489   83.272
 5333     49.949   82.38
 5333.5     51.408   81.487
 5334     52.876   80.815
 5334.5     54.363   81.997
 5335     55.849   82.36
 5335.5     57.336   80.998
 5336     58.822   79.636
 5336.5     60.309   78.274
 5337     61.795   77.265
 5337.5     62.261   77.956
 5338     60.72   78.647
 5338.5     60.304   79.338
 5339     60.708   79.536
 5339.5     61.105   79.164
 5340     60.259   80.765
 5340.5     59.413   83.537
 5341     58.567   83.292
 5341.5     57.721   80.743
 5342     56.875   79.214
 5342.5     56.029   79.932
 5343     58.92   79.057
 5343.5     62.182   77.106
 5344     65.443   75.248
 5344.5     68.705   78.735
 5345     71.966   82.223
 5345.5     68.011   85.711
 5346     63.666   84.466
 5346.5     59.322   81.142
 5347     56.998   77.818
 5347.5     56.486   74.495
 5348     55.974   72.023
 5348.5     55.462   73.395
 5349     54.951   74.766
 5349.5     54.439   76.138
 5350     55.044   77.51
 5350.5     59.153   78.714
 5351     63.262   76.678
 5351.5     67.371   75.051
 5352     71.48   75.247
 5352.5     75.589   75.444
 5353     79.698   75.641
 5353.5     83.807   75.749
 5354     84.893   74.71
 5354.5     85.534   73.67
 5355     86.175   73.649
 5355.5     86.817   74.393
 5356     87.458   74.437
 5356.5     88.1   73.944
 5357     88.741   73.451
 5357.5     89.16   72.958
 5358     88.566   72.465
 5358.5     87.973   72.769
 5359     87.379   73.178
 5359.5     86.786   73.587
 5360     86.193   73.996
 5360.5     85.599   74.405
 5361     85.006   74.814
 5361.5     84.412   75.223
 5362     82.643   75.632
 5362.5     77.875   74.332
 5363     73.106   72.611
 5363.5     68.338   70.889
 5364     63.569   69.168
 5364.5     61.347   67.446
 5365     60.211   65.725
 5365.5     59.075   72.866
 5366     63.206   74.91
 5366.5     68.192   74.45
 5367     73.178   73.99
 5367.5     73.797   74.814
 5368     71.7   77.381
 5368.5     69.602   79.947
 5369     67.505   78.462
 5369.5     65.407   75.579
 5370     67.252   74.785
 5370.5     70.401   74.687
 5371     73.55   74.589
 5371.5     76.7   74.492
 5372     79.849   71.699
 5372.5     80.141   68.16
 5373     80.388   69.3
 5373.5     80.634   70.441
 5374     80.881   71.581
 5374.5     81.127   72.125
 5375     81.374   70.438
 5375.5     81.62   68.861
 5376     81.857   69.178
 5376.5     81.86   69.494
 5377     81.862   69.81
 5377.5     81.865   70.126
 5378     81.867   70.442
 5378.5     81.87   69.942
 5379     81.118   68.697
 5379.5     80.255   67.453
 5380     79.392   66.702
 5380.5     78.529   67.033
 5381     77.666   67.365
 5381.5     76.803   67.696
 5382     75.94   68.027
 5382.5     76.997   68.359
 5383     83.269   68.69
 5383.5     88.119   71.991
 5384     92.969   72.352
 5384.5     97.819   71.78
 5385     102.669   71.207
 5385.5     107.518   70.635
 5386     109.046   70.062
 5386.5     104.727   69.49
 5387     100.409   69.521
 5387.5     96.09   70.657
 5388     99.407   71.793
 5388.5     103.118   72.93
 5389     101.183   72.362
 5389.5     96.648   71.402
 5390     92.114   71.283
 5390.5     87.579   71.864
 5391     83.044   72.446
 5391.5     86.723   73.028
 5392     91.344   73.58
 5392.5     95.965   73.198
 5393     100.586   72.816
 5393.5     101.838   72.434
 5394     100.972   73.303
 5394.5     100.107   74.342
 5395     93.07   75.381
 5395.5     84.344   76.42
 5396     75.617   77.087
 5396.5     66.891   76.235
 5397     58.165   75.384
 5397.5     57.275   74.533
 5398     56.622   73.682
 5398.5     55.969   73.261
 5399     55.316   75.982
 5399.5     54.663   78.704
 5400     54.01   81.425
 5400.5     54.011   84.146
 5401     54.776   85.439
 5401.5     55.54   84.453
 5402     56.304   83.468
 5402.5     57.068   82.482
 5403     57.832   81.496
 5403.5     58.597   82.422
 5404     59.361   84.593
 5404.5     57.582   85.348
 5405     55.786   85.427
 5405.5     53.991   85.506
 5406     52.798   85.585
 5406.5     53.375   85.787
 5407     53.952   86.069
 5407.5     54.529   86.351
 5408     55.106   86.633
 5408.5     54.498   86.915
 5409     53.864   87.156
 5409.5     53.229   87.033
 5410     52.595   87.009
 5410.5     51.961   86.984
 5411     51.326   87.059
 5411.5     50.692   87.201
 5412     50.058   87.343
 5412.5     49.423   87.485
 5413     49.328   87.628
 5413.5     49.935   87.77
 5414     50.543   87.912
 5414.5     51.15   87.036
 5415     51.757   85.871
 5415.5     51.705   84.706
 5416     51.039   84.569
 5416.5     50.373   84.679
 5417     49.707   84.789
 5417.5     49.041   84.899
 5418     48.374   85.009
 5418.5     47.708   85.119
 5419     47.042   85.229
 5419.5     46.376   85.339
 5420     46.833   85.449
 5420.5     47.974   85.394
 5421     49.114   85.199
 5421.5     50.254   85.004
 5422     51.394   84.809
 5422.5     51.537   84.614
 5423     51.322   84.419
 5423.5     51.713   84.224
 5424     53.176   84.161
 5424.5     54.64   84.335
 5425     56.104   84.51
 5425.5     57.567   84.684
 5426     59.031   84.858
 5426.5     59.046   84.952
 5427     57.167   84.635
 5427.5     55.289   84.485
 5428     53.411   84.695
 5428.5     51.533   84.905
 5429     49.655   85.268
 5429.5     50.444   86.015
 5430     51.421   86.762
 5430.5     52.398   87.51
 5431     53.375   84.983
 5431.5     54.353   83.692
 5432     55.33   84.024
 5432.5     56.307   84.356
 5433     57.284   84.122
 5433.5     55.967   83.641
 5434     54.228   83.16
