~VERSION INFORMATION
VERS.           1.2   :CWLS Log ASCII Standard - VERSION 1.2
WRAP.           NO    :One Line per depth step
PROD.  Schlumberger   :LAS Producer
PROG.  DLIS to ASCII 17C0-152                          :LAS Program name and version
CREA.        2014/05/28 16:07                          :LAS Creation date {YYYY/MM/DD hh:mm}
DLIS_CREA.  2014-May-27 22:17                          :DLIS Creation date and time {YYYY-MMM-DD hh:mm}
SOURCE.     db5fefe1-f67d-4e3f-8816-ab53d5f8be46       :DLIS File Name
#--------------------------------------------------
~WELL INFORMATION
#MNEM.UNIT      DATA             DESCRIPTION
#---- ------ --------------   -----------------------------
# Enverus has updated the API/UWI.  The previous names are renamed to  PREV_API / PREV_UWI
API.  API (14 Digits with Dashes) : 42-389-34023-90-00
UWI.              UNIQUE WELL ID : 42389340239000

STRT .F      9586.5000       :START DEPTH     
STOP .F      10811.5000      :STOP DEPTH     
STEP .F       0.5000         :STEP       
NULL .          -999.25      :NULL VALUE
COMP .                 COMPANY:  J. Cleo Thompson                   
WELL .                    WELL:  Okapi State Unit B35 #2H           
FLD  .                   FIELD:  Wolfbone (Trend Area)              
LOC  .                LOCATION:  260' FNL & 500' FEL                
CNTY .                  COUNTY:  Reeves                             
STAT .                   STATE:  Texas                              
CTRY .                 COUNTRY:                                     
SRVC .         SERVICE COMPANY:  Schlumberger                       
LATI .DEG             LATITUDE:  31.112200 degrees                  
LONG .DEG            LONGITUDE:  -103.28900 degrees                 
PREV_API  .              API NUMBER:  42-389-34023                       
DATE .                LOG DATE:  27-May-2014
PREV_UWI  .          UNIQUE WELL ID:                                     
#-----------------------------------------------------------------------------
~PARAMETER INFORMATION
#MNEM.UNIT    VALUE                      DESCRIPTION
#---- -----   --------------------       ------------------------
CN   .        J. Cleo Thompson           :Company Name
WN   .        Okapi State Unit B35 #2H   :Well Name
FN   .        Wolfbone (Trend Area)      :Field Name
FL   .        260' FNL & 500' FEL        :Field Location
FL1  .        Section  35  Block  50 T8S  Abstract 4369 :Field Location, Line 1
COUN .        Reeves                     :County or Parish
STAT .        Texas                      :State or Province
NATI .                                   :Nation
DATE .        27-May-2014                :Tools Above Rotary Table Date
APIN .        42-389-34023               :API Well Number
SECT .        35                         :Section
TOWN .        50 T8S                     :Township
RANG .        4369                       :Range
DMF  .        KB                         :Drilling Measured From (Name of Drilling Elevation Reference)
LMF  .        KB                         :Logging Measured From (Name of Logging Elevation Reference)
PDAT .        GL                         :Permanent Datum
ENGI .        AJ Massis                  :Engineer s Name
WITN .        Bennie McNett              :Witness s Name
LATI .        31.112200 degrees          :Latitude
LONG .        -103.28900 degrees         :Longitude
LUL  .        Midland                    :Logging Unit Location
LUN  .        9105                       :Logging Unit Number
RUN  .        1B                         :Run Number
SON  .                                   :Service Order Number
BHT  .DEGF     162.00000                 :Bottom Hole Temperature
BS   .IN         8.50000                 :Bit Size
MDEN .G/C3       2.71000                 :Matrix Density for Density Porosity
DFD  .LB/G      10.70000                 :Drilling Fluid Density
DFV  .S         46.00000                 :Drilling Fluid Viscosity
DFL  .C3        10.00000                 :Drilling Fluid Loss
RMFS .OHMM       0.30000                 :Resistivity of Mud Filtrate Sample
EKB  .F       2829.00000                 :Elevation of Kelly Bushing
EGL  .F       2807.00000                 :Elevation of Ground Level
BLI  .F       11012.00000                :Bottom Log Interval
BSAL .PPM     132000.00000               :Borehole Salinity
FLEV .F          8.00000                 :Depth of Drilling Fluid Level to LMF (Log Measured From)
MCST .DEGF      68.00000                 :Mudcake Sample Temperature
MFST .DEGF      80.20000                 :Mud Filtrate Sample Temperature
MRT  .DEGF     162.00000                 :Maximum Recorded Temperature
MST  .DEGF      80.20000                 :Mud Sample Temperature
RMCS .OHMM    -999.25000                 :Resistivity of Mud Cake Sample
RMS  .OHMM       0.30000                 :Resistivity of Mud Sample
RW   .OHMM       1.00000                 :Connate Water Resistivity
TDD  .F       11012.00000                :Driller Total Depth
TDL  .F       11012.00000                :Logger Total Depth
TLI  .F       9676.00000                 :Top Log Interval
HIDE .        Wolfbone (Trend Area)      :Header Identifier
MATR .        LIME                       :Rock Matrix for Neutron Porosity Corrections
FNUM .           1.00000                 :F-Numerator for Formation Factor Formula
FEXP .           2.00000                 :Exponent "m" for Formation Factor Formula
DFT  .        Salt Brine                 :Drilling Fluid Type
DFPH .           9.00000                 :Drilling Fluid pH
MCSS .                                   :Mudcake Sample Source
MFSS .                                   :Mud Filtrate Sample Source
FD   .G/C3       1.10000                 :Fluid Density
MSS  .        Active Tank                :Mud Sample Source
OS1  .                                   :Other Services Line 1
OS2  .                                   :Other Services Line 2
OS3  .                                   :Other Services Line 3
OS4  .                                   :Other Services Line 4
OS5  .                                   :Other Services Line 5
R1   .        Tools run as per toolsketch :Remarks Line 1
R2   .        Logs performed on a Limestone matrix (2.71

g/cc  47.6 us/ft ). Mud Properties  MW =

10.7 g/cc  FD = 1.1 g/cc. :Remarks Line 2
R3   .        Max recorded temperature from downhole

thermometer = 162 degF. :Remarks Line 3
R4   .        Logs run from TD to casing. GR & Neutron

logged from casing to 200ft as per client

request. :Remarks Line 4
R5   .        Tools got stuck near TD and calipers had to be closed in order to get free. :Remarks Line 5
R6   .        Well was washed out for many intervals. :Remarks Line 6
R7   .        Repeat done at casing due to getting stuck at TD :Remarks Line 7
R8   .                                   :Remarks Line 8
TCS  .        18 00 00                   :Time Circulation Stopped
TLAB .        16 19 01                   :Time Logger At Bottom
EPD  .C3         2807.000000             :Elevation of Permanent Datum above Mean Sea Level
APD  .F          22.000000               :Elevation of Depth Reference (LMF) above Permanent Datum
#-----------------------------------------------------------------------------
~CURVE INFORMATION
#MNEM.UNIT   API CODE                                  DESCRIPTION
#---- -----  --------                                  -----------------------
DEPT .F                                                :DEPTH (BOREHOLE) {F12.4}
CDF  .LBF                                              :Calibrated Downhole Force {F11.4}
CTEM .DEGF                                             :Cartridge Temperature {F11.4}
DCAL .IN                                               :Differential Caliper {F11.4}
DTCO .US/F                                             :Delta-T Compressional {F11.4}
DTSM .US/F                                             :Delta-T Shear {F11.4}
ED   .F                                                :East Departure {F11.4}
GR_EDTC.GAPI                                           :Gamma Ray {F11.4}
GTEM .DEGF                                             :Generalized Borehole Temperature {F11.4}
HAZI .DEG                                              :Hole Azimuth Relative to True North {F11.4}
HAZIM.DEG                                              :Memorized Hole Azimuth {F11.4}
ITT  .S                                                :Integrated Transit Time {F11.4}
ND   .F                                                :North Departure {F11.4}
P1AZ .DEG                                              :Pad 1 Azimuth in Horizontal Plane (0 = True North) {F11.4}
PR   .                                                 :Poisson s Ratio {F11.4}
RB   .DEG                                              :Relative Bearing {F11.4}
SDEV .DEG                                              :Sonde Deviation {F11.4}
SDEVM.DEG                                              :Memorized Sonde Deviation {F11.4}
SPHI .CFCF                                             :Sonic Porosity {F11.4}
STIT .F                                                :Stuck Tool Indicator, Total {F11.4}
TENS .LBF                                              :Cable Tension {F11.4}
#-----------------------------------------------------------------------------
# 
#      DEPT        CDF        CTEM       DCAL       DTCO       DTSM        ED      GR_EDTC      GTEM       HAZI      HAZIM       ITT         ND        P1AZ        PR         RB        SDEV      SDEVM       SPHI       STIT       TENS
#
~A  
# ...
  10706.5000  1278.6501   157.6470     0.1262    82.7927   137.2367     0.0000    68.9629   159.3922   292.4752   295.9262     0.0049     0.0000   168.6287     0.2139   236.1494     0.9891     0.9791     0.2489     0.0000  4312.3335
  10707.0000  1274.2334   157.6470     0.1374    83.0273   137.8258     0.0000    65.1390   159.3965   293.9471   294.8080     0.0048     0.0000   166.0913     0.2152   232.1401     0.9829     0.9806     0.2505     0.0000  4303.6670
  10707.5000  1275.1608   157.6470     0.1262    83.2806   138.3621     0.0000    65.8247   159.4007   294.7004   293.8444     0.0048     0.0000   163.6475     0.2159   228.9427     0.9835     0.9814     0.2523     0.0000  4313.6670
  10708.0000  1268.1915   157.6470     0.1262    83.4880   138.6150     0.0000    69.5244   159.4050   294.5799   293.4562     0.0047     0.0000   160.9615     0.2154   226.3773     0.9870     0.9832     0.2538     0.0000  4304.6665
  10708.5000  1272.7383   157.6470     0.1262    84.0593   140.4259     0.0000    73.7517   159.4093   293.4741   293.9341     0.0047     0.0000   157.7175     0.2208   224.2388     0.9904     0.9870     0.2578     0.0000  4294.6665
  10709.0000  1274.4764   157.6470     0.1374    84.6983   141.2573     0.0000    74.6752   159.4135   292.2198   295.2167     0.0047     0.0000   154.6603     0.2193   222.4361     0.9907     0.9944     0.2624     0.0000  4340.0000
  10709.5000  1270.5922   157.6470     0.1485    84.6839   143.5963     0.0000    73.9703   159.4178   291.1647   297.3445     0.0046     0.0000   151.7401     0.2334   220.5713     0.9875     1.0086     0.2623     0.0000  4270.5000
  10710.0000  1263.6204   157.6470     0.1485    85.5918   144.7919     0.0000    79.1331   159.4221   290.7232   298.9725     0.0046     0.0000   148.6624     0.2314   217.9355     0.9795     1.0223     0.2687     0.0000  4278.6670
  10710.5000  1259.4532   157.6470     0.1485    86.2117   146.8545     0.0000    85.4729   159.4263   291.1234   299.9783     0.0045     0.0000   146.4575     0.2371   215.3304     0.9691     1.0320     0.2731     0.0000  4273.0000
  10711.0000  1257.9724   157.6470     0.1262    86.5268   148.3743     0.0000    88.0166   159.4306   292.3478   300.1394     0.0045     0.0000   143.8344     0.2423   211.4830     0.9595     1.0340     0.2753     0.0000  4273.2500
  10711.5000  1276.0695   157.6470     0.1708    86.8871   149.0820     0.0000    87.9688   159.4349   294.0682   299.4911     0.0044     0.0000   141.0819     0.2428   207.0107     0.9554     1.0265     0.2778     0.0000  4347.3335
  10712.0000  1309.3413   157.6470     0.1708    86.9397   149.3711     0.0000    87.9867   159.4391   295.9814   298.2455     0.0044     0.0000   135.7559     0.2438   199.7715     0.9592     1.0129     0.2782     0.0000  4368.3335
  10712.5000  1349.9476   157.6470     0.1708    86.8575   149.5900     0.0000    92.0747   159.4434   296.8497   296.4260     0.0044     0.0000   130.3277     0.2457   193.4759     0.9668     0.9970     0.2776     0.0000  4292.3335
  10713.0000  1275.1478   157.6470     0.1708    86.8000   148.9709     0.0000    93.2042   159.4477   296.8633   295.1251     0.0043     0.0000   127.3839     0.2430   190.5194     0.9742     0.9909     0.2772     0.0000  4319.6665
  10713.5000  1266.2603   157.6470     0.1597    86.7623   148.3070     0.0000    92.6122   159.4520   296.1465   294.4592     0.0043     0.0000   126.9897     0.2398   190.8414     0.9786     0.9950     0.2770     0.0000  4270.0000
  10714.0000  1259.1812   157.6470     0.1485    86.7067   148.2437     0.0000    89.1096   159.4562   295.0549   294.6249     0.0042     0.0000   124.5143     0.2400   189.4574     0.9803     1.0099     0.2766     0.0000  4308.6665
  10714.5000  1260.7720   157.6470     0.1485    86.4934   148.1816     0.0000    85.4569   159.4605   293.8444   295.4958     0.0042     0.0000   119.0790     0.2416   185.2342     0.9814     1.0337     0.2751     0.0000  4273.3335
  10715.0000  1258.4701   157.6470     0.1485    86.3264   148.5535     0.0000    82.4800   159.4648   293.4562   296.7242     0.0041     0.0000   116.1212     0.2451   182.6643     0.9832     1.0614     0.2739     0.0000  4274.6670
  10715.5000  1261.8918   157.6470     0.1819    86.1523   147.6574     0.0000    79.5656   159.4690   293.9341   297.8883     0.0041     0.0000   113.4204     0.2419   179.4867     0.9870     1.0857     0.2726     0.0000  4280.6665
  10716.0000  1264.4916   157.6470     0.1708    86.0111   147.4636     0.0000    80.2875   159.4733   295.2167   298.7120     0.0041     0.0000   110.2612     0.2422   175.0454     0.9944     1.0992     0.2716     0.0000  4272.0000
  10716.5000  1258.6567   157.6470     0.1708    85.8883   147.0179     0.0000    82.0971   159.4776   296.9863   299.0895     0.0040     0.0000   107.1245     0.2409   170.1400     1.0058     1.0980     0.2708     0.0000  4249.0000
  10717.0000  1253.0718   157.6470     0.1819    85.9015   147.4012     0.0000    84.8492   159.4818   298.6818   299.0044     0.0040     0.0000   104.5243     0.2429   165.8445     1.0197     1.0789     0.2709     0.0000  4275.0000
  10717.5000  1259.1810   157.6470     0.1708    86.3574   148.0143     0.0000    81.5590   159.4861   299.8436   298.5448     0.0039     0.0000   101.6174     0.2420   161.7769     1.0307     1.0553     0.2741     0.0000  4255.7500
  10718.0000  1251.5532   157.6470     0.1819    86.4471   148.3779     0.0000    82.8955   159.4904   300.1394   297.8183     0.0039     0.0000    98.0845     0.2431   157.9488     1.0340     1.0337     0.2747     0.0000  4220.6665
  10718.5000  1249.9114   157.6470     0.1819    86.4501   148.6723     0.0000    83.4139   159.4946   299.4911   296.9948     0.0038     0.0000    95.5795     0.2446   156.0915     1.0265     1.0220     0.2748     0.0000  4264.6670
  10719.0000  1251.6804   157.6470     0.1708    86.3775   148.6230     0.0000    89.4628   159.4989   298.2455   296.2937     0.0038     0.0000    92.7529     0.2450   154.5114     1.0129     1.0247     0.2742     0.0000  4240.6670
  10719.5000  1245.7216   157.6470     0.1708    86.3581   148.6710     0.0000    92.6527   159.5032   296.7339   295.8845     0.0038     0.0000    89.8863     0.2454   153.1555     0.9991     1.0430     0.2741     0.0000  4274.3335
  10720.0000  1253.4301   157.6470     0.1708    86.4761   148.9308     0.0000    93.2300   159.5074   295.3541   295.7418     0.0037     0.0000    86.9504     0.2457   151.6001     0.9913     1.0725     0.2749     0.0000  4255.0000
  10720.5000  1257.1471   157.6470     0.1597    86.4078   148.2415     0.0000    89.8787   159.5117   294.5307   295.7550     0.0037     0.0000    83.8143     0.2427   149.2876     0.9932     1.1054     0.2745     0.0000  4221.6670
  10721.0000  1255.8280   157.6470     0.1708    86.6139   148.8633     0.0000    85.4374   159.5160   294.5221   295.8139     0.0036     0.0000    80.8126     0.2441   146.2946     1.0060     1.1320     0.2759     0.0000  4249.3335
  10721.5000  1261.9109   157.6470     0.1597    86.6450   148.7659     0.0000    82.6079   159.5202   295.2797   295.8900     0.0036     0.0000    77.8919     0.2433   142.6163     1.0284     1.1455     0.2761     0.0000  4225.6670
  10722.0000  1260.2742   157.6470     0.1597    86.5477   148.7774     0.0000    83.8692   159.5245   296.7242   295.9561     0.0035     0.0000    74.2252     0.2443   137.5058     1.0614     1.1390     0.2754     0.0000  4228.7500
  10722.5000  1256.7062   157.6470     0.1485    86.5411   149.0857     0.0000    84.0572   159.5288   297.8883   295.9966     0.0035     0.0000    71.7319     0.2459   133.8494     1.0857     1.1203     0.2754     0.0000  4237.6670
  10723.0000  1256.4171   157.6470     0.1597    86.5314   149.2357     0.0000    82.1772   159.5330   298.7120   295.9176     0.0034     0.0000    69.2095     0.2468   130.5027     1.0992     1.0955     0.2753     0.0000  4233.0000
  10723.5000  1263.2249   157.6470     0.1485    86.4737   148.7987     0.0000    79.5545   159.5373   299.0895   295.6056     0.0034     0.0000    66.3492     0.2450   127.2648     1.0980     1.0733     0.2749     0.0000  4262.3330
