#--------------------------------------------------#
#-------------------ENVERUS, INC.------------------#
#------------------WWW.ENVERUS.COM-----------------#
#------------------COPYRIGHT 2020------------------#
#--------------------------------------------------#
#THIS FILE MAY BE USED ONLY IN ACCORDANCE WITH A CURRENT SUBSCRIPTION AGREEMENT BETWEEN
#THE USER AND ENVERUS, INC. NO PART OF THIS FILE MAY BE REPRODUCED, USED, COPIED,
#MODIFIED, PROPAGATED, OR DISTRIBUTED EXCEPT IN ACCORDANCE WITH THE SUBSCRIPTION
#AGREEMENT. UNAUTHORIZED USE OR DISTRIBUTION OF ALL OR ANY PART OF THIS FILE MAY VIOLATE
#COPYRIGHT, TRADEMARK, AND/OR OTHER LAWS AND IS SUBJECT TO CIVIL AS WELL AS CRIMINAL
#SANCTIONS.
#--------------------------------------------------#
#THIS FILE IS PROVIDED "AS-IS" AND ALL WARRANTIES ARE EXPRESSLY DISCLAIMED, WHETHER
#EXPRESS, ORAL, IMPLIED, STATUTORY OR OTHERWISE, INCLUDING ANY IMPLIED WARRANTY OF FITNESS
#FOR A PARTICULAR PURPOSE, MERCHANTABILITY, TITLE OR NON-INFRINGEMENT, AND ANY WARRANTIES
#ARISING BY VIRTUE OF CUSTOM OF TRADE OR COURSE OF DEALING.  FURTHER, ENVERUS, INC.
#AND ITS LICENSORS DO NOT REPRESENT OR WARRANT THAT THIS FILE WILL MEET USER'S
#REQUIREMENTS OR ARE SUITABLE FOR USER'S NEEDS OR THAT THE DATA OR RESULTS PROVIDED IN
#CONJUNCTION THEREWITH ARE CORRECT, ACCURATE, TIMELY OR RELIABLE. THESE DISCLAIMERS SHALL
#APPLY REGARDLESS OF ANY FAILURE OF ESSENTIAL PURPOSE OF ANY LIMITED REMEDY.  SOME
#JURISDICTIONS DO NOT ALLOW THE EXCLUSION OF CERTAIN WARRANTIES SO SOME OF THE ABOVE
#EXCLUSIONS MAY NOT APPLY. IN NO EVENT SHALL ENVERUS, INC. OR ANY OF ITS AFFILIATES
#BE LIABLE UNDER ANY LEGAL THEORY, WHETHER IN TORT (INCLUDING WITHOUT LIMITATION
#NEGLIGENCE), CONTRACT, STRICT LIABILITY, STATUTORY OR OTHERWISE, FOR ANY SPECIAL,
#INCIDENTAL, CONSEQUENTIAL, EXEMPLARY, PUNITIVE OR INDIRECT DAMAGE OF ANY KIND, INCLUDING
#WITHOUT LIMITATION LOSS OF REVENUE, PROFITS, GOODWILL, USE, AND/OR DATA OR THE COST OF
#PROCUREMENT OF SUBSTITUTE GOODS OR SERVICES, EVEN IF APPRISED OF THE POSSIBILITY OF SUCH
#DAMAGES IN ADVANCE.
#--------------------------------------------------#

~VERSION INFORMATION
VERS. 2.0 : CWLS LOG ASCII STANDARD - VERSION 2.0
WRAP.  NO : ONE LINE PER DEPTH STEP
~WELL INFORMATION
#MNEMONIC     .UNIT              VALUE :DESCRIPTION
STRT       .FT                75 :START DEPTH
STOP       .FT                5648 :STOP DEPTH
STEP       .FT                   0.500 :STEP
NULL       .                  -999.990 :NULL
UWI        .              42371363570000 :UNIQUE WELL ID
API        .              42371363570000 :API NUMBER
COMP       .         APACHE CORPORATION :COMPANY
WELL       .        SCHLOSSER, FRED ESTATE -B-  13 :WELL
DATE       .                16-MAY-1992 :LOG DATE
~CURVE INFORMATION
#MNEMONIC     .UNIT      API CODE :CURVE DESCRIPTION
DEPTH       .FT                      :MEASURED DEPTH
DT.US/FT        UNKNOWN   :DT
GR.API        UNKNOWN   :GR
~A    DEPTH    DT    GR
# ...
 363     -999.990   52.663
 363.5     -999.990   49.111
 364     -999.990   45.613
 364.5     -999.990   45.359
 365     -999.990   45.105
 365.5     -999.990   47.895
 366     -999.990   51.138
 366.5     -999.990   52.193
 367     -999.990   51.531
 367.5     -999.990   50.868
 368     -999.990   52.864
 368.5     -999.990   55.658
 369     -999.990   57.672
 369.5     -999.990   57.256
 370     -999.990   56.841
 370.5     -999.990   51.167
 371     -999.990   52.504
 371.5     -999.990   53.868
 372     -999.990   53.847
 372.5     -999.990   52.133
 373     -999.990   50.418
 373.5     -999.990   48.704
 374     -999.990   46.99
 374.5     -999.990   48.019
 375     -999.990   50.248
 375.5     -999.990   49.394
 376     -999.990   47.75
 376.5     -999.990   46.107
 377     -999.990   45.19
 377.5     -999.990   45.822
 378     -999.990   49.086
 378.5     -999.990   52.35
 379     -999.990   54.539
 379.5     -999.990   55.817
 380     -999.990   51.828
 380.5     -999.990   43.617
 381     -999.990   43.553
 381.5     -999.990   45.392
 382     -999.990   48.721
 382.5     -999.990   52.05
 383     -999.990   52.229
 383.5     -999.990   50.52
 384     -999.990   47.653
 384.5     -999.990   43.441
 385     -999.990   43.06
 385.5     -999.990   44.251
 386     -999.990   43.571
 386.5     -999.990   42.41
 387     -999.990   45.821
 387.5     -999.990   51.781
 388     -999.990   54.184
 388.5     -999.990   55.606
 389     -999.990   57.028
 389.5     -999.990   58.449
 390     -999.990   59.871
 390.5     -999.990   60.05
 391     -999.990   57.504
 391.5     -999.990   56.881
 392     -999.990   54.501
 392.5     -999.990   52.122
 393     -999.990   59.635
 393.5     -999.990   64.258
 394     -999.990   67.467
 394.5     -999.990   65.788
 395     -999.990   61.125
 395.5     -999.990   57.161
 396     -999.990   53.903
 396.5     -999.990   52.22
 397     -999.990   53.585
 397.5     -999.990   57.549
 398     -999.990   62.368
 398.5     -999.990   62.044
 399     -999.990   61.034
 399.5     -999.990   61.077
 400     -999.990   63.588
 400.5     -999.990   63.247
 401     -999.990   61.107
 401.5     -999.990   59.042
 402     -999.990   56.907
 402.5     -999.990   52.893
 403     -999.990   48.879
 403.5     -999.990   44.833
 404     -999.990   43.276
 404.5     -999.990   43.116
 405     -999.990   42.957
 405.5     -999.990   44.199
 406     -999.990   50.601
 406.5     -999.990   50.238
 407     -999.990   49.041
 407.5     -999.990   51.268
 408     -999.990   48.027
 408.5     -999.990   44.754
 409     -999.990   43.465
 409.5     -999.990   42.565
 410     -999.990   45.051
 410.5     -999.990   44.386
 411     -999.990   43.722
 411.5     -999.990   43.057
 412     -999.990   43.928
 412.5     -999.990   45.163
 413     -999.990   47.1
 413.5     -999.990   51.034
 414     -999.990   56.062
 414.5     -999.990   60.058
 415     -999.990   56.294
 415.5     -999.990   59.099
 416     -999.990   59.03
 416.5     -999.990   56.818
 417     -999.990   54.606
 417.5     -999.990   55.157
 418     -999.990   54.689
 418.5     -999.990   51.156
 419     -999.990   49.791
 419.5     -999.990   53.555
 420     -999.990   58.1
 420.5     -999.990   61.862
 421     -999.990   59.659
 421.5     -999.990   57.455
 422     -999.990   55.252
 422.5     -999.990   55.911
 423     -999.990   56.822
 423.5     -999.990   57.733
 424     -999.990   56.878
 424.5     -999.990   55.914
 425     -999.990   56.445
 425.5     -999.990   54.36
 426     -999.990   51.101
 426.5     -999.990   51.227
 427     -999.990   48.805
 427.5     -999.990   45.278
 428     -999.990   42.736
 428.5     -999.990   41.137
 429     -999.990   39.732
 429.5     -999.990   39.593
 430     -999.990   39.453
 430.5     -999.990   46.808
 431     -999.990   46.229
 431.5     -999.990   47.092
 432     -999.990   48.628
 432.5     -999.990   52.146
 433     -999.990   54.979
 433.5     -999.990   53.035
 434     -999.990   53.926
 434.5     -999.990   51.253
 435     -999.990   49.484
 435.5     -999.990   50.969
 436     -999.990   50.642
 436.5     -999.990   48.637
 437     -999.990   46.632
 437.5     -999.990   44.808
 438     -999.990   43.001
 438.5     -999.990   41.194
 439     -999.990   39.387
 439.5     -999.990   30.668
 440     -999.990   26.312
 440.5     -999.990   21.956
 441     -999.990   21.689
 441.5     -999.990   21.79
 442     -999.990   21.89
 442.5     -999.990   21.991
 443     -999.990   24.084
 443.5     -999.990   27.296
 444     -999.990   27.263
 444.5     -999.990   24.52
 445     -999.990   22.114
 445.5     -999.990   19.791
 446     -999.990   17.468
 446.5     -999.990   16.711
 447     -999.990   16.44
 447.5     -999.990   16.169
 448     -999.990   16.157
 448.5     -999.990   16.359
 449     -999.990   16.562
 449.5     -999.990   16.764
 450     -999.990   17.721
 450.5     -999.990   20.684
 451     -999.990   23.646
 451.5     -999.990   28.462
 452     -999.990   33.345
 452.5     -999.990   37.453
 453     -999.990   40.704
 453.5     -999.990   43.128
 454     -999.990   41.537
 454.5     -999.990   42.924
 455     -999.990   44.745
 455.5     -999.990   44.278
 456     -999.990   41.925
 456.5     -999.990   39.572
 457     -999.990   37.218
 457.5     -999.990   37.703
 458     -999.990   38.667
 458.5     -999.990   39.631
 459     -999.990   40.755
 459.5     -999.990   43.888
 460     -999.990   42.202
 460.5     -999.990   40.515
 461     -999.990   37.81
 461.5     -999.990   33.477
 462     -999.990   30.726
 462.5     -999.990   30.304
 463     -999.990   29.881
 463.5     -999.990   29.459
 464     -999.990   31.032
 464.5     -999.990   34.281
 465     -999.990   37.204
 465.5     -999.990   39.087
 466     -999.990   40.971
 466.5     -999.990   42.56
 467     -999.990   40.162
 467.5     -999.990   37.763
 468     -999.990   35.365
 468.5     -999.990   33.063
 469     -999.990   30.783
 469.5     -999.990   30.504
 470     -999.990   40.81
 470.5     -999.990   43.586
 471     -999.990   43.585
 471.5     -999.990   43.584
 472     -999.990   41.771
 472.5     -999.990   38.701
 473     -999.990   35.63
 473.5     -999.990   37.548
 474     -999.990   39.401
 474.5     -999.990   38.661
 475     -999.990   37.922
 475.5     -999.990   37.871
 476     -999.990   39.602
 476.5     -999.990   41.262
 477     -999.990   42.872
 477.5     -999.990   44.482
 478     -999.990   44.123
 478.5     -999.990   42.559
 479     -999.990   42.881
 479.5     -999.990   44.109
 480     -999.990   43.436
 480.5     -999.990   41.233
 481     -999.990   39.03
 481.5     -999.990   37.142
 482     -999.990   35.99
 482.5     -999.990   34.839
 483     -999.990   35.271
 483.5     -999.990   39.782
 484     -999.990   42.699
 484.5     -999.990   44.635
 485     -999.990   46.572
 485.5     -999.990   46.075
 486     -999.990   45.224
 486.5     -999.990   44.374
 487     -999.990   43.523
 487.5     -999.990   44.545
 488     -999.990   46.082
 488.5     -999.990   47.001
 489     -999.990   45.991
 489.5     -999.990   42.928
 490     -999.990   39.76
 490.5     -999.990   36.592
 491     -999.990   35.949
 491.5     -999.990   38.334
 492     -999.990   37.748
 492.5     -999.990   36.281
 493     -999.990   35.471
 493.5     -999.990   37.676
 494     -999.990   40.481
 494.5     -999.990   43.542
 495     -999.990   44.687
 495.5     -999.990   42.921
 496     -999.990   41.154
 496.5     -999.990   39.388
 497     -999.990   37.621
 497.5     -999.990   37.916
 498     -999.990   41.101
 498.5     -999.990   40.392
 499     -999.990   39.483
 499.5     -999.990   38.575
 500     -999.990   37.666
 500.5     -999.990   43.553
 501     -999.990   46.4
 501.5     -999.990   45.453
 502     -999.990   46.647
 502.5     -999.990   48.033
 503     -999.990   49.418
 503.5     -999.990   49.582
 504     -999.990   47.087
 504.5     -999.990   44.949
 505     -999.990   43.076
 505.5     -999.990   41.204
 506     -999.990   40.63
