#--------------------------------------------------#
#-------------------ENVERUS, INC.------------------#
#------------------WWW.ENVERUS.COM-----------------#
#------------------COPYRIGHT 2020------------------#
#--------------------------------------------------#
#THIS FILE MAY BE USED ONLY IN ACCORDANCE WITH A CURRENT SUBSCRIPTION AGREEMENT BETWEEN
#THE USER AND ENVERUS, INC. NO PART OF THIS FILE MAY BE REPRODUCED, USED, COPIED,
#MODIFIED, PROPAGATED, OR DISTRIBUTED EXCEPT IN ACCORDANCE WITH THE SUBSCRIPTION
#AGREEMENT. UNAUTHORIZED USE OR DISTRIBUTION OF ALL OR ANY PART OF THIS FILE MAY VIOLATE
#COPYRIGHT, TRADEMARK, AND/OR OTHER LAWS AND IS SUBJECT TO CIVIL AS WELL AS CRIMINAL
#SANCTIONS.
#--------------------------------------------------#
#THIS FILE IS PROVIDED "AS-IS" AND ALL WARRANTIES ARE EXPRESSLY DISCLAIMED, WHETHER
#EXPRESS, ORAL, IMPLIED, STATUTORY OR OTHERWISE, INCLUDING ANY IMPLIED WARRANTY OF FITNESS
#FOR A PARTICULAR PURPOSE, MERCHANTABILITY, TITLE OR NON-INFRINGEMENT, AND ANY WARRANTIES
#ARISING BY VIRTUE OF CUSTOM OF TRADE OR COURSE OF DEALING.  FURTHER, ENVERUS, INC.
#AND ITS LICENSORS DO NOT REPRESENT OR WARRANT THAT THIS FILE WILL MEET USER'S
#REQUIREMENTS OR ARE SUITABLE FOR USER'S NEEDS OR THAT THE DATA OR RESULTS PROVIDED IN
#CONJUNCTION THEREWITH ARE CORRECT, ACCURATE, TIMELY OR RELIABLE. THESE DISCLAIMERS SHALL
#APPLY REGARDLESS OF ANY FAILURE OF ESSENTIAL PURPOSE OF ANY LIMITED REMEDY.  SOME
#JURISDICTIONS DO NOT ALLOW THE EXCLUSION OF CERTAIN WARRANTIES SO SOME OF THE ABOVE
#EXCLUSIONS MAY NOT APPLY. IN NO EVENT SHALL ENVERUS, INC. OR ANY OF ITS AFFILIATES
#BE LIABLE UNDER ANY LEGAL THEORY, WHETHER IN TORT (INCLUDING WITHOUT LIMITATION
#NEGLIGENCE), CONTRACT, STRICT LIABILITY, STATUTORY OR OTHERWISE, FOR ANY SPECIAL,
#INCIDENTAL, CONSEQUENTIAL, EXEMPLARY, PUNITIVE OR INDIRECT DAMAGE OF ANY KIND, INCLUDING
#WITHOUT LIMITATION LOSS OF REVENUE, PROFITS, GOODWILL, USE, AND/OR DATA OR THE COST OF
#PROCUREMENT OF SUBSTITUTE GOODS OR SERVICES, EVEN IF APPRISED OF THE POSSIBILITY OF SUCH
#DAMAGES IN ADVANCE.
#--------------------------------------------------#

# EXPORTED FROM DI TRANSFORM
# DI TRANSFORM - A PRODUCT OF DRILLINGINFO, INC. - WWW.DRILLINGINFO.COM
#
~VERSION INFORMATION
 VERS.        2.0 : LAS ASCII STANDARD - VERSION 2.0
 WRAP.         NO : ONE LINE PER DEPTH STEP

~WELL INFORMATION
#MNEM.UNIT       DATA TYPE       INFORMATION
#---------       ---------       -----------
 STRT.FT           190 : START DEPTH
 STOP.FT         12010 : STOP DEPTH
 STEP.FT           0.5 : STEP LENGTH
 NULL.         -999.25 : NULL VALUE
 UWI.   42389335580000 : UNIQUE WELL ID
 API.   42389335580000 : WELL IDENTIFIER
 COMP.                 : COMPANY
 WELL.          DRD_55 : WELL NAME
 FLD.                  : FIELD NAME
 LOC.                  : WELL LOCATION
 CNTY.                 : COUNTY
 STAT.                 : STATE OR PROVINCE
 CTRY.                 : COUNTRY
 SRVC.                 : SERVICE COMPANY
 DATE.                 : DATE

~CURVE INFORMATION
#MNEM.UNIT       API CODE       CURVE DESCRIPTION
#---------       --------       -----------------
 DEPT.FT          : <MEASURED DEPTH>
 CAL.IN           : CALIPER
 DPHI.%           : DENSITY POROSITY
 DT.US/FT         : SONIC
 GR.GAPI          : GAMMA RAY
 NPHI.%           : NEUTRON POROSITY
 RHOB.G/CM3       : DENSITY

~PARAMETER INFORMATION
#MNEM.UNIT       VALUE       DESCRIPTION
#---------       -----       -----------
 EKB.FT      2793 : ELEVATION ABOVE MSL

~A      DEPT         CAL        DPHI          DT          GR        NPHI        RHOB
# ...
        9025       8.834     14.7993     82.6589     98.1733     26.8837      2.4517
      9025.5       8.834     16.3331     83.0493    104.0781     23.5476      2.4439
        9026       8.834     15.8043      83.362      93.251     23.1891      2.4548
      9026.5       8.834     15.2503     83.2092     90.4748      25.083      2.4632
        9027       8.834     15.6971     82.5976     88.9831     29.0307      2.4731
      9027.5       8.834     14.3763     80.8563     84.4628     28.7179      2.4816
        9028       8.834      14.138     77.2682     85.9579     20.7452      2.4935
      9028.5       8.834     13.0626     72.9583     78.3935     26.1921      2.5122
        9029       8.834     11.5029     69.1449     70.4638     24.7006      2.5272
      9029.5       8.834     11.9455     67.4083     60.5701     22.9984      2.5529
        9030       8.834      8.1201     69.2439     38.4167     15.3967      2.5784
      9030.5       8.834      7.2144     73.4936      43.398     15.0002      2.5604
        9031       8.834      9.6641     78.9328     60.4435     20.7791      2.5242
      9031.5       8.834     13.7231     82.0916     75.3884     25.5118      2.4851
        9032       8.834     13.6427     83.7049      79.547     18.5472      2.4747
      9032.5       8.834     14.9772      83.312     87.2236     24.0024      2.4695
        9033       8.834     13.6673     81.2578     85.5802      25.982      2.4785
      9033.5       8.834     14.8438      78.681     90.1588     24.2696      2.4922
        9034       8.834      13.245     76.4829     83.2949     24.2833      2.5312
      9034.5       8.834     11.0138     76.2646     71.6175     24.8086      2.5571
        9035       8.834      9.3754     78.5078     65.1144      23.577      2.5148
      9035.5       8.834     12.0834      81.446     71.9374      21.288      2.4786
        9036       8.834     14.3885     83.8226     90.4642      18.818      2.4418
      9036.5       8.834     16.5739     84.7711    124.3273     23.5075      2.4293
        9037       8.834      17.443     85.1092    113.8061     27.2338      2.4509
      9037.5       8.834     15.4333     85.2997     94.4669     27.7905       2.459
        9038       8.834     15.6504     85.4902     84.3247     24.0932      2.4491
      9038.5       8.834      16.365     85.9142     93.9783     24.7393       2.441
        9039       8.834     16.9373     86.4675     116.591     24.5467      2.4341
      9039.5       8.834     17.2338     87.1503    116.0325     22.7144      2.4296
        9040       8.834     17.0379     87.5356    115.9074     23.3769       2.422
      9040.5       8.834     16.9932     87.3351    119.8866     26.0547      2.4122
        9041       8.834     18.6548     86.5157    116.2054     24.8446      2.4001
      9041.5      8.8342     19.5872     85.4951     119.772     30.3383      2.4013
        9042      8.8574     17.7004     84.4847    109.5529     32.4211      2.4482
      9042.5      8.8745     15.8047     84.1141    106.9479     28.1834      2.4666
        9043      8.8745      15.012     84.2181    110.9408     25.0808      2.4725
      9043.5      8.8745     14.3969     84.3585    119.5813     23.8385      2.4751
        9044      8.8745     14.5162     84.4807    120.4812     23.5014      2.4709
      9044.5      8.8745     14.4284     84.4807    108.0613      24.302      2.4689
        9045      8.8745     14.9401     84.3585    103.7612     27.9216      2.4668
      9045.5      8.8745     15.0411     84.2363     96.1731     25.4514      2.4644
        9046      8.8745     15.1788     84.2614    105.1276     24.0936      2.4592
      9046.5      8.8745     15.3595     84.3585     96.0541     24.8855      2.4493
        9047      8.8745     16.5561     84.6424    100.1876      25.384      2.4437
      9047.5      8.8745     15.5896      85.009    107.8524     22.3884      2.4442
        9048      8.8745     16.1081      85.417    115.0299     24.8138      2.4418
      9048.5      8.8745     16.5031      85.886    101.8225     26.9676      2.4355
        9049      8.8745      16.746     86.2598     91.4738     29.8868      2.4233
      9049.5      8.8745     18.3592     86.3136     93.4605     26.1298       2.426
        9050      8.8745     16.2308     86.2309    109.6937     26.3217      2.4391
      9050.5      8.8745      17.187     85.6915    105.7524      25.074      2.4298
        9051      8.8745      17.993     84.8487      99.772     26.1917      2.4222
      9051.5      8.8745     16.8099     84.2324     93.1395     25.3677      2.4351
        9052      8.8745     15.6699     83.8802     93.0601     25.2487      2.4487
      9052.5      8.8745     16.5875     83.8697     98.7634     26.7653      2.4297
        9053      8.8745     17.5967     84.1179     104.678       24.76      2.4205
      9053.5      8.8745     18.1593     84.4666    102.5622     29.0701      2.4315
        9054      8.8745     16.5469     84.9448     98.2659     26.9759      2.4413
      9054.5      8.8745     16.4711     85.5702     97.8606     30.3055      2.4252
        9055       8.834     18.6451     86.1019    103.3415     27.0684      2.4077
      9055.5       8.834     19.0148     86.3136    117.2461     25.7419      2.4084
        9056       8.834     18.5603     86.0222    111.7283     28.3805      2.4233
      9056.5       8.834     17.1113      85.533    118.8519     28.7945      2.4302
        9057       8.834     17.1778     84.9383    115.0053     27.7234      2.4394
      9057.5       8.834     16.0679     84.5953    103.9745      27.109       2.455
        9058       8.834      15.315     84.4047     99.6256     24.3013       2.468
      9058.5       8.834     13.4284     83.8867    103.2164     19.6973      2.4762
        9059       8.834     15.4493     83.1099    101.3368     22.4775      2.4733
      9059.5       8.834     14.4261     82.3304     92.6125     23.8378      2.4651
        9060       8.834     16.1026     81.9319     82.6686     23.0372      2.4554
      9060.5       8.834     15.1896      82.174       83.67     24.7441      2.4383
        9061       8.834     16.8864     82.6431     78.2153     23.8666      2.4208
      9061.5       8.834     17.9069     83.0795     76.9972     23.2106      2.4159
        9062       8.834     18.5614     83.3922     80.4625     23.8072      2.4177
      9062.5       8.834     17.9392     83.5031     91.0872     25.7676      2.4184
        9063       8.834     17.8772     83.1589     87.6549     23.9818      2.4198
      9063.5       8.834     18.0022      82.798     97.7306     26.0157      2.4261
        9064       8.834     18.1861     82.5255     88.3617     27.7558       2.443
      9064.5       8.834     15.5397     82.5255     87.0982     28.3039      2.4621
        9065       8.834     14.5678     82.7023     84.2131     22.7716      2.4722
      9065.5       8.834     14.3404      83.015      81.445     22.9652      2.4562
        9066       8.834     16.8068     83.3277     78.9723     24.9633      2.4385
      9066.5       8.834     17.1982     83.3657     81.8367       22.49      2.4308
        9067       8.834      17.405      83.053     90.3409     25.7244      2.4264
      9067.5       8.834     17.7301     82.5422     95.4365     26.8023      2.4223
        9068       8.834     17.7519     82.1666      90.324     22.3749      2.4183
      9068.5       8.834     18.2878     82.1589     85.1535     23.3916      2.4297
        9069       8.834     16.2745     82.1589     85.3326     22.8312      2.4393
      9069.5       8.834     16.4737     82.2811     88.8777      21.842      2.4425
        9070       8.834     16.8617     82.4078     93.3508     21.7568      2.4566
      9070.5       8.834     15.7747     82.8544     94.9982     24.1705      2.4732
        9071       8.834     14.0389     83.4798     94.0896     25.8793      2.4579
      9071.5       8.834     15.2086     84.1052     99.7607     22.6954      2.4381
        9072       8.834     18.7082      84.514    100.8097       24.04      2.4212
