#--------------------------------------------------#
#-------------------ENVERUS, INC.------------------#
#------------------WWW.ENVERUS.COM-----------------#
#------------------COPYRIGHT 2020------------------#
#--------------------------------------------------#
#THIS FILE MAY BE USED ONLY IN ACCORDANCE WITH A CURRENT SUBSCRIPTION AGREEMENT BETWEEN
#THE USER AND ENVERUS, INC. NO PART OF THIS FILE MAY BE REPRODUCED, USED, COPIED,
#MODIFIED, PROPAGATED, OR DISTRIBUTED EXCEPT IN ACCORDANCE WITH THE SUBSCRIPTION
#AGREEMENT. UNAUTHORIZED USE OR DISTRIBUTION OF ALL OR ANY PART OF THIS FILE MAY VIOLATE
#COPYRIGHT, TRADEMARK, AND/OR OTHER LAWS AND IS SUBJECT TO CIVIL AS WELL AS CRIMINAL
#SANCTIONS.
#--------------------------------------------------#
#THIS FILE IS PROVIDED "AS-IS" AND ALL WARRANTIES ARE EXPRESSLY DISCLAIMED, WHETHER
#EXPRESS, ORAL, IMPLIED, STATUTORY OR OTHERWISE, INCLUDING ANY IMPLIED WARRANTY OF FITNESS
#FOR A PARTICULAR PURPOSE, MERCHANTABILITY, TITLE OR NON-INFRINGEMENT, AND ANY WARRANTIES
#ARISING BY VIRTUE OF CUSTOM OF TRADE OR COURSE OF DEALING.  FURTHER, ENVERUS, INC.
#AND ITS LICENSORS DO NOT REPRESENT OR WARRANT THAT THIS FILE WILL MEET USER'S
#REQUIREMENTS OR ARE SUITABLE FOR USER'S NEEDS OR THAT THE DATA OR RESULTS PROVIDED IN
#CONJUNCTION THEREWITH ARE CORRECT, ACCURATE, TIMELY OR RELIABLE. THESE DISCLAIMERS SHALL
#APPLY REGARDLESS OF ANY FAILURE OF ESSENTIAL PURPOSE OF ANY LIMITED REMEDY.  SOME
#JURISDICTIONS DO NOT ALLOW THE EXCLUSION OF CERTAIN WARRANTIES SO SOME OF THE ABOVE
#EXCLUSIONS MAY NOT APPLY. IN NO EVENT SHALL ENVERUS, INC. OR ANY OF ITS AFFILIATES
#BE LIABLE UNDER ANY LEGAL THEORY, WHETHER IN TORT (INCLUDING WITHOUT LIMITATION
#NEGLIGENCE), CONTRACT, STRICT LIABILITY, STATUTORY OR OTHERWISE, FOR ANY SPECIAL,
#INCIDENTAL, CONSEQUENTIAL, EXEMPLARY, PUNITIVE OR INDIRECT DAMAGE OF ANY KIND, INCLUDING
#WITHOUT LIMITATION LOSS OF REVENUE, PROFITS, GOODWILL, USE, AND/OR DATA OR THE COST OF
#PROCUREMENT OF SUBSTITUTE GOODS OR SERVICES, EVEN IF APPRISED OF THE POSSIBILITY OF SUCH
#DAMAGES IN ADVANCE.
#--------------------------------------------------#

# EXPORTED FROM DI TRANSFORM
# DI TRANSFORM - A PRODUCT OF DRILLINGINFO, INC. - WWW.DRILLINGINFO.COM
#
~VERSION INFORMATION
 VERS.        2.0 : LAS ASCII STANDARD - VERSION 2.0
 WRAP.         NO : ONE LINE PER DEPTH STEP

~WELL INFORMATION
#MNEM.UNIT       DATA TYPE       INFORMATION
#---------       ---------       -----------
 STRT.FT           100 : START DEPTH
 STOP.FT         18040 : STOP DEPTH
 STEP.FT           0.5 : STEP LENGTH
 NULL.         -999.25 : NULL VALUE
 UWI.   42371302980000 : UNIQUE WELL ID
 API.   42371302980000 : WELL IDENTIFIER
 COMP.                 : COMPANY
 WELL.          DRD_55 : WELL NAME
 FLD.                  : FIELD NAME
 LOC.                  : WELL LOCATION
 CNTY.                 : COUNTY
 STAT.                 : STATE OR PROVINCE
 CTRY.                 : COUNTRY
 SRVC.                 : SERVICE COMPANY
 DATE.                 : DATE

~CURVE INFORMATION
#MNEM.UNIT       API CODE       CURVE DESCRIPTION
#---------       --------       -----------------
 DEPT.FT        : <MEASURED DEPTH>
 CAL.IN         : CALIPER
 DT.US/FT       : SONIC
 GR.GAPI        : GAMMA RAY

~PARAMETER INFORMATION
#MNEM.UNIT       VALUE       DESCRIPTION
#---------       -----       -----------

~A       DEPT         CAL          DT          GR
# ...
         5300     15.6356     71.8174     98.7854
       5300.5     15.6356     72.1288      99.187
         5301     15.6579     72.7082     98.9674
       5301.5     15.7571      73.712     98.6309
         5302     15.7571     73.6307     95.6811
       5302.5     15.7612     73.6729     91.8689
         5303     15.7754      74.681      82.017
       5303.5     15.7754     75.5639     74.7414
         5304     15.7754     77.4192     70.0761
       5304.5     15.7754     78.6498      63.315
         5305     15.7754     79.5538      57.669
       5305.5     15.7754     79.5538     54.9978
         5306     15.7754     79.7363     53.8462
       5306.5     15.7754     79.4692     53.8462
         5307     15.7754     78.5493     53.4413
       5307.5     15.7754     78.2379     53.4413
         5308     15.7754     77.9265      54.251
       5308.5     15.7754     77.7282     53.8748
         5309     15.7754     77.7876     52.8389
       5309.5     15.7754      78.099     52.6316
         5310     15.7754     78.4103     52.7915
       5310.5     15.7754      79.005     52.2267
         5311     15.7754      79.432     53.0701
       5311.5     15.7754      79.432     54.3647
         5312     15.7754     79.3103     55.4005
       5312.5     15.7754     79.3103     54.4948
         5313     15.7754     79.3103     53.8462
       5313.5     15.7754      79.373      54.251
         5314     15.7754     79.3103     54.6559
       5314.5     15.7754      79.432     54.6559
         5315     15.7754     79.4553     53.7303
       5315.5     15.7754     79.5233     52.3282
         5316     15.7754     79.3946     51.2923
       5316.5     15.7754     79.3103     51.0121
         5317     15.7754     79.4838     50.4352
       5317.5     15.7754     79.9748     48.7986
         5318     15.7754     81.5701     46.5073
       5318.5     15.7754     83.6922     43.6226
         5319     15.7754     84.5022     41.7048
       5319.5     15.7754     84.3954     39.2713
         5320     15.7754     84.3002      38.552
       5320.5     15.7754     84.0564     38.4615
         5321     15.7754     83.1957     38.4615
       5321.5     15.7754     81.6517     39.0881
         5322     15.7754     81.0142     39.2757
       5322.5     15.7754      81.179     41.2648
         5323     15.7754     83.2937     42.0534
       5323.5     15.7754       87.76     40.1834
         5324     15.7754     90.3969     37.5525
       5324.5     15.7754     91.4807     37.9773
         5325     15.7754     90.1815     40.5213
       5325.5     15.7754     86.5741     41.7004
         5326     15.7754     83.6823     41.7004
       5326.5     15.7754     81.3793     42.5256
         5327     15.7754     81.4519     44.1263
       5327.5     15.7754     81.3793     45.8119
         5328     15.7754     81.4662     45.8648
       5328.5     15.7754      82.198     44.7737
         5329     15.7754     83.0824     42.4786
       5329.5     15.7754     84.6457     37.7411
         5330     15.7754     86.3314     36.4582
       5330.5     15.7754     88.1681     36.7451
         5331     15.7754     87.8387     38.6074
       5331.5     15.7754     86.0731      44.609
         5332     15.7754      84.261     48.1606
       5332.5     15.7754     82.3006     50.7503
         5333     15.7754     80.7283     52.2064
       5333.5     15.7754      79.292      53.384
         5334     15.7754     77.9056     54.4198
       5334.5     15.7754     77.0054     55.4557
         5335     15.7754     77.3514     57.1265
       5335.5     15.7754     79.4514     60.4929
         5336     15.7754     84.0204     63.0167
       5336.5     15.7754     94.0284     62.7855
         5337     15.7754    100.5651     60.2939
       5337.5     15.7754    101.9859     55.6132
         5338     15.7754    102.5349     48.8607
       5338.5     15.7754    101.4741     45.8167
         5339     15.7754      98.904     43.7235
       5339.5     15.7754     97.5371     43.0925
         5340     15.7754     94.2239     41.6518
       5340.5     15.7754     87.5405     41.0208
         5341     15.7754     85.5091     40.7947
       5341.5     15.7754     84.4468     39.0318
         5342     15.7754     85.8114     37.5084
       5342.5     15.7754     88.0887     38.0214
         5343     15.7754     91.7251     38.8664
       5343.5     15.7754      91.763     38.8786
         5344     15.7754      89.483      40.236
       5344.5     15.7754     85.2413     40.8311
         5345     15.7754     81.0322     39.4499
       5345.5     15.7754     80.6883     39.2713
         5346     15.7238      83.172     41.1164
       5346.5     15.6356     87.3868     42.1053
         5347     15.6356     88.6743     41.7246
       5347.5     15.6356     88.2867     41.0936
         5348     15.6356     86.8819     41.2955
       5348.5     15.6356     85.8541     41.2955
         5349     15.6356      86.372     41.2955
       5349.5     15.6356     87.2778     40.5939
         5350     15.6356     88.1719     40.8907
       5350.5     15.5951     88.5598     40.1416
         5351     15.5547     88.5101     39.6761
       5351.5     15.5547     87.9083     39.2844
         5352     15.5547     86.3917     39.8891
       5352.5     15.5547     85.8824     40.8907
         5353     15.5547     85.8824     40.6303
       5353.5     15.5547     85.6389     39.2713
         5354     15.5547     85.4247     39.8869
       5354.5     15.5547     85.3955     41.4892
         5355     15.5142     85.3955     42.8654
       5355.5      15.456     85.6234     43.7247
         5356     15.4332     86.6705     42.9171
       5356.5     15.4332     87.3428     42.2861
         5357     15.4287     87.1939     42.1053
       5357.5     15.3927     86.2862      41.429
         5358     15.3927     85.5363     40.8907
       5358.5     15.3927     84.7429     41.2095
         5359     15.3927     84.5015     41.8406
       5359.5     15.3927     83.7931      43.262
         5360     15.3522     82.9467     44.3171
       5360.5     15.3522     81.6201     44.1296
         5361     15.3287     81.1418     43.7247
       5361.5     15.3117      80.311     44.5907
         5362     15.3117      79.834     45.6266
       5362.5     15.3117     79.5226      45.749
         5363     15.3117      78.659     45.4191
       5363.5     15.2713     78.4584     44.9393
         5364     15.2713     78.3367     45.3166
       5364.5     15.2713     78.1553     45.5504
         5365     15.2713     78.0873     44.3021
       5365.5     15.2713     77.6781     43.9707
         5366     15.2713     77.1299     46.3559
       5366.5     15.2713     76.5446     49.5545
         5367     15.2713     76.1815     52.1965
       5367.5     15.2713     75.5567     51.8858
         5368     15.2713     75.4158     49.3511
       5368.5     15.2713     75.2991     46.5999
         5369     15.2713     75.1094     45.5538
       5369.5     15.2713     74.5546     46.6206
         5370     15.2713     74.1659     48.8209
       5370.5     15.2713     73.5549     47.3357
         5371     15.2308     72.7071     43.6209
       5371.5     15.2308     72.3354     43.1666
         5372     15.2308     72.2674     46.3735
       5372.5     15.1036     71.8691     48.3514
         5373     14.9884     71.4021     48.9879
       5373.5     14.8848     71.1784     49.2085
         5374     14.7812     70.9128     50.5653
       5374.5     14.6776     70.9934     49.3954
         5375     14.5741     71.0614      48.044
       5375.5      14.502     71.0613     47.2791
         5376     14.4074     70.7499      48.315
       5376.5     14.3401     70.6694     48.9879
         5377     14.3401     71.1453     48.1781
       5377.5     14.3401     71.6447     48.5886
         5378     14.3401     72.1474     48.3513
       5378.5     14.3806     72.3892     47.1395
         5379     14.4085     72.4949     47.6476
       5379.5     14.5121     72.3732     49.2892
