#--------------------------------------------------#
#-------------------ENVERUS, INC.------------------#
#------------------WWW.ENVERUS.COM-----------------#
#------------------COPYRIGHT 2020------------------#
#--------------------------------------------------#
#THIS FILE MAY BE USED ONLY IN ACCORDANCE WITH A CURRENT SUBSCRIPTION AGREEMENT BETWEEN
#THE USER AND ENVERUS, INC. NO PART OF THIS FILE MAY BE REPRODUCED, USED, COPIED,
#MODIFIED, PROPAGATED, OR DISTRIBUTED EXCEPT IN ACCORDANCE WITH THE SUBSCRIPTION
#AGREEMENT. UNAUTHORIZED USE OR DISTRIBUTION OF ALL OR ANY PART OF THIS FILE MAY VIOLATE
#COPYRIGHT, TRADEMARK, AND/OR OTHER LAWS AND IS SUBJECT TO CIVIL AS WELL AS CRIMINAL
#SANCTIONS.
#--------------------------------------------------#
#THIS FILE IS PROVIDED "AS-IS" AND ALL WARRANTIES ARE EXPRESSLY DISCLAIMED, WHETHER
#EXPRESS, ORAL, IMPLIED, STATUTORY OR OTHERWISE, INCLUDING ANY IMPLIED WARRANTY OF FITNESS
#FOR A PARTICULAR PURPOSE, MERCHANTABILITY, TITLE OR NON-INFRINGEMENT, AND ANY WARRANTIES
#ARISING BY VIRTUE OF CUSTOM OF TRADE OR COURSE OF DEALING.  FURTHER, ENVERUS, INC.
#AND ITS LICENSORS DO NOT REPRESENT OR WARRANT THAT THIS FILE WILL MEET USER'S
#REQUIREMENTS OR ARE SUITABLE FOR USER'S NEEDS OR THAT THE DATA OR RESULTS PROVIDED IN
#CONJUNCTION THEREWITH ARE CORRECT, ACCURATE, TIMELY OR RELIABLE. THESE DISCLAIMERS SHALL
#APPLY REGARDLESS OF ANY FAILURE OF ESSENTIAL PURPOSE OF ANY LIMITED REMEDY.  SOME
#JURISDICTIONS DO NOT ALLOW THE EXCLUSION OF CERTAIN WARRANTIES SO SOME OF THE ABOVE
#EXCLUSIONS MAY NOT APPLY. IN NO EVENT SHALL ENVERUS, INC. OR ANY OF ITS AFFILIATES
#BE LIABLE UNDER ANY LEGAL THEORY, WHETHER IN TORT (INCLUDING WITHOUT LIMITATION
#NEGLIGENCE), CONTRACT, STRICT LIABILITY, STATUTORY OR OTHERWISE, FOR ANY SPECIAL,
#INCIDENTAL, CONSEQUENTIAL, EXEMPLARY, PUNITIVE OR INDIRECT DAMAGE OF ANY KIND, INCLUDING
#WITHOUT LIMITATION LOSS OF REVENUE, PROFITS, GOODWILL, USE, AND/OR DATA OR THE COST OF
#PROCUREMENT OF SUBSTITUTE GOODS OR SERVICES, EVEN IF APPRISED OF THE POSSIBILITY OF SUCH
#DAMAGES IN ADVANCE.
#--------------------------------------------------#

~VERSION INFORMATION
VERS. 2.0 : CWLS LOG ASCII STANDARD - VERSION 2.0
WRAP.  NO : ONE LINE PER DEPTH STEP
~WELL INFORMATION
#MNEMONIC     .UNIT              VALUE :DESCRIPTION
STRT       .FT                51 :START DEPTH
STOP       .FT                6194 :STOP DEPTH
STEP       .FT                   0.500 :STEP
NULL       .                  -999.990 :NULL
UWI        .              42389004340000 :UNIQUE WELL ID
API        .              42389004340000 :API NUMBER
COMP       .         :COMPANY
WELL       .         1, :WELL
DATE       .                            :LOG DATE
~CURVE INFORMATION
#MNEMONIC     .UNIT      API CODE :CURVE DESCRIPTION
DEPTH       .FT                      :MEASURED DEPTH
GR.API        UNKNOWN   :GR
DT.US/FT        UNKNOWN   :DT
~A    DEPTH    GR    DT
# ...
 2839.5     22.106   69.635
 2840     20.362   69.724
 2840.5     18.618   69.813
 2841     16.875   69.902
 2841.5     15.848   69.991
 2842     15.803   70.08
 2842.5     15.759   70.147
 2843     15.715   70.087
 2843.5     15.67   70.027
 2844     15.626   69.966
 2844.5     15.87   69.906
 2845     16.31   69.833
 2845.5     16.751   69.513
 2846     17.038   69.193
 2846.5     17.053   68.873
 2847     17.068   68.553
 2847.5     17.082   68.55
 2848     17.097   68.622
 2848.5     17.112   68.694
 2849     17.126   68.766
 2849.5     17.141   68.689
 2850     17.156   68.558
 2850.5     17.73   68.427
 2851     18.841   68.398
 2851.5     19.951   68.677
 2852     21.062   68.957
 2852.5     22.173   69.236
 2853     23.283   69.515
 2853.5     24.394   69.794
 2854     25.505   70.073
 2854.5     26.281   70.223
 2855     24.455   70.136
 2855.5     22.629   70.049
 2856     20.803   69.962
 2856.5     18.999   69.876
 2857     17.28   69.789
 2857.5     15.561   69.702
 2858     13.842   69.615
 2858.5     12.122   69.528
 2859     10.435   69.442
 2859.5     10.924   69.797
 2860     11.413   70.172
 2860.5     11.902   70.407
 2861     12.39   69.98
 2861.5     12.879   69.855
 2862     13.368   69.865
 2862.5     13.857   69.875
 2863     14.346   69.885
 2863.5     14.834   69.898
 2864     15.323   70.811
 2864.5     15.812   70.502
 2865     16.301   70.193
 2865.5     16.404   69.884
 2866     15.585   70.114
 2866.5     14.767   70.566
 2867     13.948   71.019
 2867.5     13.129   71.471
 2868     12.31   71.007
 2868.5     11.492   70.532
 2869     11.52   70.378
 2869.5     11.747   70.296
 2870     11.974   70.214
 2870.5     12.201   70.132
 2871     12.428   70.049
 2871.5     12.655   69.967
 2872     12.883   69.773
 2872.5     13.11   69.473
 2873     13.003   69.621
 2873.5     12.826   69.878
 2874     12.65   70.114
 2874.5     12.587   70.02
 2875     13.131   69.925
 2875.5     13.675   69.831
 2876     14.219   69.752
 2876.5     14.763   70.052
 2877     14.05   70.352
 2877.5     12.607   70.651
 2878     11.164   70.951
 2878.5     9.722   71.251
 2879     9.36   71.465
 2879.5     9.054   70.47
 2880     8.748   70.229
 2880.5     8.441   70.163
 2881     8.135   70.097
 2881.5     7.829   70.031
 2882     7.522   69.965
 2882.5     7.216   70.04
 2883     6.91   70.297
 2883.5     6.603   70.553
 2884     6.69   70.769
 2884.5     6.873   70.713
 2885     7.056   70.657
 2885.5     7.239   70.601
 2886     7.421   70.545
 2886.5     7.604   70.489
 2887     7.787   70.433
 2887.5     7.97   70.377
 2888     8.153   70.321
 2888.5     8.336   70.265
 2889     8.519   70.209
 2889.5     8.701   70.327
 2890     8.884   70.545
 2890.5     9.067   70.763
 2891     9.25   70.981
 2891.5     8.747   71.198
 2892     8.184   71.17
 2892.5     7.622   71.032
 2893     7.06   70.895
 2893.5     6.498   70.757
 2894     5.936   70.619
 2894.5     5.38   70.481
 2895     5.681   70.343
 2895.5     5.981   70.206
 2896     6.281   70.174
 2896.5     6.509   70.298
 2897     6.236   70.423
 2897.5     5.964   70.547
 2898     6.291   70.672
 2898.5     6.817   70.797
 2899     7.343   70.921
 2899.5     7.869   70.664
 2900     8.395   70.342
 2900.5     8.36   70.021
 2901     7.917   69.699
 2901.5     7.474   69.726
 2902     7.032   69.792
 2902.5     6.589   69.858
 2903     6.146   69.925
 2903.5     5.704   69.991
 2904     5.261   70.162
 2904.5     4.818   70.453
 2905     4.894   70.745
 2905.5     5.471   71.036
 2906     6.047   71.211
 2906.5     6.623   71.143
 2907     7.199   71.074
 2907.5     7.454   71.006
 2908     7.079   70.938
 2908.5     6.704   70.87
 2909     6.329   70.599
 2909.5     5.954   70.044
 2910     5.68   70.485
 2910.5     5.953   70.926
 2911     6.226   71.367
 2911.5     6.499   71.807
 2912     6.773   70.674
 2912.5     7.046   70.52
 2913     7.319   70.958
 2913.5     7.583   71.396
 2914     7.633   71.833
 2914.5     7.683   72.271
 2915     7.733   72.579
 2915.5     7.783   71.517
 2916     7.833   70.456
 2916.5     7.883   69.394
 2917     7.933   69.204
 2917.5     7.983   69.566
 2918     8.033   69.928
 2918.5     8.083   70.29
 2919     8.133   70.653
 2919.5     8.184   71.015
 2920     8.234   70.777
 2920.5     8.284   70.363
 2921     8.334   69.949
 2921.5     8.384   69.534
 2922     8.434   70.076
 2922.5     8.484   70.178
 2923     8.165   70.022
 2923.5     7.816   69.867
 2924     7.467   70.049
 2924.5     7.118   70.333
 2925     6.769   70.634
 2925.5     6.42   71.533
 2926     6.07   71.696
 2926.5     5.721   71.323
 2927     5.372   71.011
 2927.5     5.023   70.793
 2928     4.674   70.574
 2928.5     4.364   70.356
 2929     4.832   70.138
 2929.5     5.3   70.39
 2930     5.768   70.672
 2930.5     6.236   70.955
 2931     6.704   71.036
 2931.5     7.063   70.656
 2932     7.063   70.277
 2932.5     7.063   69.897
 2933     7.063   69.517
 2933.5     7.454   69.576
 2934     7.846   69.901
 2934.5     8.238   70.227
 2935     8.63   70.552
 2935.5     9.022   70.877
 2936     9.414   71.202
 2936.5     9.806   71.083
 2937     10.198   70.854
 2937.5     10.59   70.625
 2938     10.874   70.396
 2938.5     10.002   70.167
 2939     9.13   69.938
 2939.5     8.259   70.072
 2940     7.387   70.222
 2940.5     6.923   70.371
 2941     7.287   70.36
 2941.5     7.65   70.274
 2942     8.014   70.187
 2942.5     8.377   70.101
 2943     8.741   70.015
 2943.5     9.104   69.929
 2944     9.468   69.885
 2944.5     9.831   69.973
 2945     10.109   70.06
 2945.5     9.164   70.148
 2946     8.219   70.236
 2946.5     7.274   70.324
 2947     6.329   70.411
 2947.5     5.385   70.486
 2948     4.96   70.495
 2948.5     5.185   70.504
 2949     5.411   70.513
 2949.5     5.636   70.948
 2950     5.861   71.604
 2950.5     5.995   72.261
 2951     5.884   72.917
 2951.5     5.773   71.809
 2952     5.661   67.849
 2952.5     5.55   63.889
 2953     5.439   59.929
 2953.5     6.225   55.97
 2954     8.12   52.01
 2954.5     10.015   53.387
 2955     11.91   55.864
 2955.5     13.806   58.342
 2956     15.701   60.819
 2956.5     16.615   63.297
 2957     14.171   65.774
 2957.5     11.727   68.252
 2958     9.283   70.729
 2958.5     6.839   73.207
 2959     5.847   73.012
 2959.5     5.58   71.952
 2960     5.313   70.892
 2960.5     5.046   69.833
 2961     4.78   68.773
 2961.5     4.513   67.713
 2962     4.246   66.653
 2962.5     3.979   65.594
 2963     3.712   63.927
 2963.5     3.445   61.734
 2964     3.821   61.597
 2964.5     4.226   63.802
 2965     4.631   65.34
 2965.5     5.036   66.21
 2966     5.441   67.08
 2966.5     5.846   67.949
 2967     6.252   68.819
 2967.5     6.657   69.689
 2968     7.062   69.544
 2968.5     7.467   69.384
 2969     7.66   69.223
 2969.5     7.54   69.063
 2970     7.42   68.903
 2970.5     7.3   68.742
 2971     7.18   68.582
 2971.5     7.059   68.338
 2972     6.939   67.846
 2972.5     7.028   67.353
 2973     7.133   66.861
 2973.5     7.237   67.376
 2974     7.342   68.037
 2974.5     7.446   68.717
 2975     6.213   69.441
 2975.5     4.946   70.165
 2976     3.678   70.757
 2976.5     2.898   70.614
 2977     3.281   70.47
 2977.5     3.664   70.327
 2978     4.046   70.183
 2978.5     4.429   70.04
 2979     4.812   69.902
 2979.5     5.195   70.254
 2980     5.577   70.607
 2980.5     5.96   70.959
 2981     6.343   71.311
 2981.5     6.726   71.663
 2982     7.108   71.883
 2982.5     7.228   71.478
 2983     7.028   71.072
 2983.5     6.827   70.667
 2984     6.627   70.262
 2984.5     6.749   70.342
 2985     7.115   70.428
 2985.5     7.481   70.514
 2986     7.847   70.524
 2986.5     8.214   70.193
 2987     7.94   69.862
 2987.5     7.265   70.087
 2988     6.589   70.44
 2988.5     5.914   70.792
 2989     5.239   71.144
 2989.5     5.359   70.86
 2990     6.522   70.225
 2990.5     7.685   70.158
 2991     8.848   70.487
 2991.5     10.011   70.816
 2992     11.174   71.146
 2992.5     11.606   71.475
