#--------------------------------------------------#
#-------------------ENVERUS, INC.------------------#
#------------------WWW.ENVERUS.COM-----------------#
#------------------COPYRIGHT 2020------------------#
#--------------------------------------------------#
#THIS FILE MAY BE USED ONLY IN ACCORDANCE WITH A CURRENT SUBSCRIPTION AGREEMENT BETWEEN
#THE USER AND ENVERUS, INC. NO PART OF THIS FILE MAY BE REPRODUCED, USED, COPIED,
#MODIFIED, PROPAGATED, OR DISTRIBUTED EXCEPT IN ACCORDANCE WITH THE SUBSCRIPTION
#AGREEMENT. UNAUTHORIZED USE OR DISTRIBUTION OF ALL OR ANY PART OF THIS FILE MAY VIOLATE
#COPYRIGHT, TRADEMARK, AND/OR OTHER LAWS AND IS SUBJECT TO CIVIL AS WELL AS CRIMINAL
#SANCTIONS.
#--------------------------------------------------#
#THIS FILE IS PROVIDED "AS-IS" AND ALL WARRANTIES ARE EXPRESSLY DISCLAIMED, WHETHER
#EXPRESS, ORAL, IMPLIED, STATUTORY OR OTHERWISE, INCLUDING ANY IMPLIED WARRANTY OF FITNESS
#FOR A PARTICULAR PURPOSE, MERCHANTABILITY, TITLE OR NON-INFRINGEMENT, AND ANY WARRANTIES
#ARISING BY VIRTUE OF CUSTOM OF TRADE OR COURSE OF DEALING.  FURTHER, ENVERUS, INC.
#AND ITS LICENSORS DO NOT REPRESENT OR WARRANT THAT THIS FILE WILL MEET USER'S
#REQUIREMENTS OR ARE SUITABLE FOR USER'S NEEDS OR THAT THE DATA OR RESULTS PROVIDED IN
#CONJUNCTION THEREWITH ARE CORRECT, ACCURATE, TIMELY OR RELIABLE. THESE DISCLAIMERS SHALL
#APPLY REGARDLESS OF ANY FAILURE OF ESSENTIAL PURPOSE OF ANY LIMITED REMEDY.  SOME
#JURISDICTIONS DO NOT ALLOW THE EXCLUSION OF CERTAIN WARRANTIES SO SOME OF THE ABOVE
#EXCLUSIONS MAY NOT APPLY. IN NO EVENT SHALL ENVERUS, INC. OR ANY OF ITS AFFILIATES
#BE LIABLE UNDER ANY LEGAL THEORY, WHETHER IN TORT (INCLUDING WITHOUT LIMITATION
#NEGLIGENCE), CONTRACT, STRICT LIABILITY, STATUTORY OR OTHERWISE, FOR ANY SPECIAL,
#INCIDENTAL, CONSEQUENTIAL, EXEMPLARY, PUNITIVE OR INDIRECT DAMAGE OF ANY KIND, INCLUDING
#WITHOUT LIMITATION LOSS OF REVENUE, PROFITS, GOODWILL, USE, AND/OR DATA OR THE COST OF
#PROCUREMENT OF SUBSTITUTE GOODS OR SERVICES, EVEN IF APPRISED OF THE POSSIBILITY OF SUCH
#DAMAGES IN ADVANCE.
#--------------------------------------------------#

~VERSION INFORMATION
VERS. 2.0 : CWLS LOG ASCII STANDARD - VERSION 2.0
WRAP.  NO : ONE LINE PER DEPTH STEP
~WELL INFORMATION
#MNEMONIC     .UNIT              VALUE :DESCRIPTION
STRT       .FT                10841 :START DEPTH
STOP       .FT                18209 :STOP DEPTH
STEP       .FT                   0.500 :STEP
NULL       .                  -999.99 :NULL
UWI        .                42371326180000 :UNIQUE WELL ID
API        .                42371326180000 :API NUMBER
COMP       .         :COMPANY
WELL       .        :WELL
DATE       .                 :LOG DATE
FLD       .                 :FIELD NAME
LOC       .                  UNK :LOCATION
CNTY       .                 UNK :COUNTY
STAT       .                 UNK :STATE
CTRY       .                 UNK :COUNTY
SRVC       .                 UNK :SERVICE COMPANY
~CURVE INFORMATION
#MNEMONIC     .UNIT      API CODE :CURVE DESCRIPTION
DEPTH       .FT                      :MEASURED DEPTH
CAL.IN        UNKNOWN   :CAL
DT.MSEC/FT        UNKNOWN   :DT
GR.API        UNKNOWN   :GR
ILD.OHM        UNKNOWN   :ILD
ILS.OHM        UNKNOWN   :ILS
SP.MV        UNKNOWN   :SP
~A    DEPTH    CAL    DT    GR    ILD    ILS    SP
# ...
 16663     10.10421   49.42851   17.38115   95.70691   745.56172   -22.989
 16663.5     10.09426   49.70424   17.58173   92.40408   740.25444   -23.10144
 16664     10.08431   50.26849   16.84201   89.10126   983.63268   -23.21387
 16664.5     10.07435   51.72024   15.62312   85.79843   1291.8256   -23.3263
 16665     10.0644   52.04469   14.40422   82.43068   1431.19916   -23.43874
 16665.5     10.05445   51.88316   14.01065   78.98187   1499.16396   -23.55117
 16666     10.04449   51.29732   13.36261   75.53305   1567.12876   -23.66361
 16666.5     10.04158   50.78623   11.1639   64.43095   1635.09356   -23.77604
 16667     10.05   50.4136   10.17411   53.06672   1703.05836   -23.88847
 16667.5     10.05842   50.15382   10.10594   42.63911   1775.74539   -23.94329
 16668     10.06684   50.12071   11.09578   32.2115   1780.70148   -23.94463
 16668.5     10.07527   49.13038   12.70686   23.7348   1485.51628   -23.83743
 16669     10.07775   48.36791   19.22603   20.24541   285.17828   -23.08034
 16669.5     10.07098   48.45097   26.61821   17.99056   87.4878   -22.32325
 16670     10.06421   48.84462   33.70338   15.73571   14.79392   -21.56616
 16670.5     10.05743   48.9916   39.2057   13.98431   13.93329   -20.80907
 16671     10.05066   48.58996   40.86878   14.08351   17.12569   -20.05198
 16671.5     10.04389   48.38823   41.17384   14.20684   16.98245   -19.29489
 16672     10.03712   50.25757   38.72362   16.10496   16.78633   -19.44483
 16672.5     10.03035   58.95139   35.86592   18.34064   17.43816   -19.6359
 16673     10.02358   64.74542   36.26934   23.10256   20.03882   -19.82697
 16673.5     10.02901   68.22688   36.67277   27.86448   34.7183   -19.92072
 16674     10.07366   68.63905   35.5422   32.6264   50.21232   -19.48842
 16674.5     10.11831   67.01597   31.89125   37.38833   65.70635   -19.05612
 16675     10.16296   66.71152   25.61975   45.50187   171.4141   -18.62382
 16675.5     10.1361   66.56885   17.26262   54.59889   402.53841   -18.86368
 16676     10.03591   64.63485   10.43362   63.69591   702.09206   -19.24528
 16676.5     9.93573   61.15619   8.27836   64.16081   1144.75345   -19.62689
 16677     9.91527   59.1674   7.86656   62.68597   1541.07318   -20.00849
 16677.5     9.95228   56.3477   9.13719   65.21334   1706.46304   -20.39009
 16678     9.98929   53.86123   12.18353   72.50164   1662.9702   -20.66874
 16678.5     10.0263   50.38163   14.33013   79.78994   1285.37004   -20.22741
 16679     10.03432   48.59068   15.21383   78.25128   928.84995   -19.78608
 16679.5     10.02525   47.74253   16.09753   65.46083   730.8495   -19.34475
 16680     10.01618   48.01039   18.24053   43.89837   532.84904   -18.90342
 16680.5     10.00711   48.44671   21.30548   29.77675   334.84858   -18.46209
 16681     9.99998   49.12031   24.37043   18.17211   142.6118   -18.30317
 16681.5     10.0279   49.81119   27.94607   17.69375   18.8799   -18.53798
 16682     10.05582   50.43423   34.16876   17.23809   14.23681   -18.77279
 16682.5     10.08374   50.69577   40.19958   19.01796   11.33497   -18.88343
 16683     10.11167   50.85704   39.59384   19.71857   13.83922   -18.74043
 16683.5     10.13959   50.71906   35.45469   19.18254   21.86301   -18.59743
 16684     10.16751   50.93181   28.46149   18.64652   55.95033   -18.45442
 16684.5     10.19543   52.75317   25.90351   22.17298   105.69845   -18.31142
 16685     10.44271   55.59867   30.17553   31.58991   136.76604   -18.3023
 16685.5     10.85948   60.22572   34.26691   45.65298   126.21298   -18.5569
 16686     11.27626   63.48139   36.37572   59.71604   49.53258   -18.81151
 16686.5     10.83391   64.78966   33.99423   65.77654   32.09058   -19.06611
 16687     10.43713   62.36242   30.72437   56.42809   29.92458   -19.29391
 16687.5     10.08077   56.70661   27.93815   47.07964   32.8302   -19.10515
 16688     10.16568   52.24882   28.16348   37.73119   38.79104   -18.908
 16688.5     10.27517   57.36282   29.05331   44.36633   49.25559   -18.66649
 16689     10.40068   62.24673   29.90883   53.04833   59.72013   -18.42498
 16689.5     10.5551   62.98887   28.23588   61.73033   68.85234   -18.18347
 16690     10.63476   60.70891   26.74496   62.41318   53.5268   -17.94196
 16690.5     10.43793   57.1108   27.00454   51.68549   35.95955   -17.70044
 16691     10.32663   56.35049   29.28011   40.95779   18.39231   -17.62004
 16691.5     10.17235   55.51995   31.55567   32.94024   14.6182   -18.12803
 16692     10.13485   53.50559   33.83124   26.54172   13.33751   -18.57428
 16692.5     10.12151   50.60651   35.83602   26.7655   12.94999   -18.28697
 16693     10.10818   50.75202   35.53138   28.41238   13.19391   -17.99966
 16693.5     10.10443   52.30491   33.21967   26.71778   14.72562   -17.71235
 16694     10.16623   52.94536   30.90796   24.04938   19.31854   -17.42504
 16694.5     10.21256   56.16585   29.03729   21.38098   23.56586   -17.19235
 16695     10.28953   60.55418   28.63453   14.66848   24.89293   -17.55097
 16695.5     10.50686   66.63846   30.17531   11.98184   21.36941   -17.90959
 16696     10.97568   67.65145   33.81253   11.32898   15.88852   -18.26821
 16696.5     11.19777   66.20549   37.69359   10.49026   10.40763   -18.60559
 16697     11.12762   64.83364   41.86317   9.65155   9.7004   -18.51221
 16697.5     11.10021   59.27714   45.08308   8.81283   9.75   -18.41883
 16698     11.13781   55.53341   44.80062   9.45088   10.37252   -18.32546
 16698.5     11.26545   55.00035   44.25359   10.86381   10.84179   -18.23208
 16699     11.42602   62.45195   42.81088   12.27673   11.42578   -18.13871
 16699.5     11.06414   69.35664   39.84323   13.68966   13.57379   -18.04533
 16700     10.35306   74.94415   32.35166   14.20253   23.43331   -17.95195
 16700.5     9.98601   77.0828   31.65256   13.8786   33.73149   -17.85858
 16701     10.02368   75.89209   38.18056   13.61926   34.24219   -17.7652
 16701.5     10.06748   71.62376   43.8409   13.70282   27.66028   -17.67182
 16702     10.11766   69.89714   41.68308   13.78638   17.21408   -17.57845
 16702.5     10.16784   69.27194   38.16539   13.25404   15.05732   -17.3748
 16703     10.13754   65.02156   39.73005   12.3412   18.81471   -17.10846
 16703.5     10.10676   62.40343   43.61057   11.42835   21.37853   -16.84211
 16704     10.10991   58.94962   46.89969   11.25762   18.01678   -16.57577
 16704.5     10.19593   57.22661   42.69754   13.06018   14.65503   -16.67046
 16705     10.28196   59.88773   36.05618   14.86274   15.50951   -17.00979
 16705.5     10.24051   63.05523   29.56358   16.6653   22.53761   -17.34911
 16706     10.10341   64.15099   23.38724   18.46785   44.2526   -17.68844
 16706.5     10.0605   64.07744   21.27386   20.72169   66.10093   -17.89396
 16707     10.01759   63.52947   21.19739   26.88362   86.19671   -17.81571
 16707.5     9.97468   64.63332   20.93418   33.04554   106.29248   -17.73746
 16708     9.94428   66.60808   19.96009   32.15304   183.20571   -17.65921
 16708.5     9.97166   64.78423   19.92144   26.75478   302.9657   -17.58096
 16709     9.99904   59.80301   23.80492   21.20548   290.01816   -17.50271
 16709.5     10.00209   57.61911   32.78195   15.65618   225.91583   -17.42446
 16710     10.00215   54.62302   41.75898   13.81148   95.97619   -17.34621
 16710.5     9.99724   52.73282   46.80996   12.42512   17.3029   -17.26796
 16711     9.97057   50.97598   48.37334   11.90414   10.84793   -17.19079
 16711.5     9.9439   50.81767   40.09932   12.06638   11.14271   -17.11629
 16712     9.9168   54.03187   31.64235   12.22862   21.95872   -17.04179
 16712.5     9.88345   61.90898   22.68904   14.10412   58.44603   -16.96729
 16713     9.8501   70.32914   20.3776   16.79864   121.22728   -16.89279
 16713.5     9.86433   74.34837   20.88506   19.48772   183.52819   -16.95617
 16714     9.91453   74.40631   21.39253   22.10532   212.07386   -17.14001
 16714.5     9.96445   63.01004   20.7223   22.16889   148.1426   -17.32386
 16715     10.0108   57.48184   21.4618   21.09196   105.52543   -17.5077
