#--------------------------------------------------#
#-------------------ENVERUS, INC.------------------#
#------------------WWW.ENVERUS.COM-----------------#
#------------------COPYRIGHT 2020------------------#
#--------------------------------------------------#
#THIS FILE MAY BE USED ONLY IN ACCORDANCE WITH A CURRENT SUBSCRIPTION AGREEMENT BETWEEN
#THE USER AND ENVERUS, INC. NO PART OF THIS FILE MAY BE REPRODUCED, USED, COPIED,
#MODIFIED, PROPAGATED, OR DISTRIBUTED EXCEPT IN ACCORDANCE WITH THE SUBSCRIPTION
#AGREEMENT. UNAUTHORIZED USE OR DISTRIBUTION OF ALL OR ANY PART OF THIS FILE MAY VIOLATE
#COPYRIGHT, TRADEMARK, AND/OR OTHER LAWS AND IS SUBJECT TO CIVIL AS WELL AS CRIMINAL
#SANCTIONS.
#--------------------------------------------------#
#THIS FILE IS PROVIDED "AS-IS" AND ALL WARRANTIES ARE EXPRESSLY DISCLAIMED, WHETHER
#EXPRESS, ORAL, IMPLIED, STATUTORY OR OTHERWISE, INCLUDING ANY IMPLIED WARRANTY OF FITNESS
#FOR A PARTICULAR PURPOSE, MERCHANTABILITY, TITLE OR NON-INFRINGEMENT, AND ANY WARRANTIES
#ARISING BY VIRTUE OF CUSTOM OF TRADE OR COURSE OF DEALING.  FURTHER, ENVERUS, INC.
#AND ITS LICENSORS DO NOT REPRESENT OR WARRANT THAT THIS FILE WILL MEET USER'S
#REQUIREMENTS OR ARE SUITABLE FOR USER'S NEEDS OR THAT THE DATA OR RESULTS PROVIDED IN
#CONJUNCTION THEREWITH ARE CORRECT, ACCURATE, TIMELY OR RELIABLE. THESE DISCLAIMERS SHALL
#APPLY REGARDLESS OF ANY FAILURE OF ESSENTIAL PURPOSE OF ANY LIMITED REMEDY.  SOME
#JURISDICTIONS DO NOT ALLOW THE EXCLUSION OF CERTAIN WARRANTIES SO SOME OF THE ABOVE
#EXCLUSIONS MAY NOT APPLY. IN NO EVENT SHALL ENVERUS, INC. OR ANY OF ITS AFFILIATES
#BE LIABLE UNDER ANY LEGAL THEORY, WHETHER IN TORT (INCLUDING WITHOUT LIMITATION
#NEGLIGENCE), CONTRACT, STRICT LIABILITY, STATUTORY OR OTHERWISE, FOR ANY SPECIAL,
#INCIDENTAL, CONSEQUENTIAL, EXEMPLARY, PUNITIVE OR INDIRECT DAMAGE OF ANY KIND, INCLUDING
#WITHOUT LIMITATION LOSS OF REVENUE, PROFITS, GOODWILL, USE, AND/OR DATA OR THE COST OF
#PROCUREMENT OF SUBSTITUTE GOODS OR SERVICES, EVEN IF APPRISED OF THE POSSIBILITY OF SUCH
#DAMAGES IN ADVANCE.
#--------------------------------------------------#

~VERSION INFORMATION
VERS. 2.0 : CWLS LOG ASCII STANDARD - VERSION 2.0
WRAP.  NO : ONE LINE PER DEPTH STEP
~WELL INFORMATION
#MNEMONIC     .UNIT              VALUE :DESCRIPTION
STRT       .FT                86 :START DEPTH
STOP       .FT                5215 :STOP DEPTH
STEP       .FT                   0.500 :STEP
NULL       .                  -999.990 :NULL
UWI        .              42389101440000 :UNIQUE WELL ID
API        .              42389101440000 :API NUMBER
COMP       .         :COMPANY
WELL       .         1, :WELL
DATE       .                            :LOG DATE
~CURVE INFORMATION
#MNEMONIC     .UNIT      API CODE :CURVE DESCRIPTION
DEPTH       .FT                      :MEASURED DEPTH
DT.US/FT        UNKNOWN   :DT
GR.API        UNKNOWN   :GR
~A    DEPTH    DT    GR
# ...
 1374     -999.990   15.397
 1374.5     -999.990   13.644
 1375     -999.990   11.891
 1375.5     -999.990   10.267
 1376     -999.990   10.606
 1376.5     -999.990   10.946
 1377     -999.990   11.286
 1377.5     -999.990   11.625
 1378     -999.990   11.965
 1378.5     -999.990   12.305
 1379     -999.990   10.183
 1379.5     -999.990   7.781
 1380     -999.990   8.453
 1380.5     -999.990   9.136
 1381     -999.990   9.819
 1381.5     -999.990   10.501
 1382     -999.990   10.905
 1382.5     -999.990   10.504
 1383     -999.990   10.103
 1383.5     -999.990   9.702
 1384     -999.990   11.056
 1384.5     -999.990   12.53
 1385     -999.990   13.794
 1385.5     -999.990   13.059
 1386     -999.990   12.324
 1386.5     -999.990   11.589
 1387     -999.990   10.854
 1387.5     -999.990   10.119
 1388     -999.990   10.936
 1388.5     -999.990   14.09
 1389     -999.990   17.244
 1389.5     -999.990   17.882
 1390     -999.990   16.565
 1390.5     -999.990   15.249
 1391     -999.990   13.452
 1391.5     -999.990   10.121
 1392     -999.990   9.407
 1392.5     -999.990   9.307
 1393     -999.990   9.207
 1393.5     -999.990   9.132
 1394     -999.990   10.639
 1394.5     -999.990   12.147
 1395     -999.990   13.655
 1395.5     -999.990   14.635
 1396     -999.990   13.834
 1396.5     -999.990   13.032
 1397     -999.990   12.23
 1397.5     -999.990   12.312
 1398     -999.990   13.563
 1398.5     -999.990   14.814
 1399     -999.990   16.064
 1399.5     -999.990   16.921
 1400     -999.990   15.843
 1400.5     -999.990   14.764
 1401     -999.990   13.686
 1401.5     -999.990   12.607
 1402     -999.990   11.529
 1402.5     -999.990   10.45
 1403     -999.990   9.945
 1403.5     -999.990   9.444
 1404     -999.990   8.943
 1404.5     -999.990   8.442
 1405     -999.990   7.941
 1405.5     -999.990   7.735
 1406     -999.990   8.226
 1406.5     -999.990   8.717
 1407     -999.990   9.208
 1407.5     -999.990   9.675
 1408     -999.990   9.408
 1408.5     -999.990   9.141
 1409     -999.990   8.873
 1409.5     -999.990   8.606
 1410     -999.990   8.339
 1410.5     -999.990   8.688
 1411     -999.990   10.247
 1411.5     -999.990   11.807
 1412     -999.990   13.366
 1412.5     -999.990   13.123
 1413     -999.990   11.422
 1413.5     -999.990   11.642
 1414     -999.990   12.893
 1414.5     -999.990   14.145
 1415     -999.990   15.397
 1415.5     -999.990   15.765
 1416     -999.990   14.764
 1416.5     -999.990   13.763
 1417     -999.990   12.762
 1417.5     -999.990   11.761
 1418     -999.990   10.76
 1418.5     -999.990   11.743
 1419     -999.990   12.716
 1419.5     -999.990   11.25
 1420     -999.990   9.783
 1420.5     -999.990   8.316
 1421     -999.990   6.849
 1421.5     -999.990   7.653
 1422     -999.990   8.48
 1422.5     -999.990   9.308
 1423     -999.990   10.136
 1423.5     -999.990   10.964
 1424     -999.990   11.792
 1424.5     -999.990   12.62
 1425     -999.990   13.447
 1425.5     -999.990   10.035
 1426     -999.990   6.485
 1426.5     -999.990   7.545
 1427     -999.990   8.605
 1427.5     -999.990   9.666
 1428     -999.990   10.726
 1428.5     -999.990   11.786
 1429     -999.990   9.846
 1429.5     -999.990   7.253
 1430     -999.990   7.67
 1430.5     -999.990   8.373
 1431     -999.990   9.077
 1431.5     -999.990   9.558
 1432     -999.990   8.472
 1432.5     -999.990   7.386
 1433     -999.990   6.299
 1433.5     -999.990   6.619
 1434     -999.990   7.299
 1434.5     -999.990   7.979
 1435     -999.990   8.66
 1435.5     -999.990   9.34
 1436     -999.990   10.02
 1436.5     -999.990   10.167
 1437     -999.990   10.011
 1437.5     -999.990   9.855
 1438     -999.990   9.699
 1438.5     -999.990   9.544
 1439     -999.990   9.388
 1439.5     -999.990   9.232
 1440     -999.990   9.076
 1440.5     -999.990   9.036
 1441     -999.990   10.064
 1441.5     -999.990   11.092
 1442     -999.990   12.121
 1442.5     -999.990   13.149
 1443     -999.990   12.674
 1443.5     -999.990   11.909
 1444     -999.990   11.145
 1444.5     -999.990   10.38
 1445     -999.990   9.616
 1445.5     -999.990   9.531
 1446     -999.990   9.88
 1446.5     -999.990   10.228
 1447     -999.990   10.576
 1447.5     -999.990   10.925
 1448     -999.990   11.273
 1448.5     -999.990   11.621
 1449     -999.990   11.461
 1449.5     -999.990   10.793
 1450     -999.990   10.126
 1450.5     -999.990   9.459
 1451     -999.990   8.791
 1451.5     -999.990   8.124
 1452     -999.990   7.457
 1452.5     -999.990   7.271
 1453     -999.990   7.897
 1453.5     -999.990   8.522
 1454     -999.990   9.147
 1454.5     -999.990   9.586
 1455     52.727   8.519
 1455.5     52.356   7.453
 1456     52.744   6.813
 1456.5     53.549   7.416
 1457     54.353   8.02
 1457.5     55.098   8.623
 1458     53.989   9.226
 1458.5     55.126   9.829
 1459     57.537   10.433
 1459.5     54.191   11.036
 1460     51.188   8.805
 1460.5     52.719   8.419
 1461     49.602   9.274
 1461.5     52.18   10.129
 1462     53.026   10.984
 1462.5     52.415   9.425
 1463     51.804   9.073
 1463.5     57.004   10.08
 1464     54.372   11.086
 1464.5     51.739   11.072
 1465     55.79   10.545
 1465.5     60.605   10.018
 1466     65.42   9.491
 1466.5     69.351   8.964
 1467     71.071   8.437
 1467.5     57.657   7.911
 1468     56.579   7.384
 1468.5     54.963   6.857
 1469     53.133   7.213
 1469.5     51.303   8.072
 1470     56.871   8.93
 1470.5     57.042   9.789
 1471     59.913   10.648
 1471.5     62.785   11.507
 1472     65.656   12.366
 1472.5     68.528   12.615
 1473     69.695   12.348
 1473.5     69.063   12.081
 1474     68.432   12.37
 1474.5     69.449   12.906
 1475     71.252   13.443
 1475.5     72.365   13.979
 1476     71.225   13.655
 1476.5     71.137   12.191
 1477     71.671   13.501
 1477.5     70.562   14.416
 1478     69.614   12.16
 1478.5     70.486   12.014
 1479     67.33   12.877
 1479.5     63.555   13.74
 1480     62.944   13.272
 1480.5     64.02   10.491
 1481     63.514   9.5
 1481.5     62.903   10.709
 1482     62.292   11.918
 1482.5     62.925   13.128
 1483     64.109   13.378
 1483.5     63.197   13.156
 1484     62.825   12.933
 1484.5     64.43   12.711
 1485     62.925   13.438
 1485.5     63.29   15.604
 1486     65.483   17.77
 1486.5     67.677   19.935
 1487     69.871   22.101
 1487.5     72.638   24.267
 1488     80.169   26.433
 1488.5     87.701   28.599
 1489     88.545   30.425
 1489.5     79.99   31.736
 1490     73.981   31.293
 1490.5     74.861   29.158
 1491     74.07   27.023
 1491.5     70.943   24.889
 1492     67.772   22.754
 1492.5     66.244   20.537
 1493     65.335   18.072
 1493.5     66.735   15.606
 1494     71.588   16.376
 1494.5     72.646   17.697
 1495     72.326   19.017
 1495.5     71.101   20.337
 1496     71.793   21.658
 1496.5     72.486   19.745
 1497     70.294   16.184
 1497.5     67.228   15.547
 1498     66.027   15.95
 1498.5     64.827   16.352
 1499     63.882   21.168
 1499.5     65.495   20.86
 1500     61.143   20.36
 1500.5     62.464   19.86
 1501     63.785   19.604
 1501.5     65.106   20.594
 1502     66.427   21.583
 1502.5     65.124   22.573
 1503     63.377   23.562
 1503.5     61.643   24.552
 1504     60.024   23.169
 1504.5     59.711   21.706
 1505     59.892   20.584
 1505.5     61.652   22.375
 1506     63.743   24.165
 1506.5     65.835   25.956
 1507     68.403   22.484
 1507.5     71.144   22.408
 1508     72.859   23.214
 1508.5     71.299   24
 1509     69.614   19.437
 1509.5     70.681   14.873
 1510     61.39   15.077
 1510.5     61.366   13.563
 1511     64.022   12.049
 1511.5     70.08   12.648
 1512     73.258   14.021
 1512.5     77.564   15.394
 1513     81.231   16.767
 1513.5     79.793   18.126
 1514     75.584   18.614
 1514.5     71.283   19.103
 1515     73.924   19.592
 1515.5     74.823   20.081
 1516     73.326   20.57
 1516.5     69.662   21.058
 1517     69.703   18.71
 1517.5     65.845   14.366
 1518     65.723   13.566
 1518.5     66.895   12.838
