~VERSION INFORMATION
 VERS.                2.0:   CWLS LOG ASCII STANDARD - VERSION 2.0
 WRAP.                 NO:   ONE LINE PER DEPTH STEP
~WELL INFORMATION
#MNEM.UNIT      DATA TYPE    INFORMATION
#----------   ------------   ------------------------------
 STRT.FT          50.0000:   START DEPTH
 STOP.FT        5375.0000:   STOP DEPTH
 STEP.FT           0.5000:   STEP LENGTH
 NULL.          -999.2500:   NULL VALUE
 COMP.  A.N. NORWOOD, INC:   COMPANY
 WELL.        MCINTYRE #1:   WELL
 FLD .  ROJO CABALLOS, S.:   FIELD
 LOC .                   :   LOCATION
 CNTY.              PECOS:   COUNTY
 STAT.              TEXAS:   STATE
 CTRY. UNITED STATES OF AMERICA:   COUNTRY
 SRVC.              Welex:   SERVICE COMPANY
 DATE.        06-May-1983:   LOGDATE
 API .     42371342980000:   API NUMBER
~CURVE INFORMATION
#MNEM.UNIT       API CODE    CURVE DESCRIPTION
#----------   ------------   ------------------------------
 DEPT.F      0   1   0  0:   1 MEASURED DEPTH
 GRD .GAPI   45 310 01 00:   GAMMA RAY FROM DENSITY LOG
 NPOR_LS.DEC 42 890 01 00:   NEUTRON POROSITY LIMESTONE
 CALD.IN     45 280 60 00:   CALIPER FROM DENSITY LOG
 CORR.G/C3   45 356 01 00:   DENSITY CORRECTION
 RHOB.G/C3   45 350 01 00:   BULK DENSITY
 DPOR_LS.DEC 45 890 10 00:   DENSITY POROSITY LIMESTONE
 DT  .US/F   60 500 00 00:   DELTA-T (INTERVAL TRANSIT TIME)
 SPR .MV     07 010 01 00:   SPONTANEOUS POTENTIAL FROM RESISTIVITY LOG
 ILD .OHMM   07 120 46 00:   INDUCTION DEEP RESISTIVITY
 ILM .OHMM   07 120 44 00:   INDUCTION MEDIUM RESISTIVITY
~PARAMETER INFORMATION
#MNEM.UNIT          VALUE    DESCRIPTION
#----------   ------------   ------------------------------
 PD  .                 GL:   PERMANENT DATUM
 EPD .FT             2768:   ELEVATION PERMANENT DATUM
 LMF .                 KB:   LOG MEASURED FROM
 DAPD.FT               10:   FEET ABOVE PERMANENT DATUM
 DMF .                 KB:   DRILLING MEASURED FROM
 EKB .FT             2778:   KELLY BUSHING
 EDF .FT             2777:   DRILLING FLOOR
 EGL .FT             2768:   GROUND LEVEL
 DATE.           05/06/83:   RUN DATE
 RUN .                  1:   RUN NUMBER
 DD  .FT             5380:   DEPTH DRILLER
 DL  .FT             5377:   DEPTH LOGGER
 BLI .FT             5375:   BOTTOM LOG INTERVAL
 TLI .FT               50:   TOP LOG INTERVAL
 CS  .IN            8.625:   CASING SIZE
 CBD .FT             1596:   CASING BOTTOM DRILLER
 CBL .FT             1613:   CASING BOTTOM LOGGER
 BS  .IN             7.75:   BIT SIZE
 BSD .FT             5380:   BIT SIZE AT DEPTH
 DFT .           SALT GEL:   DRILLING FLUID TYPE
 DFD .               10.2:   DRILLING FLUID DENSITY
 DFV .                 33:   DRILLING FLUID VISCOSITY
 DFPH.                9.5:   DRILLING FLUID PH
 DFL .                 18:   DRILLING FLUID LOSS
 MSS .               CIRC:   MUD SAMPLE SOURCE
 RMS .OHMM           0.09:   RESISTIVITY MUD SAMPLE
 MST .DEGF             72:   MUD SAMPLE TEMPERATURE
 RMF .OHMM           0.08:   RESISTIVITY MUD FILTRATE SAMPLE
 MFST.DEGF             72:   MUD FILTRATE SAMPLE TEMPERATURE
 MFSS.               MEAS:   MUD FILTRATE SAMPLE SOURCE
 MCSS.               MEAS:   MUD CAKE SAMPLE SOURCE
 RMB .OHMM          0.059:   RESISTIVITY MUD AT BHT
 BHT .DEGF            112:   BOTTOM HOLE TEMPERATURE
 TCS .HRS               4:   TIME CIRCULATED STOPPED
 MRT .DEGF            112:   MAXIMUM RECORDED TEMPERATURE
 LUN .               3415:   LOGGING UNIT NUMBER
 LUL .             ODESSA:   LOGGING UNIT LOCATION
 ENGI.             LAWSON:   RECORDING ENGINEER
 WITN.            NORWOOD:   WITNESSED BY
 ORIG.      1" 2.5" PRINT:   ORIGIN OF DATA
 UWI .     42371342980000:   UNIQUE WELL ID
~OTHER INFORMATION
~A    DEPT        GRD      NPOR_LS      CALD        CORR        RHOB       DPOR_LS        DT         SPR         ILD         ILM    
# ...
  3679.5000      3.9346     -0.0169     12.2843      0.0270      2.0122      0.4130     68.5093      9.3661     48.8030      4.4246 
  3680.0000      4.0786     -0.0166     12.2650      0.0365      2.0131      0.4101     68.3389      9.2465     32.3359      4.2423 
  3680.5000      4.1506     -0.0163     12.2350      0.0375      2.0046      0.4088     68.1008      9.3007     20.1107      3.9988 
  3681.0000      3.9431     -0.0160     12.2702      0.0380      1.9981      0.4165     67.3458      9.3550     13.6174      3.7620 
  3681.5000      3.6415     -0.0142     12.4640      0.0384      1.9917      0.4429     64.9789      9.2611     10.8703      3.6846 
  3682.0000      3.3108     -0.0120     12.5507      0.0386      1.9631      0.4450     61.4092      9.0281     10.9151      3.7596 
  3682.5000      2.9108     -0.0098     12.4202      0.0386      1.9645      0.4147     57.8184      8.8514     12.5990      4.3429 
  3683.0000      2.8543     -0.0076     12.1556      0.0386      2.0348      0.3708     55.3230      8.9111     16.5491      5.2179 
  3683.5000      2.9378     -0.0063     11.9838      0.0586      2.1052      0.2952     52.7904      8.7083     23.2716      7.2118 
  3684.0000      3.4390     -0.0060     11.5273      0.0875      2.2001      0.2116     51.8292      8.2913     39.9725     20.7517 
  3684.5000      4.0216     -0.0065      9.9778      0.1073      2.4105      0.1054     52.0028      8.1225     68.6588     67.5606 
  3685.0000      4.1323     -0.0078      9.4928      0.1080      2.6034      0.0553     52.0236      8.0395    110.9246     61.1864 
  3685.5000      3.9947     -0.0096      9.3920      0.1066      2.8339     -0.0424     51.9749      7.9549    176.4321     26.8606 
  3686.0000      3.6849     -0.0111      9.3275      0.0834      2.9600     -0.1010     51.9284      7.8746    484.0902     17.6214 
  3686.5000      3.3567     -0.0113      9.2629      0.0602      2.9603   -999.2500     51.9094      7.8639   2017.3165     13.0011 
  3687.0000      3.2706     -0.0115      9.2035      0.0230      2.9442   -999.2500     51.8050      7.6785   -999.2500     13.0291 
  3687.5000      3.6497     -0.0111      9.1500      0.0099      2.9236   -999.2500     51.7007      7.4931   -999.2500     13.2734 
  3688.0000      4.2553     -0.0105      9.0721      0.0065      2.9203   -999.2500     51.7281      7.4250   -999.2500     13.4101 
  3688.5000      4.8425     -0.0103      8.9938      0.0055      2.9199   -999.2500     51.8687      7.3260   -999.2500     13.3483 
  3689.0000      5.3797     -0.0101      8.9641      0.0073      2.9239   -999.2500     51.9825      7.1712   -999.2500     13.2685 
  3689.5000      6.0279     -0.0099      8.9344      0.0098      2.9274   -999.2500     52.0088      7.1317   -999.2500     13.1934 
  3690.0000      6.7347     -0.0098      8.9249      0.0165      2.9261   -999.2500     51.9190      7.2053   -999.2500     13.1187 
  3690.5000      6.9861     -0.0097      8.9315      0.0233      2.9171   -999.2500     51.7087      7.2788   -999.2500     12.9980 
  3691.0000      6.8711     -0.0096      8.9375      0.0300      2.9019   -999.2500     51.4984      7.0658   -999.2500     12.9836 
  3691.5000      6.7560     -0.0096      8.9434      0.0368      2.8968   -999.2500     51.2909      6.8894   -999.2500     12.9692 
  3692.0000      5.9787     -0.0098      8.9492      0.0436      2.8963   -999.2500     51.2053      6.5824   -999.2500     13.1463 
  3692.5000      5.1095     -0.0100      8.9551      0.0444      2.9017   -999.2500     51.1720      6.3874   -999.2500     13.3692 
  3693.0000      4.2727     -0.0101      8.9528      0.0444      2.9067   -999.2500     51.2390      6.3477   -999.2500     13.6328 
  3693.5000      3.9546     -0.0103      8.9454      0.0426      2.9086     -0.0982     51.3438      6.1708   -999.2500     14.1545 
  3694.0000      4.2521     -0.0105      8.9508      0.0336      2.8997     -0.0982     51.4105      5.9377   -999.2500     16.4697 
  3694.5000      5.0609     -0.0106      8.9561      0.0093      2.8802     -0.0886     51.4707      5.6821   -999.2500     19.7839 
  3695.0000      6.2106     -0.0107      8.9615     -0.0179      2.8607     -0.0823     51.6346      5.5917   -999.2500     24.0326 
  3695.5000      7.4008     -0.0107      8.9669     -0.0272      2.8545     -0.0774     52.1651      5.5193   -999.2500     29.1911 
  3696.0000      7.9860     -0.0106      8.9723     -0.0244      2.8590     -0.0829     52.5247      5.4469   -999.2500     34.3941 
  3696.5000      8.0899     -0.0106      8.9645     -0.0147      2.8725     -0.0971     52.4816      5.3745   -999.2500     35.2637 
  3697.0000      7.8672     -0.0107      8.9539     -0.0049      2.8877   -999.2500     52.4116      5.3021   -999.2500     35.4392 
  3697.5000      7.5847     -0.0106      8.9433      0.0049      2.9159   -999.2500     52.1409      5.2845   -999.2500     35.8041 
  3698.0000      6.8864     -0.0105      8.9327      0.0110      2.9159   -999.2500     52.4466      5.1380   -999.2500     36.3245 
  3698.5000      6.1881     -0.0104      8.9220      0.0124      2.9001   -999.2500     52.6619      4.7280   -999.2500     37.8597 
  3699.0000      5.8021     -0.0104      8.9187      0.0132      2.9008   -999.2500     52.8816      4.3485   1967.4268     40.2961 
  3699.5000      5.9195     -0.0105      8.9272      0.0132      2.9141   -999.2500     52.9453      3.9804   1967.4268     42.8893 
  3700.0000      6.0895     -0.0105      8.9198      0.0133      2.9249   -999.2500     52.9362      3.7434   1798.9543     44.2163 
  3700.5000      6.2347     -0.0105      8.9140      0.0154      2.9246   -999.2500     52.9202      3.6218    654.3721     42.8961 
  3701.0000      6.6031     -0.0105      8.9140      0.0175      2.9243   -999.2500     52.8814      3.4663    399.5679     42.1917 
  3701.5000      6.9450     -0.0105      8.9159      0.0204      2.9039   -999.2500     52.8732      3.2070    318.6506     41.8783 
  3702.0000      6.9128     -0.0105      8.9182      0.0245      2.8909   -999.2500     52.7760      2.9414    291.4110     44.1358 
  3702.5000      6.7816     -0.0105      8.9205      0.0287      2.8907   -999.2500     52.6406      2.6653    289.2394     48.4293 
  3703.0000      6.3396     -0.0105      8.9228      0.0329      2.8905   -999.2500     52.5243      2.3891    292.9722     53.6033 
  3703.5000      6.0417     -0.0104      8.9252      0.0397      2.8904   -999.2500     52.5054      2.1130    298.1225     59.3301 
  3704.0000      5.9289     -0.0111      8.9199      0.0502      2.9042   -999.2500     52.5068      1.8368    302.2189     65.6688 
  3704.5000      5.9622     -0.0110      8.8930      0.0578      2.9131   -999.2500     52.5075      1.5607    305.7941     71.6250 
  3705.0000      5.7915     -0.0108      8.8686      0.0573      2.9152   -999.2500     52.2782      1.2845    313.8552     72.3774 
  3705.5000      5.4384     -0.0111      8.8614      0.0515      2.9171   -999.2500     51.9105      1.0084    330.1259     71.8627 
  3706.0000      5.0581     -0.0112      8.8780      0.0458      2.9190   -999.2500     51.6566      0.7322    690.1947     69.9934 
  3706.5000      4.3656     -0.0112      8.8740      0.0422      2.9225   -999.2500     51.5354      0.4561   1890.8118     67.6577 
  3707.0000      4.0519     -0.0111      8.8508      0.0415      2.9351   -999.2500     51.7232      0.1891   1963.3085     65.3261 
  3707.5000      4.1009     -0.0111      8.8713      0.0429      2.9424   -999.2500     52.3482     -0.0654   -999.2500     63.0748 
  3708.0000      4.3857     -0.0111      8.9027      0.0469      2.9490   -999.2500     52.9783     -0.3199   -999.2500     60.2863 
  3708.5000      4.7474     -0.0111      8.9296      0.0493      2.9529   -999.2500     53.2326     -0.0487   -999.2500     56.6726 
  3709.0000      4.8222     -0.0111      8.9488      0.0517      2.9550   -999.2500     53.2277     -0.1980   -999.2500     51.3442 
  3709.5000      5.1156     -0.0112      8.9681      0.0519      2.9571   -999.2500     53.1285     -0.4638   -999.2500     46.1066 
