###############################################
##         ENVERUS                           ##
##         ESS - Open Hole                   ##
##         PERMIAN / DELAWARE                ##
##         Nov 04 2023  V4.0                 ##
##         42-389-30075-00-00                ##
###############################################
## Copyright 2017-2023  ENVERUS.  All Rights Reserved. 
## Confidential - Property of ENVERUS, use governed by terms and 
## conditions found within the existing Information Services Subscription Agreement 
## (as may be amended, the “ISSA”) between Customer and ENVERUS. 
## 
~VERSION INFORMATION
# MNEM.UNIT                               DATA : DESCRIPTION OF MNEMONIC
#-----.-----     ----------------------------- : -----------------------------
VERS.                                     2.00 : CWLS LOG ASCII STANDARD - VERSION 2.00
WRAP.                                       NO : MULTIPLE LINES PER DEPTH STEP
VEND.                                  ENVERUS : VENDOR
TYPE.                          ESS - OPEN HOLE : ENVERUS ESSENTIAL CURVES – ACCESSIBLE THROUGH ENVERUS PRISM(TM)
DOC.                                  32306518 : ENVERUS HEADER RAW DOCUMENT ID
#___________________________________________________________________________________________________ 
~WELL INFORMATION 
# kPY+8M9YT4rQMtoZY4hkcKqQFbcx8dAfbukAxGfLCr0mY2TilAra5+x7Ygngqds2nYZXTdz9AGmqNniTAH+qTQ== 
# MNEM.UNIT                                              DATA : DESCRIPTION OF MNEMONIC 
#-----.-----                    ----------------------------- : ----------------------------- 
CNTY.                                                  REEVES : COUNTY 
STATE.                                                  TEXAS : STATE 
CNTRY.                                                    USA : COUNTRY 
API.                                             42-389-30075 : API (10 Digit) 
API_14.                                    42-389-30075-00-00 : API (14 Digits) 
API_14_std.                                 42-389-30075-0000 : API (14 Digits Standard) 
UWI.                                           42389300750000 : UNIQUE WELL ID 
WELL.                                        CAMPBELL STATE 1 : WELL NAME
STRT.FT                                                   5.0 : START DEPTH
STOP.FT                                               20980.0 : STOP DEPTH
STEP.FT                                                   0.5 : STEP BETWEEN DEPTHS
NULL.                                                 -999.25 : NULL VALUE
#___________________________________________________________________________________________________ 
~CURVE INFORMATION 
# MNEM.UNIT           : CURVE DESCRIPTION 
#-----.-----          : ----------------------------- 
 DEPT.FT               : MEASURED DEPTH 
 CALI.IN               : CALIPER (CAL - CAL) 
 GR.API                : GAMMA RAY (GR) 
 DT.US/FT              : SONIC DELTA TRANSIT TIME (DT) 
 NPHI.V/V              : NEUTRON POROSITY (NPHI) 
 #___________________________________________________________________________________________________ 
~A         DEPT           CALI             GR             DT           NPHI
# ...
          800.0       -999.250          4.504         55.685     -999.25000
          800.5       -999.250          4.218         55.810     -999.25000
          801.0       -999.250          3.932         55.935     -999.25000
          801.5       -999.250          3.800         56.060     -999.25000
          802.0       -999.250          3.771         56.185     -999.25000
          802.5       -999.250          3.741         56.310     -999.25000
          803.0       -999.250          3.711         56.435     -999.25000
          803.5       -999.250          3.681         56.561     -999.25000
          804.0       -999.250          3.652         56.686     -999.25000
          804.5       -999.250          3.622         56.811     -999.25000
          805.0       -999.250          3.592         56.936     -999.25000
          805.5       -999.250          3.562         57.061     -999.25000
          806.0       -999.250          3.533         57.186     -999.25000
          806.5       -999.250          3.503         57.311     -999.25000
          807.0       -999.250          3.473         57.436     -999.25000
          807.5       -999.250          3.443         57.805     -999.25000
          808.0       -999.250          3.414         58.239     -999.25000
          808.5       -999.250          3.384         58.674     -999.25000
          809.0       -999.250          3.354         59.108     -999.25000
          809.5       -999.250          3.363         59.542     -999.25000
          810.0       -999.250          3.445         59.976     -999.25000
          810.5       -999.250          3.528         60.179     -999.25000
          811.0       -999.250          3.610         60.282     -999.25000
          811.5       -999.250          3.692         60.384     -999.25000
          812.0       -999.250          3.775         60.487     -999.25000
          812.5       -999.250          3.857         60.590     -999.25000
          813.0       -999.250          3.939         60.693     -999.25000
          813.5       -999.250          4.022         61.280     -999.25000
          814.0       -999.250          4.104         62.412     -999.25000
          814.5       -999.250          4.187         63.544     -999.25000
          815.0       -999.250          4.269         64.479     -999.25000
          815.5       -999.250          4.351         64.341     -999.25000
          816.0       -999.250          4.434         64.204     -999.25000
          816.5       -999.250          4.516         64.067     -999.25000
          817.0       -999.250          4.598         63.929     -999.25000
          817.5       -999.250          4.681         63.792     -999.25000
          818.0       -999.250          4.763         63.654     -999.25000
          818.5       -999.250          4.764         63.507     -999.25000
          819.0       -999.250          4.752         62.940     -999.25000
          819.5       -999.250          4.740         62.372     -999.25000
          820.0       -999.250          4.729         61.805     -999.25000
          820.5       -999.250          4.717         61.237     -999.25000
          821.0       -999.250          4.705         60.670     -999.25000
          821.5       -999.250          4.694         60.726     -999.25000
          822.0       -999.250          4.682         60.843     -999.25000
          822.5       -999.250          4.670         60.959     -999.25000
          823.0       -999.250          4.659         61.075     -999.25000
          823.5       -999.250          4.800         61.192     -999.25000
          824.0       -999.250          5.134         61.308     -999.25000
          824.5       -999.250          5.468         61.424     -999.25000
          825.0       -999.250          5.802         61.541     -999.25000
          825.5       -999.250          6.136         61.657     -999.25000
          826.0       -999.250          6.469         62.260     -999.25000
          826.5       -999.250          6.898         63.032     -999.25000
          827.0       -999.250          7.521         63.803     -999.25000
          827.5       -999.250          8.144         64.575     -999.25000
          828.0       -999.250          8.768         65.347     -999.25000
          828.5       -999.250         10.702         65.728     -999.25000
          829.0       -999.250         13.301         66.104     -999.25000
          829.5       -999.250         15.901         66.481     -999.25000
          830.0       -999.250         18.501        111.954     -999.25000
          830.5       -999.250         21.100        125.404     -999.25000
          831.0       -999.250         23.873        134.932     -999.25000
          831.5       -999.250         27.153        142.275     -999.25000
          832.0       -999.250         30.433        143.487     -999.25000
          832.5       -999.250         33.714        144.699     -999.25000
          833.0       -999.250         36.994        145.911     -999.25000
          833.5       -999.250         40.275        142.399     -999.25000
          834.0       -999.250         44.477        134.813     -999.25000
          834.5       -999.250         46.670        128.614     -999.25000
          835.0       -999.250         44.709        132.945     -999.25000
          835.5       -999.250         42.747        137.277     -999.25000
          836.0       -999.250         40.786        137.521     -999.25000
          836.5       -999.250         40.040        133.160     -999.25000
          837.0       -999.250         39.935        134.604     -999.25000
          837.5       -999.250         39.830        138.182     -999.25000
          838.0       -999.250         39.726        141.760     -999.25000
          838.5       -999.250         39.406        141.094     -999.25000
          839.0       -999.250         34.952        128.712     -999.25000
          839.5       -999.250         30.498        130.030     -999.25000
          840.0       -999.250         26.601        137.242     -999.25000
          840.5       -999.250         25.097        131.468     -999.25000
          841.0       -999.250         23.593        125.693     -999.25000
          841.5       -999.250         22.089        119.919     -999.25000
          842.0       -999.250         20.585         96.454     -999.25000
          842.5       -999.250         19.081         85.573     -999.25000
          843.0       -999.250         18.759         74.692     -999.25000
          843.5       -999.250         18.550         63.811     -999.25000
          844.0       -999.250         18.342         72.015     -999.25000
          844.5       -999.250         18.133        102.743     -999.25000
          845.0       -999.250         17.710        106.793     -999.25000
          845.5       -999.250         16.801        102.697     -999.25000
          846.0       -999.250         15.893         93.449     -999.25000
          846.5       -999.250         14.985         72.650     -999.25000
          847.0       -999.250         14.076         62.561     -999.25000
          847.5       -999.250         13.168         53.983     -999.25000
          848.0       -999.250         12.260         59.092     -999.25000
          848.5       -999.250         11.874         66.630     -999.25000
          849.0       -999.250         11.603         72.076     -999.25000
          849.5       -999.250         11.332         76.470     -999.25000
          850.0       -999.250         11.062         80.863     -999.25000
          850.5       -999.250         10.791         76.823     -999.25000
          851.0       -999.250         10.520         71.834     -999.25000
          851.5       -999.250         10.249         66.844     -999.25000
          852.0       -999.250          9.978         62.481     -999.25000
          852.5       -999.250          9.986         61.766     -999.25000
