#--------------------------------------------------#
#-------------------ENVERUS, INC.------------------#
#------------------WWW.ENVERUS.COM-----------------#
#------------------COPYRIGHT 2020------------------#
#--------------------------------------------------#
#THIS FILE MAY BE USED ONLY IN ACCORDANCE WITH A CURRENT SUBSCRIPTION AGREEMENT BETWEEN
#THE USER AND ENVERUS, INC. NO PART OF THIS FILE MAY BE REPRODUCED, USED, COPIED,
#MODIFIED, PROPAGATED, OR DISTRIBUTED EXCEPT IN ACCORDANCE WITH THE SUBSCRIPTION
#AGREEMENT. UNAUTHORIZED USE OR DISTRIBUTION OF ALL OR ANY PART OF THIS FILE MAY VIOLATE
#COPYRIGHT, TRADEMARK, AND/OR OTHER LAWS AND IS SUBJECT TO CIVIL AS WELL AS CRIMINAL
#SANCTIONS.
#--------------------------------------------------#
#THIS FILE IS PROVIDED "AS-IS" AND ALL WARRANTIES ARE EXPRESSLY DISCLAIMED, WHETHER
#EXPRESS, ORAL, IMPLIED, STATUTORY OR OTHERWISE, INCLUDING ANY IMPLIED WARRANTY OF FITNESS
#FOR A PARTICULAR PURPOSE, MERCHANTABILITY, TITLE OR NON-INFRINGEMENT, AND ANY WARRANTIES
#ARISING BY VIRTUE OF CUSTOM OF TRADE OR COURSE OF DEALING.  FURTHER, ENVERUS, INC.
#AND ITS LICENSORS DO NOT REPRESENT OR WARRANT THAT THIS FILE WILL MEET USER'S
#REQUIREMENTS OR ARE SUITABLE FOR USER'S NEEDS OR THAT THE DATA OR RESULTS PROVIDED IN
#CONJUNCTION THEREWITH ARE CORRECT, ACCURATE, TIMELY OR RELIABLE. THESE DISCLAIMERS SHALL
#APPLY REGARDLESS OF ANY FAILURE OF ESSENTIAL PURPOSE OF ANY LIMITED REMEDY.  SOME
#JURISDICTIONS DO NOT ALLOW THE EXCLUSION OF CERTAIN WARRANTIES SO SOME OF THE ABOVE
#EXCLUSIONS MAY NOT APPLY. IN NO EVENT SHALL ENVERUS, INC. OR ANY OF ITS AFFILIATES
#BE LIABLE UNDER ANY LEGAL THEORY, WHETHER IN TORT (INCLUDING WITHOUT LIMITATION
#NEGLIGENCE), CONTRACT, STRICT LIABILITY, STATUTORY OR OTHERWISE, FOR ANY SPECIAL,
#INCIDENTAL, CONSEQUENTIAL, EXEMPLARY, PUNITIVE OR INDIRECT DAMAGE OF ANY KIND, INCLUDING
#WITHOUT LIMITATION LOSS OF REVENUE, PROFITS, GOODWILL, USE, AND/OR DATA OR THE COST OF
#PROCUREMENT OF SUBSTITUTE GOODS OR SERVICES, EVEN IF APPRISED OF THE POSSIBILITY OF SUCH
#DAMAGES IN ADVANCE.
#--------------------------------------------------#

~VERSION INFORMATION
VERS. 2.0 : CWLS LOG ASCII STANDARD - VERSION 2.0
WRAP.  NO : ONE LINE PER DEPTH STEP
~WELL INFORMATION
#MNEMONIC     .UNIT              VALUE :DESCRIPTION
STRT       .FT                101 :START DEPTH
STOP       .FT                5444 :STOP DEPTH
STEP       .FT                   0.500 :STEP
NULL       .                  -999.99 :NULL
UWI        .                42389004350000 :UNIQUE WELL ID
API        .                42389004350000 :API NUMBER
COMP       .         :COMPANY
WELL       .        :WELL
DATE       .                 :LOG DATE
FLD       .                 :FIELD NAME
LOC       .                  UNK :LOCATION
CNTY       .                 UNK :COUNTY
STAT       .                 UNK :STATE
CTRY       .                 UNK :COUNTY
SRVC       .                 UNK :SERVICE COMPANY
~CURVE INFORMATION
#MNEMONIC     .UNIT      API CODE :CURVE DESCRIPTION
DEPTH       .FT                      :MEASURED DEPTH
DT.MSEC/FT        UNKNOWN   :DT
GR.API        UNKNOWN   :GR
~A    DEPTH    DT    GR
# ...
 517     -999.99   34.3956
 517.5     -999.99   33.67855
 518     -999.99   32.9615
 518.5     -999.99   32.24445
 519     -999.99   31.52741
 519.5     -999.99   31.24483
 520     -999.99   31.27935
 520.5     -999.99   31.31386
 521     -999.99   31.34838
 521.5     -999.99   31.3829
 522     -999.99   31.14333
 522.5     -999.99   30.85818
 523     -999.99   30.57303
 523.5     -999.99   30.28788
 524     -999.99   30.00273
 524.5     -999.99   29.71758
 525     -999.99   29.43243
 525.5     -999.99   29.14728
 526     -999.99   28.86213
 526.5     -999.99   28.57698
 527     -999.99   28.29183
 527.5     -999.99   28.00668
 528     -999.99   27.72152
 528.5     -999.99   29.02227
 529     -999.99   31.25242
 529.5     -999.99   33.48258
 530     -999.99   33.74738
 530.5     -999.99   32.99153
 531     -999.99   32.23569
 531.5     -999.99   31.47985
 532     -999.99   31.78926
 532.5     -999.99   32.20811
 533     -999.99   32.62696
 533.5     -999.99   33.04581
 534     -999.99   32.5952
 534.5     -999.99   31.85991
 535     -999.99   32.02376
 535.5     -999.99   32.76018
 536     -999.99   33.44173
 536.5     -999.99   32.67747
 537     -999.99   31.91322
 537.5     -999.99   31.82002
 538     -999.99   32.93459
 538.5     -999.99   34.04916
 539     -999.99   33.94523
 539.5     -999.99   33.5499
 540     -999.99   33.15456
 540.5     -999.99   32.75923
 541     -999.99   32.40064
 541.5     -999.99   33.16832
 542     -999.99   33.936
 542.5     -999.99   34.70368
 543     -999.99   33.33813
 543.5     -999.99   31.8479
 544     -999.99   30.35768
 544.5     -999.99   30.55844
 545     -999.99   31.60939
 545.5     -999.99   32.66033
 546     -999.99   33.71128
 546.5     -999.99   34.76222
 547     -999.99   35.39752
 547.5     -999.99   35.70141
 548     -999.99   36.00529
 548.5     -999.99   36.30917
 549     -999.99   33.96104
 549.5     -999.99   31.35004
 550     -999.99   28.73904
 550.5     -999.99   27.24551
 551     -999.99   26.75222
 551.5     -999.99   26.25893
 552     -999.99   26.20725
 552.5     -999.99   27.02682
 553     -999.99   27.8464
 553.5     -999.99   28.66598
 554     -999.99   29.48555
 554.5     -999.99   29.80387
 555     -999.99   29.91797
 555.5     -999.99   30.03207
 556     -999.99   30.14617
 556.5     -999.99   30.68399
 557     -999.99   31.60819
 557.5     -999.99   32.53239
 558     -999.99   33.45658
 558.5     -999.99   34.38078
 559     -999.99   35.30498
 559.5     -999.99   36.22918
 560     -999.99   36.69793
 560.5     -999.99   36.30251
 561     -999.99   35.90709
 561.5     -999.99   35.51167
 562     -999.99   35.11625
 562.5     -999.99   34.72084
 563     -999.99   34.32542
 563.5     -999.99   33.93
 564     -999.99   33.25475
 564.5     -999.99   32.13729
 565     -999.99   31.01983
 565.5     -999.99   30.25778
 566     -999.99   31.61598
 566.5     -999.99   32.97418
 567     -999.99   34.33238
 567.5     -999.99   35.69058
 568     -999.99   37.04878
 568.5     -999.99   36.39158
 569     -999.99   34.17321
 569.5     -999.99   31.95485
 570     -999.99   29.8167
 570.5     -999.99   28.24507
 571     -999.99   28.78777
 571.5     -999.99   29.33047
 572     -999.99   29.87317
 572.5     -999.99   30.41587
 573     -999.99   30.95857
 573.5     -999.99   31.50127
 574     -999.99   32.04397
 574.5     -999.99   32.58667
 575     -999.99   33.12937
 575.5     -999.99   32.81735
 576     -999.99   32.28905
 576.5     -999.99   31.76075
 577     -999.99   31.23245
 577.5     -999.99   30.70415
 578     -999.99   30.17585
 578.5     -999.99   29.64755
 579     -999.99   30.07455
 579.5     -999.99   32.29831
 580     -999.99   34.52207
 580.5     -999.99   34.15097
 581     -999.99   33.36672
 581.5     -999.99   32.58248
 582     -999.99   31.79823
 582.5     -999.99   31.06018
 583     -999.99   31.40222
 583.5     -999.99   31.74426
 584     -999.99   32.0863
 584.5     -999.99   32.42834
 585     -999.99   32.77038
 585.5     -999.99   33.11242
 586     -999.99   33.45446
 586.5     -999.99   33.7965
 587     -999.99   33.78929
 587.5     -999.99   33.64067
 588     -999.99   33.49204
 588.5     -999.99   33.34342
 589     -999.99   33.60557
 589.5     -999.99   34.28578
 590     -999.99   34.966
 590.5     -999.99   35.64621
 591     -999.99   36.32643
 591.5     -999.99   33.59937
 592     -999.99   33.63807
 592.5     -999.99   33.67676
 593     -999.99   33.71546
 593.5     -999.99   33.71423
 594     -999.99   33.04378
 594.5     -999.99   32.37334
 595     -999.99   31.7029
 595.5     -999.99   31.03246
 596     -999.99   30.36202
 596.5     -999.99   30.18809
 597     -999.99   32.2425
 597.5     -999.99   34.29691
 598     -999.99   35.5503
 598.5     -999.99   34.82336
 599     -999.99   35.00553
 599.5     -999.99   35.18771
 600     -999.99   35.36989
 600.5     -999.99   35.55206
 601     -999.99   35.34027
 601.5     -999.99   34.54016
 602     -999.99   33.74005
 602.5     -999.99   32.93995
 603     -999.99   32.13984
 603.5     -999.99   31.33974
 604     -999.99   30.53963
 604.5     -999.99   29.73953
 605     -999.99   28.93942
 605.5     -999.99   28.13932
 606     -999.99   27.33921
 606.5     -999.99   26.53911
 607     -999.99   25.739
 607.5     -999.99   24.95911
 608     -999.99   26.32696
 608.5     -999.99   27.69482
 609     -999.99   29.06268
 609.5     -999.99   30.43054
 610     -999.99   31.79839
 610.5     -999.99   33.16625
 611     -999.99   34.53411
 611.5     -999.99   36.03361
 612     -999.99   37.73894
 612.5     -999.99   39.44427
 613     -999.99   41.1496
 613.5     -999.99   42.85493
 614     -999.99   41.96847
 614.5     -999.99   40.63724
 615     -999.99   39.30601
 615.5     -999.99   37.97478
 616     -999.99   36.64355
 616.5     -999.99   35.31232
 617     -999.99   34.60976
 617.5     -999.99   35.12808
 618     -999.99   35.6464
 618.5     -999.99   36.16471
 619     -999.99   36.68303
 619.5     -999.99   36.86843
 620     -999.99   35.22498
 620.5     -999.99   33.58153
 621     -999.99   31.93808
 621.5     -999.99   30.29462
 622     -999.99   28.65117
 622.5     -999.99   27.72832
 623     -999.99   27.42753
 623.5     -999.99   30.18534
 624     -999.99   32.94316
 624.5     -999.99   35.70097
 625     -999.99   38.45879
 625.5     -999.99   40.77
 626     -999.99   40.8087
 626.5     -999.99   40.8474
 627     -999.99   40.88609
 627.5     -999.99   40.92479
 628     -999.99   40.22908
 628.5     -999.99   39.5084
 629     -999.99   38.78773
 629.5     -999.99   38.06705
 630     -999.99   37.73289
 630.5     -999.99   39.46946
 631     -999.99   41.20603
 631.5     -999.99   42.94261
 632     -999.99   44.67918
 632.5     -999.99   46.41575
 633     -999.99   47.37041
 633.5     -999.99   47.8272
 634     -999.99   46.97297
 634.5     -999.99   44.97148
 635     -999.99   42.97
 635.5     -999.99   41.36898
 636     -999.99   41.15651
 636.5     -999.99   40.94403
 637     -999.99   40.73156
 637.5     -999.99   40.11482
 638     -999.99   39.13765
 638.5     -999.99   38.16049
 639     -999.99   37.78981
 639.5     -999.99   38.81685
 640     -999.99   39.84389
 640.5     -999.99   40.87093
 641     -999.99   41.89798
 641.5     -999.99   42.92502
 642     -999.99   43.95206
 642.5     -999.99   44.9791
 643     -999.99   46.00614
 643.5     -999.99   46.99467
 644     -999.99   47.50246
 644.5     -999.99   46.47093
 645     -999.99   44.00245
 645.5     -999.99   41.53397
 646     -999.99   39.06549
 646.5     -999.99   36.59701
 647     -999.99   34.12854
 647.5     -999.99   32.22375
 648     -999.99   31.22695
 648.5     -999.99   30.23015
 649     -999.99   31.0305
 649.5     -999.99   32.62142
 650     -999.99   34.21235
 650.5     -999.99   35.80327
 651     -999.99   37.39419
 651.5     -999.99   37.99702
 652     -999.99   38.02545
 652.5     -999.99   38.05388
 653     -999.99   38.0823
 653.5     -999.99   38.11073
 654     -999.99   38.13916
 654.5     -999.99   39.5659
 655     -999.99   41.2209
 655.5     -999.99   42.87589
