#--------------------------------------------------#
#-------------------ENVERUS, INC.------------------#
#------------------WWW.ENVERUS.COM-----------------#
#------------------COPYRIGHT 2020------------------#
#--------------------------------------------------#
#THIS FILE MAY BE USED ONLY IN ACCORDANCE WITH A CURRENT SUBSCRIPTION AGREEMENT BETWEEN
#THE USER AND ENVERUS, INC. NO PART OF THIS FILE MAY BE REPRODUCED, USED, COPIED,
#MODIFIED, PROPAGATED, OR DISTRIBUTED EXCEPT IN ACCORDANCE WITH THE SUBSCRIPTION
#AGREEMENT. UNAUTHORIZED USE OR DISTRIBUTION OF ALL OR ANY PART OF THIS FILE MAY VIOLATE
#COPYRIGHT, TRADEMARK, AND/OR OTHER LAWS AND IS SUBJECT TO CIVIL AS WELL AS CRIMINAL
#SANCTIONS.
#--------------------------------------------------#
#THIS FILE IS PROVIDED "AS-IS" AND ALL WARRANTIES ARE EXPRESSLY DISCLAIMED, WHETHER
#EXPRESS, ORAL, IMPLIED, STATUTORY OR OTHERWISE, INCLUDING ANY IMPLIED WARRANTY OF FITNESS
#FOR A PARTICULAR PURPOSE, MERCHANTABILITY, TITLE OR NON-INFRINGEMENT, AND ANY WARRANTIES
#ARISING BY VIRTUE OF CUSTOM OF TRADE OR COURSE OF DEALING.  FURTHER, ENVERUS, INC.
#AND ITS LICENSORS DO NOT REPRESENT OR WARRANT THAT THIS FILE WILL MEET USER'S
#REQUIREMENTS OR ARE SUITABLE FOR USER'S NEEDS OR THAT THE DATA OR RESULTS PROVIDED IN
#CONJUNCTION THEREWITH ARE CORRECT, ACCURATE, TIMELY OR RELIABLE. THESE DISCLAIMERS SHALL
#APPLY REGARDLESS OF ANY FAILURE OF ESSENTIAL PURPOSE OF ANY LIMITED REMEDY.  SOME
#JURISDICTIONS DO NOT ALLOW THE EXCLUSION OF CERTAIN WARRANTIES SO SOME OF THE ABOVE
#EXCLUSIONS MAY NOT APPLY. IN NO EVENT SHALL ENVERUS, INC. OR ANY OF ITS AFFILIATES
#BE LIABLE UNDER ANY LEGAL THEORY, WHETHER IN TORT (INCLUDING WITHOUT LIMITATION
#NEGLIGENCE), CONTRACT, STRICT LIABILITY, STATUTORY OR OTHERWISE, FOR ANY SPECIAL,
#INCIDENTAL, CONSEQUENTIAL, EXEMPLARY, PUNITIVE OR INDIRECT DAMAGE OF ANY KIND, INCLUDING
#WITHOUT LIMITATION LOSS OF REVENUE, PROFITS, GOODWILL, USE, AND/OR DATA OR THE COST OF
#PROCUREMENT OF SUBSTITUTE GOODS OR SERVICES, EVEN IF APPRISED OF THE POSSIBILITY OF SUCH
#DAMAGES IN ADVANCE.
#--------------------------------------------------#

~VERSION INFORMATION
VERS. 2.0 : CWLS LOG ASCII STANDARD - VERSION 2.0
WRAP.  NO : ONE LINE PER DEPTH STEP
~WELL INFORMATION
#MNEMONIC     .UNIT              VALUE :DESCRIPTION
STRT       .FT                75 :START DEPTH
STOP       .FT                5648 :STOP DEPTH
STEP       .FT                   0.500 :STEP
NULL       .                  -999.990 :NULL
UWI        .              42371363570000 :UNIQUE WELL ID
API        .              42371363570000 :API NUMBER
COMP       .         APACHE CORPORATION :COMPANY
WELL       .        SCHLOSSER, FRED ESTATE -B-  13 :WELL
DATE       .                16-MAY-1992 :LOG DATE
~CURVE INFORMATION
#MNEMONIC     .UNIT      API CODE :CURVE DESCRIPTION
DEPTH       .FT                      :MEASURED DEPTH
DT.US/FT        UNKNOWN   :DT
GR.API        UNKNOWN   :GR
~A    DEPTH    DT    GR
 75     -999.990   40.077
 75.5     -999.990   39.73
 76     -999.990   39.382
 76.5     -999.990   39.034
 77     -999.990   38.686
 77.5     -999.990   38.338
 78     -999.990   37.99
 78.5     -999.990   38.705
 79     -999.990   40.538
 79.5     -999.990   42.371
 80     -999.990   44.204
 80.5     -999.990   43.596
 81     -999.990   41.822
 81.5     -999.990   42.977
 82     -999.990   44.131
 82.5     -999.990   45.285
 83     -999.990   46.439
 83.5     -999.990   45.84
 84     -999.990   43.327
 84.5     -999.990   40.814
 85     -999.990   37.778
 85.5     -999.990   37.466
 86     -999.990   39.329
 86.5     -999.990   40.55
 87     -999.990   39.809
 87.5     -999.990   39.068
 88     -999.990   38.327
 88.5     -999.990   37.586
 89     -999.990   36.845
 89.5     -999.990   34.922
 90     -999.990   32.408
 90.5     -999.990   29.895
 91     -999.990   27.382
 91.5     -999.990   26.743
 92     -999.990   27.592
 92.5     -999.990   28.441
 93     -999.990   29.29
 93.5     -999.990   31.193
 94     -999.990   33.504
 94.5     -999.990   35.815
 95     -999.990   37.626
 95.5     -999.990   38.445
 96     -999.990   39.264
 96.5     -999.990   40.083
 97     -999.990   40.903
 97.5     -999.990   40.93
 98     -999.990   39.918
 98.5     -999.990   38.905
 99     -999.990   37.893
 99.5     -999.990   36.88
 100     -999.990   35.082
 100.5     -999.990   32.956
 101     -999.990   33.157
 101.5     -999.990   34.085
 102     -999.990   34.59
 102.5     -999.990   34.511
 103     -999.990   34.432
 103.5     -999.990   33.4
 104     -999.990   31.829
 104.5     -999.990   30.915
 105     -999.990   30.281
 105.5     -999.990   29.872
 106     -999.990   31.029
 106.5     -999.990   32.186
 107     -999.990   33.343
 107.5     -999.990   36.015
 108     -999.990   38.791
 108.5     -999.990   40.098
 109     -999.990   41.087
 109.5     -999.990   42.076
 110     -999.990   41.49
 110.5     -999.990   38.696
 111     -999.990   35.902
 111.5     -999.990   33.405
 112     -999.990   31.39
 112.5     -999.990   29.376
 113     -999.990   28.246
 113.5     -999.990   27.769
 114     -999.990   27.293
 114.5     -999.990   27.606
 115     -999.990   32.501
 115.5     -999.990   36.522
 116     -999.990   37.623
 116.5     -999.990   38.246
 117     -999.990   34.961
 117.5     -999.990   31.913
 118     -999.990   31.483
 118.5     -999.990   31.053
 119     -999.990   31.965
 119.5     -999.990   34.941
 120     -999.990   37.138
 120.5     -999.990   38.544
 121     -999.990   33.478
 121.5     -999.990   32.845
 122     -999.990   32.211
 122.5     -999.990   31.94
 123     -999.990   34.021
 123.5     -999.990   33.64
 124     -999.990   33.258
 124.5     -999.990   32.877
 125     -999.990   33.744
 125.5     -999.990   35.313
 126     -999.990   36.881
 126.5     -999.990   36.528
 127     -999.990   33.867
 127.5     -999.990   30.909
 128     -999.990   27.226
 128.5     -999.990   25.468
 129     -999.990   25.298
 129.5     -999.990   25.128
 130     -999.990   27.317
 130.5     -999.990   31.889
 131     -999.990   31.255
 131.5     -999.990   30.62
 132     -999.990   29.986
 132.5     -999.990   24.084
 133     -999.990   24.771
 133.5     -999.990   27.722
 134     -999.990   30.673
 134.5     -999.990   33.652
 135     -999.990   36.651
 135.5     -999.990   38.962
 136     -999.990   39.506
 136.5     -999.990   40.051
 137     -999.990   40.91
 137.5     -999.990   42.535
 138     -999.990   44.159
 138.5     -999.990   45.783
 139     -999.990   47.408
 139.5     -999.990   48.297
 140     -999.990   48.127
 140.5     -999.990   47.957
 141     -999.990   35.527
 141.5     -999.990   36.206
 142     -999.990   36.885
 142.5     -999.990   37.563
 143     -999.990   35.654
 143.5     -999.990   33.587
 144     -999.990   31.521
 144.5     -999.990   29.454
 145     -999.990   30.52
 145.5     -999.990   32.183
 146     -999.990   33.846
 146.5     -999.990   34.651
 147     -999.990   34.379
 147.5     -999.990   34.108
 148     -999.990   34.282
 148.5     -999.990   35.925
 149     -999.990   37.569
 149.5     -999.990   38.516
 150     -999.990   37.468
 150.5     -999.990   36.42
 151     -999.990   35.724
 151.5     -999.990   36.087
 152     -999.990   39.712
 152.5     -999.990   44.386
 153     -999.990   46.948
 153.5     -999.990   49.205
 154     -999.990   48.122
 154.5     -999.990   45.958
 155     -999.990   45.472
 155.5     -999.990   46.127
 156     -999.990   46.781
 156.5     -999.990   47.436
 157     -999.990   47.883
 157.5     -999.990   46.767
 158     -999.990   45.651
 158.5     -999.990   44.535
 159     -999.990   43.419
 159.5     -999.990   42.303
 160     -999.990   41.186
 160.5     -999.990   42.511
 161     -999.990   44.166
 161.5     -999.990   45.019
 162     -999.990   40.224
 162.5     -999.990   40.879
 163     -999.990   42.816
 163.5     -999.990   40.779
 164     -999.990   38.312
 164.5     -999.990   38.556
 165     -999.990   41.011
 165.5     -999.990   37.757
 166     -999.990   37.937
 166.5     -999.990   39.316
 167     -999.990   39.428
 167.5     -999.990   38.746
 168     -999.990   38.064
 168.5     -999.990   37.382
 169     -999.990   36.7
 169.5     -999.990   36.018
 170     -999.990   36.708
 170.5     -999.990   39.514
 171     -999.990   42.32
 171.5     -999.990   45.105
 172     -999.990   47.89
 172.5     -999.990   50.676
 173     -999.990   50.938
 173.5     -999.990   48.493
 174     -999.990   46.048
 174.5     -999.990   43.859
 175     -999.990   42.496
 175.5     -999.990   41.133
 176     -999.990   39.77
 176.5     -999.990   38.407
 177     -999.990   37.663
 177.5     -999.990   38.738
 178     -999.990   46.375
 178.5     -999.990   54.596
 179     -999.990   63.274
 179.5     -999.990   71.434
 180     -999.990   78.31
 180.5     -999.990   72.465
 181     -999.990   65.168
 181.5     -999.990   59.885
 182     -999.990   54.601
 182.5     -999.990   49.318
 183     -999.990   48.738
 183.5     -999.990   49.435
 184     -999.990   50.132
 184.5     -999.990   50.829
 185     -999.990   47.008
 185.5     -999.990   44.953
 186     -999.990   44.826
 186.5     -999.990   44.839
 187     -999.990   46.718
 187.5     -999.990   48.229
 188     -999.990   47.426
 188.5     -999.990   45.662
 189     -999.990   43.898
 189.5     -999.990   42.134
 190     -999.990   41.142
 190.5     -999.990   41.205
 191     -999.990   44.024
 191.5     -999.990   45.773
 192     -999.990   46.409
 192.5     -999.990   47.509
 193     -999.990   52.624
 193.5     -999.990   47.431
 194     -999.990   46.786
 194.5     -999.990   46.363
 195     -999.990   41.404
 195.5     -999.990   40.525
 196     -999.990   39.645
 196.5     -999.990   38.766
 197     -999.990   38.394
 197.5     -999.990   44.273
 198     -999.990   48.881
 198.5     -999.990   51.672
 199     -999.990   54.463
 199.5     -999.990   52.462
 200     -999.990   49.819
 200.5     -999.990   43.736
 201     -999.990   43.426
 201.5     -999.990   43.117
 202     -999.990   42.807
 202.5     -999.990   42.498
 203     -999.990   43.675
 203.5     -999.990   47.554
 204     -999.990   48.19
 204.5     -999.990   48.826
 205     -999.990   48.611
 205.5     -999.990   47.599
 206     -999.990   46.587
 206.5     -999.990   43.398
 207     -999.990   40.067
 207.5     -999.990   39.505
 208     -999.990   38.998
 208.5     -999.990   41.328
 209     -999.990   43.962
 209.5     -999.990   44.1
 210     -999.990   44.246
 210.5     -999.990   45.113
 211     -999.990   45.98
 211.5     -999.990   51.261
 212     -999.990   51.334
 212.5     -999.990   53.197
 213     -999.990   55.06
 213.5     -999.990   50.249
 214     -999.990   44.386
 214.5     -999.990   40.535
 215     -999.990   39.895
 215.5     -999.990   41.43
 216     -999.990   41.608
 216.5     -999.990   41.1
 217     -999.990   44.072
 217.5     -999.990   46.085
 218     -999.990   44.905
 218.5     -999.990   48.687
 219     -999.990   51.803
