~Version Information Block
 VERS.                2.00:     CWLS LOG ASCII STANDARD - VERSION 2.000000
 WRAP.                  NO:     One Line Per Depth Step
#
~Well Information Block
#MNEM.UNIT                     Data                         Information
#----------   ------------------------------------------   ----------------
# Enverus has updated the API/UWI.  The previous names are renamed to  PREV_API / PREV_UWI
API.                             42-371-39483-90-00 : API (14 Digits with Dashes)
UWI.                                 42371394839000 : UNIQUE WELL ID

 STRT.FT                                    10010.0000:     START DEPTH
 STOP.FT                                    11812.0000:     STOP DEPTH
 STEP.FT                                        0.5000:     STEP
 NULL.                                       -999.2500:     NULL VALUE
 COMP.                           PATRIOT RESOURCES INC:     COMPANY
 WELL.                        ROOSTERFISH UNIT 22NE 1H:     WELL
 FLD .                             WOLFBONE TREND AREA:     FIELD
 LOC .                                                :     LOCATION
 SEC .                                              22:     SECTION
 CNTY.                                          PEACOS:     COUNTY
 STAT.                                           TEXAS:     STATE
 CTRY.                                           U.S.A:     COUNTRY
 SRVC.                                    SCHLUMBERGER:     SERVICE COMPANY
 DATE.                                      03/18/2017:     DATE
PREV_APII .                                  42371394830000:     API NUMBER
 PREV_UWI .                                  42371394830000:     UWI NUMBER
 TVD .                                              NO:     TVD flag
 WSTA.                                             LOC:     Well status
#
~Curve Information Block
#MNEM.UNIT       API CODE      Curve Description
#----------    -------------   -------------------
 DEPT.FT                   :   Depth in Feet
 ECGR.GAPI     35 310 01 01:   Environmentally Corrected Gamma Ray
 CALI.IN       70 280 01 01:   Caliper
 TENS.LBS                  :   Tension
 SPHI_476.V/V  61 890 01 01:   Sonic Porosity 47.6 Matrix
 DT  .US/F     60 520 08 01:   Delta-T
 DTSM.US/F                 :   Delta-T Shear Measurement
 STIT.FT/H                 :   STIT
#
~Parameter Information Block
#MNEM.UNIT            Value               Description
#----------    --------------------    -------------------
 RUN .                         ONE:    Run Number
 PDAT.                          GL:    Permanent Datum
 EPD .FT                        25:    Elevation Of Perm. Datum
 LMF .               KELLY BUSHING:    Log Measured From
 EKB .FT                          :    Elevation Of Kelly Bushing
 DF .FT                           :    Elevation Of Derrick Floor
 GL .FT                         25:    Elevation Of Ground Level
 TD  .FT                     18979:    Total Depth
 CSGD.FT                      5100:    Casing Bottom (Driller) 1
 CSGL.FT                     18979:    Casing Bottom (Logger) 1
 MUD .                   OIL BASED:    Drilling Fluid Type
 MUDV .CP                      102:    Drilling Fluid Viscosity
 MUDD .LB/USG                 13.0:    Drilling Fluid Density
 FL .ML/30MIN                     :    Drilling Fluid Loss
 PH.                           8.8:    Drilling Fluid Ph
 MUDS .                           :    Mud Sample Source
 RM .OHMM                         :    Resistivity Of Mud Sample
 RMT .DEGF                        :    Mud Sample Temperature
 RMF .OHMM                        :    Mud Filtrate Resistivity
 RMFT.DEGF                        :    Mud Filtrate Sample Temperature
 RMC .OHMM                        :    Mud Cake Resistivity
 RMCT.DEGF                        :    Mud Cake Sample Temperature
 RMB .OHMM                        :    Mud Resistivity At Bht
 TMAX .DEGF                    152:    Bottom Hole Temperature
#
~Other Information Block
<DescLogPlotStart>   NEURALOG PLOT DEFINITION
PLOTDEFVERSION: 3
LASFILE: D:\nds\projects\poojawells\December data\PoojaWells Digitizing_Cassidy
DEPTHSCALE: 240.000000
RESOLUTION: 144
DEPTHLABELFREQ: 100.000000
HEAVYGRIDFREQ: 100.000000
MEDIUMGRIDFREQ: 50.000000
LIGHTGRIDFREQ: 10.000000
#
#   TRACK 1
#
STARTTRACK: 
 LEFTX: 0.500000 inch
 RIGHTX: 3.000000 inch
 SCALETYPE: Linear
 NUMCHARTDIVISIONS: 10
CURVE: ECGR  0.000000   150.000000 (0,0,255)      Solid             2     Y    
BACKUP: 150.000000 300.000000 (0,0,255)      Solid             2    
CURVE: CALI  6.000000   16.000000  (0,131,131)    Dot               2     Y    
BACKUP: -4.000000  6.000000   (0,131,131)    Dot               2    
CURVE: TENS  10000.000000 0.000000   (255,0,255)    Short_Dash        2     N  
ENDTRACK: 
#
#   TRACK 2
#
STARTTRACK: 
 LEFTX: 3.500000 inch
 RIGHTX: 8.500000 inch
 SCALETYPE: Linear
 NUMCHARTDIVISIONS: 10
CURVE: SPHI_476 0.300000   -0.100000  (255,0,0)      Solid             2     N 
CURVE: DT    140.000000 40.000000  (255,131,0)    Dot               2     N    
CURVE: DTSM  240.000000 40.000000  (255,255,0)    Short_Dash        2     N    
ENDTRACK: 
#
#   TRACK 3
#
STARTTRACK: 
 LEFTX: 8.500000 inch
 RIGHTX: 9.256944 inch
 SCALETYPE: Linear
 NUMCHARTDIVISIONS: 10
CURVE: STIT  0.000000   50.000000  (0,0,255)      Solid             2     N    
ENDTRACK: 
<DescLogPlotEnd>
~A DEPTH     ECGR             CALI             TENS             SPHI_476             DT               DTSM             STIT            
# ...
   10711.500 99.08004937      8.25105337       4417.95276767    0.26295265       84.49860724      139.88707074     0.24040508      
   10712.000 96.95539074      8.24924759       4427.50661023    0.26235589       84.43517101      139.68298183     0.24085043      
   10712.500 96.53564266      8.24744181       4427.26172838    0.26570623       84.93817959      139.87398859     0.24129578      
   10713.000 94.70011045      8.24563604       4427.53294464    0.27109953       85.65012901      140.06499536     0.24174114      
   10713.500 97.47485615      8.24383026       4419.83240223    0.27299557       86.03703724      140.25600212     0.24218649      
   10714.000 98.02184942      8.24202448       4409.77653631    0.27265992       85.93116108      140.44700889     0.24263185      
   10714.500 100.81195847     8.24022714       4399.44134078    0.27379350       86.11420613      140.63801565     0.24307720      
   10715.000 101.96405331     8.23844571       4399.44134078    0.27437491       86.30919220      141.25348189     0.24352256      
   10715.500 100.12889904     8.23669300       4399.44134078    0.27248008       85.94939647      141.37684043     0.24396791      
   10716.000 97.61904970      8.23497194       4399.44134078    0.26981622       85.58031569      141.53203343     0.24441327      
   10716.500 95.29021088      8.23378735       4399.44134078    0.26810045       85.33774373      139.92339833     0.24485862      
   10717.000 93.46329702      8.24421746       4399.44134078    0.26624885       85.05571031      139.02506964     0.24530398      
   10717.500 93.07639136      8.25416159       4413.40782123    0.26575125       85.05571031      138.84227019     0.24574933      
   10718.000 92.67048138      8.26052407       4427.37430168    0.26762629       85.19498607      138.65424791     0.24619469      
   10718.500 92.79752773      8.25659906       4414.65963951    0.26792185       85.19498607      138.46622563     0.24664004      
   10719.000 94.00484375      8.25290462       4401.70190826    0.26691576       85.10445682      138.27820334     0.24708540      
   10719.500 101.62111219     8.24928225       4404.95384255    0.26211070       84.40947075      137.52785515     0.24753075      
   10720.000 105.80144431     8.24568118       4411.52690430    0.25910173       84.35586197      136.31914047     0.24797611      
   10720.500 108.16177894     8.24206596       4418.18579016    0.26821362       85.37056923      135.17309988     0.24842146      
   10721.000 105.58257668     8.23841422       4424.95344507    0.27110496       85.51040803      132.33983287     0.24886682      
   10721.500 97.89294921      8.23462877       4420.23587834    0.26243034       84.32634361      130.66852368     0.24931217      
   10722.000 85.58430934      8.23459583       4409.06269398    0.25659281       83.36806561      122.31197772     0.24975753      
   10722.500 67.22394547      8.23731072       4399.44134078    0.24849973       82.42660664      120.36211699     0.25020288      
   10723.000 48.69588964      8.24004735       4415.80207502    0.24723431       82.38801724      118.35654596     0.25064824      
   10723.500 36.04490160      8.24278758       4427.37430168    0.25098097       82.96880858      116.74094708     0.25109359      
   10724.000 34.35571661      8.24552154       4427.37430168    0.27972681       86.12325685      117.50974930     0.25153895      
   10724.500 52.39107418      8.24825431       4427.37430168    0.27653028       86.55334980      119.28969359     0.25198430      
   10725.000 72.46850040      8.25098805       4420.85661080    0.27012535       85.75208914      122.79944290     0.25242966      
   10725.500 91.16712317      8.25372196       4414.15270019    0.26629526       84.70752089      126.21169916     0.25287501      
   10726.000 100.32185456     8.25644771       4407.44878957    0.24233983       81.57381616      128.12574612     0.25332037      
   10726.500 103.82614173     8.25914225       4400.74487896    0.24979805       82.63231198      129.83286908     0.25376572      
   10727.000 104.40423500     8.26132628       4419.69273743    0.25656685       83.63509749      134.90250696     0.25421108      
   10727.500 102.20955188     8.26141637       4444.83240223    0.26239554       84.49063170      138.18941504     0.25465643      
   10728.000 105.19844513     8.26175053       4440.64245810    0.25858867       83.93591475      137.59160060     0.25510179      
   10728.500 107.95034124     8.26196445       4415.50279330    0.25626741       83.65839624      136.89736447     0.25554714      
   10729.000 110.68641253     8.24600987       4399.44134078    0.25626741       83.66825217      136.20312835     0.25599250      
   10729.500 110.81415566     8.15919999       4399.44134078    0.25509243       83.49149147      135.72423398     0.25643785      
   10730.000 101.74392838     8.16348355       4404.09683426    0.25363383       83.28574745      135.89136490     0.25688321      
   10730.500 95.73151660      8.17397667       4415.27001862    0.25217523       83.07683380      135.37604457     0.25732856      
   10731.000 93.95694627      8.19826703       4427.37430168    0.25181058       82.96657382      135.12534819     0.25777392      
   10731.500 102.12339720     8.22545479       4427.37430168    0.25236769       83.10584958      135.12534819     0.25821927      
   10732.000 107.51902416     8.25350323       4427.37430168    0.25263928       83.10584958      135.04456825     0.25866463      
   10732.500 111.39288707     8.25654223       4427.37430168    0.25292278       83.10444888      134.93720488     0.25910998      
   10733.000 113.85711544     8.25048223       4427.37430168    0.25378777       83.29822865      134.85691571     0.25955534      
   10733.500 119.89595494     8.24423031       4427.37430168    0.25570611       83.51945685      135.38929137     0.26000069      
   10734.000 114.51236977     8.23799007       4427.37430168    0.25627565       83.66398129      135.41854238     0.26044605      
   10734.500 107.28786253     8.23293777       4423.18435754    0.25625908       83.66410571      135.95072823     0.26089140      
   10735.000 98.77312470      8.23311658       4406.42458101    0.25784459       83.74842597      135.96582743     0.26133676      
   10735.500 96.37194816      8.23318112       4405.95903166    0.25859331       83.94150418      135.96611146     0.26178211      
   10736.000 98.02926156      8.23386785       4417.13221601    0.25876045       83.94150418      135.75716429     0.26222747      
   10736.500 102.81608699     8.23747101       4427.37430168    0.25892758       83.94150418      135.63335800     0.26267282      
   10737.000 104.94325743     8.24108097       4427.37430168    0.25793872       83.87186630      135.94956182     0.26311818      
   10737.500 109.27821606     8.24468894       4427.37430168    0.25348189       83.03621170      135.55951221     0.26356353      
   10738.000 105.89861393     8.24829709       4427.37430168    0.24373259       81.84308264      135.12534819     0.26400889      
   10738.500 106.06815532     8.25191234       4427.37430168    0.23370474       80.39461467      133.68245125     0.26445424      
   10739.000 106.82567193     8.25552350       4427.45885065    0.22367688       79.06685237      132.27855153     0.26489960      
   10739.500 104.64959119     8.25910445       4427.26793523    0.21615599       77.96657382      130.86748906     0.26534495      
   10740.000 90.21742988      8.25989349       4421.44463175    0.21483287       77.74373259      129.43493832     0.26579031      
   10740.500 75.84371438      8.25597624       4407.04268426    0.21448468       77.66626890      128.23584030     0.26623566      
   10741.000 57.66095461      8.25218973       4404.54824389    0.21523677       77.79180815      127.56731662     0.26668102      
   10741.500 60.41686537      8.24843611       4415.89075109    0.21688022       78.03471785      127.16573816     0.26712637      
