~Version Information Block
 VERS.                2.00:     CWLS LOG ASCII STANDARD - VERSION 2.000000
 WRAP.                  NO:     One Line Per Depth Step
#
~Well Information Block
#MNEM.UNIT                     Data                         Information
#----------   ------------------------------------------   ----------------
 STRT.FT                                       50.0000:     START DEPTH
 STOP.FT                                    15192.0000:     STOP DEPTH
 STEP.FT                                        0.5000:     STEP
 NULL.                                       -999.0000:     NULL VALUE
 COMP.                                 MOBIL PRODUCING:     COMPANY
 WELL.                                     ST MCINTYRE:     WELL
 FLD .                                   ROJO CABALLOS:     FIELD
 LOC .                                         UNKNOWN:     LOCATION
 LONG.                                 -103.1618580000:     LONGITUDE
 LATI.                                   31.1192890000:     LATITUDE
 CNTY.                                           PECOS:     COUNTY
 STAT.                                           TEXAS:     STATE
 CTRY.                                           U.S.A:     COUNTRY
 SRVC.                                         UNKNOWN:     SERVICE COMPANY
 DATE.                                         UNKNOWN:     DATE
 API .                                  42371053110000:     API NUMBER
 UWI .                                  42371053110000:     UWI NUMBER
 SLAT.                                       31.119289:     Surface latitude
 SLON.                                     -103.161858:     surface longitude
 TVD .                                              NO:     TVD flag
 WSTA.                                             LOC:     Well status
#
~Curve Information Block
#MNEM.UNIT       API CODE      Curve Description
#----------    -------------   -------------------
 DEPT.FT                   :   Depth in Feet
 DT  .UNKNOWN          UNKNOWN:   DT-Load
 DTedit.ft/s          UNKNOWN:   DT-Load
 GR  .UNKNOWN          UNKNOWN:   GR-Load
#
~Parameter Information Block
#MNEM.UNIT            Value               Description
#----------    --------------------    -------------------
 RUN .                         ONE:    Run Number
 PDAT.                          GL:    Permanent Datum
 EPD .FT                          :    Elevation Of Perm. Datum
 LMF .               KELLY BUSHING:    Log Measured From
 EKB .FT                          :    Elevation Of Kelly Bushing
 DF .FT                           :    Elevation Of Derrick Floor
 GL .FT                           :    Elevation Of Ground Level
 TD  .FT                          :    Total Depth
 CSGD.FT                          :    Casing Bottom (Driller) 1
 CSGL.FT                          :    Casing Bottom (Logger) 1
 MUD .                            :    Drilling Fluid Type
 MUDV .CP                         :    Drilling Fluid Viscosity
 MUDD .LB/USG                     :    Drilling Fluid Density
 FL .ML/30MIN                     :    Drilling Fluid Loss
 PH.                              :    Drilling Fluid Ph
 MUDS .                           :    Mud Sample Source
 RM .OHMM                         :    Resistivity Of Mud Sample
 RMT .DEGF                        :    Mud Sample Temperature
 RMF .OHMM                        :    Mud Filtrate Resistivity
 RMFT.DEGF                        :    Mud Filtrate Sample Temperature
 RMC .OHMM                        :    Mud Cake Resistivity
 RMCT.DEGF                        :    Mud Cake Sample Temperature
 RMB .OHMM                        :    Mud Resistivity At Bht
 TMAX .DEGF                       :    Bottom Hole Temperature
#
~Other Information Block
<DescLogPlotStart>   NEURALOG PLOT DEFINITION
PLOTDEFVERSION: 3
LASFILE: E:\Nair Innovations\42_TEXAS\371_Pecos\Mobil_St McIntyre 1 Pecos_1.las
DEPTHSCALE: 239.999996
RESOLUTION: 200
DEPTHLABELFREQ: 100.000000
HEAVYGRIDFREQ: 50.000000
MEDIUMGRIDFREQ: 50.000000
LIGHTGRIDFREQ: 10.000000
#
#   TRACK 1
#
STARTTRACK: 
 LEFTX: 0.500000 inch
 RIGHTX: 3.000000 inch
 SCALETYPE: Linear
 NUMCHARTDIVISIONS: 10
CURVE: GR    0.000000   150.000000 (255,0,0)      Short_Dash        4     N    
CURVE: DTedit 5571.227500 23879.853500 (0,131,131)    Solid             2     N
ENDTRACK: 
#
#   TRACK 2
#
STARTTRACK: 
 LEFTX: 3.750000 inch
 RIGHTX: 6.250000 inch
 SCALETYPE: Linear
 NUMCHARTDIVISIONS: 10
ENDTRACK: 
#
#   TRACK 3
#
STARTTRACK: 
 LEFTX: 6.250000 inch
 RIGHTX: 8.750000 inch
 SCALETYPE: Linear
 NUMCHARTDIVISIONS: 10
CURVE: DT    190.000000 50.000000  (255,0,131)    Solid             2     N    
ENDTRACK: 
<DescLogPlotEnd>
<DepthTrack type='Reference' track='1' Label='0' color='0' hor='0' />
<Reference font='144,0,-900,0,500,0,16777216,Arial' />
~A DEPTH     DT               DTedit             GR              
# ...
   15112.500 69.47300000      14394.08110000   51.68620000     
   15113.000 65.25680000      15324.07420000   49.49590000     
   15113.500 66.57030000      15021.71480000   51.34300000     
   15114.000 68.33360000      14634.08890000   52.78440000     
   15114.500 67.43400000      14829.31540000   51.44280000     
   15115.000 66.53430000      15029.84180000   49.91710000     
   15115.500 72.26780000      13837.42190000   48.07320000     
   15116.000 77.34770000      12928.63180000   46.41340000     
   15116.500 75.76440000      13198.81150000   49.10910000     
   15117.000 75.02510000      13328.87210000   53.05900000     
   15117.500 72.70570000      13754.07910000   56.01670000     
   15118.000 64.74110000      15446.13960000   54.06360000     
   15118.500 63.47560000      15754.08500000   48.23550000     
   15119.000 66.53140000      15030.49610000   42.46980000     
   15119.500 67.38600000      14839.87700000   37.95830000     
   15120.000 64.27930000      15557.10840000   35.32500000     
   15120.500 61.75440000      16193.17870000   34.10670000     
   15121.000 59.99410000      16668.30660000   36.49190000     
   15121.500 59.16950000      16900.59960000   39.39970000     
   15122.000 56.20680000      17791.44140000   39.63680000     
   15122.500 54.97130000      18191.31050000   33.84620000     
   15123.000 59.60740000      16776.44140000   29.53440000     
   15123.500 62.33990000      16041.09080000   26.54550000     
   15124.000 62.91190000      15895.24410000   28.37380000     
   15124.500 64.30030000      15552.02640000   32.87270000     
   15125.000 62.48610000      16003.55960000   36.00520000     
   15125.500 58.71370000      17031.80080000   38.54170000     
   15126.000 56.68060000      17642.72070000   37.46530000     
   15126.500 55.87100000      17898.37300000   35.21890000     
   15127.000 52.59640000      19012.70700000   32.75420000     
   15127.500 47.96030000      20850.57810000   29.62180000     
   15128.000 46.07710000      21702.75590000   26.04630000     
   15128.500 49.09390000      20369.12890000   22.07770000     
   15129.000 54.31160000      18412.27340000   18.37120000     
   15129.500 63.67960000      15703.61620000   18.25880000     
   15130.000 71.14040000      14056.71000000   20.87650000     
   15130.500 76.37010000      13094.12990000   24.93550000     
   15131.000 83.54300000      11969.88380000   34.86950000     
   15131.500 89.82840000      11132.33690000   44.37920000     
   15132.000 99.94430000      10005.57320000   57.43320000     
   15132.500 103.07540000     9701.63570000    67.41700000     
   15133.000 104.68570000     9552.40330000    78.51160000     
   15133.500 106.55090000     9385.18550000    82.43650000     
   15134.000 105.67830000     9462.68070000    85.92470000     
   15134.500 104.47580000     9571.59470000    89.55630000     
   15135.000 102.14880000     9789.63960000    92.58260000     
   15135.500 90.30810000      11073.20410000   95.44680000     
   15136.000 86.43980000      11568.74510000   97.46230000     
   15136.500 87.20740000      11466.91700000   98.04880000     
   15137.000 83.75890000      11939.02930000   93.89930000     
   15137.500 71.59620000      13967.22170000   81.74390000     
   15138.000 65.77560000      15203.20700000   69.93800000     
   15138.500 64.70510000      15454.73240000   64.60900000     
   15139.000 61.43650000      16276.96880000   62.66220000     
   15139.500 52.15250000      19174.53710000   57.63280000     
   15140.000 49.70560000      20118.45700000   37.01610000     
   15140.500 49.88550000      20045.90430000   25.97140000     
   15141.000 55.28320000      18088.67770000   20.41780000     
   15141.500 60.90880000      16417.99020000   19.20730000     
   15142.000 69.55700000      14376.69820000   22.81400000     
   15142.500 75.69840000      13210.31840000   27.25680000     
   15143.000 82.25950000      12156.65040000   33.32200000     
   15143.500 86.59570000      11547.91700000   41.87070000     
   15144.000 87.11520000      11479.05370000   48.37270000     
   15144.500 89.44450000      11180.11720000   55.34900000     
   15145.000 88.91670000      11246.48140000   57.13670000     
   15145.500 90.09810000      11099.01370000   56.62190000     
   15146.000 91.72050000      10902.68850000   56.11650000     
   15146.500 90.76390000      11017.59570000   55.62670000     
   15147.000 92.28720000      10835.73830000   52.80930000     
   15147.500 92.68310000      10789.45410000   57.10860000     
   15148.000 96.16760000      10398.51270000   60.72780000     
   15148.500 96.77930000      10332.78810000   62.59670000     
   15149.000 95.29200000      10494.06050000   63.64340000     
   15149.500 93.73790000      10668.04390000   62.01950000     
   15150.000 93.41250000      10705.20610000   61.18490000     
   15150.500 96.84830000      10325.42680000   59.77940000     
   15151.000 97.43910000      10262.82030000   58.29110000     
   15151.500 98.16170000      10187.27250000   58.63120000     
   15152.000 95.10610000      10514.57230000   57.20340000     
   15152.500 89.16860000      11214.71000000   56.73110000     
   15153.000 87.80710000      11388.60060000   56.45350000     
   15153.500 87.05150000      11487.45310000   57.28340000     
   15154.000 90.37110000      11065.48440000   49.94520000     
   15154.500 89.31560000      11196.25290000   46.81900000     
   15155.000 91.14770000      10971.20410000   46.95010000     
   15155.500 93.81670000      10659.08300000   49.14650000     
   15156.000 96.01160000      10415.40820000   51.92950000     
   15156.500 96.75090000      10335.82130000   50.87490000     
   15157.000 95.86170000      10431.69430000   49.67380000     
   15157.500 95.81970000      10436.26660000   48.80800000     
   15158.000 97.46900000      10259.67190000   49.30870000     
   15158.500 99.96090000      10003.91110000   52.21340000     
   15159.000 102.90450000     9717.74800000    53.62050000     
   15159.500 103.45920000     9665.64650000    54.90590000     
   15160.000 102.07980000     9796.25680000    55.28660000     
   15160.500 102.90750000     9717.46480000    56.09160000     
   15161.000 102.31680000     9773.56540000    56.47220000     
   15161.500 99.43020000      10057.30660000   55.21170000     
   15162.000 99.19030000      10081.63090000   54.34440000     
   15162.500 100.05350000     9994.65330000    56.55330000     
   15163.000 102.27030000     9778.00980000    58.94790000     
   15163.500 102.65110000     9741.73630000    58.03220000     
   15164.000 103.75610000     9637.98730000    58.17410000     
   15164.500 105.90320000     9442.58590000    58.29430000     
   15165.000 106.90930000     9353.72270000    57.46750000     
   15165.500 106.39500000     9398.93850000    57.80130000     
   15166.000 104.47580000     9571.59470000    59.13350000     
   15166.500 103.01550000     9707.27640000    60.55930000     
   15167.000 102.99450000     9709.25680000    62.57480000     
   15167.500 103.80410000     9633.53120000    60.12260000     
   15168.000 103.01550000     9707.27640000    57.64530000     
   15168.500 102.53710000     9752.56740000    54.84980000     
   15169.000 101.62110000     9840.47560000    55.86380000     
   15169.500 102.55970000     9750.41890000    57.73890000     
   15170.000 103.30630000     9679.95210000    60.02890000     
   15170.500 102.67660000     9739.31740000    62.69340000     
   15171.000 102.95090000     9713.36820000    66.00050000     
   15171.500 105.27050000     9499.33790000    68.76490000     
   15172.000 104.06200000     9609.65620000    70.88650000     
   15172.500 103.32430000     9678.26560000    73.73800000     
   15173.000 106.37550000     9400.66020000    75.84880000     
   15173.500 105.22550000     9503.39940000    76.46500000     
   15174.000 105.57630000     9471.82230000    77.23560000     
   15174.500 104.73070000     9548.29880000    78.63010000     
