#--------------------------------------------------#
#-------------------ENVERUS, INC.------------------#
#------------------WWW.ENVERUS.COM-----------------#
#------------------COPYRIGHT 2020------------------#
#--------------------------------------------------#
#THIS FILE MAY BE USED ONLY IN ACCORDANCE WITH A CURRENT SUBSCRIPTION AGREEMENT BETWEEN
#THE USER AND ENVERUS, INC. NO PART OF THIS FILE MAY BE REPRODUCED, USED, COPIED,
#MODIFIED, PROPAGATED, OR DISTRIBUTED EXCEPT IN ACCORDANCE WITH THE SUBSCRIPTION
#AGREEMENT. UNAUTHORIZED USE OR DISTRIBUTION OF ALL OR ANY PART OF THIS FILE MAY VIOLATE
#COPYRIGHT, TRADEMARK, AND/OR OTHER LAWS AND IS SUBJECT TO CIVIL AS WELL AS CRIMINAL
#SANCTIONS.
#--------------------------------------------------#
#THIS FILE IS PROVIDED "AS-IS" AND ALL WARRANTIES ARE EXPRESSLY DISCLAIMED, WHETHER
#EXPRESS, ORAL, IMPLIED, STATUTORY OR OTHERWISE, INCLUDING ANY IMPLIED WARRANTY OF FITNESS
#FOR A PARTICULAR PURPOSE, MERCHANTABILITY, TITLE OR NON-INFRINGEMENT, AND ANY WARRANTIES
#ARISING BY VIRTUE OF CUSTOM OF TRADE OR COURSE OF DEALING.  FURTHER, ENVERUS, INC.
#AND ITS LICENSORS DO NOT REPRESENT OR WARRANT THAT THIS FILE WILL MEET USER'S
#REQUIREMENTS OR ARE SUITABLE FOR USER'S NEEDS OR THAT THE DATA OR RESULTS PROVIDED IN
#CONJUNCTION THEREWITH ARE CORRECT, ACCURATE, TIMELY OR RELIABLE. THESE DISCLAIMERS SHALL
#APPLY REGARDLESS OF ANY FAILURE OF ESSENTIAL PURPOSE OF ANY LIMITED REMEDY.  SOME
#JURISDICTIONS DO NOT ALLOW THE EXCLUSION OF CERTAIN WARRANTIES SO SOME OF THE ABOVE
#EXCLUSIONS MAY NOT APPLY. IN NO EVENT SHALL ENVERUS, INC. OR ANY OF ITS AFFILIATES
#BE LIABLE UNDER ANY LEGAL THEORY, WHETHER IN TORT (INCLUDING WITHOUT LIMITATION
#NEGLIGENCE), CONTRACT, STRICT LIABILITY, STATUTORY OR OTHERWISE, FOR ANY SPECIAL,
#INCIDENTAL, CONSEQUENTIAL, EXEMPLARY, PUNITIVE OR INDIRECT DAMAGE OF ANY KIND, INCLUDING
#WITHOUT LIMITATION LOSS OF REVENUE, PROFITS, GOODWILL, USE, AND/OR DATA OR THE COST OF
#PROCUREMENT OF SUBSTITUTE GOODS OR SERVICES, EVEN IF APPRISED OF THE POSSIBILITY OF SUCH
#DAMAGES IN ADVANCE.
#--------------------------------------------------#

~VERSION INFORMATION
VERS. 2.0 : CWLS LOG ASCII STANDARD - VERSION 2.0
WRAP.  NO : ONE LINE PER DEPTH STEP
~WELL INFORMATION
#MNEMONIC     .UNIT              VALUE :DESCRIPTION
STRT       .FT                50 :START DEPTH
STOP       .FT                6118 :STOP DEPTH
STEP       .FT                   0.500 :STEP
NULL       .                  -999.990 :NULL
UWI        .              42389003090000 :UNIQUE WELL ID
API        .              42389003090000 :API NUMBER
COMP       .         :COMPANY
WELL       .         1, :WELL
DATE       .                            :LOG DATE
~CURVE INFORMATION
#MNEMONIC     .UNIT      API CODE :CURVE DESCRIPTION
DEPTH       .FT                      :MEASURED DEPTH
NEUT.API        UNKNOWN   :NEUT
GR.API        UNKNOWN   :GR
DT.US/FT        UNKNOWN   :DT
~A    DEPTH    NEUT    GR    DT
# ...
 5433     1181.359   56.626   72.329
 5433.5     1161.948   55.141   72.002
 5434     1142.536   53.504   71.675
 5434.5     1123.125   51.868   72.157
 5435     1118.791   50.231   73.432
 5435.5     1148.108   48.594   72.742
 5436     1177.424   46.958   72.052
 5436.5     1206.741   48.28   71.362
 5437     1236.058   49.729   70.672
 5437.5     1258.663   51.179   69.983
 5438     1274.797   52.629   69.293
 5438.5     1290.931   52.595   68.603
 5439     1307.065   51.509   67.913
 5439.5     1323.199   50.422   67.24
 5440     1329.942   50.789   66.57
 5440.5     1320.234   58.747   65.999
 5441     1310.526   57.044   66.314
 5441.5     1300.819   55.341   66.629
 5442     1291.111   53.637   66.944
 5442.5     1284.798   52.838   67.259
 5443     1286.454   55.404   67.14
 5443.5     1288.109   57.969   66.397
 5444     1254.256   60.535   65.655
 5444.5     1206.694   62.528   66.449
 5445     1162.871   63.306   68.162
 5445.5     1127.922   64.489   69.874
 5446     1092.973   69.585   71.587
 5446.5     1058.024   74.681   73.264
 5447     1052.239   79.777   74.812
 5447.5     1081.211   92.549   74.869
 5448     1126.472   107.487   74.926
 5448.5     1182.266   130.2   73.51
 5449     1232.126   135.436   71.661
 5449.5     1269.975   137.134   69.812
 5450     1278.631   112.342   67.987
 5450.5     1284.607   76.071   67.558
 5451     1290.582   70.133   67.129
 5451.5     1270.881   64.196   66.7
 5452     1231.392   58.461   66.349
 5452.5     1191.903   57.856   67.223
 5453     1171.951   57.252   68.096
 5453.5     1159.452   56.647   68.814
 5454     1155.668   57.141   68.517
 5454.5     1166.195   58.485   68.221
 5455     1176.721   59.83   68.266
 5455.5     1187.247   60.565   68.561
 5456     1197.773   59.697   68.546
 5456.5     1205.98   58.83   67.531
 5457     1211.692   57.963   66.856
 5457.5     1217.403   57.095   67.492
 5458     1223.114   56.228   68.127
 5458.5     1228.826   55.361   68.763
 5459     1223.9   56.678   69.399
 5459.5     1217.346   59.114   70.034
 5460     1210.792   61.549   70.245
 5460.5     1204.237   60.731   70.056
 5461     1197.683   59.213   69.868
 5461.5     1183.021   57.696   69.68
 5462     1158.326   56.179   69.789
 5462.5     1133.631   54.661   70.254
 5463     1124.937   54.514   70.719
 5463.5     1118.013   58.043   71.184
 5464     1114.409   61.571   71.649
 5464.5     1125.623   65.1   72.115
 5465     1136.837   68.013   72.58
 5465.5     1148.051   67.06   72.477
 5466     1159.265   66.106   72.119
 5466.5     1167.809   65.153   71.761
 5467     1170.29   64.2   71.402
 5467.5     1168.732   63.246   71.403
 5468     1147.182   62.293   72.111
 5468.5     1130.846   62.251   72.083
 5469     1139.218   69.195   71.736
 5469.5     1147.59   76.138   71.389
 5470     1155.962   83.126   71.042
 5470.5     1164.334   87.506   70.695
 5471     1172.706   86.198   70.348
 5471.5     1181.244   84.891   70.001
 5472     1190.042   83.583   69.654
 5472.5     1198.839   82.276   69.308
 5473     1207.637   80.968   70.117
 5473.5     1216.435   79.661   70.941
 5474     1225.233   78.354   70.591
 5474.5     1234.03   77.046   70.118
 5475     1242.828   75.739   69.645
 5475.5     1189.002   74.069   72.424
 5476     1171.304   67.974   71.981
 5476.5     1172.215   61.88   71.539
 5477     1173.126   55.785   72.876
 5477.5     1174.037   51.814   73.593
 5478     1174.948   51.093   72.905
 5478.5     1228.187   50.372   72.216
 5479     1262.18   49.652   71.528
 5479.5     1241.631   48.931   70.84
 5480     1221.081   48.831   70.151
 5480.5     1200.531   49.846   69.463
 5481     1179.982   50.861   68.774
 5481.5     1159.432   51.875   69.277
 5482     1138.883   52.89   70.239
 5482.5     1147.628   53.904   70.527
 5483     1160.389   54.919   70.37
 5483.5     1173.15   58.237   70.212
 5484     1176.049   62.434   70.247
 5484.5     1149.999   66.631   70.809
 5485     1123.948   70.828   71.371
 5485.5     1113.19   75.025   71.933
 5486     1109.665   75.615   72.485
 5486.5     1106.571   74.242   73.005
 5487     1125.962   73.578   73.524
 5487.5     1145.353   74.757   74.043
 5488     1147.648   75.936   74.563
 5488.5     1206.195   74.612   74.194
 5489     1184.389   68.509   72.645
 5489.5     1162.583   61.3   71.095
 5490     1140.776   54.047   69.546
 5490.5     1118.97   47.275   69.7
 5491     1097.164   46.025   70.034
 5491.5     1075.358   44.775   70.878
 5492     1053.551   44.702   74.451
 5492.5     1078.522   47.082   77.436
 5493     1113.114   49.463   78.707
 5493.5     1147.705   51.843   77.795
 5494     1182.296   93.06   76.732
 5494.5     1168.974   96.506   75.67
 5495     1149.299   99.952   74.558
 5495.5     1129.625   99.599   73.282
 5496     1109.95   97.783   74.034
 5496.5     1130.766   95.967   74.082
 5497     1154.096   94.151   73.627
 5497.5     1177.425   92.335   73.173
 5498     1145.228   92.879   72.718
 5498.5     1135.554   94.742   72.263
 5499     1159.954   96.605   71.809
 5499.5     1152.086   98.469   71.943
 5500     1144.218   100.332   72.563
 5500.5     1136.349   107.253   73.183
 5501     1139.78   115.304   73.803
 5501.5     1143.262   119.8   73.384
 5502     1146.744   117.549   72.841
 5502.5     1150.227   115.298   72.299
 5503     1192.791   113.048   72.34
 5503.5     1227.5   109.85   72.634
 5504     1236.299   105.036   72.928
 5504.5     1245.098   100.222   73.222
 5505     1253.897   95.408   73.478
 5505.5     1259.311   91.926   71.201
 5506     1263.552   92.659   70.188
 5506.5     1267.793   93.393   70.33
 5507     1272.034   94.126   69.973
 5507.5     1246.306   94.859   69.291
 5508     1205.149   95.593   68.608
 5508.5     1211.15   96.326   68.53
 5509     1217.151   105.096   69.153
 5509.5     1223.152   113.531   69.732
 5510     1229.154   116.142   68.316
 5510.5     1235.155   120.085   66.899
 5511     1220.576   122.684   67.118
 5511.5     1200.02   121.052   67.854
 5512     1179.464   119.42   67.943
 5512.5     1158.908   118.424   67.747
 5513     1138.352   120.834   67.551
 5513.5     1128.88   123.244   67.355
 5514     1142.969   125.613   67.159
 5514.5     1157.059   128.807   67.348
 5515     1171.149   132.001   69.172
 5515.5     1185.239   135.195   69.48
 5516     1199.329   138.389   69.789
 5516.5     1155.16   141.583   -999.990
 5517     1088.853   144.777   -999.990
 5517.5     1032.826   142.584   -999.990
 5518     1020.486   137.313   -999.990
 5518.5     1081.625   132.041   -999.990
 5519     1142.763   145.117   -999.990
 5519.5     1203.902   161.404   -999.990
 5520     1268.907   177.69   -999.990
 5520.5     1290.898   193.976   -999.990
 5521     1205.251   200.713   -999.990
 5521.5     1119.605   201.316   -999.990
 5522     1033.958   200.425   -999.990
 5522.5     963.118   167.645   -999.990
 5523     996.268   152.085   -999.990
 5523.5     1032.564   152.43   -999.990
 5524     1068.859   152.775   -999.990
 5524.5     1105.155   188.149   -999.990
 5525     1141.45   225.442   -999.990
 5525.5     1007.298   239.725   -999.990
 5526     871.761   240.241   -999.990
 5526.5     801.602   240.757   -999.990
 5527     792.075   241.273   -999.990
 5527.5     852.37   241.789   -999.990
 5528     912.664   242.304   -999.990
 5528.5     1115.721   242.82   -999.990
 5529     1134.361   243.336   -999.990
 5529.5     1142.945   243.852   -999.990
 5530     1151.529   244.368   -999.990
 5530.5     1160.113   244.884   -999.990
 5531     1177.748   245.4   -999.990
 5531.5     1208.009   245.916   -999.990
 5532     1238.269   217.73   -999.990
 5532.5     1265.091   214.966   -999.990
 5533     1266.95   204.116   -999.990
 5533.5     1268.809   193.267   -999.990
 5534     1270.667   182.417   -999.990
 5534.5     1201.943   171.567   -999.990
 5535     1125.4   160.718   -999.990
 5535.5     1067.579   149.868   -999.990
 5536     1009.758   148.155   -999.990
 5536.5     996.908   152.755   -999.990
 5537     990.3   157.356   -999.990
