~Version Information Block
 VERS.                2.00:     CWLS LOG ASCII STANDARD - VERSION 2.000000
 WRAP.                  NO:     One Line Per Depth Step
#
~Well Information Block
#MNEM.UNIT                     Data                         Information
#----------   ------------------------------------------   ----------------
 STRT.FT                                     1000.0000:     START DEPTH
 STOP.FT                                    15733.0000:     STOP DEPTH
 STEP.FT                                        0.5000:     STEP
 NULL.                                       -999.0000:     NULL VALUE
 COMP.                                 MOBIL PRODUCING:     COMPANY
 WELL.                                    IB-WEATHERBY:     WELL
 FLD .                                   ROJO CABALLOS:     FIELD
 LOC .                                         UNKNOWN:     LOCATION
 LONG.                                 -103.1458890000:     LONGITUDE
 LATI.                                   31.1330510000:     LATITUDE
 CNTY.                                           PECOS:     COUNTY
 STAT.                                           TEXAS:     STATE
 CTRY.                                           U.S.A:     COUNTRY
 SRVC.                                         UNKNOWN:     SERVICE COMPANY
 DATE.                                         UNKNOWN:     DATE
 API .                                  42371057360000:     API NUMBER
 UWI .                                  42371057360000:     UWI NUMBER
 SLAT.                                       31.133051:     Surface latitude
 SLON.                                     -103.145889:     surface longitude
 TVD .                                              NO:     TVD flag
 WSTA.                                             LOC:     Well status
#
~Curve Information Block
#MNEM.UNIT       API CODE      Curve Description
#----------    -------------   -------------------
 DEPT.FT                   :   Depth in Feet
 DT  .UNKNOWN          UNKNOWN:   DT-Load
 DTedit.ft/s          UNKNOWN:   DT-Load
 GR  .UNKNOWN          UNKNOWN:   GR-Load
 GR_org.UNKNOWN          UNKNOWN:   GR_org-Load
#
~Parameter Information Block
#MNEM.UNIT            Value               Description
#----------    --------------------    -------------------
 RUN .                         ONE:    Run Number
 PDAT.                          GL:    Permanent Datum
 EPD .FT                          :    Elevation Of Perm. Datum
 LMF .               KELLY BUSHING:    Log Measured From
 EKB .FT                          :    Elevation Of Kelly Bushing
 DF .FT                           :    Elevation Of Derrick Floor
 GL .FT                           :    Elevation Of Ground Level
 TD  .FT                          :    Total Depth
 CSGD.FT                          :    Casing Bottom (Driller) 1
 CSGL.FT                          :    Casing Bottom (Logger) 1
 MUD .                            :    Drilling Fluid Type
 MUDV .CP                         :    Drilling Fluid Viscosity
 MUDD .LB/USG                     :    Drilling Fluid Density
 FL .ML/30MIN                     :    Drilling Fluid Loss
 PH.                              :    Drilling Fluid Ph
 MUDS .                           :    Mud Sample Source
 RM .OHMM                         :    Resistivity Of Mud Sample
 RMT .DEGF                        :    Mud Sample Temperature
 RMF .OHMM                        :    Mud Filtrate Resistivity
 RMFT.DEGF                        :    Mud Filtrate Sample Temperature
 RMC .OHMM                        :    Mud Cake Resistivity
 RMCT.DEGF                        :    Mud Cake Sample Temperature
 RMB .OHMM                        :    Mud Resistivity At Bht
 TMAX .DEGF                       :    Bottom Hole Temperature
#
~Other Information Block
<DescLogPlotStart>   NEURALOG PLOT DEFINITION
PLOTDEFVERSION: 3
LASFILE: E:\Nair Innovations\42_TEXAS\371_Pecos\Mobil_IB-Weatherby 1 Pecos_1.la
DEPTHSCALE: 239.999996
RESOLUTION: 200
DEPTHLABELFREQ: 100.000000
HEAVYGRIDFREQ: 50.000000
MEDIUMGRIDFREQ: 50.000000
LIGHTGRIDFREQ: 10.000000
#
#   TRACK 1
#
STARTTRACK: 
 LEFTX: 0.500000 inch
 RIGHTX: 3.000000 inch
 SCALETYPE: Linear
 NUMCHARTDIVISIONS: 10
CURVE: GR    0.000000   150.000000 (255,0,0)      Short_Dash        4     N    
CURVE: DTedit 6637.927700 24453.046900 (0,131,131)    Solid             2     N
CURVE: GR_org -999.990000 109.000000 (255,0,255)    Solid             2     N  
ENDTRACK: 
#
#   TRACK 2
#
STARTTRACK: 
 LEFTX: 3.750000 inch
 RIGHTX: 6.250000 inch
 SCALETYPE: Linear
 NUMCHARTDIVISIONS: 10
ENDTRACK: 
#
#   TRACK 3
#
STARTTRACK: 
 LEFTX: 6.250000 inch
 RIGHTX: 8.750000 inch
 SCALETYPE: Linear
 NUMCHARTDIVISIONS: 10
CURVE: DT    190.000000 50.000000  (255,0,131)    Solid             2     N    
ENDTRACK: 
<DescLogPlotEnd>
<DepthTrack type='Reference' track='1' Label='0' color='0' hor='0' />
<Reference font='144,0,-900,0,500,0,16777216,Arial' />
~A DEPTH     DT               DTedit             GR               GR_org            
# ...
   15701.500 50.60140000      19762.29880000   0.98020000       0.98020000      
   15702.000 53.36930000      18737.36330000   0.90980000       0.90980000      
   15702.500 53.36930000      18737.36330000   0.88910000       0.88910000      
   15703.000 56.36630000      17741.09770000   0.89910000       0.89910000      
   15703.500 56.36630000      17741.09770000   0.92910000       0.92910000      
   15704.000 57.45110000      17406.10740000   0.93740000       0.93740000      
   15704.500 57.45110000      17406.10740000   0.93790000       0.93790000      
   15705.000 50.50020000      19801.90230000   0.93270000       0.93270000      
   15705.500 50.50020000      19801.90230000   0.86390000       0.86390000      
   15706.000 54.70860000      18278.66210000   0.76010000       0.76010000      
   15706.500 54.70860000      18278.66210000   0.84600000       0.84600000      
   15707.000 51.74880000      19324.12110000   0.78100000       0.78100000      
   15707.500 51.74880000      19324.12110000   0.77200000       0.77200000      
   15708.000 50.79940000      19685.27150000   0.92250000       0.92250000      
   15708.500 50.79940000      19685.27150000   0.95110000       0.95110000      
   15709.000 53.32170000      18754.08980000   0.93510000       0.93510000      
   15709.500 53.32170000      18754.08980000   0.88850000       0.88850000      
   15710.000 52.73540000      18962.59380000   0.86850000       0.86850000      
   15710.500 52.73540000      18962.59380000   0.92500000       0.92500000      
   15711.000 50.88120000      19653.62500000   0.91930000       0.91930000      
   15711.500 50.88120000      19653.62500000   0.85080000       0.85080000      
   15712.000 58.00020000      17241.32030000   0.86070000       0.86070000      
   15712.500 58.00020000      17241.32030000   0.88930000       0.88930000      
   15713.000 60.28890000      16586.80080000   1.00100000       1.00100000      
   15713.500 60.28890000      16586.80080000   1.08710000       1.08710000      
   15714.000 50.73240000      19711.26950000   1.06890000       1.06890000      
   15714.500 50.73240000      19711.26950000   0.98400000       0.98400000      
   15715.000 49.46160000      20217.70310000   0.80280000       0.80280000      
   15715.500 49.46160000      20217.70310000   0.75160000       0.75160000      
   15716.000 54.11330000      18479.74610000   0.75920000       0.75920000      
   15716.500 54.11330000      18479.74610000   0.82660000       0.82660000      
   15717.000 51.68480000      19348.04880000   0.86600000       0.86600000      
   15717.500 51.68480000      19348.04880000   0.77230000       0.77230000      
   15718.000 50.27400000      19890.99800000   0.75390000       0.75390000      
   15718.500 50.27400000      19890.99800000   0.82010000       0.82010000      
   15719.000 55.55980000      17998.62500000   0.92370000       0.92370000      
   15719.500 55.55980000      17998.62500000   1.08850000       1.08850000      
   15720.000 58.54490000      17080.90820000   1.11290000       1.11290000      
   15720.500 58.54490000      17080.90820000   1.02700000       1.02700000      
   15721.000 51.76210000      19319.15430000   0.94440000       0.94440000      
   15721.500 51.76210000      19319.15430000   1.11360000       1.11360000      
   15722.000 50.77630000      19694.22850000   1.19840000       1.19840000      
   15722.500 50.77630000      19694.22850000   1.19290000       1.19290000      
   15723.000 52.29190000      19123.41990000   1.13790000       1.13790000      
   15723.500 52.29190000      19123.41990000   1.08800000       1.08800000      
   15724.000 55.53890000      18005.39840000   1.04890000       1.04890000      
   15724.500 55.53890000      18005.39840000   0.98510000       0.98510000      
   15725.000 54.29490000      18417.93550000   0.92010000       0.92010000      
   15725.500 54.29490000      18417.93550000   0.82680000       0.82680000      
   15726.000 56.38710000      17734.55270000   0.81780000       0.81780000      
   15726.500 56.38710000      17734.55270000   0.88190000       0.88190000      
   15727.000 58.14310000      17198.94530000   0.77190000       0.77190000      
   15727.500 58.14310000      17198.94530000   0.78180000       0.78180000      
   15728.000 47.58660000      21014.31840000   0.80110000       0.80110000      
   15728.500 47.58660000      21014.31840000   0.81090000       0.81090000      
   15729.000 54.77400000      18256.83790000   0.83010000       0.83010000      
   15729.500 54.77400000      18256.83790000   0.83060000       0.83060000      
   15730.000 57.76810000      17310.59180000   0.84040000       0.84040000      
   15730.500 57.76810000      17310.59180000   0.90490000       0.90490000      
   15731.000 54.08950000      18487.87700000   1.01100000       1.01100000      
   15731.500 54.08950000      18487.87700000   1.02000000       1.02000000      
   15732.000 54.35140000      18398.79100000   1.02050000       1.02050000      
   15732.500 54.35140000      18398.79100000   1.03030000       1.03030000      
   15733.000 57.39310000      17423.69730000   1.05570000       1.05570000      
