#--------------------------------------------------#
#-------------------ENVERUS, INC.------------------#
#------------------WWW.ENVERUS.COM-----------------#
#------------------COPYRIGHT 2020------------------#
#--------------------------------------------------#
#THIS FILE MAY BE USED ONLY IN ACCORDANCE WITH A CURRENT SUBSCRIPTION AGREEMENT BETWEEN
#THE USER AND ENVERUS, INC. NO PART OF THIS FILE MAY BE REPRODUCED, USED, COPIED,
#MODIFIED, PROPAGATED, OR DISTRIBUTED EXCEPT IN ACCORDANCE WITH THE SUBSCRIPTION
#AGREEMENT. UNAUTHORIZED USE OR DISTRIBUTION OF ALL OR ANY PART OF THIS FILE MAY VIOLATE
#COPYRIGHT, TRADEMARK, AND/OR OTHER LAWS AND IS SUBJECT TO CIVIL AS WELL AS CRIMINAL
#SANCTIONS.
#--------------------------------------------------#
#THIS FILE IS PROVIDED "AS-IS" AND ALL WARRANTIES ARE EXPRESSLY DISCLAIMED, WHETHER
#EXPRESS, ORAL, IMPLIED, STATUTORY OR OTHERWISE, INCLUDING ANY IMPLIED WARRANTY OF FITNESS
#FOR A PARTICULAR PURPOSE, MERCHANTABILITY, TITLE OR NON-INFRINGEMENT, AND ANY WARRANTIES
#ARISING BY VIRTUE OF CUSTOM OF TRADE OR COURSE OF DEALING.  FURTHER, ENVERUS, INC.
#AND ITS LICENSORS DO NOT REPRESENT OR WARRANT THAT THIS FILE WILL MEET USER'S
#REQUIREMENTS OR ARE SUITABLE FOR USER'S NEEDS OR THAT THE DATA OR RESULTS PROVIDED IN
#CONJUNCTION THEREWITH ARE CORRECT, ACCURATE, TIMELY OR RELIABLE. THESE DISCLAIMERS SHALL
#APPLY REGARDLESS OF ANY FAILURE OF ESSENTIAL PURPOSE OF ANY LIMITED REMEDY.  SOME
#JURISDICTIONS DO NOT ALLOW THE EXCLUSION OF CERTAIN WARRANTIES SO SOME OF THE ABOVE
#EXCLUSIONS MAY NOT APPLY. IN NO EVENT SHALL ENVERUS, INC. OR ANY OF ITS AFFILIATES
#BE LIABLE UNDER ANY LEGAL THEORY, WHETHER IN TORT (INCLUDING WITHOUT LIMITATION
#NEGLIGENCE), CONTRACT, STRICT LIABILITY, STATUTORY OR OTHERWISE, FOR ANY SPECIAL,
#INCIDENTAL, CONSEQUENTIAL, EXEMPLARY, PUNITIVE OR INDIRECT DAMAGE OF ANY KIND, INCLUDING
#WITHOUT LIMITATION LOSS OF REVENUE, PROFITS, GOODWILL, USE, AND/OR DATA OR THE COST OF
#PROCUREMENT OF SUBSTITUTE GOODS OR SERVICES, EVEN IF APPRISED OF THE POSSIBILITY OF SUCH
#DAMAGES IN ADVANCE.
#--------------------------------------------------#

~VERSION INFORMATION
VERS. 2.0 : CWLS LOG ASCII STANDARD - VERSION 2.0
WRAP. NO : ONE LINE PER DEPTH STEP
~WELL INFORMATION
#MNEMONIC     .UNIT              VALUE :DESCRIPTION
STRT       .FT                101.00000 :START DEPTH
STOP       .FT                5802.00000 :STOP DEPTH
STEP       .FT                0.50000 :STEP
NULL       .                -999.25000 :NULL VALUE
UWI       .                42389010150000 :UNIQUE WELL ID
API       .                42389010150000 :API NUMBER
COMP       .                 :COMPANY
WELL       .                 :WELL
FLD       .                 :FIELD
LOC       .                 :LOCATION
CNTY       .                 :COUNTY
STAT       .                 :STATE
CTRY       .                 :COUNTRY
SRVC       .                 :SERVICE COMPANY
DATE       .                 :DATE
~CURVE INFORMATION
#MNEMONIC     .UNIT      API CODE :CURVE DESCRIPTION
DEPTH       .FT                      :MEASURED DEPTH
DT       .US/FT        UNKNOWN   :DT
GR       .GAPI        UNKNOWN   :GR
~A    DEPTH    DT    GR
# ...
4231.50000    49.60355    4.02278
4232.00000    48.96771    3.44745
4232.50000    49.25673    2.87212
4233.00000    49.79835    2.29679
4233.50000    50.74228    1.81226
4234.00000    52.09889    2.15125
4234.50000    57.50870    2.49024
4235.00000    73.59871    2.82923
4235.50000    71.68624    3.16821
4236.00000    69.77376    3.50720
4236.50000    67.86129    3.62176
4237.00000    65.94882    3.29145
4237.50000    69.73878    2.96114
4238.00000    67.89256    2.63083
4238.50000    65.74290    2.30052
4239.00000    64.74448    1.97020
4239.50000    66.56045    1.71237
4240.00000    62.59867    2.13092
4240.50000    55.16772    2.54947
4241.00000    47.73678    2.96802
4241.50000    40.30584    3.38658
4242.00000    49.13480    3.80513
4242.50000    49.61087    3.87704
4243.00000    50.08694    3.93422
4243.50000    50.55729    3.99139
4244.00000    50.29494    4.06135
4244.50000    50.03260    4.14044
4245.00000    49.77025    4.21954
4245.50000    49.50791    4.29864
4246.00000    49.24556    4.37773
4246.50000    48.98321    4.78702
4247.00000    48.72419    5.35283
4247.50000    48.70608    5.91864
4248.00000    48.68797    6.48445
4248.50000    48.66986    7.05026
4249.00000    48.65176    7.61608
4249.50000    48.63365    8.18189
4250.00000    48.65210    7.43143
4250.50000    49.14679    6.28197
4251.00000    49.64147    5.13251
4251.50000    50.82239    3.98305
4252.00000    53.31690    2.83359
4252.50000    55.81141    1.68413
4253.00000    69.59275    1.37571
4253.50000    73.67854    1.55814
4254.00000    69.93341    1.74058
4254.50000    66.18828    1.92302
4255.00000    62.44315    2.10545
4255.50000    63.54289    2.28789
4256.00000    65.46658    2.47033
4256.50000    67.39026    2.65276
4257.00000    69.31394    2.79767
4257.50000    71.23762    2.53439
4258.00000    67.80307    2.27111
4258.50000    63.03301    2.00783
4259.00000    64.49466    1.82627
4259.50000    66.32908    1.79359
4260.00000    66.99659    1.76091
4260.50000    63.08271    1.72824
4261.00000    65.75688    1.69556
4261.50000    68.43105    1.66288
4262.00000    68.99526    1.63334
4262.50000    67.85955    1.61666
4263.00000    66.72383    1.59998
4263.50000    65.58812    1.58329
4264.00000    65.35627    1.56661
4264.50000    66.16698    1.54993
4265.00000    66.97769    1.53766
4265.50000    67.78840    1.62552
4266.00000    68.59911    1.71339
4266.50000    66.27067    1.80125
4267.00000    62.79914    1.88911
4267.50000    59.32760    1.97698
4268.00000    55.85607    1.75880
4268.50000    61.36137    1.26757
4269.00000    72.97036    1.00195
4269.50000    75.14541    1.18978
4270.00000    73.65602    1.37762
4270.50000    72.16664    1.56545
4271.00000    70.67725    1.75329
4271.50000    69.18787    1.93048
4272.00000    67.69848    2.04481
4272.50000    67.00278    2.15914
4273.00000    68.51260    2.27347
4273.50000    70.02241    2.38781
4274.00000    69.95032    2.50214
4274.50000    69.03550    2.61647
4275.00000    68.12068    2.73080
4275.50000    67.20586    2.62448
4276.00000    66.29104    2.29297
4276.50000    67.27894    1.96146
4277.00000    69.10890    1.62995
4277.50000    70.93887    1.29844
4278.00000    71.09106    0.96693
4278.50000    71.15025    0.98647
4279.00000    71.20944    1.26724
4279.50000    71.26864    1.54801
4280.00000    71.32783    1.82878
4280.50000    71.38702    2.10955
4281.00000    71.44621    2.05239
4281.50000    71.50540    1.85713
4282.00000    71.56460    1.66187
4282.50000    71.62379    1.46662
4283.00000    71.68298    1.56847
4283.50000    71.74217    1.80872
4284.00000    71.80136    1.93952
4284.50000    71.86056    1.73760
4285.00000    71.91975    1.53568
4285.50000    71.97894    1.33377
4286.00000    72.03813    1.50762
4286.50000    72.09732    1.75405
4287.00000    72.15652    2.00047
4287.50000    69.25904    2.24690
4288.00000    65.09617    2.65594
4288.50000    60.93329    3.08691
4289.00000    56.77041    3.51789
4289.50000    52.60754    3.69527
4290.00000    48.44466    3.13405
4290.50000    52.75950    2.57284
4291.00000    59.05933    2.08731
4291.50000    65.35917    2.20483
4292.00000    71.65901    2.32235
4292.50000    69.19096    2.43988
4293.00000    66.67909    2.55740
4293.50000    65.49464    2.67492
4294.00000    66.36254    2.79244
4294.50000    67.23044    2.90996
4295.00000    68.09834    3.02748
4295.50000    67.71029    3.36139
4296.00000    66.17806    3.73320
4296.50000    64.59767    4.10500
4297.00000    63.01728    4.47681
4297.50000    61.43689    4.47752
4298.00000    44.01902    4.44309
4298.50000    45.52939    4.40866
4299.00000    47.03975    4.37422
4299.50000    48.55011    4.33979
4300.00000    50.06048    4.29476
4300.50000    50.46854    4.10058
4301.00000    50.81332    3.90640
4301.50000    51.03271    3.71222
4302.00000    50.93187    3.51804
4302.50000    50.83103    3.32386
4303.00000    50.73019    3.12968
4303.50000    50.62935    2.93550
4304.00000    50.52851    2.74132
4304.50000    50.44501    2.54714
4305.00000    50.38706    2.35296
4305.50000    50.32912    2.15878
4306.00000    50.27117    2.68719
4306.50000    50.21322    3.28042
4307.00000    50.15527    3.87364
4307.50000    50.09733    4.46687
4308.00000    50.03938    5.06010
4308.50000    49.98143    4.45326
4309.00000    50.01800    3.56815
4309.50000    50.75165    2.68305
4310.00000    59.62879    1.79795
4310.50000    71.66786    0.91285
4311.00000    72.54608    0.84555
4311.50000    71.30036    1.09724
4312.00000    70.05464    1.34892
4312.50000    68.80893    1.60060
4313.00000    67.56321    1.62566
4313.50000    66.31749    1.38335
4314.00000    65.07177    1.14103
4314.50000    63.97732    0.89871
4315.00000    64.67747    0.65639
4315.50000    65.37761    0.49602
4316.00000    66.07776    0.69558
4316.50000    66.77790    0.89514
4317.00000    66.71210    1.09470
4317.50000    65.69318    1.29426
4318.00000    64.67426    1.49382
4318.50000    65.68401    1.69338
4319.00000    67.21709    1.89295
4319.50000    68.75018    2.09251
4320.00000    69.89826    2.29207
4320.50000    69.08274    2.27752
4321.00000    68.26723    1.97807
4321.50000    67.45171    1.67862
4322.00000    66.63620    1.37918
4322.50000    66.07571    1.07973
4323.00000    67.21917    0.78028
4323.50000    68.36263    0.75293
4324.00000    69.50609    0.97274
4324.50000    70.20075    1.19254
4325.00000    69.17118    1.41235
4325.50000    68.14161    1.63215
4326.00000    67.11204    1.67886
4326.50000    66.08247    1.63226
4327.00000    65.05290    1.60819
4327.50000    66.26717    1.60708
4328.00000    67.71058    1.41984
4328.50000    69.15399    1.74119
4329.00000    70.59739    2.06254
4329.50000    72.04080    2.38388
4330.00000    72.92906    2.66935
4330.50000    72.45937    2.56239
4331.00000    71.98968    2.45544
4331.50000    71.44486    2.34848
4332.00000    69.91353    2.24153
4332.50000    65.18954    2.33056
4333.00000    51.89423    2.65188
4333.50000    41.11177    2.97319
4334.00000    47.10968    3.29451
4334.50000    49.46254    3.61582
4335.00000    49.64249    3.93713
4335.50000    49.82243    3.15570
4336.00000    50.00238    2.36753
4336.50000    51.15449    1.57937
4337.00000    52.68817    1.41519
4337.50000    52.99503    1.84568
4338.00000    52.61116    2.27617
4338.50000    52.22729    2.70667
4339.00000    51.84343    3.13716
4339.50000    51.75205    3.53367
4340.00000    51.66533    3.48231
4340.50000    51.57861    3.43095
4341.00000    51.49189    3.37958
4341.50000    51.40518    3.32822
4342.00000    51.31846    3.27686
4342.50000    51.23174    3.22549
4343.00000    51.14502    3.17413
4343.50000    51.05830    3.12277
4344.00000    50.97159    3.07140
4344.50000    50.88487    3.02004
4345.00000    50.79815    2.96868
4345.50000    50.71143    2.95335
4346.00000    50.55347    2.99774
4346.50000    50.39182    3.04214
4347.00000    50.23018    3.08653
4347.50000    50.06854    3.13092
4348.00000    49.90689    3.17532
4348.50000    49.74525    3.21971
4349.00000    49.58361    3.16321
