#--------------------------------------------------#
#-------------------ENVERUS, INC.------------------#
#------------------WWW.ENVERUS.COM-----------------#
#------------------COPYRIGHT 2020------------------#
#--------------------------------------------------#
#THIS FILE MAY BE USED ONLY IN ACCORDANCE WITH A CURRENT SUBSCRIPTION AGREEMENT BETWEEN
#THE USER AND ENVERUS, INC. NO PART OF THIS FILE MAY BE REPRODUCED, USED, COPIED,
#MODIFIED, PROPAGATED, OR DISTRIBUTED EXCEPT IN ACCORDANCE WITH THE SUBSCRIPTION
#AGREEMENT. UNAUTHORIZED USE OR DISTRIBUTION OF ALL OR ANY PART OF THIS FILE MAY VIOLATE
#COPYRIGHT, TRADEMARK, AND/OR OTHER LAWS AND IS SUBJECT TO CIVIL AS WELL AS CRIMINAL
#SANCTIONS.
#--------------------------------------------------#
#THIS FILE IS PROVIDED "AS-IS" AND ALL WARRANTIES ARE EXPRESSLY DISCLAIMED, WHETHER
#EXPRESS, ORAL, IMPLIED, STATUTORY OR OTHERWISE, INCLUDING ANY IMPLIED WARRANTY OF FITNESS
#FOR A PARTICULAR PURPOSE, MERCHANTABILITY, TITLE OR NON-INFRINGEMENT, AND ANY WARRANTIES
#ARISING BY VIRTUE OF CUSTOM OF TRADE OR COURSE OF DEALING.  FURTHER, ENVERUS, INC.
#AND ITS LICENSORS DO NOT REPRESENT OR WARRANT THAT THIS FILE WILL MEET USER'S
#REQUIREMENTS OR ARE SUITABLE FOR USER'S NEEDS OR THAT THE DATA OR RESULTS PROVIDED IN
#CONJUNCTION THEREWITH ARE CORRECT, ACCURATE, TIMELY OR RELIABLE. THESE DISCLAIMERS SHALL
#APPLY REGARDLESS OF ANY FAILURE OF ESSENTIAL PURPOSE OF ANY LIMITED REMEDY.  SOME
#JURISDICTIONS DO NOT ALLOW THE EXCLUSION OF CERTAIN WARRANTIES SO SOME OF THE ABOVE
#EXCLUSIONS MAY NOT APPLY. IN NO EVENT SHALL ENVERUS, INC. OR ANY OF ITS AFFILIATES
#BE LIABLE UNDER ANY LEGAL THEORY, WHETHER IN TORT (INCLUDING WITHOUT LIMITATION
#NEGLIGENCE), CONTRACT, STRICT LIABILITY, STATUTORY OR OTHERWISE, FOR ANY SPECIAL,
#INCIDENTAL, CONSEQUENTIAL, EXEMPLARY, PUNITIVE OR INDIRECT DAMAGE OF ANY KIND, INCLUDING
#WITHOUT LIMITATION LOSS OF REVENUE, PROFITS, GOODWILL, USE, AND/OR DATA OR THE COST OF
#PROCUREMENT OF SUBSTITUTE GOODS OR SERVICES, EVEN IF APPRISED OF THE POSSIBILITY OF SUCH
#DAMAGES IN ADVANCE.
#--------------------------------------------------#

~VERSION INFORMATION
VERS. 2.0 : CWLS LOG ASCII STANDARD - VERSION 2.0
WRAP.  NO : ONE LINE PER DEPTH STEP
~WELL INFORMATION
#MNEMONIC     .UNIT              VALUE :DESCRIPTION
STRT       .FT                102 :START DEPTH
STOP       .FT                5463 :STOP DEPTH
STEP       .FT                   0.500 :STEP
NULL       .                  -999.990 :NULL
UWI        .              42371363560000 :UNIQUE WELL ID
API        .              42371363560000 :API NUMBER
COMP       .         APACHE CORPORATION :COMPANY
WELL       .        SCHLOSSER, FRED ESTATE -B-  11 :WELL
DATE       .                22-JUN-1992 :LOG DATE
~CURVE INFORMATION
#MNEMONIC     .UNIT      API CODE :CURVE DESCRIPTION
DEPTH       .FT                      :MEASURED DEPTH
DT.US/FT        UNKNOWN   :DT
GR.API        UNKNOWN   :GR
~A    DEPTH    DT    GR
# ...
 3217.5     51.3   12.105
 3218     51.419   13.527
 3218.5     51.135   14.949
 3219     50.851   16.547
 3219.5     50.763   18.317
 3220     50.956   20.086
 3220.5     50.322   21.856
 3221     50.1   19.98
 3221.5     50.314   17.957
 3222     50.529   15.961
 3222.5     50.743   15.41
 3223     50.938   15.003
 3223.5     50.958   15.983
 3224     50.903   16.963
 3224.5     50.765   17.948
 3225     50.628   19.002
 3225.5     50.491   20.056
 3226     50.453   21.11
 3226.5     50.788   22.164
 3227     51.009   22.047
 3227.5     50.928   21.188
 3228     50.847   24.764
 3228.5     50.504   26.836
 3229     50.119   28.335
 3229.5     49.734   35.764
 3230     49.424   42.526
 3230.5     50.299   46.9
 3231     49.837   41.797
 3231.5     49.374   36.694
 3232     48.912   31.23
 3232.5     51.489   24.91
 3233     51.93   21.304
 3233.5     52.371   20.599
 3234     52.517   21.275
 3234.5     52.649   20.887
 3235     52.676   19.339
 3235.5     52.599   17.791
 3236     52.521   16.243
 3236.5     52.571   17.154
 3237     52.722   21.819
 3237.5     52.873   21.719
 3238     52.932   21.226
 3238.5     52.916   18.279
 3239     52.584   15.332
 3239.5     52.028   11.2
 3240     51.856   10.801
 3240.5     51.685   10.402
 3241     51.865   11.759
 3241.5     52.173   13.287
 3242     53.37   14.699
 3242.5     53.429   15.313
 3243     53.489   15.927
 3243.5     53.13   14.569
 3244     52.772   12.922
 3244.5     52.349   11.136
 3245     52.277   9.735
 3245.5     52.267   9.736
 3246     52.256   9.737
 3246.5     52.557   9.738
 3247     53.04   9.738
 3247.5     52.766   10.422
 3248     52.452   11.429
 3248.5     52.137   12.665
 3249     52.1   14.588
 3249.5     52.304   16.51
 3250     52.509   18.433
 3250.5     52.954   20.356
 3251     53.621   16.42
 3251.5     53.654   13.09
 3252     53.111   11.042
 3252.5     52.569   8.995
 3253     52.055   7.391
 3253.5     51.682   6.943
 3254     51.796   6.494
 3254.5     51.988   6.046
 3255     51.923   5.614
 3255.5     51.731   6.319
 3256     51.539   7.023
 3256.5     51.348   7.727
 3257     51.281   8.552
 3257.5     51.383   9.48
 3258     51.25   10.408
 3258.5     50.985   10.831
 3259     51.021   11.199
 3259.5     51.058   11.566
 3260     51.095   11.225
 3260.5     50.962   10.884
 3261     50.758   10.543
 3261.5     50.645   10.202
 3262     50.731   10.371
 3262.5     50.818   11.561
 3263     50.816   12.752
 3263.5     50.632   12.916
 3264     50.53   12.989
 3264.5     50.745   13.062
 3265     50.959   12.092
 3265.5     51.116   11.114
 3266     51.018   10.135
 3266.5     50.921   9.157
 3267     50.955   8.179
 3267.5     51.113   7.2
 3268     51.259   6.463
 3268.5     51.198   6.418
 3269     51.137   6.373
 3269.5     51.076   7.659
 3270     51.087   8.744
 3270.5     51.265   8.247
 3271     51.443   10.864
 3271.5     50.979   13.962
 3272     50.902   14.446
 3272.5     51.021   14.871
 3273     51.025   15.296
 3273.5     50.833   14.951
 3274     50.811   13.723
 3274.5     50.952   12.496
 3275     51.093   11.106
 3275.5     51.234   8.962
 3276     51.336   9.325
 3276.5     51.214   11.434
 3277     51.092   13.543
 3277.5     50.97   16.97
 3278     50.847   21.067
 3278.5     50.542   25.164
 3279     50.211   29.715
 3279.5     49.781   35.051
 3280     49.256   40.095
 3280.5     48.732   41.15
 3281     49.2   38.098
 3281.5     49.132   35.046
 3282     49.065   31.859
 3282.5     49.287   28.271
 3283     49.65   24.682
 3283.5     50.04   22.394
 3284     50.54   20.331
 3284.5     50.64   18.267
 3285     50.739   16.204
 3285.5     50.838   14.375
 3286     50.825   12.945
 3286.5     50.78   12.73
 3287     50.736   12.515
 3287.5     50.692   12.857
 3288     50.647   14.8
 3288.5     50.603   16.742
 3289     50.597   15.985
 3289.5     50.597   14.939
 3290     50.597   13.892
 3290.5     50.619   12.846
 3291     50.831   11.799
 3291.5     51.298   10.753
 3292     51.857   26.1
 3292.5     51.259   34.737
 3293     50.289   43.375
 3293.5     49.099   52.703
 3294     49.099   56.752
 3294.5     49.215   65.91
 3295     49.387   67.221
 3295.5     49.603   68.533
 3296     49.974   69.844
 3296.5     50.346   67.868
 3297     50.676   65.029
 3297.5     50.518   64.225
 3298     49.391   64.313
 3298.5     49.493   64.402
 3299     49.158   64.491
 3299.5     48.681   64.579
 3300     48.205   64.668
 3300.5     47.728   54.466
 3301     48.548   40.533
 3301.5     48.554   38.407
 3302     48.882   36.281
 3302.5     49.211   34.155
 3303     49.539   32.457
 3303.5     49.386   31.701
 3304     48.903   30.945
 3304.5     49.156   30.084
 3305     49.394   28.014
 3305.5     49.5   27.972
 3306     49.607   28.586
 3306.5     49.714   30.634
 3307     49.82   32.682
 3307.5     49.927   34.73
 3308     49.524   36.778
 3308.5     49.224   38.826
 3309     49.155   39.747
 3309.5     49.085   39.023
 3310     49.015   38.298
 3310.5     49.24   36.59
 3311     49.643   30.406
 3311.5     50.045   24.222
 3312     49.177   21.597
 3312.5     49.724   20.018
 3313     50.271   18.438
 3313.5     50.248   16.883
 3314     50.125   21.707
 3314.5     49.502   26.86
 3315     48.27   31.644
 3315.5     47.312   33.72
 3316     47.231   35.795
 3316.5     47.165   37.728
 3317     47.099   33.651
 3317.5     48.91   29.203
 3318     49.98   19.572
 3318.5     51.045   11.169
 3319     51.835   8.414
 3319.5     52.097   6.679
 3320     52.278   7.051
 3320.5     52.46   7.422
 3321     52.641   7.794
 3321.5     52.76   6.545
 3322     52.653   5.968
 3322.5     52.546   5.941
 3323     52.44   5.097
 3323.5     52.333   4.877
 3324     52.455   4.899
 3324.5     52.59   4.921
 3325     52.726   4.943
 3325.5     52.801   4.965
 3326     52.453   4.534
 3326.5     52.106   3.903
 3327     52.066   3.272
 3327.5     52.325   2.641
 3328     52.584   2.01
 3328.5     51.362   2.798
 3329     49.981   3.613
 3329.5     51.65   4.429
 3330     53.32   4.48
 3330.5     53.197   4.229
 3331     52.91   3.978
 3331.5     52.624   4.481
 3332     52.337   5.225
 3332.5     52.051   5.969
 3333     52.34   6.713
 3333.5     53.063   7.009
 3334     52.226   6.788
 3334.5     51.989   6.566
 3335     54.509   6.345
 3335.5     52.48   6.123
 3336     52.49   5.902
 3336.5     53.459   5.68
 3337     52.53   5.645
 3337.5     51.601   6.082
 3338     51.876   6.519
 3338.5     53.482   6.261
 3339     56.828   5.539
 3339.5     64.037   4.816
 3340     67.356   4.094
 3340.5     70.028   3.371
 3341     69.443   2.657
 3341.5     68.858   2.684
 3342     68.274   2.711
 3342.5     67.744   2.738
 3343     68.259   2.764
 3343.5     68.774   2.791
 3344     69.29   2.818
 3344.5     69.478   2.845
 3345     69.163   2.872
 3345.5     68.848   2.753
 3346     68.864   2.607
 3346.5     69.207   2.462
 3347     69.551   2.316
 3347.5     69.894   2.17
 3348     69.244   2.024
 3348.5     68.698   2.31
 3349     69.209   3.545
 3349.5     69.719   4.779
 3350     70.05   6.785
 3350.5     63.966   10.629
 3351     57.254   12.151
 3351.5     52.922   10.73
 3352     52.34   9.309
 3352.5     52.082   7.888
 3353     51.825   7.051
 3353.5     51.668   6.855
 3354     51.515   6.66
 3354.5     51.362   6.465
 3355     51.209   6.611
 3355.5     51.305   6.919
 3356     51.488   7.228
 3356.5     51.466   7.536
 3357     51.444   7.844
 3357.5     51.422   8.153
 3358     51.4   8.202
 3358.5     51.378   7.939
 3359     51.356   7.677
 3359.5     51.334   7.414
 3360     51.363   7.151
 3360.5     51.435   6.824
 3361     51.508   6.498
 3361.5     51.581   6.171
 3362     51.653   5.844
 3362.5     51.726   5.617
 3363     51.756   6.003
 3363.5     51.688   6.39
 3364     51.621   6.776
 3364.5     51.553   7.162
 3365     51.485   6.619
 3365.5     51.478   6.076
 3366     51.538   5.534
 3366.5     51.597   4.991
 3367     51.657   4.872
 3367.5     51.717   5.72
 3368     51.768   5.662
 3368.5     51.686   5.164
 3369     51.605   4.666
