#--------------------------------------------------#
#-------------------ENVERUS, INC.------------------#
#------------------WWW.ENVERUS.COM-----------------#
#------------------COPYRIGHT 2020------------------#
#--------------------------------------------------#
#THIS FILE MAY BE USED ONLY IN ACCORDANCE WITH A CURRENT SUBSCRIPTION AGREEMENT BETWEEN
#THE USER AND ENVERUS, INC. NO PART OF THIS FILE MAY BE REPRODUCED, USED, COPIED,
#MODIFIED, PROPAGATED, OR DISTRIBUTED EXCEPT IN ACCORDANCE WITH THE SUBSCRIPTION
#AGREEMENT. UNAUTHORIZED USE OR DISTRIBUTION OF ALL OR ANY PART OF THIS FILE MAY VIOLATE
#COPYRIGHT, TRADEMARK, AND/OR OTHER LAWS AND IS SUBJECT TO CIVIL AS WELL AS CRIMINAL
#SANCTIONS.
#--------------------------------------------------#
#THIS FILE IS PROVIDED "AS-IS" AND ALL WARRANTIES ARE EXPRESSLY DISCLAIMED, WHETHER
#EXPRESS, ORAL, IMPLIED, STATUTORY OR OTHERWISE, INCLUDING ANY IMPLIED WARRANTY OF FITNESS
#FOR A PARTICULAR PURPOSE, MERCHANTABILITY, TITLE OR NON-INFRINGEMENT, AND ANY WARRANTIES
#ARISING BY VIRTUE OF CUSTOM OF TRADE OR COURSE OF DEALING.  FURTHER, ENVERUS, INC.
#AND ITS LICENSORS DO NOT REPRESENT OR WARRANT THAT THIS FILE WILL MEET USER'S
#REQUIREMENTS OR ARE SUITABLE FOR USER'S NEEDS OR THAT THE DATA OR RESULTS PROVIDED IN
#CONJUNCTION THEREWITH ARE CORRECT, ACCURATE, TIMELY OR RELIABLE. THESE DISCLAIMERS SHALL
#APPLY REGARDLESS OF ANY FAILURE OF ESSENTIAL PURPOSE OF ANY LIMITED REMEDY.  SOME
#JURISDICTIONS DO NOT ALLOW THE EXCLUSION OF CERTAIN WARRANTIES SO SOME OF THE ABOVE
#EXCLUSIONS MAY NOT APPLY. IN NO EVENT SHALL ENVERUS, INC. OR ANY OF ITS AFFILIATES
#BE LIABLE UNDER ANY LEGAL THEORY, WHETHER IN TORT (INCLUDING WITHOUT LIMITATION
#NEGLIGENCE), CONTRACT, STRICT LIABILITY, STATUTORY OR OTHERWISE, FOR ANY SPECIAL,
#INCIDENTAL, CONSEQUENTIAL, EXEMPLARY, PUNITIVE OR INDIRECT DAMAGE OF ANY KIND, INCLUDING
#WITHOUT LIMITATION LOSS OF REVENUE, PROFITS, GOODWILL, USE, AND/OR DATA OR THE COST OF
#PROCUREMENT OF SUBSTITUTE GOODS OR SERVICES, EVEN IF APPRISED OF THE POSSIBILITY OF SUCH
#DAMAGES IN ADVANCE.
#--------------------------------------------------#

~VERSION INFORMATION
VERS. 2.0 : CWLS LOG ASCII STANDARD - VERSION 2.0
WRAP. NO : ONE LINE PER DEPTH STEP
~WELL INFORMATION
#MNEMONIC     .UNIT              VALUE :DESCRIPTION
STRT       .FT                7.00000 :START DEPTH
STOP       .FT                16581.00000 :STOP DEPTH
STEP       .FT                0.50000 :STEP
NULL       .                -999.25000 :NULL VALUE
UWI       .                42389300260000 :UNIQUE WELL ID
API       .                42389300260000 :API NUMBER
COMP       .                 :COMPANY
WELL       .                 :WELL
FLD       .                 :FIELD
LOC       .                 :LOCATION
CNTY       .                 :COUNTY
STAT       .                 :STATE
CTRY       .                 :COUNTRY
SRVC       .                 :SERVICE COMPANY
DATE       .                 :DATE
~CURVE INFORMATION
#MNEMONIC     .UNIT      API CODE :CURVE DESCRIPTION
DEPTH       .FT                      :MEASURED DEPTH
CAL       .IN        UNKNOWN   :CAL
DT       .US/FT        UNKNOWN   :DT
GR       .GAPI        UNKNOWN   :GR
~A    DEPTH    CAL    DT    GR
# ...
15727.50000    9.40600    89.84303    133.72826
15728.00000    9.34574    90.00426    132.59510
15728.50000    9.28547    89.27372    129.84216
15729.00000    9.23833    88.54317    127.08923
15729.50000    9.27514    88.82019    124.33630
15730.00000    9.31195    90.70067    121.58337
15730.50000    9.34876    92.58114    119.66954
15731.00000    9.38556    92.11148    118.85919
15731.50000    9.42237    90.93941    118.04883
15732.00000    9.45918    89.76734    117.23848
15732.50000    9.49599    88.59528    98.10586
15733.00000    9.53279    84.72720    92.90623
15733.50000    9.56960    79.92437    94.15184
15734.00000    9.60641    80.15620    95.39745
15734.50000    9.55733    80.74912    96.64307
15735.00000    9.47731    81.34203    97.88868
15735.50000    9.39729    81.93494    99.13430
15736.00000    9.31726    81.90440    100.37991
15736.50000    9.23788    80.93748    101.62553
15737.00000    9.24847    79.97056    102.87114
15737.50000    9.25907    79.00364    104.11676
15738.00000    9.26966    78.03672    108.35582
15738.50000    9.28026    79.95853    116.57616
15739.00000    9.29085    82.05313    124.79650
15739.50000    9.30144    84.14773    127.32776
15740.00000    9.31204    86.24233    126.11311
15740.50000    9.32263    86.12034    124.89846
15741.00000    9.33322    84.29768    123.68380
15741.50000    9.34382    82.47503    122.46915
15742.00000    9.37750    80.65237    121.25450
15742.50000    9.41235    80.99876    115.56563
15743.00000    9.44719    83.41771    106.81192
15743.50000    9.48203    87.54969    100.14872
15744.00000    9.51687    91.68167    100.81312
15744.50000    9.56045    94.01764    101.47752
15745.00000    9.60442    91.60098    102.14193
15745.50000    9.64839    89.18433    102.80633
15746.00000    9.69236    86.24126    103.47073
15746.50000    9.73633    82.30106    104.13513
15747.00000    9.78030    81.28196    104.79954
15747.50000    9.82427    80.49161    107.92715
15748.00000    9.86824    80.24667    111.65507
15748.50000    9.82110    83.53976    115.38299
15749.00000    9.72684    86.83285    119.11092
15749.50000    9.63258    89.97252    122.83884
15750.00000    9.53832    89.08329    122.59578
15750.50000    9.44406    88.19406    120.77756
15751.00000    9.48934    87.30482    118.95934
15751.50000    9.54809    86.41559    119.77698
15752.00000    9.60685    85.52636    121.72105
15752.50000    9.66561    84.72607    123.66513
15753.00000    9.63474    86.31542    125.60920
15753.50000    9.57841    87.90477    127.55327
15754.00000    9.52208    87.45867    129.49734
15754.50000    9.46575    86.93167    131.17278
15755.00000    9.57344    86.40466    129.87698
15755.50000    9.73710    86.23185    128.58118
15756.00000    9.70120    86.47183    127.28537
15756.50000    9.66531    86.71180    125.98961
15757.00000    9.62942    86.57700    124.69392
15757.50000    9.62093    86.18748    123.39824
15758.00000    9.63772    85.79796    122.10256
15758.50000    9.65452    89.35127    120.80688
15759.00000    9.67132    89.59134    119.51120
15759.50000    9.68811    89.83142    118.21551
15760.00000    9.70491    89.78895    116.91983
15760.50000    9.72171    89.23458    115.62415
15761.00000    9.73851    88.28433    114.32846
15761.50000    9.76196    86.76569    113.03278
15762.00000    9.82074    87.06928    111.73710
15762.50000    9.87951    87.81669    110.44142
15763.00000    9.93829    86.45779    109.14573
15763.50000    9.99706    85.09889    107.85005
15764.00000    10.05584    83.73998    107.69552
15764.50000    10.11461    84.26027    110.20283
15765.00000    9.87824    84.80053    112.71014
15765.50000    9.66614    85.34079    115.21745
15766.00000    9.65041    85.88105    117.72476
15766.50000    9.63467    86.42131    120.23207
15767.00000    9.61894    87.44982    122.30716
15767.50000    9.60320    88.70139    123.83228
15768.00000    9.58747    89.95295    125.35741
15768.50000    9.57173    89.63016    126.88254
15769.00000    9.55600    88.10340    128.28635
15769.50000    9.54026    86.14864    123.01307
15770.00000    9.52453    84.19388    117.73979
15770.50000    9.50534    82.22561    112.46650
15771.00000    9.48199    80.22304    107.19322
15771.50000    9.45864    80.18834    106.39969
15772.00000    9.43529    80.25366    112.67432
15772.50000    9.41194    80.31897    118.94895
15773.00000    9.38859    80.38429    125.22359
15773.50000    9.36524    80.44960    130.65087
15774.00000    9.34189    81.89750    128.46172
15774.50000    9.35552    84.68224    126.27257
15775.00000    9.41982    87.76479    124.08343
15775.50000    9.48412    90.84735    121.89428
15776.00000    9.54842    93.68980    119.70514
15776.50000    9.61272    96.11630    115.80459
15777.00000    9.67702    99.81877    111.50396
15777.50000    9.74132    103.52123    107.20333
15778.00000    9.89698    89.87697    102.90270
15778.50000    10.18182    84.98601    103.72925
15779.00000    10.30625    86.72083    104.66308
15779.50000    10.25256    88.45566    105.59692
15780.00000    10.19887    90.19048    106.53076
15780.50000    9.93218    91.45385    107.46459
15781.00000    9.64576    91.07780    108.16640
15781.50000    9.73641    90.70174    105.22004
15782.00000    10.05043    90.32568    102.27368
15782.50000    10.36445    91.00654    99.32731
15783.00000    10.61369    94.68532    96.38095
15783.50000    10.80947    95.22264    96.84069
15784.00000    10.80576    95.09592    100.63132
15784.50000    10.79356    94.96921    104.42195
15785.00000    10.78135    93.52455    108.21259
15785.50000    10.76915    92.04055    112.00322
15786.00000    10.75694    90.55655    115.79385
15786.50000    10.74474    89.73118    119.58448
15787.00000    10.73254    85.88761    123.37511
15787.50000    10.72033    83.90153    127.16575
15788.00000    10.70813    85.86292    124.80818
15788.50000    10.68101    87.82431    120.81702
15789.00000    10.61408    89.78570    118.20493
15789.50000    10.54716    91.74708    116.98931
15790.00000    10.37176    90.36303    115.77370
15790.50000    10.15078    85.07975    115.77237
15791.00000    9.92981    87.09039    115.77741
15791.50000    9.77554    89.57993    115.78246
15792.00000    10.12682    92.06946    115.78750
15792.50000    10.19097    88.73124    113.66182
15793.00000    10.05785    85.36618    110.92571
15793.50000    9.92473    83.83955    108.18961
15794.00000    9.83165    85.80927    105.45350
15794.50000    10.09789    87.77899    108.06596
15795.00000    10.36413    89.74871    110.74338
15795.50000    10.24401    90.78389    113.42081
15796.00000    10.00514    91.04711    115.28430
15796.50000    9.76626    88.34040    115.49495
15797.00000    9.58312    84.89257    115.70560
15797.50000    9.69873    84.78405    118.30122
15798.00000    9.81434    84.67553    125.17241
15798.50000    9.83027    84.82783    129.97403
15799.00000    9.62917    85.11723    127.55571
15799.50000    9.44671    85.40662    125.13739
15800.00000    9.46073    85.69602    124.49739
15800.50000    9.47476    85.98541    131.07287
15801.00000    9.48879    86.27481    137.19760
15801.50000    9.50281    87.71434    136.15440
15802.00000    9.52264    89.76295    135.11120
15802.50000    9.61805    89.14830    134.06800
15803.00000    9.71346    86.95853    133.02480
15803.50000    9.80887    84.76877    131.98160
15804.00000    9.94270    87.65570    133.59769
15804.50000    10.08573    91.02879    135.82523
15805.00000    10.11984    93.41055    138.05277
15805.50000    9.98369    87.80034    140.28031
15806.00000    9.84754    82.19014    139.32679
15806.50000    9.71139    83.50860    133.89252
15807.00000    9.57524    85.56135    128.45826
15807.50000    9.63970    87.61411    123.02399
15808.00000    9.84672    89.66686    117.58973
15808.50000    9.74715    91.71962    112.15547
15809.00000    9.64758    92.21529    108.56620
15809.50000    9.54801    89.37947    110.90617
15810.00000    9.58218    86.54365    113.24613
15810.50000    9.72824    83.70783    115.58610
