###############################################
##         ENVERUS                           ##
##         ESS - Open Hole                   ##
##         PERMIAN / DELAWARE                ##
##         Nov 04 2023  V4.0                 ##
##         42-371-32680-00-00                ##
###############################################
## Copyright 2017-2023  ENVERUS.  All Rights Reserved. 
## Confidential - Property of ENVERUS, use governed by terms and 
## conditions found within the existing Information Services Subscription Agreement 
## (as may be amended, the “ISSA”) between Customer and ENVERUS. 
## 
~VERSION INFORMATION
# MNEM.UNIT                               DATA : DESCRIPTION OF MNEMONIC
#-----.-----     ----------------------------- : -----------------------------
VERS.                                     2.00 : CWLS LOG ASCII STANDARD - VERSION 2.00
WRAP.                                       NO : MULTIPLE LINES PER DEPTH STEP
VEND.                                  ENVERUS : VENDOR
TYPE.                          ESS - OPEN HOLE : ENVERUS ESSENTIAL CURVES – ACCESSIBLE THROUGH ENVERUS PRISM(TM)
DOC.                                  31991434 : ENVERUS HEADER RAW DOCUMENT ID
#___________________________________________________________________________________________________ 
~WELL INFORMATION 
# uAv5E/S3ZwrMaovXfwZJbnQ+z8RwnTA5GIEFL0LfM7mdkMX/8iXP+LiYgCnT3sJm4ejuYgXNUZeSPI/Yhcow4w== 
# MNEM.UNIT                                              DATA : DESCRIPTION OF MNEMONIC 
#-----.-----                    ----------------------------- : ----------------------------- 
CNTY.                                                   PECOS : COUNTY 
STATE.                                                  TEXAS : STATE 
CNTRY.                                                    USA : COUNTRY 
API.                                             42-371-32680 : API (10 Digit) 
API_14.                                    42-371-32680-00-00 : API (14 Digits) 
API_14_std.                                 42-371-32680-0000 : API (14 Digits Standard) 
UWI.                                           42371326800000 : UNIQUE WELL ID 
WELL.                                     MARALO - STEWART  1 : WELL NAME
STRT.FT                                                  21.0 : START DEPTH
STOP.FT                                               21630.0 : STOP DEPTH
STEP.FT                                                   0.5 : STEP BETWEEN DEPTHS
NULL.                                                 -999.25 : NULL VALUE
COMP.                                            MARALO, INC. : COMPANY 
DATE.                                             11-DEC-1978 : LOG DATE
#___________________________________________________________________________________________________ 
~CURVE INFORMATION 
# MNEM.UNIT           : CURVE DESCRIPTION 
#-----.-----          : ----------------------------- 
 DEPT.FT               : MEASURED DEPTH 
 GR__D.API             : GAMMA RAY (GR) 
 DT__D.US/FT           : SONIC DELTA TRANSIT TIME (DT) 
 RESD__D.OHMM          : DEEP INDUCTION RESISTIVITY (ILD - ILD) 
 #___________________________________________________________________________________________________ 
~A         DEPT          GR__D          DT__D        RESD__D
# ...
        17181.0        124.553         86.134         30.390
        17181.5        124.552         87.179         27.577
        17182.0        124.551         87.961         26.376
        17182.5        124.549         87.248         25.175
        17183.0        124.548         86.534         23.973
        17183.5        124.546         85.821         24.081
        17184.0        124.545         85.108         28.115
        17184.5        124.544         84.395         32.148
        17185.0        124.542         83.905         36.182
        17185.5        124.541         84.394         48.923
        17186.0        124.540         84.884         63.065
        17186.5        124.538         85.370         73.313
        17187.0        124.537         85.448         68.561
        17187.5        124.535         85.526         63.808
        17188.0        124.534         85.327         59.056
        17188.5        118.010         83.268         56.633
        17189.0        102.350         81.209         87.514
        17189.5         86.690         79.151        118.394
        17190.0         83.205         78.069        149.274
        17190.5        101.331         77.776        172.338
        17191.0        109.760         77.482        191.893
        17191.5         94.238         75.459        211.448
        17192.0         78.716         73.429        165.700
        17192.5         63.195         71.398        136.122
        17193.0         72.313         69.367        134.706
        17193.5         87.972         67.336        133.291
        17194.0        103.631         68.814        131.876
        17194.5        119.290         71.061        138.331
        17195.0        124.983         73.307        182.280
        17195.5        124.996         75.554        438.400
        17196.0        125.009         77.295        701.920
        17196.5        125.022         77.420        975.300
        17197.0        125.035         77.544       1357.553
        17197.5        125.048         77.659       1735.833
        17198.0        125.060         75.212       2020.105
        17198.5        125.073         72.765       2234.763
        17199.0        125.086         70.318       2449.422
        17199.5        125.099         67.871       2664.080
        17200.0        125.112         68.333       3744.809
        17200.5        125.125         68.965       4233.740
        17201.0        125.138         69.598       4722.670
        17201.5        125.151         69.013       5211.601
        17202.0        125.164         66.844       5700.531
        17202.5        125.177         65.914       6189.461
        17203.0        125.190         66.617       8048.702
        17203.5        125.203         67.321      14772.089
        17204.0        125.216         68.024      25070.586
        17204.5        125.229         67.482      36427.414
        17205.0        125.242         66.041      42107.980
        17205.5        125.255         64.599      37230.840
        17206.0        125.268         65.679      32353.703
        17206.5        125.281         67.121      27476.564
        17207.0        125.294         68.563      19287.752
        17207.5        125.307         70.005      10870.283
        17208.0        125.320         71.447       4768.116
        17208.5        125.333         72.888        754.676
        17209.0        125.346         74.330        747.038
        17209.5        125.359         75.772        863.442
        17210.0        125.372         77.214       1035.689
        17210.5        125.385         75.642       1858.632
        17211.0        125.398         72.970       5693.949
        17211.5        125.411         70.297       7992.185
        17212.0        125.424         67.624      10290.421
        17212.5        102.131         64.952      13206.320
        17213.0         19.368         63.333      16352.091
        17213.5         10.347         61.996      19497.861
        17214.0         22.757         60.660      17867.727
        17214.5         35.168         59.324      12658.210
        17215.0         47.578         59.691       7448.695
        17215.5         59.989         60.164       1665.409
        17216.0         72.400         60.637       1301.840
        17216.5         84.810         61.111       1367.749
        17217.0         97.221         61.584       1472.501
        17217.5        109.632         62.058       1577.253
        17218.0        122.042         59.257       1682.004
        17218.5         75.458         56.232       1786.756
        17219.0         57.547         53.207       1891.508
        17219.5         49.842         51.791       2160.765
        17220.0         42.138         51.651       2533.293
        17220.5         34.433         51.850       2905.821
        17221.0         26.729         51.909       3278.349
        17221.5         21.996         51.667       4970.184
        17222.0         29.926         51.425       6729.676
        17222.5         37.856         51.183       7500.845
        17223.0         45.786         51.427       5748.522
        17223.5         53.716         51.914       1232.462
        17224.0         46.357         52.401       1515.780
        17224.5         38.915         52.301       1753.500
        17225.0         31.473         52.089       1691.634
        17225.5         24.030         51.878       1629.767
        17226.0         16.588         51.666       1148.057
        17226.5         17.370         52.039       1124.907
        17227.0         20.157         53.097       1119.403
        17227.5         22.944         54.154       1244.709
        17228.0         25.731         55.178       1455.714
        17228.5         26.013         54.627       1311.773
        17229.0         24.383         54.076       1167.833
        17229.5         22.753         53.525       1023.892
        17230.0         22.863         52.974        971.124
        17230.5         33.287         52.546       1259.577
        17231.0         36.570         52.609       1548.031
        17231.5         32.008         52.671       1424.354
        17232.0         27.445         52.734       1019.234
        17232.5         26.219         52.796        794.313
        17233.0         28.807         52.381        714.040
        17233.5         31.396         51.903        633.768
        17234.0         33.984         51.424        413.737
        17234.5         28.785         51.126        209.418
        17235.0         19.410         51.622        180.027
        17235.5         13.737         52.118        150.636
        17236.0         12.141         52.614        135.505
        17236.5         10.545         53.110        164.155
        17237.0          8.949         53.606        192.805
        17237.5          7.353         53.312        221.456
        17238.0          7.802         49.591        250.106
        17238.5          8.863         45.870        272.105
        17239.0          9.924         47.145        293.123
        17239.5         10.985         46.816        314.142
        17240.0         11.080         46.433        335.161
        17240.5         10.276         46.051        310.637
        17241.0          9.472         45.669        269.803
        17241.5          8.668         47.050        231.267
        17242.0          7.865         48.580        228.839
        17242.5          7.061         50.109        226.410
        17243.0          6.606         51.638        442.981
        17243.5          8.887         51.120        602.710
        17244.0         11.167         49.864        592.621
        17244.5         13.448         50.558        556.388
        17245.0         12.270         51.252        505.497
        17245.5          9.768         51.946        454.605
        17246.0          8.844         52.641        368.188
        17246.5          9.068         53.282        376.067
