###############################################
##         ENVERUS                           ##
##         ESS - Open Hole                   ##
##         PERMIAN / DELAWARE                ##
##         Nov 04 2023  V4.0                 ##
##         42-389-00931-00-00                ##
###############################################
## Copyright 2017-2023  ENVERUS.  All Rights Reserved. 
## Confidential - Property of ENVERUS, use governed by terms and 
## conditions found within the existing Information Services Subscription Agreement 
## (as may be amended, the “ISSA”) between Customer and ENVERUS. 
## 
~VERSION INFORMATION
# MNEM.UNIT                               DATA : DESCRIPTION OF MNEMONIC
#-----.-----     ----------------------------- : -----------------------------
VERS.                                     2.00 : CWLS LOG ASCII STANDARD - VERSION 2.00
WRAP.                                       NO : MULTIPLE LINES PER DEPTH STEP
VEND.                                  ENVERUS : VENDOR
TYPE.                          ESS - OPEN HOLE : ENVERUS ESSENTIAL CURVES – ACCESSIBLE THROUGH ENVERUS PRISM(TM)
DOC.                                  31935239 : ENVERUS HEADER RAW DOCUMENT ID
#___________________________________________________________________________________________________ 
~WELL INFORMATION 
# S9zL0tdqvH3y2XIpNbXcuKF0SeIoK+7NE6VaQ02nn2+shQHF2oZWL/5TS96hefD+9qjP/MIJWV/WOidK809eGw== 
# MNEM.UNIT                                              DATA : DESCRIPTION OF MNEMONIC 
#-----.-----                    ----------------------------- : ----------------------------- 
CNTY.                                                  REEVES : COUNTY 
STATE.                                                  TEXAS : STATE 
CNTRY.                                                    USA : COUNTRY 
API.                                             42-389-00931 : API (10 Digit) 
API_14.                                    42-389-00931-00-00 : API (14 Digits) 
API_14_std.                                 42-389-00931-0000 : API (14 Digits Standard) 
UWI.                                           42389009310000 : UNIQUE WELL ID 
WELL.                                                      1, : WELL NAME
STRT.FT                                                 101.0 : START DEPTH
STOP.FT                                                5373.0 : STOP DEPTH
STEP.FT                                                   0.5 : STEP BETWEEN DEPTHS
NULL.                                                 -999.25 : NULL VALUE
#___________________________________________________________________________________________________ 
~CURVE INFORMATION 
# MNEM.UNIT           : CURVE DESCRIPTION 
#-----.-----          : ----------------------------- 
 DEPT.FT               : MEASURED DEPTH 
 GR.API                : GAMMA RAY (GR) 
 DT.US/FT              : SONIC DELTA TRANSIT TIME (DT) 
 #___________________________________________________________________________________________________ 
~A         DEPT             GR             DT
# ...
         4973.0         12.533         50.236
         4973.5         12.131         50.244
         4974.0         11.729         50.251
         4974.5         11.327         50.259
         4975.0         11.306         50.182
         4975.5         11.895         50.083
         4976.0         12.484         49.984
         4976.5         12.425         49.885
         4977.0         11.470         49.786
         4977.5         10.515         49.687
         4978.0          9.560         49.626
         4978.5          8.604         49.701
         4979.0          9.022         49.777
         4979.5         10.316         49.852
         4980.0         11.609         49.928
         4980.5         12.903         50.003
         4981.0         14.196         50.078
         4981.5         15.050         50.141
         4982.0         14.140         49.986
         4982.5         13.229         49.830
         4983.0         12.319         49.675
         4983.5         11.582         49.520
         4984.0         11.580         49.364
         4984.5         11.578         49.209
         4985.0         11.576         49.054
         4985.5         11.574         48.922
         4986.0         11.392         48.842
         4986.5         10.887         48.762
         4987.0         10.381         48.681
         4987.5          9.876         48.601
         4988.0          9.370         48.521
         4988.5          8.864         48.440
         4989.0          8.359         48.360
         4989.5          8.067         48.279
         4990.0          9.243         48.199
         4990.5         10.419         48.225
         4991.0         11.316         48.429
         4991.5         10.655         48.632
         4992.0          9.994         48.836
         4992.5          9.333         49.040
         4993.0          9.280         49.148
         4993.5          9.522         49.129
         4994.0          9.764         49.109
         4994.5         10.005         49.089
         4995.0         10.247         49.070
         4995.5         10.489         49.050
         4996.0         10.731         49.030
         4996.5         10.972         49.186
         4997.0         11.214         49.385
         4997.5         11.456         49.583
         4998.0         11.883         49.782
         4998.5         11.963         49.837
         4999.0         11.813         49.683
         4999.5         11.663         49.529
         5000.0         11.512         49.375
         5000.5         11.291         49.221
         5001.0         10.308         49.067
         5001.5          9.325         48.913
         5002.0          8.343         48.758
         5002.5          7.360         48.604
         5003.0          7.287         48.450
         5003.5          7.964         48.296
         5004.0          8.640         48.301
         5004.5          9.316         48.358
         5005.0          9.033         48.414
         5005.5          8.467         48.471
         5006.0          7.902         48.528
         5006.5          7.336         48.584
         5007.0          7.197         48.641
         5007.5          8.529         48.698
         5008.0          9.862         48.365
         5008.5         11.194         48.027
         5009.0         12.527         47.689
         5009.5         13.859         47.888
         5010.0         15.192         48.096
         5010.5         15.604         48.304
         5011.0         14.918         48.513
         5011.5         14.233         48.721
         5012.0         13.547         48.930
         5012.5         12.862         49.138
         5013.0         12.176         49.347
         5013.5         11.491         49.555
         5014.0         10.805         49.764
         5014.5         10.199         49.670
         5015.0          9.985         49.521
         5015.5          9.771         49.373
         5016.0          9.557         49.224
         5016.5          9.343         49.076
         5017.0          9.205         48.927
         5017.5         10.015         48.779
         5018.0         10.825         48.631
         5018.5         11.634         48.746
         5019.0         12.444         48.990
         5019.5         11.854         49.235
         5020.0         10.812         49.479
         5020.5          9.770         49.437
         5021.0          8.728         49.333
         5021.5          7.686         49.230
         5022.0          8.916         49.127
         5022.5         10.251         49.023
         5023.0         11.585         48.920
         5023.5         12.919         48.816
         5024.0         14.253         48.730
         5024.5         13.531         48.811
         5025.0         12.326         48.893
         5025.5         12.120         48.974
         5026.0         12.385         49.056
         5026.5         12.650         49.138
         5027.0         12.915         49.219
         5027.5         13.008         49.301
         5028.0         12.871         49.383
         5028.5         12.482         49.247
         5029.0         12.111         49.066
         5029.5         11.050         48.885
         5030.0          9.439         48.704
         5030.5          7.828         48.523
         5031.0          7.094         48.410
         5031.5          7.481         48.461
         5032.0          7.919         48.512
         5032.5         11.478         48.564
         5033.0         15.038         48.615
         5033.5         18.597         48.666
         5034.0         22.157         48.717
         5034.5         21.414         48.728
         5035.0         19.255         48.721
         5035.5         17.095         48.713
         5036.0         14.936         48.706
         5036.5         14.262         48.698
         5037.0         14.386         48.691
         5037.5         14.509         48.683
         5038.0         14.444         48.676
         5038.5         14.127         48.594
         5039.0         13.625         48.404
         5039.5         11.017         48.214
         5040.0          9.920         48.025
         5040.5         10.353         48.007
         5041.0         10.787         48.139
         5041.5         11.220         48.271
         5042.0         11.653         48.403
         5042.5         12.087         48.535
         5043.0         12.520         48.667
         5043.5         10.899         48.799
         5044.0          9.217         48.931
         5044.5          8.329         49.063
         5045.0          9.127         49.195
         5045.5          9.924         49.327
         5046.0         10.721         49.459
         5046.5         11.518         49.591
         5047.0         12.315         49.723
         5047.5         12.809         49.480
         5048.0         13.276         49.126
         5048.5         13.743         48.773
         5049.0         14.210         48.420
         5049.5         13.842         48.066
         5050.0         12.940         48.074
         5050.5         12.038         48.266
         5051.0         11.137         48.458
         5051.5         10.235         48.650
         5052.0          9.975         48.724
         5052.5         10.800         48.676
         5053.0         11.624         48.628
         5053.5         12.449         48.581
         5054.0         13.274         48.533
         5054.5         14.099         48.485
         5055.0         14.924         48.437
         5055.5         15.749         48.389
         5056.0         16.574         48.341
         5056.5         16.446         48.433
         5057.0         16.216         48.660
         5057.5         15.986         48.887
         5058.0         15.756         49.114
         5058.5         15.526         49.164
         5059.0         15.296         48.873
         5059.5         15.066         48.581
