#--------------------------------------------------#
#-------------------ENVERUS, INC.------------------#
#------------------WWW.ENVERUS.COM-----------------#
#------------------COPYRIGHT 2020------------------#
#--------------------------------------------------#
#THIS FILE MAY BE USED ONLY IN ACCORDANCE WITH A CURRENT SUBSCRIPTION AGREEMENT BETWEEN
#THE USER AND ENVERUS, INC. NO PART OF THIS FILE MAY BE REPRODUCED, USED, COPIED,
#MODIFIED, PROPAGATED, OR DISTRIBUTED EXCEPT IN ACCORDANCE WITH THE SUBSCRIPTION
#AGREEMENT. UNAUTHORIZED USE OR DISTRIBUTION OF ALL OR ANY PART OF THIS FILE MAY VIOLATE
#COPYRIGHT, TRADEMARK, AND/OR OTHER LAWS AND IS SUBJECT TO CIVIL AS WELL AS CRIMINAL
#SANCTIONS.
#--------------------------------------------------#
#THIS FILE IS PROVIDED "AS-IS" AND ALL WARRANTIES ARE EXPRESSLY DISCLAIMED, WHETHER
#EXPRESS, ORAL, IMPLIED, STATUTORY OR OTHERWISE, INCLUDING ANY IMPLIED WARRANTY OF FITNESS
#FOR A PARTICULAR PURPOSE, MERCHANTABILITY, TITLE OR NON-INFRINGEMENT, AND ANY WARRANTIES
#ARISING BY VIRTUE OF CUSTOM OF TRADE OR COURSE OF DEALING.  FURTHER, ENVERUS, INC.
#AND ITS LICENSORS DO NOT REPRESENT OR WARRANT THAT THIS FILE WILL MEET USER'S
#REQUIREMENTS OR ARE SUITABLE FOR USER'S NEEDS OR THAT THE DATA OR RESULTS PROVIDED IN
#CONJUNCTION THEREWITH ARE CORRECT, ACCURATE, TIMELY OR RELIABLE. THESE DISCLAIMERS SHALL
#APPLY REGARDLESS OF ANY FAILURE OF ESSENTIAL PURPOSE OF ANY LIMITED REMEDY.  SOME
#JURISDICTIONS DO NOT ALLOW THE EXCLUSION OF CERTAIN WARRANTIES SO SOME OF THE ABOVE
#EXCLUSIONS MAY NOT APPLY. IN NO EVENT SHALL ENVERUS, INC. OR ANY OF ITS AFFILIATES
#BE LIABLE UNDER ANY LEGAL THEORY, WHETHER IN TORT (INCLUDING WITHOUT LIMITATION
#NEGLIGENCE), CONTRACT, STRICT LIABILITY, STATUTORY OR OTHERWISE, FOR ANY SPECIAL,
#INCIDENTAL, CONSEQUENTIAL, EXEMPLARY, PUNITIVE OR INDIRECT DAMAGE OF ANY KIND, INCLUDING
#WITHOUT LIMITATION LOSS OF REVENUE, PROFITS, GOODWILL, USE, AND/OR DATA OR THE COST OF
#PROCUREMENT OF SUBSTITUTE GOODS OR SERVICES, EVEN IF APPRISED OF THE POSSIBILITY OF SUCH
#DAMAGES IN ADVANCE.
#--------------------------------------------------#

~VERSION INFORMATION
VERS. 2.0 : CWLS LOG ASCII STANDARD - VERSION 2.0
WRAP. NO : ONE LINE PER DEPTH STEP
~WELL INFORMATION
#MNEMONIC     .UNIT              VALUE :DESCRIPTION
STRT       .FT                7.00000 :START DEPTH
STOP       .FT                16581.00000 :STOP DEPTH
STEP       .FT                0.50000 :STEP
NULL       .                -999.25000 :NULL VALUE
UWI       .                42389300260000 :UNIQUE WELL ID
API       .                42389300260000 :API NUMBER
COMP       .                 :COMPANY
WELL       .                 :WELL
FLD       .                 :FIELD
LOC       .                 :LOCATION
CNTY       .                 :COUNTY
STAT       .                 :STATE
CTRY       .                 :COUNTRY
SRVC       .                 :SERVICE COMPANY
DATE       .                 :DATE
~CURVE INFORMATION
#MNEMONIC     .UNIT      API CODE :CURVE DESCRIPTION
DEPTH       .FT                      :MEASURED DEPTH
CAL       .IN        UNKNOWN   :CAL
DT       .US/FT        UNKNOWN   :DT
GR       .GAPI        UNKNOWN   :GR
~A    DEPTH    CAL    DT    GR
# ...
16482.50000    9.52803    93.62955    132.98737
16483.00000    9.46718    89.05810    136.67095
16483.50000    9.40634    90.82255    134.73619
16484.00000    9.44537    92.58699    128.53832
16484.50000    9.61029    94.35143    122.34045
16485.00000    9.76195    96.11588    116.14257
16485.50000    9.68218    94.92626    115.95683
16486.00000    9.60240    91.87413    118.05870
16486.50000    9.52263    90.10955    120.16056
16487.00000    9.44286    89.40882    122.26243
16487.50000    9.36308    88.70810    120.25791
16488.00000    9.28331    88.00737    123.03333
16488.50000    9.20354    91.47710    125.80876
16489.00000    9.55076    97.56637    128.58418
16489.50000    9.55273    101.45269    131.35960
16490.00000    9.45910    102.98197    130.75467
16490.50000    9.36547    104.09450    121.60797
16491.00000    9.27183    102.24386    112.46127
16491.50000    9.17820    100.30556    105.69533
16492.00000    9.08457    97.82971    113.00601
16492.50000    9.26345    95.35385    120.31670
16493.00000    9.46567    92.87800    127.62739
16493.50000    9.50723    92.62404    132.00263
16494.00000    9.41704    102.66695    134.70430
16494.50000    9.32684    109.29479    137.40598
16495.00000    9.23665    109.74861    140.12714
16495.50000    9.58996    110.10483    143.66564
16496.00000    9.58596    109.57456    147.20414
16496.50000    9.58194    108.40558    150.74264
16497.00000    9.57794    107.23660    154.28114
16497.50000    9.57393    107.46540    148.88255
16498.00000    9.56992    108.43943    139.84781
16498.50000    9.56591    108.01777    130.81306
16499.00000    9.56190    103.75645    121.77832
16499.50000    9.55789    99.49513    121.19916
16500.00000    9.55388    95.23951    122.87531
16500.50000    9.58836    97.33512    124.55147
16501.00000    9.62410    99.43072    126.22762
16501.50000    9.65985    108.50239    127.90378
16502.00000    9.69559    104.94124    129.57993
16502.50000    9.73134    101.38010    116.35833
16503.00000    9.65175    97.81896    115.32718
16503.50000    9.22023    97.52952    110.20096
16504.00000    9.55947    99.70301    102.94163
16504.50000    9.98905    103.69256    95.68230
16505.00000    10.03117    109.08863    88.42297
16505.50000    9.83681    114.48470    92.69463
16506.00000    9.64246    109.32179    100.09656
16506.50000    9.44811    102.36768    107.49850
16507.00000    9.25375    83.77005    96.48089
16507.50000    9.07147    75.28424    96.75614
16508.00000    9.09217    68.02442    97.03139
16508.50000    9.11286    62.83215    97.30664
16509.00000    9.13356    57.63988    97.58188
16509.50000    9.15425    50.85562    93.72331
16510.00000    9.17495    57.82711    95.05372
16510.50000    9.79405    115.62594    97.15480
16511.00000    11.69853    133.96445    99.71577
16511.50000    12.96243    121.73479    106.89172
16512.00000    13.52497    109.50512    114.06766
16512.50000    12.65305    100.39605    121.24361
16513.00000    11.78113    95.74002    128.41956
16513.50000    10.90922    89.13697    135.59551
16514.00000    10.03730    87.60513    132.10483
16514.50000    9.77328    86.59171    116.84762
16515.00000    9.92228    85.57829    115.71576
16515.50000    10.07127    84.56486    117.39145
16516.00000    10.22027    83.55144    119.06714
16516.50000    10.36927    84.75385    104.93145
16517.00000    10.51827    90.14592    109.51870
16517.50000    10.66727    95.53799    114.10595
16518.00000    10.81627    100.75324    118.69319
16518.50000    10.96527    102.74926    123.28044
16519.00000    11.11427    104.74529    127.86768
16519.50000    10.18026    104.84393    132.45493
16520.00000    9.14868    97.55841    137.04217
16520.50000    9.14383    86.09690    136.52223
16521.00000    9.13898    85.18389    119.30434
16521.50000    9.13412    84.27088    102.08645
16522.00000    9.12927    83.35787    84.86856
16522.50000    9.12442    79.15261    67.65067
16523.00000    9.11957    74.20149    50.43278
16523.50000    9.11472    59.18243    33.21489
16524.00000    9.10987    55.49897    26.67491
16524.50000    9.10502    53.73266    28.35101
16525.00000    9.10017    51.96635    30.02711
16525.50000    9.11336    51.63447    31.70322
16526.00000    9.17877    51.58349    33.37931
16526.50000    9.24418    51.53252    35.05542
16527.00000    9.30959    51.48154    36.73152
16527.50000    9.30937    51.43056    41.33338
16528.00000    9.26527    52.89019    53.26105
16528.50000    9.22116    54.37895    65.18871
16529.00000    9.17705    55.86771    77.11637
16529.50000    9.13294    57.35648    89.04404
16530.00000    9.08883    58.84524    100.97170
16530.50000    9.04472    60.33401    112.89936
16531.00000    9.33254    61.82277    116.11180
16531.50000    9.63556    92.31729    109.76198
16532.00000    9.93859    105.31914    105.07617
16532.50000    10.70825    103.62928    108.64370
16533.00000    11.41475    101.93941    112.21123
16533.50000    10.44284    100.24955    115.77876
16534.00000    9.52126    98.55968    116.50642
16534.50000    9.52103    96.86982    115.13480
16535.00000    9.52080    107.74176    113.76318
16535.50000    9.20171    117.47802    112.39155
16536.00000    8.88119    115.31033    112.42762
16536.50000    9.06472    106.53132    123.10068
16537.00000    9.14815    97.75231    123.64694
16537.50000    9.10251    90.84190    120.70547
16538.00000    9.05687    97.74259    117.76399
16538.50000    9.01122    127.26279    114.82251
16539.00000    11.01220    123.21793    111.88102
16539.50000    11.11389    119.17306    108.93955
16540.00000    11.02781    115.12819    105.99807
16540.50000    10.90562    114.87214    103.05659
16541.00000    11.01277    120.67583    100.11511
16541.50000    11.20447    122.16514    97.17363
16542.00000    11.39616    120.43623    99.69322
16542.50000    11.53765    118.70733    102.33033
16543.00000    11.41094    116.97843    104.96743
16543.50000    11.28424    115.24952    107.60454
16544.00000    11.15753    113.52062    110.24164
16544.50000    11.00348    111.79171    111.80172
16545.00000    10.80123    112.48591    108.87200
16545.50000    10.59897    114.34030    105.94228
16546.00000    10.39671    116.19469    103.01256
16546.50000    10.19445    118.04908    102.10247
16547.00000    9.99219    129.00946    103.77817
16547.50000    9.78993    125.99696    105.45386
16548.00000    9.58767    112.23118    107.12955
16548.50000    9.51699    110.85440    107.86490
16549.00000    9.58356    110.57687    108.36218
16549.50000    9.65014    108.56456    108.85946
16550.00000    9.71671    104.76430    108.83777
16550.50000    9.78328    100.96405    105.35344
16551.00000    9.84986    64.78510    101.86911
16551.50000    9.91643    55.22192    98.38478
16552.00000    10.20375    48.66829    94.90046
16552.50000    10.56530    62.80260    91.41613
16553.00000    10.92686    78.91778    87.93180
16553.50000    11.28841    103.01184    84.44747
16554.00000    11.50171    105.91779    88.19874
16554.50000    11.56116    102.89827    96.99072
16555.00000    11.62060    100.23982    105.78269
16555.50000    11.68005    92.65120    113.49627
16556.00000    11.73950    92.31677    113.08080
16556.50000    11.79894    91.98234    112.66533
16557.00000    11.85839    93.39242    112.24986
16557.50000    11.83304    96.52913    111.83438
16558.00000    11.77787    99.66584    111.41891
16558.50000    11.72270    100.95870    110.57398
16559.00000    11.66753    91.73334    108.12424
16559.50000    11.61236    91.19412    105.67451
16560.00000    11.58818    96.16684    103.22478
16560.50000    11.58795    99.87870    103.17058
16561.00000    11.58772    99.83105    105.83253
16561.50000    11.58749    99.78340    108.49447
16562.00000    11.58726    99.73576    111.15642
16562.50000    11.58703    91.74241    113.81837
16563.00000    11.58680    79.27869    116.48032
16563.50000    11.58657    70.32495    119.14226
16564.00000    11.58634    71.23394    121.80421
16564.50000    11.58611    72.45690    124.46616
