~VERSION INFORMATION
 VERS.                2.0:   CWLS LOG ASCII STANDARD - VERSION 2.0
 WRAP.                 NO:   ONE LINE PER DEPTH STEP
~WELL INFORMATION
#MNEM.UNIT      DATA TYPE    INFORMATION
#----------   ------------   ------------------------------
 STRT.FT           0.0000:   START DEPTH
 STOP.FT        7147.0000:   STOP DEPTH
 STEP.FT           0.5000:   STEP LENGTH
 NULL.          -999.2500:   NULL VALUE
 COMP. MOBIL PRODUCING TEXAS & NEW MEEXICO INC:   COMPANY
 WELL. SCHLOSER FRED ESTATE B #2:   WELL
 FLD .      ROJO CABALLOS:   FIELD
 LOC .                   :   LOCATION
 CNTY.              PECOS:   COUNTY
 STAT.              TEXAS:   STATE
 CTRY. UNITED STATES OF AMERICA:   COUNTRY
 SRVC.       Schlumberger:   SERVICE COMPANY
 DATE.        10-Jun-1980:   LOGDATE
 API .     42371330900000:   API NUMBER
~CURVE INFORMATION
#MNEM.UNIT       API CODE    CURVE DESCRIPTION
#----------   ------------   ------------------------------
 DEPT.F                  :   
 GRD .GAPI   45 310 01 00:   GAMMA RAY FROM DENSITY LOG
 GRR .GAPI   11 310 01 00:   GAMMA RAY FROM RESISTIVITY LOG
 GRS .GAPI   60 310 01 00:   GAMMA RAY FROM SONIC LOG
 DT  .US/F   60 500 00 00:   DELTA-T (INTERVAL TRANSIT TIME)
 CALD.IN     45 280 60 00:   CALIPER FROM DENSITY LOG
 CORR.G/C3   45 356 01 00:   DENSITY CORRECTION
 RHOB.G/C3   45 350 01 00:   BULK DENSITY
 NPHI_LS.DEC 42 890 01 00:   NEUTRON POROSITY LIMESTONE
 DPHI_LS.DEC 45 890 10 00:   DENSITY POROSITY LIMESTONE
 LLD .OHMM   11 220 10 00:   LATEROLOG DEEP RESISTIVITY
 LLS .OHMM   11 220 09 00:   LATEROLOG SHALLOW RESISTIVITY
~PARAMETER INFORMATION
#MNEM.UNIT          VALUE    DESCRIPTION
#----------   ------------   ------------------------------
 PD  .                 GL:   PERMANENT DATUM
 EPD .FT             2752:   ELEVATION PERMANENT DATUM
 LMF .                 KB:   LOG MEASURED FROM
 DAPD.FT               13:   FEET ABOVE PERMANENT DATUM
 DMF .                 KB:   DRILLING MEASURED FROM
 EKB .FT             2765:   KELLY BUSHING
 EDF .FT             2764:   DRILLING FLOOR
 EGL .FT             2752:   GROUND LEVEL
 DATE.           06/10/80:   RUN DATE
 RUN .                  1:   RUN NUMBER
 DD  .FT             7150:   DEPTH DRILLER
 DL  .FT             7150:   DEPTH LOGGER
 BLI .FT             7147:   BOTTOM LOG INTERVAL
 TLI .FT             5000:   TOP LOG INTERVAL
 CS  .IN            8.625:   CASING SIZE
 CBD .FT             1919:   CASING BOTTOM DRILLER
 CBL .FT             1904:   CASING BOTTOM LOGGER
 BS  .IN            7.875:   BIT SIZE
 BSD .FT             7150:   BIT SIZE AT DEPTH
 DFT .              BRINE:   DRILLING FLUID TYPE
 DFD .                 10:   DRILLING FLUID DENSITY
 DFV .                 35:   DRILLING FLUID VISCOSITY
 DFPH.                9.5:   DRILLING FLUID PH
 DFL .                 20:   DRILLING FLUID LOSS
 MSS .               CIRC:   MUD SAMPLE SOURCE
 RMS .OHMM           .055:   RESISTIVITY MUD SAMPLE
 MST .DEGF             73:   MUD SAMPLE TEMPERATURE
 RMF .OHMM           .055:   RESISTIVITY MUD FILTRATE SAMPLE
 MFST.DEGF             73:   MUD FILTRATE SAMPLE TEMPERATURE
 MFSS.                  M:   MUD FILTRATE SAMPLE SOURCE
 RMB .OHMM            .03:   RESISTIVITY MUD AT BHT
 BHT .DEGF            107:   BOTTOM HOLE TEMPERATURE
 TCS .HRS            1615:   TIME CIRCULATED STOPPED
 TLAB.HRS            0300:   TIME LOGGER AT BOTTOM
 MRT .DEGF            107:   MAXIMUM RECORDED TEMPERATURE
 LUN .               8024:   LOGGING UNIT NUMBER
 LUL .               MONA:   LOGGING UNIT LOCATION
 ENGI.           MC BRIDE:   RECORDING ENGINEER
 CLNT.            :   CLIENT CODE
 ORIG.      1" 2.5" PRINT:   ORIGIN OF DATA
 UWI .     42371330900000:   UNIQUE WELL ID
 
~OTHER INFORMATION
~A    DEPT     GRD        GRR         GRS        DT       CALD       CORR       RHOB      NPHI_LS    DPHI_LS      LLD        LLS   
# ...
 6954.0000    47.8505    45.4155    53.2362    63.3464     9.2290     0.0044     2.5197     0.0886     0.1142     7.9006     5.8221
 6954.5000    48.4693    47.4907    53.8546    63.4285     9.2290     0.0068     2.5379     0.0822     0.1101     8.0369     5.7037
 6955.0000    48.6863    49.4064    52.9564    63.8914     9.2290     0.0096     2.5456     0.0873     0.1041     8.0027     5.5003
 6955.5000    49.0677    48.6082    49.9044    64.3544     9.2290     0.0135     2.5532     0.0890     0.0972     7.7486     5.3187
 6956.0000    49.6641    47.8100    46.3481    65.0395     9.2285     0.0175     2.5609     0.0866     0.0923     7.5026     5.1430
 6956.5000    49.8408    48.8182    44.0923    66.3037     9.2275     0.0218     2.5518     0.0898     0.0941     7.2385     4.9732
 6957.0000    50.5135    49.8264    45.0277    66.9983     9.2265     0.0270     2.5380     0.0998     0.1060     6.8493     4.7810
 6957.5000    51.1972    50.8346    47.9040    66.9593     9.2327     0.0291     2.5242     0.1098     0.1179     6.5709     4.5057
 6958.0000    51.6648    51.6412    50.7356    66.4960     9.2517     0.0228     2.5159     0.1189     0.1220     6.4808     4.3004
 6958.5000    49.8570    50.9044    52.5855    65.3594     9.2490     0.0165     2.5211     0.1173     0.1230     6.6406     4.4959
 6959.0000    48.0492    50.1677    51.6304    64.9266     9.2486     0.0161     2.5286     0.1071     0.1170     6.9998     4.6983
 6959.5000    47.7072    49.7256    50.6748    65.6174     9.2462     0.0207     2.5360     0.1013     0.1068     7.4674     4.9050
 6960.0000    49.1535    50.6805    50.8041    66.6257     9.2401     0.0252     2.5431     0.1020     0.1070     7.7665     5.0338
 6960.5000    49.7723    52.2754    51.2555    67.9368     9.2379     0.0298     2.5340     0.1087     0.1153     7.2989     4.8532
 6961.0000    50.0012    52.7031    51.9735    68.3189     9.2491     0.0344     2.5212     0.1154     0.1259     6.7633     4.7091
 6961.5000    50.7760    51.6997    51.9109    68.4667     9.2532     0.0336     2.5084     0.1200     0.1334     6.4499     4.5633
 6962.0000    52.2110    50.2930    50.9040    68.5290     9.2535     0.0276     2.4956     0.1240     0.1405     6.1935     4.4230
 6962.5000    54.9035    48.9927    50.1781    68.2803     9.2563     0.0216     2.4829     0.1277     0.1417     6.0692     4.3168
 6963.0000    56.7655    49.2506    50.3642    67.7714     9.4034     0.0161     2.4908     0.1261     0.1398     6.0776     4.3122
 6963.5000    55.8741    49.1778    50.6540    67.2133     9.4883     0.0289     2.5058     0.1195     0.1293     6.1581     4.3828
 6964.0000    53.8569    48.6769    50.8199    66.8217     9.3961     0.0417     2.5207     0.1135     0.1179     6.3531     4.4415
 6964.5000    52.5079    48.7342    50.1689    67.4330     9.2384     0.0344     2.5270     0.1141     0.1184     6.5543     4.5590
 6965.0000    52.6783    50.0265    48.4396    68.0253     9.1106     0.0203     2.5138     0.1222     0.1267     6.6630     4.6368
 6965.5000    53.5294    51.1223    46.6217    68.5042     9.0133     0.0061     2.4907     0.1308     0.1367     6.6743     4.6766
 6966.0000    56.1914    52.2318    49.0341    68.5449     8.9133    -0.0003     2.4750     0.1393     0.1467     6.9115     4.7518
 6966.5000    60.8937    57.9487    57.7654    68.4429     8.8145    -0.0003     2.4835     0.1378     0.1438     7.3993     4.8723
 6967.0000    65.5430    63.8628    65.9333    68.3987     8.7756     0.0002     2.4957     0.1346     0.1367     8.0507     5.4790
 6967.5000    69.1717    69.9224    71.1732    68.4522     8.7735     0.0018     2.5078     0.1382     0.1306     8.8454     6.1767
 6968.0000    69.5865    73.5553    72.5150    68.5008     8.7714     0.0077     2.5160     0.1477     0.1239     9.7187     6.9581
 6968.5000    65.6376    69.9399    70.1345    68.2778     8.7705     0.0143     2.5231     0.1567     0.1164    10.2205     7.4670
 6969.0000    61.1657    63.9170    64.8347    67.5164     8.7715     0.0226     2.5292     0.1562     0.1109    10.5476     7.5983
 6969.5000    57.0966    58.3494    59.0478    66.7064     8.7725     0.0297     2.5354     0.1513     0.1096    10.7563     7.5876
 6970.0000    54.5759    53.5633    52.9804    66.7463     8.7744     0.0368     2.5415     0.1300     0.1088    10.9863     7.5189
 6970.5000    55.1502    53.3217    51.1308    67.0062     8.7765     0.0404     2.5441     0.1134     0.1031    10.9715     7.4507
 6971.0000    55.3404    53.5512    50.9197    66.6166     8.7782     0.0410     2.5386     0.1111     0.1028    10.8326     7.3839
 6971.5000    54.3494    53.8676    50.6640    65.5445     8.7734     0.0417     2.5332     0.1208     0.1099    10.8567     7.3807
 6972.0000    53.2122    53.7797    51.0160    64.7674     8.7733     0.0423     2.5385     0.1267     0.1115    11.1313     7.4300
 6972.5000    52.3598    52.9166    52.7405    65.0629     8.7731     0.0429     2.5524     0.1210     0.1030    11.5959     7.5978
 6973.0000    53.3900    50.2702    54.7365    65.6038     8.7666     0.0436     2.5499     0.1093     0.0951    11.9801     7.9001
 6973.5000    54.6728    48.4876    56.8742    65.9109     8.7658     0.0299     2.5321     0.1047     0.1033    12.2476     8.2144
 6974.0000    53.9175    46.5372    55.0393    65.4798     8.7713     0.0043     2.5133     0.1104     0.1204    12.6277     8.6847
 6974.5000    49.4737    43.9269    50.9654    63.4711     8.7749     0.0039     2.5029     0.1165     0.1280    13.0701     9.2441
 6975.0000    45.6646    41.3176    46.3043    62.8017     8.7727     0.0121     2.5042     0.1082     0.1130    14.1475     9.8396
 6975.5000    43.2003    39.1926    43.7539    62.9818     8.7688     0.0196     2.5520     0.0975     0.0970    15.1163    10.4496
 6976.0000    42.4991    39.2065    44.5681    63.3732     8.7656     0.0183     2.5836     0.0904     0.0831    15.2671    10.3616
 6976.5000    42.4474    39.5638    45.1517    63.1866     8.7685     0.0119     2.5751     0.0910     0.0848    14.6575     9.9127
 6977.0000    42.9006    40.4953    44.7902    62.4863     8.7714     0.0057     2.5527     0.1010     0.0958    14.0553     9.4089
 6977.5000    43.5082    42.9080    42.9372    62.1800     8.7743     0.0066     2.5476     0.1018     0.1044    13.8166     9.1698
 6978.0000    44.0602    47.4805    40.7073    63.4319     8.7772     0.0149     2.5463     0.1009     0.1023    13.8194     9.4516
 6978.5000    45.8103    52.0332    39.2128    64.9878     8.7801     0.0232     2.5451     0.1016     0.1008    13.8250     9.6789
 6979.0000    49.9678    56.5670    43.7430    66.4917     8.7788     0.0352     2.5436     0.1138     0.1071    13.4338     9.6281
 6979.5000    56.7443    59.0538    52.1333    67.9021     8.7739     0.0518     2.5399     0.1282     0.1067    12.9187     9.0328
 6980.0000    63.5212    57.6891    58.4463    68.1414     8.7629     0.0691     2.5362     0.1443     0.1085    12.1422     8.3430
 6980.5000    63.5212    55.0210    64.4198    68.1136     8.7509     0.0758     2.5194     0.1648     0.1141    10.5336     7.7058
 6981.0000    60.5490    53.2146    62.0097    66.7230     8.7433     0.0607     2.5067     0.1680     0.1249    10.1724     7.2871
 6981.5000    56.8339    52.4850    57.3997    64.8215     8.7407     0.0400     2.4960     0.1626     0.1327    10.1146     7.1984
 6982.0000    53.4696    51.4963    52.1619    62.6784     8.7377     0.0133     2.4937     0.1516     0.1367    10.8804     7.6338
 6982.5000    50.3392    49.5932    47.0631    60.5798     8.7344    -0.0021     2.5119     0.1342     0.1228    12.6656     8.7219
 6983.0000    47.2088    44.4433    43.1188    60.4550     8.7344    -0.0007     2.5488     0.1169     0.1074    14.6628    10.1756
 6983.5000    45.0432    38.6340    41.2042    61.7555     8.7344     0.0204     2.5622     0.0996     0.0957    16.0053    11.3200
 6984.0000    48.2609    38.6340    41.7091    63.7341     8.7367     0.0250     2.5615     0.0972     0.0925    15.4552    10.7853
