#--------------------------------------------------#
#-------------------ENVERUS, INC.------------------#
#------------------WWW.ENVERUS.COM-----------------#
#------------------COPYRIGHT 2020------------------#
#--------------------------------------------------#
#THIS FILE MAY BE USED ONLY IN ACCORDANCE WITH A CURRENT SUBSCRIPTION AGREEMENT BETWEEN
#THE USER AND ENVERUS, INC. NO PART OF THIS FILE MAY BE REPRODUCED, USED, COPIED,
#MODIFIED, PROPAGATED, OR DISTRIBUTED EXCEPT IN ACCORDANCE WITH THE SUBSCRIPTION
#AGREEMENT. UNAUTHORIZED USE OR DISTRIBUTION OF ALL OR ANY PART OF THIS FILE MAY VIOLATE
#COPYRIGHT, TRADEMARK, AND/OR OTHER LAWS AND IS SUBJECT TO CIVIL AS WELL AS CRIMINAL
#SANCTIONS.
#--------------------------------------------------#
#THIS FILE IS PROVIDED "AS-IS" AND ALL WARRANTIES ARE EXPRESSLY DISCLAIMED, WHETHER
#EXPRESS, ORAL, IMPLIED, STATUTORY OR OTHERWISE, INCLUDING ANY IMPLIED WARRANTY OF FITNESS
#FOR A PARTICULAR PURPOSE, MERCHANTABILITY, TITLE OR NON-INFRINGEMENT, AND ANY WARRANTIES
#ARISING BY VIRTUE OF CUSTOM OF TRADE OR COURSE OF DEALING.  FURTHER, ENVERUS, INC.
#AND ITS LICENSORS DO NOT REPRESENT OR WARRANT THAT THIS FILE WILL MEET USER'S
#REQUIREMENTS OR ARE SUITABLE FOR USER'S NEEDS OR THAT THE DATA OR RESULTS PROVIDED IN
#CONJUNCTION THEREWITH ARE CORRECT, ACCURATE, TIMELY OR RELIABLE. THESE DISCLAIMERS SHALL
#APPLY REGARDLESS OF ANY FAILURE OF ESSENTIAL PURPOSE OF ANY LIMITED REMEDY.  SOME
#JURISDICTIONS DO NOT ALLOW THE EXCLUSION OF CERTAIN WARRANTIES SO SOME OF THE ABOVE
#EXCLUSIONS MAY NOT APPLY. IN NO EVENT SHALL ENVERUS, INC. OR ANY OF ITS AFFILIATES
#BE LIABLE UNDER ANY LEGAL THEORY, WHETHER IN TORT (INCLUDING WITHOUT LIMITATION
#NEGLIGENCE), CONTRACT, STRICT LIABILITY, STATUTORY OR OTHERWISE, FOR ANY SPECIAL,
#INCIDENTAL, CONSEQUENTIAL, EXEMPLARY, PUNITIVE OR INDIRECT DAMAGE OF ANY KIND, INCLUDING
#WITHOUT LIMITATION LOSS OF REVENUE, PROFITS, GOODWILL, USE, AND/OR DATA OR THE COST OF
#PROCUREMENT OF SUBSTITUTE GOODS OR SERVICES, EVEN IF APPRISED OF THE POSSIBILITY OF SUCH
#DAMAGES IN ADVANCE.
#--------------------------------------------------#

# EXPORTED FROM DI TRANSFORM
# DI TRANSFORM - A PRODUCT OF DRILLINGINFO, INC. - WWW.DRILLINGINFO.COM
#
~VERSION INFORMATION
 VERS.        2.0 : LAS ASCII STANDARD - VERSION 2.0
 WRAP.         NO : ONE LINE PER DEPTH STEP

~WELL INFORMATION
#MNEM.UNIT       DATA TYPE       INFORMATION
#---------       ---------       -----------
 STRT.FT           100 : START DEPTH
 STOP.FT         18040 : STOP DEPTH
 STEP.FT           0.5 : STEP LENGTH
 NULL.         -999.25 : NULL VALUE
 UWI.   42371302980000 : UNIQUE WELL ID
 API.   42371302980000 : WELL IDENTIFIER
 COMP.                 : COMPANY
 WELL.          DRD_55 : WELL NAME
 FLD.                  : FIELD NAME
 LOC.                  : WELL LOCATION
 CNTY.                 : COUNTY
 STAT.                 : STATE OR PROVINCE
 CTRY.                 : COUNTRY
 SRVC.                 : SERVICE COMPANY
 DATE.                 : DATE

~CURVE INFORMATION
#MNEM.UNIT       API CODE       CURVE DESCRIPTION
#---------       --------       -----------------
 DEPT.FT        : <MEASURED DEPTH>
 CAL.IN         : CALIPER
 DT.US/FT       : SONIC
 GR.GAPI        : GAMMA RAY

~PARAMETER INFORMATION
#MNEM.UNIT       VALUE       DESCRIPTION
#---------       -----       -----------

~A       DEPT         CAL          DT          GR
# ...
         2180     -999.25     -999.25     12.7902
       2180.5     -999.25     -999.25     12.8275
         2181     -999.25     -999.25      13.242
       2181.5     -999.25     -999.25     13.6564
         2182     13.1901     -999.25     14.0709
       2182.5     13.1913     -999.25     14.4854
         2183     13.1926     -999.25     14.6341
       2183.5     13.1938     -999.25     14.9078
         2184     13.1951     -999.25     15.4631
       2184.5     13.1963     -999.25     15.7952
         2185     13.1975     -999.25     15.5561
       2185.5     13.1988     -999.25     15.4472
         2186        13.2     -999.25     15.4472
       2186.5     13.2013     -999.25     15.4472
         2187     13.2025     -999.25      14.953
       2187.5     13.2037     -999.25     14.6687
         2188      13.205     -999.25     14.6341
       2188.5     13.2062     -999.25     14.9875
         2189     13.2075     -999.25     15.0407
       2189.5     13.2087     -999.25     15.4099
         2190     13.2099     -999.25     16.3902
       2190.5     13.2112     -999.25     17.4264
         2191     13.2124     -999.25     17.8728
       2191.5     13.2137     -999.25     16.4822
         2192     13.2149     -999.25     15.2387
       2192.5     13.2161     -999.25     14.4256
         2193     13.2174     -999.25     14.2462
       2193.5     13.2186     -999.25     14.6607
         2194     13.2198     -999.25     15.0407
       2194.5     13.2211     -999.25     14.9982
         2195     13.2223     -999.25     14.5837
       2195.5     13.2236     -999.25     14.2276
         2196     13.2248     -999.25      14.095
       2196.5      13.226     -999.25      13.266
         2197     13.2273     -999.25     12.5193
       2197.5     13.2285     -999.25     12.1049
         2198     13.2298     -999.25     11.3958
       2198.5      13.231     -999.25      9.7379
         2199     13.2322     -999.25      8.6507
       2199.5     13.2335     -999.25      9.0652
         2200     13.2347     -999.25      9.4797
       2200.5      13.236     -999.25      9.8941
         2201     13.2372     -999.25     11.3307
       2201.5     13.2384     -999.25     14.6465
         2202     13.2397     -999.25     16.5047
       2202.5     13.2409     -999.25     16.0902
         2203     13.2422     -999.25     15.4979
       2203.5     13.2434     -999.25      14.576
         2204     13.2446     -999.25     13.7337
       2204.5     13.2459     -999.25     13.2128
         2205     13.2471     -999.25     12.7984
       2205.5     13.2484     -999.25     12.1662
         2206     13.2496     -999.25     11.3372
       2206.5     13.2508     -999.25     11.6766
         2207     13.2521     -999.25     12.5576
       2207.5     13.2533     -999.25     13.1793
         2208     13.2546     -999.25     13.6722
       2208.5     13.2558     -999.25     13.8211
         2209      13.257     -999.25     13.8211
       2209.5     13.2583     -999.25     13.5397
         2210     13.2595     -999.25     13.1252
       2210.5     13.2608     -999.25     13.3055
         2211      13.262     -999.25       13.72
       2211.5     13.2632     -999.25     13.8211
         2212     13.2645     -999.25     13.8211
       2212.5     13.2657     -999.25     13.1626
         2213      13.267     -999.25     12.3337
       2213.5     13.2682     -999.25     11.8499
         2214     13.2694     -999.25     11.7886
       2214.5     13.2707     -999.25     11.7886
         2215     13.2719     -999.25     12.3423
       2215.5     13.2732     -999.25      12.964
         2216     13.2744     -999.25     13.3932
       2216.5     13.2756     -999.25     13.8076
         2217     13.2769     -999.25     14.2221
       2217.5     13.2782     -999.25     14.6341
         2218     13.2882     -999.25     14.6498
       2218.5     13.2983     -999.25     15.2898
         2219     13.3077     -999.25     16.3392
       2219.5     13.3089     -999.25     17.5654
         2220      13.324     -999.25     18.7073
       2220.5     13.3409     -999.25     20.7546
         2221     13.3669     -999.25     22.0667
       2221.5     13.3669     -999.25      19.895
         2222     13.3669     -999.25     17.3122
       2222.5     13.3669     -999.25     15.2398
         2223     13.3669     -999.25     13.3927
       2223.5     13.5411     -999.25     12.5036
         2224     14.1848     -999.25     12.1951
       2224.5     14.5009     -999.25     12.1951
         2225     14.6484     -999.25     12.0732
       2225.5      14.739     -999.25     11.3339
         2226     14.7943     -999.25      9.8833
       2226.5      14.843     -999.25      9.3807
         2227     14.9436     -999.25      10.701
       2227.5     15.1094     -999.25      11.828
         2228     15.2582     -999.25     12.1951
       2228.5     15.3737     -999.25     12.4617
         2229     15.4476     -999.25     13.0834
       2229.5     15.7212     -999.25     13.6083
         2230     15.5564     -999.25     13.8211
       2230.5     15.5668     -999.25     13.6115
         2231          16     -999.25     13.1971
       2231.5          16     -999.25     12.7826
         2232          16     -999.25     12.8351
       2232.5          16     -999.25     13.2496
         2233          16     -999.25     13.7888
       2233.5          16     -999.25     14.4105
         2234          16     -999.25     13.5727
       2234.5          16     -999.25     12.7348
         2235          16     -999.25     12.3203
       2235.5          16     -999.25     11.9059
         2236          16     -999.25     11.4914
       2236.5          16     -999.25     11.0769
         2237          16     -999.25     11.9151
       2237.5          16     -999.25     12.6768
         2238          16     -999.25     13.4631
       2238.5          16     -999.25     14.1235
         2239          16     -999.25     14.5727
       2239.5          16     -999.25     14.2811
         2240          16     -999.25     14.5886
       2240.5          16     -999.25     15.0031
         2241          16     -999.25     15.4176
       2241.5          16     -999.25      15.832
         2242          16     -999.25     16.2465
       2242.5          16     -999.25      16.661
         2243          16     -999.25     17.0732
       2243.5          16     -999.25     17.0834
         2244          16     -999.25     17.4979
       2244.5          16     -999.25     17.7946
         2245          16     -999.25     16.3951
       2245.5          16     -999.25     15.5241
         2246          16     -999.25     14.2556
       2246.5          16     -999.25      12.892
         2247          16     -999.25     12.1291
       2247.5          16     -999.25     11.7886
         2248          16     -999.25     11.7067
       2248.5          16     -999.25     11.3303
         2249          16     -999.25     11.1068
       2249.5          16     -999.25     10.9321
         2250          16     -999.25     11.2371
       2250.5          16     -999.25     12.5014
         2251          16     -999.25     12.8615
       2251.5          16     -999.25     12.6873
         2252          16     -999.25      11.979
       2252.5          16     -999.25     11.3194
         2253          16     -999.25     11.2172
       2253.5          16     -999.25     10.8479
         2254          16     -999.25     10.4361
       2254.5          16     -999.25       9.676
         2255          16     -999.25      8.6528
       2255.5          16     -999.25      8.2326
         2256          16     -999.25      8.1301
       2256.5          16     -999.25      8.1301
         2257          16     -999.25      8.3554
       2257.5          16     -999.25      8.7699
         2258          16     -999.25      8.9431
       2258.5          16     -999.25      8.9431
         2259          16     -999.25      8.9431
       2259.5          16     -999.25      9.2083
