#--------------------------------------------------#
#-------------------ENVERUS, INC.------------------#
#------------------WWW.ENVERUS.COM-----------------#
#------------------COPYRIGHT 2020------------------#
#--------------------------------------------------#
#THIS FILE MAY BE USED ONLY IN ACCORDANCE WITH A CURRENT SUBSCRIPTION AGREEMENT BETWEEN
#THE USER AND ENVERUS, INC. NO PART OF THIS FILE MAY BE REPRODUCED, USED, COPIED,
#MODIFIED, PROPAGATED, OR DISTRIBUTED EXCEPT IN ACCORDANCE WITH THE SUBSCRIPTION
#AGREEMENT. UNAUTHORIZED USE OR DISTRIBUTION OF ALL OR ANY PART OF THIS FILE MAY VIOLATE
#COPYRIGHT, TRADEMARK, AND/OR OTHER LAWS AND IS SUBJECT TO CIVIL AS WELL AS CRIMINAL
#SANCTIONS.
#--------------------------------------------------#
#THIS FILE IS PROVIDED "AS-IS" AND ALL WARRANTIES ARE EXPRESSLY DISCLAIMED, WHETHER
#EXPRESS, ORAL, IMPLIED, STATUTORY OR OTHERWISE, INCLUDING ANY IMPLIED WARRANTY OF FITNESS
#FOR A PARTICULAR PURPOSE, MERCHANTABILITY, TITLE OR NON-INFRINGEMENT, AND ANY WARRANTIES
#ARISING BY VIRTUE OF CUSTOM OF TRADE OR COURSE OF DEALING.  FURTHER, ENVERUS, INC.
#AND ITS LICENSORS DO NOT REPRESENT OR WARRANT THAT THIS FILE WILL MEET USER'S
#REQUIREMENTS OR ARE SUITABLE FOR USER'S NEEDS OR THAT THE DATA OR RESULTS PROVIDED IN
#CONJUNCTION THEREWITH ARE CORRECT, ACCURATE, TIMELY OR RELIABLE. THESE DISCLAIMERS SHALL
#APPLY REGARDLESS OF ANY FAILURE OF ESSENTIAL PURPOSE OF ANY LIMITED REMEDY.  SOME
#JURISDICTIONS DO NOT ALLOW THE EXCLUSION OF CERTAIN WARRANTIES SO SOME OF THE ABOVE
#EXCLUSIONS MAY NOT APPLY. IN NO EVENT SHALL ENVERUS, INC. OR ANY OF ITS AFFILIATES
#BE LIABLE UNDER ANY LEGAL THEORY, WHETHER IN TORT (INCLUDING WITHOUT LIMITATION
#NEGLIGENCE), CONTRACT, STRICT LIABILITY, STATUTORY OR OTHERWISE, FOR ANY SPECIAL,
#INCIDENTAL, CONSEQUENTIAL, EXEMPLARY, PUNITIVE OR INDIRECT DAMAGE OF ANY KIND, INCLUDING
#WITHOUT LIMITATION LOSS OF REVENUE, PROFITS, GOODWILL, USE, AND/OR DATA OR THE COST OF
#PROCUREMENT OF SUBSTITUTE GOODS OR SERVICES, EVEN IF APPRISED OF THE POSSIBILITY OF SUCH
#DAMAGES IN ADVANCE.
#--------------------------------------------------#

~VERSION INFORMATION
VERS. 2.0 : CWLS LOG ASCII STANDARD - VERSION 2.0
WRAP.  NO : ONE LINE PER DEPTH STEP
~WELL INFORMATION
#MNEMONIC     .UNIT              VALUE :DESCRIPTION
STRT       .FT                102 :START DEPTH
STOP       .FT                5463 :STOP DEPTH
STEP       .FT                   0.500 :STEP
NULL       .                  -999.990 :NULL
UWI        .              42371363560000 :UNIQUE WELL ID
API        .              42371363560000 :API NUMBER
COMP       .         APACHE CORPORATION :COMPANY
WELL       .        SCHLOSSER, FRED ESTATE -B-  11 :WELL
DATE       .                22-JUN-1992 :LOG DATE
~CURVE INFORMATION
#MNEMONIC     .UNIT      API CODE :CURVE DESCRIPTION
DEPTH       .FT                      :MEASURED DEPTH
DT.US/FT        UNKNOWN   :DT
GR.API        UNKNOWN   :GR
~A    DEPTH    DT    GR
# ...
 3522     68.666   2.401
 3522.5     68.625   2.256
 3523     68.584   2.503
 3523.5     68.543   2.751
 3524     68.514   2.998
 3524.5     68.647   3.245
 3525     68.78   3.492
 3525.5     68.914   3.414
 3526     69.047   3.117
 3526.5     69.021   2.821
 3527     68.79   2.524
 3527.5     68.623   2.228
 3528     68.59   2.678
 3528.5     68.557   3.172
 3529     68.525   3.666
 3529.5     68.49   4.16
 3530     68.449   4.463
 3530.5     68.526   3.991
 3531     68.658   3.518
 3531.5     68.81   3.046
 3532     69.025   2.573
 3532.5     69.241   2.101
 3533     69.137   1.628
 3533.5     68.365   1.155
 3534     68.152   0.98
 3534.5     67.94   1.413
 3535     68.035   1.846
 3535.5     68.368   2.279
 3536     68.596   2.712
 3536.5     68.611   3.032
 3537     68.625   2.75
 3537.5     68.64   2.467
 3538     68.655   2.185
 3538.5     68.67   2.729
 3539     68.684   3.509
 3539.5     68.593   4.289
 3540     68.434   4.094
 3540.5     68.275   3.804
 3541     68.319   3.513
 3541.5     68.375   3.222
 3542     68.43   3.161
 3542.5     68.486   3.127
 3543     68.542   3.093
 3543.5     68.598   3.06
 3544     68.653   3.026
 3544.5     68.709   2.992
 3545     68.361   2.958
 3545.5     68.36   2.925
 3546     68.36   2.891
 3546.5     68.359   3.077
 3547     68.359   3.375
 3547.5     68.359   3.672
 3548     68.358   3.97
 3548.5     68.358   3.68
 3549     68.358   3.159
 3549.5     68.357   2.638
 3550     68.357   2.118
 3550.5     68.357   1.597
 3551     68.356   1.835
 3551.5     68.356   2.239
 3552     68.356   2.644
 3552.5     68.317   2.754
 3553     68.266   2.84
 3553.5     68.215   2.926
 3554     68.203   3.011
 3554.5     68.224   3.097
 3555     68.244   3.183
 3555.5     68.265   3.269
 3556     68.286   3.354
 3556.5     68.306   3.44
 3557     68.355   3.526
 3557.5     68.457   3.234
 3558     68.471   2.895
 3558.5     68.371   2.556
 3559     68.271   2.217
 3559.5     68.275   1.879
 3560     68.383   1.54
 3560.5     68.492   1.201
 3561     68.498   0.903
 3561.5     68.407   1.311
 3562     68.315   1.72
 3562.5     68.255   2.129
 3563     68.268   2.537
 3563.5     68.281   2.946
 3564     68.294   3.326
 3564.5     68.307   3.2
 3565     68.229   3.075
 3565.5     68.038   2.949
 3566     67.865   2.823
 3566.5     67.984   2.698
 3567     68.103   2.572
 3567.5     68.223   2.446
 3568     68.33   2.321
 3568.5     68.404   2.195
 3569     68.478   2.343
 3569.5     68.551   2.56
 3570     68.392   2.776
 3570.5     68.275   2.993
 3571     68.349   3.21
 3571.5     68.422   3.308
 3572     68.496   3.212
 3572.5     68.645   3.117
 3573     68.803   3.022
 3573.5     68.846   2.927
 3574     68.732   2.832
 3574.5     68.618   2.737
 3575     68.504   2.642
 3575.5     68.392   2.203
 3576     68.285   1.948
 3576.5     68.24   2.543
 3577     68.351   3.139
 3577.5     68.462   3.734
 3578     68.573   4.15
 3578.5     68.604   3.876
 3579     68.547   3.602
 3579.5     68.49   3.327
 3580     68.433   3.053
 3580.5     68.43   3.149
 3581     68.493   3.535
 3581.5     68.557   3.921
 3582     68.62   4.307
 3582.5     68.683   4.693
 3583     68.615   5.079
 3583.5     68.523   4.862
 3584     68.432   4.454
 3584.5     68.34   4.045
 3585     68.29   3.637
 3585.5     68.271   3.228
 3586     68.252   2.82
 3586.5     68.222   2.411
 3587     68.05   2.002
 3587.5     67.878   2.439
 3588     67.959   3.243
 3588.5     68.397   3.556
 3589     68.41   3.255
 3589.5     67.125   2.953
 3590     67.66   2.652
 3590.5     68.196   2.484
 3591     68.269   2.8
 3591.5     68.339   3.117
 3592     68.41   3.011
 3592.5     68.48   2.511
 3593     68.433   2.011
 3593.5     68.2   1.512
 3594     67.98   2.076
 3594.5     69.788   2.757
 3595     70.341   3.438
 3595.5     69.295   4.119
 3596     68.822   4.8
 3596.5     69.059   5.481
 3597     69.296   5.664
 3597.5     68.74   4.826
 3598     67.118   3.988
 3598.5     65.497   3.151
 3599     63.551   2.313
 3599.5     60.897   1.475
 3600     58.242   1.961
 3600.5     58.482   2.908
 3601     65.024   3.855
 3601.5     65.564   4.476
 3602     65.888   4.742
 3602.5     66.212   5.009
 3603     67.019   5.275
 3603.5     65.95   5.541
 3604     64.168   5.807
 3604.5     62.442   5.976
 3605     63.345   6.13
 3605.5     63.342   6.284
 3606     62.84   6.438
 3606.5     62.337   5.585
 3607     61.834   4.282
 3607.5     62.139   3.932
 3608     64.365   3.933
 3608.5     64.043   3.934
 3609     63.806   3.934
 3609.5     64.11   3.827
 3610     64.415   3.5
 3610.5     64.719   3.172
 3611     62.899   2.845
 3611.5     60.725   2.518
 3612     67.344   2.197
 3612.5     66.675   1.883
 3613     65.682   1.569
 3613.5     64.787   1.336
 3614     63.898   2.052
 3614.5     65.743   2.769
 3615     67.851   3.485
 3615.5     65.792   4.201
 3616     67.396   4.917
 3616.5     69.001   5.575
 3617     66.989   5.832
 3617.5     69.403   6.089
 3618     71.615   6.345
 3618.5     65.248   6.602
 3619     61.752   6.859
 3619.5     58.443   8.476
 3620     49.897   8.094
 3620.5     49.927   7.712
 3621     50.145   7.331
 3621.5     50.595   6.949
 3622     50.594   7.712
 3622.5     50.594   9.001
 3623     50.593   9.035
 3623.5     50.593   8.878
 3624     50.726   8.72
 3624.5     50.86   8.886
 3625     50.659   9.376
 3625.5     50.381   9.867
 3626     50.087   10.357
 3626.5     49.786   10.346
 3627     49.729   9.469
 3627.5     49.711   8.592
 3628     49.694   7.715
 3628.5     49.664   6.838
 3629     49.51   6.306
 3629.5     49.357   5.972
 3630     49.204   5.638
 3630.5     50.906   5.303
 3631     51.017   5.096
 3631.5     51.129   5.428
 3632     51.24   5.759
 3632.5     51.274   6.091
 3633     50.869   6.422
 3633.5     50.512   6.754
 3634     50.932   7.086
 3634.5     51.104   7.024
 3635     51.15   6.835
 3635.5     51.196   6.646
 3636     51.25   6.457
 3636.5     51.352   6.269
 3637     51.184   6.08
 3637.5     50.2   5.898
 3638     49.933   6.223
 3638.5     50.399   6.548
 3639     50.865   6.872
 3639.5     50.102   7.197
 3640     49.537   7.521
 3640.5     49.857   7.846
 3641     49.812   8.171
 3641.5     49.192   8.37
 3642     49.725   7.683
 3642.5     49.506   6.996
 3643     49.185   6.309
 3643.5     49.487   5.623
 3644     49.79   5.165
 3644.5     50.092   4.84
 3645     50.394   4.515
 3645.5     49.837   4.212
 3646     49.142   4.439
 3646.5     49.142   4.667
 3647     49.142   4.895
 3647.5     49.819   5.123
 3648     50.536   5.351
 3648.5     50.331   5.496
 3649     50.074   5.526
 3649.5     49.818   5.556
 3650     49.96   5.586
 3650.5     50.482   5.616
 3651     50.646   5.646
 3651.5     50.736   5.676
 3652     50.825   5.754
 3652.5     50.704   6.332
 3653     50.426   6.909
 3653.5     50.227   7.487
 3654     50.12   7.845
 3654.5     50.067   8.046
 3655     50.127   8.246
 3655.5     50.187   8.447
 3656     50.22   8.647
 3656.5     49.932   8.376
 3657     49.643   7.98
 3657.5     49.592   7.583
 3658     49.642   7.186
 3658.5     49.692   6.789
 3659     49.606   6.475
 3659.5     49.359   6.196
 3660     49.113   5.917
 3660.5     49.673   5.638
 3661     50.421   6.006
 3661.5     50.237   6.448
 3662     49.834   6.889
 3662.5     49.431   6.89
 3663     49.316   6.891
 3663.5     49.611   6.287
 3664     49.906   5.42
 3664.5     50.147   6.003
 3665     49.921   6.619
 3665.5     49.879   7.235
 3666     50.01   7.85
 3666.5     50.141   7.533
 3667     49.792   6.715
 3667.5     49.564   5.897
 3668     49.594   5.079
 3668.5     49.623   4.868
 3669     49.653   5.737
 3669.5     49.848   6.605
 3670     50.852   7.474
 3670.5     51.39   8.323
 3671     51.282   8.891
 3671.5     51.172   9.456
 3672     51.003   8.699
 3672.5     50.835   7.942
 3673     50.666   7.185
 3673.5     50.497   6.428
 3674     50.635   6.573
 3674.5     50.856   7.599
 3675     50.949   8.625
 3675.5     51.042   9.652
 3676     50.975   10.678
 3676.5     50.828   11.282
 3677     50.682   10.295
