###############################################
##         ENVERUS                           ##
##         ESS - Open Hole                   ##
##         PERMIAN / DELAWARE                ##
##         Nov 04 2023  V4.0                 ##
##         42-389-00802-00-00                ##
###############################################
## Copyright 2017-2023  ENVERUS.  All Rights Reserved. 
## Confidential - Property of ENVERUS, use governed by terms and 
## conditions found within the existing Information Services Subscription Agreement 
## (as may be amended, the “ISSA”) between Customer and ENVERUS. 
## 
~VERSION INFORMATION
# MNEM.UNIT                               DATA : DESCRIPTION OF MNEMONIC
#-----.-----     ----------------------------- : -----------------------------
VERS.                                     2.00 : CWLS LOG ASCII STANDARD - VERSION 2.00
WRAP.                                       NO : MULTIPLE LINES PER DEPTH STEP
VEND.                                  ENVERUS : VENDOR
TYPE.                          ESS - OPEN HOLE : ENVERUS ESSENTIAL CURVES – ACCESSIBLE THROUGH ENVERUS PRISM(TM)
DOC.                                  31817456 : ENVERUS HEADER RAW DOCUMENT ID
#___________________________________________________________________________________________________ 
~WELL INFORMATION 
# RyAIq6UWQPnCIzV1aSVljU5sZzU8mzXCuHzh8Tf3VVfaeSb2oya67RMqigcBPLsftsjdPp3J13KbDcbgGgUr7w== 
# MNEM.UNIT                                              DATA : DESCRIPTION OF MNEMONIC 
#-----.-----                    ----------------------------- : ----------------------------- 
CNTY.                                                  REEVES : COUNTY 
STATE.                                                  TEXAS : STATE 
CNTRY.                                                    USA : COUNTRY 
API.                                             42-389-00802 : API (10 Digit) 
API_14.                                    42-389-00802-00-00 : API (14 Digits) 
API_14_std.                                 42-389-00802-0000 : API (14 Digits Standard) 
UWI.                                           42389008020000 : UNIQUE WELL ID 
WELL.                                                      1, : WELL NAME
STRT.FT                                                 103.0 : START DEPTH
STOP.FT                                                5419.0 : STOP DEPTH
STEP.FT                                                   0.5 : STEP BETWEEN DEPTHS
NULL.                                                 -999.25 : NULL VALUE
#___________________________________________________________________________________________________ 
~CURVE INFORMATION 
# MNEM.UNIT           : CURVE DESCRIPTION 
#-----.-----          : ----------------------------- 
 DEPT.FT               : MEASURED DEPTH 
 GR.API                : GAMMA RAY (GR) 
 DT.US/FT              : SONIC DELTA TRANSIT TIME (DT) 
 #___________________________________________________________________________________________________ 
~A         DEPT             GR             DT
# ...
          451.0         54.973       -999.250
          451.5         54.873       -999.250
          452.0         54.773       -999.250
          452.5         57.956       -999.250
          453.0         57.796       -999.250
          453.5         57.637       -999.250
          454.0         57.477       -999.250
          454.5         57.317       -999.250
          455.0         57.157       -999.250
          455.5         56.998       -999.250
          456.0         56.838       -999.250
          456.5         59.493       -999.250
          457.0         64.270       -999.250
          457.5         69.047       -999.250
          458.0         73.824       -999.250
          458.5         72.094       -999.250
          459.0         67.848       -999.250
          459.5         63.601       -999.250
          460.0         59.355       -999.250
          460.5         55.931       -999.250
          461.0         57.061       -999.250
          461.5         58.192       -999.250
          462.0         59.322       -999.250
          462.5         60.453       -999.250
          463.0         61.074       -999.250
          463.5         58.244       -999.250
          464.0         55.415       -999.250
          464.5         54.111       -999.250
          465.0         56.519       -999.250
          465.5         58.927       -999.250
          466.0         60.007       -999.250
          466.5         59.836       -999.250
          467.0         59.665       -999.250
          467.5         59.494       -999.250
          468.0         59.323       -999.250
          468.5         59.151       -999.250
          469.0         58.980       -999.250
          469.5         58.809       -999.250
          470.0         67.008       -999.250
          470.5         73.434       -999.250
          471.0         75.641       -999.250
          471.5         77.847       -999.250
          472.0         78.402       -999.250
          472.5         74.249       -999.250
          473.0         70.097       -999.250
          473.5         65.945       -999.250
          474.0         61.792       -999.250
          474.5         57.640       -999.250
          475.0         53.488       -999.250
          475.5         52.726       -999.250
          476.0         52.046       -999.250
          476.5         51.365       -999.250
          477.0         50.807       -999.250
          477.5         53.284       -999.250
          478.0         55.762       -999.250
          478.5         58.239       -999.250
          479.0         60.716       -999.250
          479.5         63.190       -999.250
          480.0         65.600       -999.250
          480.5         68.010       -999.250
          481.0         65.664       -999.250
          481.5         62.316       -999.250
          482.0         58.968       -999.250
          482.5         55.620       -999.250
          483.0         52.272       -999.250
          483.5         49.633       -999.250
          484.0         51.705       -999.250
          484.5         53.777       -999.250
          485.0         55.849       -999.250
          485.5         57.921       -999.250
          486.0         59.605       -999.250
          486.5         58.680       -999.250
          487.0         57.755       -999.250
          487.5         56.831       -999.250
          488.0         55.906       -999.250
          488.5         55.120       -999.250
          489.0         56.452       -999.250
          489.5         57.784       -999.250
          490.0         59.116       -999.250
          490.5         60.448       -999.250
          491.0         61.600       -999.250
          491.5         58.804       -999.250
          492.0         56.007       -999.250
          492.5         53.210       -999.250
          493.0         50.414       -999.250
          493.5         50.381       -999.250
          494.0         53.136       -999.250
          494.5         55.890       -999.250
          495.0         58.645       -999.250
          495.5         61.400       -999.250
          496.0         64.155       -999.250
          496.5         66.909       -999.250
          497.0         69.664       -999.250
          497.5         72.419       -999.250
          498.0         71.679       -999.250
          498.5         68.956       -999.250
          499.0         66.232       -999.250
          499.5         63.509       -999.250
          500.0         61.103       -999.250
          500.5         61.800       -999.250
          501.0         62.497       -999.250
          501.5         63.194       -999.250
          502.0         60.460       -999.250
          502.5         56.510       -999.250
          503.0         55.618       -999.250
          503.5         58.438       -999.250
          504.0         61.258       -999.250
          504.5         63.589       -999.250
          505.0         62.697       -999.250
          505.5         61.806       -999.250
          506.0         60.914       -999.250
          506.5         60.023       -999.250
          507.0         59.131       -999.250
          507.5         58.387       -999.250
          508.0         57.792       -999.250
          508.5         57.196       -999.250
          509.0         56.601       -999.250
          509.5         56.005       -999.250
          510.0         55.410       -999.250
          510.5         56.647       -999.250
          511.0         58.147       -999.250
          511.5         59.648       -999.250
          512.0         61.149       -999.250
          512.5         61.622       -999.250
          513.0         60.671       -999.250
          513.5         59.721       -999.250
          514.0         58.770       -999.250
          514.5         57.820       -999.250
          515.0         56.869       -999.250
          515.5         59.036       -999.250
          516.0         62.062       -999.250
          516.5         65.088       -999.250
          517.0         66.139       -999.250
          517.5         64.952       -999.250
          518.0         63.766       -999.250
          518.5         62.579       -999.250
          519.0         61.393       -999.250
          519.5         60.930       -999.250
          520.0         61.594       -999.250
          520.5         62.258       -999.250
          521.0         62.922       -999.250
          521.5         63.586       -999.250
          522.0         63.645       -999.250
          522.5         62.627       -999.250
          523.0         61.609       -999.250
          523.5         60.591       -999.250
          524.0         59.573       -999.250
          524.5         58.555       -999.250
          525.0         57.537       -999.250
          525.5         56.519       -999.250
          526.0         57.150       -999.250
          526.5         59.666       -999.250
          527.0         62.183       -999.250
          527.5         64.154       -999.250
          528.0         62.894       -999.250
          528.5         61.634       -999.250
          529.0         60.374       -999.250
          529.5         59.114       -999.250
          530.0         59.950       -999.250
          530.5         62.025       -999.250
          531.0         64.100       -999.250
          531.5         66.176       -999.250
          532.0         68.251       -999.250
          532.5         66.640       -999.250
          533.0         62.895       -999.250
          533.5         59.150       -999.250
          534.0         55.405       -999.250
          534.5         51.660       -999.250
          535.0         47.916       -999.250
          535.5         49.342       -999.250
          536.0         51.248       -999.250
          536.5         53.154       -999.250
          537.0         53.547       -999.250
          537.5         52.853       -999.250
