###############################################
##         ENVERUS                           ##
##         ESS - Open Hole                   ##
##         PERMIAN / DELAWARE                ##
##         Nov 04 2023  V4.0                 ##
##         42-389-00931-00-00                ##
###############################################
## Copyright 2017-2023  ENVERUS.  All Rights Reserved. 
## Confidential - Property of ENVERUS, use governed by terms and 
## conditions found within the existing Information Services Subscription Agreement 
## (as may be amended, the “ISSA”) between Customer and ENVERUS. 
## 
~VERSION INFORMATION
# MNEM.UNIT                               DATA : DESCRIPTION OF MNEMONIC
#-----.-----     ----------------------------- : -----------------------------
VERS.                                     2.00 : CWLS LOG ASCII STANDARD - VERSION 2.00
WRAP.                                       NO : MULTIPLE LINES PER DEPTH STEP
VEND.                                  ENVERUS : VENDOR
TYPE.                          ESS - OPEN HOLE : ENVERUS ESSENTIAL CURVES – ACCESSIBLE THROUGH ENVERUS PRISM(TM)
DOC.                                  31935239 : ENVERUS HEADER RAW DOCUMENT ID
#___________________________________________________________________________________________________ 
~WELL INFORMATION 
# S9zL0tdqvH3y2XIpNbXcuKF0SeIoK+7NE6VaQ02nn2+shQHF2oZWL/5TS96hefD+9qjP/MIJWV/WOidK809eGw== 
# MNEM.UNIT                                              DATA : DESCRIPTION OF MNEMONIC 
#-----.-----                    ----------------------------- : ----------------------------- 
CNTY.                                                  REEVES : COUNTY 
STATE.                                                  TEXAS : STATE 
CNTRY.                                                    USA : COUNTRY 
API.                                             42-389-00931 : API (10 Digit) 
API_14.                                    42-389-00931-00-00 : API (14 Digits) 
API_14_std.                                 42-389-00931-0000 : API (14 Digits Standard) 
UWI.                                           42389009310000 : UNIQUE WELL ID 
WELL.                                                      1, : WELL NAME
STRT.FT                                                 101.0 : START DEPTH
STOP.FT                                                5373.0 : STOP DEPTH
STEP.FT                                                   0.5 : STEP BETWEEN DEPTHS
NULL.                                                 -999.25 : NULL VALUE
#___________________________________________________________________________________________________ 
~CURVE INFORMATION 
# MNEM.UNIT           : CURVE DESCRIPTION 
#-----.-----          : ----------------------------- 
 DEPT.FT               : MEASURED DEPTH 
 GR.API                : GAMMA RAY (GR) 
 DT.US/FT              : SONIC DELTA TRANSIT TIME (DT) 
 #___________________________________________________________________________________________________ 
~A         DEPT             GR             DT
# ...
         3233.0         18.820         68.014
         3233.5         19.293         67.986
         3234.0         19.766         67.958
         3234.5         20.239         67.929
         3235.0         20.605         67.901
         3235.5         19.508         67.872
         3236.0         18.410         67.844
         3236.5         17.313         67.816
         3237.0         16.216         67.787
         3237.5         15.118         67.759
         3238.0         14.021         67.730
         3238.5         12.924         67.702
         3239.0         11.826         67.674
         3239.5         10.729         67.690
         3240.0         11.088         67.732
         3240.5         11.562         67.773
         3241.0         12.036         67.815
         3241.5         12.510         67.856
         3242.0         12.984         67.898
         3242.5         13.459         67.939
         3243.0         13.933         67.981
         3243.5         14.407         68.022
         3244.0         14.026         68.064
         3244.5         13.143         68.105
         3245.0         12.260         68.147
         3245.5         11.377         68.188
         3246.0         10.494         68.230
         3246.5          9.611         68.271
         3247.0          8.887         68.313
         3247.5          8.877         68.354
         3248.0          8.867         68.396
         3248.5          8.857         68.437
         3249.0          8.846         68.441
         3249.5          8.836         68.405
         3250.0          8.826         68.368
         3250.5          8.816         68.331
         3251.0          8.806         68.294
         3251.5          8.796         68.257
         3252.0          8.785         68.221
         3252.5          8.775         68.184
         3253.0          8.765         68.147
         3253.5          8.955         68.110
         3254.0         13.065         68.073
         3254.5         17.175         68.036
         3255.0         21.310         68.000
         3255.5         29.139         67.963
         3256.0         36.968         67.926
         3256.5         44.797         67.889
         3257.0         47.400         67.852
         3257.5         43.872         67.815
         3258.0         40.345         67.779
         3258.5         36.818         67.742
         3259.0         33.291         67.765
         3259.5         29.764         67.806
         3260.0         26.237         67.846
         3260.5         17.462         67.886
         3261.0         11.441         67.926
         3261.5         11.778         67.967
         3262.0         12.116         68.007
         3262.5         12.454         68.047
         3263.0         12.791         68.087
         3263.5         13.129         68.128
         3264.0         13.467         68.168
         3264.5         13.804         68.208
         3265.0         13.890         68.248
         3265.5         13.339         68.289
         3266.0         12.788         68.275
         3266.5         12.237         68.183
         3267.0         11.686         68.092
         3267.5         11.135         68.000
         3268.0         10.911         67.908
         3268.5         11.225         67.816
         3269.0         11.539         67.725
         3269.5         11.852         67.633
         3270.0         12.166         67.541
         3270.5         12.479         67.449
         3271.0         12.030         67.410
         3271.5         11.333         67.502
         3272.0         10.635         67.594
         3272.5          9.938         67.686
         3273.0          9.241         67.779
         3273.5          8.727         67.871
         3274.0          9.596         67.963
         3274.5         10.465         68.055
         3275.0         11.335         68.148
         3275.5         11.563         68.240
         3276.0         10.715         68.163
         3276.5          9.867         68.062
         3277.0          9.019         67.960
         3277.5          8.171         67.859
         3278.0          7.323         67.757
         3278.5          6.475         67.656
         3279.0          6.520         67.627
         3279.5          7.026         67.780
         3280.0          7.533         67.933
         3280.5          8.040         68.087
         3281.0          8.014         68.240
         3281.5          7.106         68.393
         3282.0          6.197         68.507
         3282.5          5.289         68.326
         3283.0          4.380         68.146
         3283.5          3.476         67.965
         3284.0          3.759         67.785
         3284.5          4.042         67.668
         3285.0          4.325         67.739
         3285.5          4.607         67.810
         3286.0          4.890         67.881
         3286.5          5.173         67.952
         3287.0          5.455         68.023
         3287.5          5.738         68.094
         3288.0          6.021         68.165
         3288.5          6.260         68.237
         3289.0          6.105         68.132
         3289.5          5.949         68.024
         3290.0          5.794         67.916
         3290.5          5.638         67.808
         3291.0          5.483         67.699
         3291.5          5.327         67.591
         3292.0          5.172         67.634
         3292.5          5.016         67.691
         3293.0          4.861         67.748
         3293.5          4.705         67.805
         3294.0          4.697         67.862
         3294.5          4.757         67.919
         3295.0          4.817         67.975
         3295.5          4.878         68.032
         3296.0          4.938         68.089
         3296.5          4.998         68.081
         3297.0          5.058         68.013
         3297.5          5.118         67.945
         3298.0          5.178         67.878
         3298.5          5.238         67.810
         3299.0          5.298         67.742
         3299.5          5.358         67.674
         3300.0          5.418         67.606
         3300.5          5.479         67.756
         3301.0          5.333         68.003
         3301.5          4.922         68.250
         3302.0          4.511         68.497
         3302.5          4.101         68.429
         3303.0          3.807         68.333
         3303.5          4.204         68.237
         3304.0          4.601         68.142
         3304.5          4.998         68.046
         3305.0          5.395         67.951
         3305.5          5.792         67.855
         3306.0          6.189         67.801
         3306.5          6.586         67.885
         3307.0          6.983         67.968
         3307.5          7.380         68.052
         3308.0          7.635         68.135
         3308.5          7.436         68.219
         3309.0          7.237         68.302
         3309.5          7.038         68.379
         3310.0          6.838         68.279
         3310.5          6.639         68.180
         3311.0          6.440         68.080
         3311.5          6.241         67.981
         3312.0          6.042         67.881
         3312.5          5.921         67.781
         3313.0          5.921         67.845
         3313.5          5.921         67.909
         3314.0          5.921         67.973
         3314.5          5.921         68.037
         3315.0          5.921         68.101
         3315.5          5.921         68.165
         3316.0          5.948         68.229
         3316.5          6.125         68.293
         3317.0          6.302         68.356
         3317.5          6.480         68.331
         3318.0          6.657         68.246
         3318.5          6.834         68.161
         3319.0          7.011         68.076
         3319.5          7.188         67.991
