#--------------------------------------------------#
#-------------------ENVERUS, INC.------------------#
#------------------WWW.ENVERUS.COM-----------------#
#------------------COPYRIGHT 2020------------------#
#--------------------------------------------------#
#THIS FILE MAY BE USED ONLY IN ACCORDANCE WITH A CURRENT SUBSCRIPTION AGREEMENT BETWEEN
#THE USER AND ENVERUS, INC. NO PART OF THIS FILE MAY BE REPRODUCED, USED, COPIED,
#MODIFIED, PROPAGATED, OR DISTRIBUTED EXCEPT IN ACCORDANCE WITH THE SUBSCRIPTION
#AGREEMENT. UNAUTHORIZED USE OR DISTRIBUTION OF ALL OR ANY PART OF THIS FILE MAY VIOLATE
#COPYRIGHT, TRADEMARK, AND/OR OTHER LAWS AND IS SUBJECT TO CIVIL AS WELL AS CRIMINAL
#SANCTIONS.
#--------------------------------------------------#
#THIS FILE IS PROVIDED "AS-IS" AND ALL WARRANTIES ARE EXPRESSLY DISCLAIMED, WHETHER
#EXPRESS, ORAL, IMPLIED, STATUTORY OR OTHERWISE, INCLUDING ANY IMPLIED WARRANTY OF FITNESS
#FOR A PARTICULAR PURPOSE, MERCHANTABILITY, TITLE OR NON-INFRINGEMENT, AND ANY WARRANTIES
#ARISING BY VIRTUE OF CUSTOM OF TRADE OR COURSE OF DEALING.  FURTHER, ENVERUS, INC.
#AND ITS LICENSORS DO NOT REPRESENT OR WARRANT THAT THIS FILE WILL MEET USER'S
#REQUIREMENTS OR ARE SUITABLE FOR USER'S NEEDS OR THAT THE DATA OR RESULTS PROVIDED IN
#CONJUNCTION THEREWITH ARE CORRECT, ACCURATE, TIMELY OR RELIABLE. THESE DISCLAIMERS SHALL
#APPLY REGARDLESS OF ANY FAILURE OF ESSENTIAL PURPOSE OF ANY LIMITED REMEDY.  SOME
#JURISDICTIONS DO NOT ALLOW THE EXCLUSION OF CERTAIN WARRANTIES SO SOME OF THE ABOVE
#EXCLUSIONS MAY NOT APPLY. IN NO EVENT SHALL ENVERUS, INC. OR ANY OF ITS AFFILIATES
#BE LIABLE UNDER ANY LEGAL THEORY, WHETHER IN TORT (INCLUDING WITHOUT LIMITATION
#NEGLIGENCE), CONTRACT, STRICT LIABILITY, STATUTORY OR OTHERWISE, FOR ANY SPECIAL,
#INCIDENTAL, CONSEQUENTIAL, EXEMPLARY, PUNITIVE OR INDIRECT DAMAGE OF ANY KIND, INCLUDING
#WITHOUT LIMITATION LOSS OF REVENUE, PROFITS, GOODWILL, USE, AND/OR DATA OR THE COST OF
#PROCUREMENT OF SUBSTITUTE GOODS OR SERVICES, EVEN IF APPRISED OF THE POSSIBILITY OF SUCH
#DAMAGES IN ADVANCE.
#--------------------------------------------------#

~VERSION INFORMATION
VERS. 2.0 : CWLS LOG ASCII STANDARD - VERSION 2.0
WRAP.  NO : ONE LINE PER DEPTH STEP
~WELL INFORMATION
#MNEMONIC     .UNIT              VALUE :DESCRIPTION
STRT       .FT                75 :START DEPTH
STOP       .FT                5648 :STOP DEPTH
STEP       .FT                   0.500 :STEP
NULL       .                  -999.990 :NULL
UWI        .              42371363570000 :UNIQUE WELL ID
API        .              42371363570000 :API NUMBER
COMP       .         APACHE CORPORATION :COMPANY
WELL       .        SCHLOSSER, FRED ESTATE -B-  13 :WELL
DATE       .                16-MAY-1992 :LOG DATE
~CURVE INFORMATION
#MNEMONIC     .UNIT      API CODE :CURVE DESCRIPTION
DEPTH       .FT                      :MEASURED DEPTH
DT.US/FT        UNKNOWN   :DT
GR.API        UNKNOWN   :GR
~A    DEPTH    DT    GR
# ...
 1091     54.555   22.425
 1091.5     53.481   21.352
 1092     57.565   20.278
 1092.5     57.06   19.204
 1093     54.922   18.587
 1093.5     52.787   19.179
 1094     50.981   20.197
 1094.5     51.711   21.218
 1095     53.284   22.239
 1095.5     54.649   22.354
 1096     55.283   22.26
 1096.5     55.233   22.167
 1097     54.861   22.073
 1097.5     54.489   22.131
 1098     54.016   23.453
 1098.5     52.683   22.235
 1099     51.349   21.017
 1099.5     50.016   19.839
 1100     49.993   22.43
 1100.5     53.027   25.021
 1101     56.302   26.765
 1101.5     56.824   27.665
 1102     54.077   28.564
 1102.5     51.867   29.463
 1103     49.775   32.393
 1103.5     52.44   35.502
 1104     55.703   34.205
 1104.5     57.081   32.907
 1105     58.701   31.61
 1105.5     58.26   30.532
 1106     59.899   29.891
 1106.5     61.88   29.25
 1107     63.862   28.609
 1107.5     56.267   27.968
 1108     55.03   27.328
 1108.5     53.837   27.564
 1109     53.142   28.118
 1109.5     54.966   27.933
 1110     59.527   26.826
 1110.5     59.09   28.017
 1111     55.964   27.605
 1111.5     52.947   26.838
 1112     55.506   26.071
 1112.5     57.244   25.303
 1113     54.558   24.536
 1113.5     51.871   24.283
 1114     55.494   24.112
 1114.5     67.864   23.942
 1115     76.166   23.183
 1115.5     80.921   22.101
 1116     85.675   21.018
 1116.5     64.675   19.936
 1117     58.934   18.854
 1117.5     53.638   17.88
 1118     57.088   21.121
 1118.5     67.253   24.278
 1119     77.39   26.716
 1119.5     74.233   26.996
 1120     73.473   28.628
 1120.5     77.537   36.32
 1121     81.602   42.038
 1121.5     82.002   44.509
 1122     83.632   44.435
 1122.5     86.379   41.735
 1123     89.126   38.887
 1123.5     91.873   34.348
 1124     104.427   29.81
 1124.5     108.078   25.271
 1125     110.448   24.981
 1125.5     106.737   26.232
 1126     103.027   25.285
 1126.5     93.583   23.882
 1127     82.481   22.479
 1127.5     68.603   21.885
 1128     76.683   21.92
 1128.5     75.472   22.38
 1129     72.305   22.841
 1129.5     69.137   21.936
 1130     69.673   20.535
 1130.5     94.544   20.091
 1131     97.704   20.388
 1131.5     97.287   20.685
 1132     90.095   20.982
 1132.5     82.904   18.427
 1133     75.316   15.349
 1133.5     67.475   12.922
 1134     59.736   11.563
 1134.5     53.741   11.771
 1135     52.571   11.984
 1135.5     52.344   12.197
 1136     52.117   12.41
 1136.5     56.581   12.623
 1137     71.194   13.917
 1137.5     74.903   16.585
 1138     72.108   21.071
 1138.5     67.667   20.986
 1139     59.41   20.647
 1139.5     60.123   20.308
 1140     61.16   15.369
 1140.5     62.196   13.835
 1141     52.363   13.461
 1141.5     53.639   13.087
 1142     54.916   12.714
 1142.5     54.233   12.655
 1143     54.687   12.709
 1143.5     56.864   14.786
 1144     59.042   17.337
 1144.5     59.668   19.889
 1145     59.886   25.304
 1145.5     60.104   30.788
 1146     85.119   34.16
 1146.5     85.025   37.116
 1147     88.753   40.373
 1147.5     92.846   44.076
 1148     95.181   43.809
 1148.5     95.674   43.541
 1149     96.166   43.273
 1149.5     96.659   42.832
 1150     97.152   41.797
 1150.5     94.411   40.762
 1151     94.83   39.727
 1151.5     95.249   37.713
 1152     95.668   34.91
 1152.5     91.032   32.107
 1153     87.638   29.965
 1153.5     84.477   29.683
 1154     85.746   31.526
 1154.5     87.408   35.845
 1155     89.08   36.046
 1155.5     90.849   36.247
 1156     92.619   36.449
 1156.5     90.703   36.743
 1157     87.904   39.33
 1157.5     85.065   41.916
 1158     77.775   40.947
 1158.5     77.092   38.692
 1159     77.438   36.436
 1159.5     69.349   32.661
 1160     65.178   28.708
 1160.5     63.66   24.81
 1161     62.338   25.104
 1161.5     64.181   25.399
 1162     67.052   28.192
 1162.5     69.841   34.045
 1163     69.17   45.89
 1163.5     72.58   48.739
 1164     74.678   47.514
 1164.5     74.993   45.276
 1165     72.825   43.364
 1165.5     70.219   42.913
 1166     63.1   41.84
 1166.5     55.594   38.877
 1167     53.352   35.915
 1167.5     53.64   33.328
 1168     53.928   30.981
 1168.5     54.216   29.123
 1169     54.504   29.158
 1169.5     54.561   29.193
 1170     54.303   31.439
 1170.5     54.134   30.817
 1171     54.346   30.195
 1171.5     54.558   28.688
 1172     54.413   26.695
 1172.5     54.073   25.51
 1173     54.46   24.413
 1173.5     55.12   23.38
 1174     55.405   22.405
 1174.5     55.333   21.431
 1175     58.554   20.517
 1175.5     62.755   20.414
 1176     60.366   21.14
 1176.5     57.977   21.867
 1177     56.383   22.579
 1177.5     55.681   22.614
 1178     54.98   22.648
 1178.5     54.279   22.635
 1179     53.932   20.732
 1179.5     54.387   18.828
 1180     54.841   17.773
 1180.5     55.296   17.219
 1181     55.333   16.665
 1181.5     54.951   16.111
 1182     54.569   17.122
 1182.5     54.187   18.08
 1183     55.051   17.926
 1183.5     55.938   17.773
 1184     55.718   17.619
 1184.5     55.17   18.252
 1185     54.864   19.346
 1185.5     54.839   20.44
 1186     55   19.67
 1186.5     55.161   17.943
 1187     55.323   16.769
 1187.5     55.346   17.078
 1188     55.193   17.386
 1188.5     55.04   17.695
 1189     54.887   19.989
 1189.5     55.29   22.338
 1190     55.715   20.76
 1190.5     55.418   19.183
 1191     55.121   18.745
 1191.5     54.824   19.143
 1192     54.527   19.54
 1192.5     54.23   20.229
 1193     54.964   21.12
 1193.5     56.39   23.992
 1194     57.816   27.127
 1194.5     62.149   31.686
 1195     66.73   35.935
 1195.5     61.458   38.523
 1196     62.136   41.111
 1196.5     62.796   39.93
 1197     62.781   38.101
 1197.5     62.766   36.271
 1198     64.097   36.94
 1198.5     65.761   39.351
 1199     68.167   38.816
 1199.5     69.026   37.025
 1200     68.906   35.233
 1200.5     68.786   33.452
 1201     67.717   34.072
 1201.5     65.645   34.693
 1202     63.573   35.313
 1202.5     64.869   35.646
 1203     67.935   34.574
 1203.5     73.859   33.503
 1204     81.696   32.432
 1204.5     86.714   31.361
 1205     91.442   31.055
 1205.5     96.169   33.793
 1206     93.217   36.531
 1206.5     89.022   38.236
 1207     84.827   37.168
 1207.5     64.453   35.574
 1208     62.212   33.536
 1208.5     62.809   31.675
 1209     63.405   30.861
 1209.5     64.002   30.047
 1210     63.371   30.08
 1210.5     59.75   31.746
 1211     58.991   33.114
 1211.5     58.305   34.322
 1212     56.902   35.177
 1212.5     55.938   35.284
 1213     58.085   35.391
 1213.5     58.184   35.008
 1214     58.617   33.615
 1214.5     59.047   32.758
 1215     59.047   32.786
 1215.5     59.526   32.814
 1216     60.676   32.843
 1216.5     61.825   31.993
 1217     62.975   30.83
 1217.5     64.12   29.667
 1218     62.43   28.504
 1218.5     62.645   29.768
 1219     62.861   32.475
 1219.5     61.95   35.183
 1220     59.85   36.738
 1220.5     58.39   35.229
 1221     59.242   33.189
 1221.5     58.932   32.011
 1222     57.959   31.876
 1222.5     56.985   31.741
 1223     56.011   31.606
 1223.5     55.089   30.718
 1224     54.489   28.589
 1224.5     54.024   26.46
 1225     53.677   27.655
 1225.5     53.33   28.916
 1226     53.816   30.176
 1226.5     54.591   31.971
 1227     55.157   33.648
 1227.5     55.724   33.394
 1228     55.538   33.14
 1228.5     54.723   32.625
 1229     54.926   30.022
 1229.5     55.778   28.046
 1230     57.705   27.189
 1230.5     59.631   26.86
 1231     61.164   28.607
 1231.5     61.296   30.229
 1232     61.428   30.651
 1232.5     61.561   31.072
 1233     64.851   31.142
 1233.5     66.415   30.903
 1234     64.961   30.663
 1234.5     65.729   30.424
 1235     66.794   31.909
 1235.5     67.86   33.619
 1236     68.926   35.33
 1236.5     69.992   36.8
 1237     68.596   35.642
 1237.5     66.466   34.484
 1238     66.269   33.326
 1238.5     67.735   32.168
 1239     66.693   31.252
 1239.5     65.517   32.272
 1240     66.287   33.292
