#--------------------------------------------------#
#-------------------ENVERUS, INC.------------------#
#------------------WWW.ENVERUS.COM-----------------#
#------------------COPYRIGHT 2020------------------#
#--------------------------------------------------#
#THIS FILE MAY BE USED ONLY IN ACCORDANCE WITH A CURRENT SUBSCRIPTION AGREEMENT BETWEEN
#THE USER AND ENVERUS, INC. NO PART OF THIS FILE MAY BE REPRODUCED, USED, COPIED,
#MODIFIED, PROPAGATED, OR DISTRIBUTED EXCEPT IN ACCORDANCE WITH THE SUBSCRIPTION
#AGREEMENT. UNAUTHORIZED USE OR DISTRIBUTION OF ALL OR ANY PART OF THIS FILE MAY VIOLATE
#COPYRIGHT, TRADEMARK, AND/OR OTHER LAWS AND IS SUBJECT TO CIVIL AS WELL AS CRIMINAL
#SANCTIONS.
#--------------------------------------------------#
#THIS FILE IS PROVIDED "AS-IS" AND ALL WARRANTIES ARE EXPRESSLY DISCLAIMED, WHETHER
#EXPRESS, ORAL, IMPLIED, STATUTORY OR OTHERWISE, INCLUDING ANY IMPLIED WARRANTY OF FITNESS
#FOR A PARTICULAR PURPOSE, MERCHANTABILITY, TITLE OR NON-INFRINGEMENT, AND ANY WARRANTIES
#ARISING BY VIRTUE OF CUSTOM OF TRADE OR COURSE OF DEALING.  FURTHER, ENVERUS, INC.
#AND ITS LICENSORS DO NOT REPRESENT OR WARRANT THAT THIS FILE WILL MEET USER'S
#REQUIREMENTS OR ARE SUITABLE FOR USER'S NEEDS OR THAT THE DATA OR RESULTS PROVIDED IN
#CONJUNCTION THEREWITH ARE CORRECT, ACCURATE, TIMELY OR RELIABLE. THESE DISCLAIMERS SHALL
#APPLY REGARDLESS OF ANY FAILURE OF ESSENTIAL PURPOSE OF ANY LIMITED REMEDY.  SOME
#JURISDICTIONS DO NOT ALLOW THE EXCLUSION OF CERTAIN WARRANTIES SO SOME OF THE ABOVE
#EXCLUSIONS MAY NOT APPLY. IN NO EVENT SHALL ENVERUS, INC. OR ANY OF ITS AFFILIATES
#BE LIABLE UNDER ANY LEGAL THEORY, WHETHER IN TORT (INCLUDING WITHOUT LIMITATION
#NEGLIGENCE), CONTRACT, STRICT LIABILITY, STATUTORY OR OTHERWISE, FOR ANY SPECIAL,
#INCIDENTAL, CONSEQUENTIAL, EXEMPLARY, PUNITIVE OR INDIRECT DAMAGE OF ANY KIND, INCLUDING
#WITHOUT LIMITATION LOSS OF REVENUE, PROFITS, GOODWILL, USE, AND/OR DATA OR THE COST OF
#PROCUREMENT OF SUBSTITUTE GOODS OR SERVICES, EVEN IF APPRISED OF THE POSSIBILITY OF SUCH
#DAMAGES IN ADVANCE.
#--------------------------------------------------#

~VERSION INFORMATION
VERS. 2.0 : CWLS LOG ASCII STANDARD - VERSION 2.0
WRAP. NO : ONE LINE PER DEPTH STEP
~WELL INFORMATION
#MNEMONIC     .UNIT              VALUE :DESCRIPTION
STRT       .FT                101.00000 :START DEPTH
STOP       .FT                5802.00000 :STOP DEPTH
STEP       .FT                0.50000 :STEP
NULL       .                -999.25000 :NULL VALUE
UWI       .                42389010150000 :UNIQUE WELL ID
API       .                42389010150000 :API NUMBER
COMP       .                 :COMPANY
WELL       .                 :WELL
FLD       .                 :FIELD
LOC       .                 :LOCATION
CNTY       .                 :COUNTY
STAT       .                 :STATE
CTRY       .                 :COUNTRY
SRVC       .                 :SERVICE COMPANY
DATE       .                 :DATE
~CURVE INFORMATION
#MNEMONIC     .UNIT      API CODE :CURVE DESCRIPTION
DEPTH       .FT                      :MEASURED DEPTH
DT       .US/FT        UNKNOWN   :DT
GR       .GAPI        UNKNOWN   :GR
~A    DEPTH    DT    GR
# ...
4939.00000    49.10536    7.81028
4939.50000    49.05114    8.23526
4940.00000    49.11290    8.83985
4940.50000    49.17467    9.44443
4941.00000    49.23644    8.65139
4941.50000    49.29821    7.82909
4942.00000    49.35998    7.00679
4942.50000    49.42175    7.38248
4943.00000    49.48352    7.91523
4943.50000    49.54529    8.44799
4944.00000    49.64113    8.98075
4944.50000    49.85975    9.18482
4945.00000    50.07836    8.68781
4945.50000    50.29697    8.19079
4946.00000    50.51558    7.69378
4946.50000    50.73419    7.19677
4947.00000    50.90104    6.89144
4947.50000    50.90191    6.88941
4948.00000    50.90277    6.88739
4948.50000    50.90364    6.55484
4949.00000    50.90450    5.63297
4949.50000    50.90537    5.86170
4950.00000    50.90623    6.09043
4950.50000    50.75229    6.31916
4951.00000    48.59206    6.54789
4951.50000    48.64777    6.77663
4952.00000    48.70347    6.91760
4952.50000    48.75918    6.99540
4953.00000    48.81489    7.07320
4953.50000    48.87059    7.15099
4954.00000    48.92630    7.22879
4954.50000    48.98201    7.30659
4955.00000    49.03771    7.38438
4955.50000    49.09342    7.39329
4956.00000    49.14913    7.17937
4956.50000    49.20483    6.96546
4957.00000    49.26054    6.75154
4957.50000    49.31625    6.63064
4958.00000    49.37195    6.58620
4958.50000    49.36929    6.54175
4959.00000    49.30153    6.49731
4959.50000    49.23376    6.45287
4960.00000    49.16599    5.81373
4960.50000    49.09823    5.14408
4961.00000    49.03046    4.61013
4961.50000    49.03175    4.72971
4962.00000    49.42640    4.84928
4962.50000    49.82105    4.96885
4963.00000    50.21570    5.08843
4963.50000    50.35455    5.20800
4964.00000    50.38635    5.32758
4964.50000    50.41815    5.37177
4965.00000    50.44995    5.39030
4965.50000    50.48175    5.40882
4966.00000    50.51355    5.42735
4966.50000    50.54535    5.44587
4967.00000    50.57715    5.46440
4967.50000    50.60895    5.48292
4968.00000    50.64075    5.50145
4968.50000    50.67255    5.51997
4969.00000    50.70435    5.60580
4969.50000    50.98918    5.89307
4970.00000    51.61455    6.18033
4970.50000    52.23992    6.46759
4971.00000    51.71139    6.75485
4971.50000    50.92912    7.04211
4972.00000    50.14684    7.32938
4972.50000    49.36456    6.83265
4973.00000    49.34121    6.18233
4973.50000    49.59585    5.53200
4974.00000    49.85050    4.88168
4974.50000    50.10514    4.23136
4975.00000    50.35979    3.58104
4975.50000    50.61443    3.91244
4976.00000    50.86908    4.74677
4976.50000    51.12372    5.58110
4977.00000    51.29173    6.27604
4977.50000    51.06576    6.88773
4978.00000    50.83979    7.49942
4978.50000    50.61382    8.11112
4979.00000    50.38786    8.72281
4979.50000    50.25648    9.33450
4980.00000    50.63604    9.94619
4980.50000    50.54192    9.37247
4981.00000    50.37471    8.09018
4981.50000    50.20750    6.80790
4982.00000    50.04029    5.52561
4982.50000    50.05134    5.06019
4983.00000    50.15046    5.17633
4983.50000    50.24957    5.29247
4984.00000    50.34869    5.40861
4984.50000    50.44780    5.52475
4985.00000    50.47799    5.64090
4985.50000    50.11140    5.75704
4986.00000    49.74480    5.87318
4986.50000    49.37821    5.84969
4987.00000    49.01161    5.52996
4987.50000    48.97349    5.27163
4988.00000    49.18294    5.31510
4988.50000    49.39240    5.35857
4989.00000    49.60185    5.40204
4989.50000    49.81131    5.44551
4990.00000    50.02076    5.71276
4990.50000    50.23022    6.01048
4991.00000    50.43967    6.30819
4991.50000    50.64912    6.60591
4992.00000    50.85858    6.90362
4992.50000    51.06803    6.66108
4993.00000    51.07324    6.41468
4993.50000    51.05720    6.16828
4994.00000    51.04116    5.92188
4994.50000    51.02512    5.67547
4995.00000    51.00908    5.42907
4995.50000    50.99304    5.18267
4996.00000    50.97700    4.93847
4996.50000    50.96096    5.42919
4997.00000    50.94492    5.91990
4997.50000    50.92888    6.41062
4998.00000    50.91284    6.87662
4998.50000    50.89680    6.74743
4999.00000    50.88076    6.61823
4999.50000    50.86472    6.48904
5000.00000    50.84868    6.35985
5000.50000    50.83264    6.41677
5001.00000    49.44529    6.71549
5001.50000    50.03761    7.01420
5002.00000    50.62994    7.31292
5002.50000    51.22226    7.61164
5003.00000    51.81458    6.88297
5003.50000    51.64808    5.45111
5004.00000    51.20215    5.70451
5004.50000    50.75623    5.95791
5005.00000    50.31031    6.28303
5005.50000    49.86439    6.66821
5006.00000    50.04663    7.05338
5006.50000    50.43681    7.43856
5007.00000    50.82700    7.82373
5007.50000    51.21718    8.20891
5008.00000    51.60737    8.15798
5008.50000    51.54452    7.95731
5009.00000    51.17311    7.75665
5009.50000    50.80170    7.55599
5010.00000    51.86492    7.35532
5010.50000    51.80730    6.02093
5011.00000    51.74969    4.98186
5011.50000    51.69207    5.36835
5012.00000    51.63446    5.75484
5012.50000    51.45363    6.14133
5013.00000    51.17954    6.52783
5013.50000    50.90545    6.30733
5014.00000    50.63136    6.08537
5014.50000    50.35727    5.86342
5015.00000    50.08318    5.64389
5015.50000    49.80909    6.15768
5016.00000    50.15589    6.67146
5016.50000    51.06072    7.18524
5017.00000    50.96497    7.69902
5017.50000    50.86922    8.21280
5018.00000    50.77348    8.09316
5018.50000    50.54364    7.37449
5019.00000    50.43353    6.65581
5019.50000    50.32475    5.93714
5020.00000    50.21597    5.21847
5020.50000    50.10718    5.38988
5021.00000    49.99840    5.68067
5021.50000    49.88962    5.97147
5022.00000    49.78083    6.30707
5022.50000    49.67205    6.80821
5023.00000    49.65777    7.30934
5023.50000    49.73173    7.81048
5024.00000    49.80569    8.31162
5024.50000    49.87964    8.81275
5025.00000    49.95360    9.31389
5025.50000    50.02756    9.38449
5026.00000    50.10151    9.35351
5026.50000    50.17547    9.32253
5027.00000    50.24943    9.16608
5027.50000    50.19959    8.84666
5028.00000    50.07137    8.52724
5028.50000    49.94316    8.20782
5029.00000    49.81495    7.88840
5029.50000    49.68673    7.91725
5030.00000    49.55852    8.02149
5030.50000    49.61386    8.12574
5031.00000    50.08685    8.22998
5031.50000    50.55984    8.33422
5032.00000    51.03282    6.95458
5032.50000    51.05497    5.58287
5033.00000    51.00221    5.89093
5033.50000    50.94945    6.19899
5034.00000    50.89670    6.50705
5034.50000    50.84394    6.81510
5035.00000    50.79118    7.12316
5035.50000    50.73843    7.43122
5036.00000    50.68567    7.73928
5036.50000    50.63291    8.04734
5037.00000    50.58016    8.35539
5037.50000    50.69148    8.49948
5038.00000    50.86232    8.20634
5038.50000    50.95015    7.91320
5039.00000    50.66247    7.62006
5039.50000    50.37479    7.94303
5040.00000    50.08711    8.70630
5040.50000    49.96760    9.46956
5041.00000    50.08023    10.23282
5041.50000    50.19287    10.13196
5042.00000    50.29809    9.51825
5042.50000    50.09983    8.90455
5043.00000    49.90158    8.29084
5043.50000    49.70332    7.67714
5044.00000    49.50506    8.84151
5044.50000    49.30681    10.00773
5045.00000    49.41637    10.92005
5045.50000    49.75468    11.64485
5046.00000    50.09211    12.36965
5046.50000    49.65748    13.09444
5047.00000    49.22285    13.80816
5047.50000    49.00654    12.98497
5048.00000    49.00095    12.16178
5048.50000    48.99536    11.33859
5049.00000    48.98976    11.87206
5049.50000    48.98417    12.53001
5050.00000    48.97858    13.18796
5050.50000    48.97298    13.84591
5051.00000    48.96739    14.50386
5051.50000    48.96733    13.80942
5052.00000    49.05608    12.63429
5052.50000    49.14483    11.45917
5053.00000    49.23358    10.57520
5053.50000    49.32234    10.29544
5054.00000    49.41109    10.01569
5054.50000    49.49984    9.73594
5055.00000    49.58859    9.45619
5055.50000    49.67735    8.52814
5056.00000    49.76610    7.27306
