###############################################
##         ENVERUS                           ##
##         ESS - Open Hole                   ##
##         PERMIAN / DELAWARE                ##
##         Nov 04 2023  V4.0                 ##
##         42-389-00931-00-00                ##
###############################################
## Copyright 2017-2023  ENVERUS.  All Rights Reserved. 
## Confidential - Property of ENVERUS, use governed by terms and 
## conditions found within the existing Information Services Subscription Agreement 
## (as may be amended, the “ISSA”) between Customer and ENVERUS. 
## 
~VERSION INFORMATION
# MNEM.UNIT                               DATA : DESCRIPTION OF MNEMONIC
#-----.-----     ----------------------------- : -----------------------------
VERS.                                     2.00 : CWLS LOG ASCII STANDARD - VERSION 2.00
WRAP.                                       NO : MULTIPLE LINES PER DEPTH STEP
VEND.                                  ENVERUS : VENDOR
TYPE.                          ESS - OPEN HOLE : ENVERUS ESSENTIAL CURVES – ACCESSIBLE THROUGH ENVERUS PRISM(TM)
DOC.                                  31935239 : ENVERUS HEADER RAW DOCUMENT ID
#___________________________________________________________________________________________________ 
~WELL INFORMATION 
# S9zL0tdqvH3y2XIpNbXcuKF0SeIoK+7NE6VaQ02nn2+shQHF2oZWL/5TS96hefD+9qjP/MIJWV/WOidK809eGw== 
# MNEM.UNIT                                              DATA : DESCRIPTION OF MNEMONIC 
#-----.-----                    ----------------------------- : ----------------------------- 
CNTY.                                                  REEVES : COUNTY 
STATE.                                                  TEXAS : STATE 
CNTRY.                                                    USA : COUNTRY 
API.                                             42-389-00931 : API (10 Digit) 
API_14.                                    42-389-00931-00-00 : API (14 Digits) 
API_14_std.                                 42-389-00931-0000 : API (14 Digits Standard) 
UWI.                                           42389009310000 : UNIQUE WELL ID 
WELL.                                                      1, : WELL NAME
STRT.FT                                                 101.0 : START DEPTH
STOP.FT                                                5373.0 : STOP DEPTH
STEP.FT                                                   0.5 : STEP BETWEEN DEPTHS
NULL.                                                 -999.25 : NULL VALUE
#___________________________________________________________________________________________________ 
~CURVE INFORMATION 
# MNEM.UNIT           : CURVE DESCRIPTION 
#-----.-----          : ----------------------------- 
 DEPT.FT               : MEASURED DEPTH 
 GR.API                : GAMMA RAY (GR) 
 DT.US/FT              : SONIC DELTA TRANSIT TIME (DT) 
 #___________________________________________________________________________________________________ 
~A         DEPT             GR             DT
# ...
         1145.0         25.552       -999.250
         1145.5         25.888       -999.250
         1146.0         25.784       -999.250
         1146.5         24.447       -999.250
         1147.0         23.109       -999.250
         1147.5         21.772       -999.250
         1148.0         20.434       -999.250
         1148.5         21.618       -999.250
         1149.0         22.818       -999.250
         1149.5         22.677       -999.250
         1150.0         21.678       -999.250
         1150.5         20.680       -999.250
         1151.0         20.802       -999.250
         1151.5         21.603       -999.250
         1152.0         22.404       -999.250
         1152.5         23.205       -999.250
         1153.0         23.608       -999.250
         1153.5         23.322       -999.250
         1154.0         23.036       -999.250
         1154.5         22.750       -999.250
         1155.0         22.464       -999.250
         1155.5         22.179       -999.250
         1156.0         22.622       -999.250
         1156.5         23.362       -999.250
         1157.0         24.102       -999.250
         1157.5         24.842       -999.250
         1158.0         25.582       -999.250
         1158.5         25.251       -999.250
         1159.0         24.826       -999.250
         1159.5         24.400       -999.250
         1160.0         23.975       -999.250
         1160.5         23.549       -999.250
         1161.0         24.135       -999.250
         1161.5         25.640       -999.250
         1162.0         27.146       -999.250
         1162.5         28.652       -999.250
         1163.0         30.157       -999.250
         1163.5         31.663       -999.250
         1164.0         33.169       -999.250
         1164.5         34.074       -999.250
         1165.0         34.928       -999.250
         1165.5         35.783       -999.250
         1166.0         36.638       -999.250
         1166.5         37.595       -999.250
         1167.0         39.190       -999.250
         1167.5         40.786       -999.250
         1168.0         42.381       -999.250
         1168.5         43.977       -999.250
         1169.0         45.572       -999.250
         1169.5         47.168       -999.250
         1170.0         48.763       -999.250
         1170.5         50.359       -999.250
         1171.0         52.252       -999.250
         1171.5         54.534       -999.250
         1172.0         56.815       -999.250
         1172.5         59.097       -999.250
         1173.0         61.379       -999.250
         1173.5         61.432       -999.250
         1174.0         60.632       -999.250
         1174.5         59.753       -999.250
         1175.0         53.518       -999.250
         1175.5         47.283       -999.250
         1176.0         41.049       -999.250
         1176.5         30.139       -999.250
         1177.0         29.078       -999.250
         1177.5         28.018       -999.250
         1178.0         26.958       -999.250
         1178.5         26.071       -999.250
         1179.0         26.494       -999.250
         1179.5         26.916       -999.250
         1180.0         27.338       -999.250
         1180.5         27.760       -999.250
         1181.0         28.183       -999.250
         1181.5         28.605       -999.250
         1182.0         29.027       -999.250
         1182.5         29.449       -999.250
         1183.0         29.872       -999.250
         1183.5         30.294       -999.250
         1184.0         29.828       -999.250
         1184.5         28.183       -999.250
         1185.0         26.538       -999.250
         1185.5         24.893       -999.250
         1186.0         23.248       -999.250
         1186.5         21.709       -999.250
         1187.0         20.518       -999.250
         1187.5         19.328       -999.250
         1188.0         18.138       -999.250
         1188.5         16.947       -999.250
         1189.0         16.783       -999.250
         1189.5         18.653       -999.250
         1190.0         20.522       -999.250
         1190.5         22.392       -999.250
         1191.0         24.261       -999.250
         1191.5         25.311       -999.250
         1192.0         25.823       -999.250
         1192.5         26.554       -999.250
         1193.0         28.158       -999.250
         1193.5         29.762       -999.250
         1194.0         31.366       -999.250
         1194.5         32.970       -999.250
         1195.0         34.574       -999.250
         1195.5         36.178       -999.250
         1196.0         37.782       -999.250
         1196.5         38.535       -999.250
         1197.0         39.098       -999.250
         1197.5         38.218       -999.250
         1198.0         36.167       -999.250
         1198.5         32.338       -999.250
         1199.0         28.510       -999.250
         1199.5         24.682       -999.250
         1200.0         24.136       -999.250
         1200.5         23.750       -999.250
         1201.0         23.365       -999.250
         1201.5         23.376       -999.250
         1202.0         23.872       -999.250
         1202.5         24.369       -999.250
         1203.0         24.865       -999.250
         1203.5         25.361       -999.250
         1204.0         25.857       -999.250
         1204.5         26.354       -999.250
         1205.0         26.850       -999.250
         1205.5         27.346       -999.250
         1206.0         26.962       -999.250
         1206.5         26.080       -999.250
         1207.0         25.198       -999.250
         1207.5         24.316       -999.250
         1208.0         23.434       -999.250
         1208.5         22.552       -999.250
         1209.0         21.671       -999.250
         1209.5         20.789       -999.250
         1210.0         19.907       -999.250
         1210.5         19.589       -999.250
         1211.0         20.045       -999.250
         1211.5         20.502       -999.250
         1212.0         20.959       -999.250
         1212.5         21.415       -999.250
         1213.0         21.872       -999.250
         1213.5         22.328       -999.250
         1214.0         22.785       -999.250
         1214.5         23.241       -999.250
         1215.0         23.698       -999.250
         1215.5         23.591       -999.250
         1216.0         23.003       -999.250
         1216.5         22.415       -999.250
         1217.0         21.828       -999.250
         1217.5         21.240       -999.250
         1218.0         20.652       -999.250
         1218.5         20.518       -999.250
         1219.0         21.330       -999.250
         1219.5         22.141       -999.250
         1220.0         22.739       -999.250
         1220.5         21.926       -999.250
         1221.0         21.114       -999.250
         1221.5         20.302       -999.250
         1222.0         19.489       -999.250
         1222.5         19.892       -999.250
         1223.0         20.605       -999.250
         1223.5         21.318       -999.250
         1224.0         22.030       -999.250
         1224.5         22.743       -999.250
         1225.0         23.456       -999.250
         1225.5         22.998       -999.250
         1226.0         22.776       -999.250
         1226.5         22.555       -999.250
         1227.0         22.333       -999.250
         1227.5         22.111       -999.250
         1228.0         23.182       -999.250
         1228.5         24.534       -999.250
         1229.0         25.886       -999.250
         1229.5         27.237       -999.250
         1230.0         27.468       -999.250
         1230.5         26.921       -999.250
         1231.0         26.375       -999.250
         1231.5         26.518       -999.250
