###############################################
##         ENVERUS                           ##
##         ESS - Open Hole                   ##
##         PERMIAN / DELAWARE                ##
##         Nov 04 2023  V4.0                 ##
##         42-389-10119-00-00                ##
###############################################
## Copyright 2017-2023  ENVERUS.  All Rights Reserved. 
## Confidential - Property of ENVERUS, use governed by terms and 
## conditions found within the existing Information Services Subscription Agreement 
## (as may be amended, the “ISSA”) between Customer and ENVERUS. 
## 
~VERSION INFORMATION
# MNEM.UNIT                               DATA : DESCRIPTION OF MNEMONIC
#-----.-----     ----------------------------- : -----------------------------
VERS.                                     2.00 : CWLS LOG ASCII STANDARD - VERSION 2.00
WRAP.                                       NO : MULTIPLE LINES PER DEPTH STEP
VEND.                                  ENVERUS : VENDOR
TYPE.                          ESS - OPEN HOLE : ENVERUS ESSENTIAL CURVES – ACCESSIBLE THROUGH ENVERUS PRISM(TM)
DOC.                                  32008410 : ENVERUS HEADER RAW DOCUMENT ID
#___________________________________________________________________________________________________ 
~WELL INFORMATION 
# X8E3XgEZRMs+LiTqjMYqety/5rGXYLbzRNciiYBq17B6ClLelYcJjKNVvvPfWOVGxhvISow7q4Dbthq8gKP2Nw== 
# MNEM.UNIT                                              DATA : DESCRIPTION OF MNEMONIC 
#-----.-----                    ----------------------------- : ----------------------------- 
CNTY.                                                  REEVES : COUNTY 
STATE.                                                  TEXAS : STATE 
CNTRY.                                                    USA : COUNTRY 
API.                                             42-389-10119 : API (10 Digit) 
API_14.                                    42-389-10119-00-00 : API (14 Digits) 
API_14_std.                                 42-389-10119-0000 : API (14 Digits Standard) 
UWI.                                           42389101190000 : UNIQUE WELL ID 
WELL.                                                   1-40, : WELL NAME
STRT.FT                                                  58.0 : START DEPTH
STOP.FT                                                5338.0 : STOP DEPTH
STEP.FT                                                   0.5 : STEP BETWEEN DEPTHS
NULL.                                                 -999.25 : NULL VALUE
#___________________________________________________________________________________________________ 
~CURVE INFORMATION 
# MNEM.UNIT           : CURVE DESCRIPTION 
#-----.-----          : ----------------------------- 
 DEPT.FT               : MEASURED DEPTH 
 GR.API                : GAMMA RAY (GR) 
 DT.US/FT              : SONIC DELTA TRANSIT TIME (DT) 
 #___________________________________________________________________________________________________ 
~A         DEPT             GR             DT
# ...
         2842.0          5.269         67.777
         2842.5          5.002         67.650
         2843.0          4.735         67.522
         2843.5          4.469         67.395
         2844.0          4.202         67.267
         2844.5          3.935         67.140
         2845.0          4.051         67.315
         2845.5          4.318         67.659
         2846.0          4.586         68.002
         2846.5          4.853         68.013
         2847.0          5.120         67.878
         2847.5          5.387         67.744
         2848.0          5.553         68.651
         2848.5          5.344         68.426
         2849.0          5.136         68.200
         2849.5          4.927         67.974
         2850.0          4.718         67.748
         2850.5          4.510         67.523
         2851.0          4.432         67.297
         2851.5          4.830         67.129
         2852.0          5.227         67.432
         2852.5          5.624         67.735
         2853.0          6.021         67.908
         2853.5          6.176         67.391
         2854.0          5.426         67.029
         2854.5          4.675         68.311
         2855.0          3.925         68.533
         2855.5          3.353         68.287
         2856.0          3.407         68.040
         2856.5          3.461         67.793
         2857.0          3.516         67.608
         2857.5          3.570         67.906
         2858.0          3.624         68.204
         2858.5          3.679         68.502
         2859.0          3.733         68.800
         2859.5          3.787         69.097
         2860.0          4.084         69.395
         2860.5          5.241         68.882
         2861.0          6.398         68.045
         2861.5          7.244         67.209
         2862.0          6.900         66.390
         2862.5          6.556         66.684
         2863.0          6.212         66.978
         2863.5          5.868         67.272
         2864.0          5.524         67.491
         2864.5          5.180         67.655
         2865.0          4.836         67.819
         2865.5          4.585         67.983
         2866.0          4.672         68.147
         2866.5          4.759         68.259
         2867.0          4.845         67.968
         2867.5          4.932         67.677
         2868.0          5.019         67.385
         2868.5          5.106         67.116
         2869.0          5.193         67.606
         2869.5          5.280         68.021
         2870.0          5.215         67.616
         2870.5          5.089         67.211
         2871.0          4.963         66.807
         2871.5          4.838         68.511
         2872.0          4.712         68.639
         2872.5          4.586         67.876
         2873.0          4.942         68.170
         2873.5          5.488         69.384
         2874.0          6.034         70.599
         2874.5          6.580         71.813
         2875.0          7.126         73.027
         2875.5          7.671         72.102
         2876.0          8.217         70.878
         2876.5          8.763         69.653
         2877.0          9.309         64.676
         2877.5          9.855         57.404
         2878.0         12.263         50.132
         2878.5         15.491         46.518
         2879.0         18.718         42.665
         2879.5         22.285         44.341
         2880.0         27.868         50.848
         2880.5         32.904         53.084
         2881.0         32.528         55.233
         2881.5         32.153         57.381
         2882.0         31.778         58.288
         2882.5         31.403         57.576
         2883.0         31.027         56.864
         2883.5         30.247         56.153
         2884.0         25.811         55.441
         2884.5         21.375         54.729
         2885.0         16.939         53.405
         2885.5         12.503         51.774
         2886.0          8.067         50.649
         2886.5          6.174         50.165
         2887.0          5.560         49.681
         2887.5          5.772         53.596
         2888.0          5.985         55.153
         2888.5          6.197         53.743
         2889.0          6.409         52.332
         2889.5          6.621         51.095
         2890.0          6.833         50.057
         2890.5          7.085         50.053
         2891.0          7.491         50.218
         2891.5          7.897         50.383
         2892.0          8.303         50.548
         2892.5          8.708         50.462
         2893.0          9.114         50.345
         2893.5          9.024         50.227
         2894.0          8.713         50.109
         2894.5          8.403         49.992
         2895.0          8.093         50.341
         2895.5          7.783         50.780
         2896.0          7.473         51.596
         2896.5          7.163         52.987
         2897.0          6.853         54.493
         2897.5          6.543         57.213
         2898.0          6.232         59.932
         2898.5          6.010         62.652
         2899.0          6.125         62.276
         2899.5          6.240         59.276
         2900.0          6.355         56.166
         2900.5          6.470         52.710
         2901.0          6.585         52.427
         2901.5          6.700         58.605
         2902.0          6.815         64.783
         2902.5          6.930         70.629
         2903.0          7.045         72.795
         2903.5          7.160         74.960
         2904.0          7.275         75.160
         2904.5          7.389         75.101
         2905.0          7.504         71.862
         2905.5          7.619         68.155
         2906.0          7.624         71.344
         2906.5          7.173         70.504
         2907.0          6.722         67.607
         2907.5          6.271         67.454
         2908.0          5.821         67.777
         2908.5          5.497         68.101
         2909.0          5.661         66.470
         2909.5          5.826         66.371
         2910.0          5.991         66.789
         2910.5          6.155         67.207
         2911.0          6.320         66.344
         2911.5          6.385         65.105
         2912.0          6.051         64.622
         2912.5          5.717         64.272
         2913.0          5.383         64.762
         2913.5          5.049         65.252
         2914.0          5.145         65.742
         2914.5          5.421         66.233
         2915.0          5.696         65.843
         2915.5          5.971         65.180
         2916.0          6.091         64.517
         2916.5          5.590         64.193
         2917.0          5.543         64.076
         2917.5          5.688         63.958
         2918.0          5.833         63.841
         2918.5          5.978         66.369
         2919.0          6.124         67.985
         2919.5          6.269         68.129
         2920.0          6.414         67.027
         2920.5          6.559         68.198
         2921.0          6.658         63.976
         2921.5          6.566         61.993
         2922.0          6.474         63.090
         2922.5          6.382         64.188
         2923.0          6.290         65.285
         2923.5          6.198         63.477
         2924.0          6.106         66.765
         2924.5          6.014         70.052
         2925.0          5.922         69.140
         2925.5          5.830         68.082
         2926.0          5.738         67.024
         2926.5          5.645         66.943
         2927.0          5.553         69.508
         2927.5          5.461         70.103
         2928.0          5.369         70.698
         2928.5          5.277         71.293
