~VERSION INFORMATION
 VERS.                2.0:   CWLS LOG ASCII STANDARD - VERSION 2.0
 WRAP.                 NO:   ONE LINE PER DEPTH STEP
~WELL INFORMATION
#MNEM.UNIT      DATA TYPE    INFORMATION
#----------   ------------   ------------------------------
 STRT.FT          50.0000:   START DEPTH
 STOP.FT        5375.0000:   STOP DEPTH
 STEP.FT           0.5000:   STEP LENGTH
 NULL.          -999.2500:   NULL VALUE
 COMP.  A.N. NORWOOD, INC:   COMPANY
 WELL.        MCINTYRE #1:   WELL
 FLD .  ROJO CABALLOS, S.:   FIELD
 LOC .                   :   LOCATION
 CNTY.              PECOS:   COUNTY
 STAT.              TEXAS:   STATE
 CTRY. UNITED STATES OF AMERICA:   COUNTRY
 SRVC.              Welex:   SERVICE COMPANY
 DATE.        06-May-1983:   LOGDATE
 API .     42371342980000:   API NUMBER
~CURVE INFORMATION
#MNEM.UNIT       API CODE    CURVE DESCRIPTION
#----------   ------------   ------------------------------
 DEPT.F      0   1   0  0:   1 MEASURED DEPTH
 GRD .GAPI   45 310 01 00:   GAMMA RAY FROM DENSITY LOG
 NPOR_LS.DEC 42 890 01 00:   NEUTRON POROSITY LIMESTONE
 CALD.IN     45 280 60 00:   CALIPER FROM DENSITY LOG
 CORR.G/C3   45 356 01 00:   DENSITY CORRECTION
 RHOB.G/C3   45 350 01 00:   BULK DENSITY
 DPOR_LS.DEC 45 890 10 00:   DENSITY POROSITY LIMESTONE
 DT  .US/F   60 500 00 00:   DELTA-T (INTERVAL TRANSIT TIME)
 SPR .MV     07 010 01 00:   SPONTANEOUS POTENTIAL FROM RESISTIVITY LOG
 ILD .OHMM   07 120 46 00:   INDUCTION DEEP RESISTIVITY
 ILM .OHMM   07 120 44 00:   INDUCTION MEDIUM RESISTIVITY
~PARAMETER INFORMATION
#MNEM.UNIT          VALUE    DESCRIPTION
#----------   ------------   ------------------------------
 PD  .                 GL:   PERMANENT DATUM
 EPD .FT             2768:   ELEVATION PERMANENT DATUM
 LMF .                 KB:   LOG MEASURED FROM
 DAPD.FT               10:   FEET ABOVE PERMANENT DATUM
 DMF .                 KB:   DRILLING MEASURED FROM
 EKB .FT             2778:   KELLY BUSHING
 EDF .FT             2777:   DRILLING FLOOR
 EGL .FT             2768:   GROUND LEVEL
 DATE.           05/06/83:   RUN DATE
 RUN .                  1:   RUN NUMBER
 DD  .FT             5380:   DEPTH DRILLER
 DL  .FT             5377:   DEPTH LOGGER
 BLI .FT             5375:   BOTTOM LOG INTERVAL
 TLI .FT               50:   TOP LOG INTERVAL
 CS  .IN            8.625:   CASING SIZE
 CBD .FT             1596:   CASING BOTTOM DRILLER
 CBL .FT             1613:   CASING BOTTOM LOGGER
 BS  .IN             7.75:   BIT SIZE
 BSD .FT             5380:   BIT SIZE AT DEPTH
 DFT .           SALT GEL:   DRILLING FLUID TYPE
 DFD .               10.2:   DRILLING FLUID DENSITY
 DFV .                 33:   DRILLING FLUID VISCOSITY
 DFPH.                9.5:   DRILLING FLUID PH
 DFL .                 18:   DRILLING FLUID LOSS
 MSS .               CIRC:   MUD SAMPLE SOURCE
 RMS .OHMM           0.09:   RESISTIVITY MUD SAMPLE
 MST .DEGF             72:   MUD SAMPLE TEMPERATURE
 RMF .OHMM           0.08:   RESISTIVITY MUD FILTRATE SAMPLE
 MFST.DEGF             72:   MUD FILTRATE SAMPLE TEMPERATURE
 MFSS.               MEAS:   MUD FILTRATE SAMPLE SOURCE
 MCSS.               MEAS:   MUD CAKE SAMPLE SOURCE
 RMB .OHMM          0.059:   RESISTIVITY MUD AT BHT
 BHT .DEGF            112:   BOTTOM HOLE TEMPERATURE
 TCS .HRS               4:   TIME CIRCULATED STOPPED
 MRT .DEGF            112:   MAXIMUM RECORDED TEMPERATURE
 LUN .               3415:   LOGGING UNIT NUMBER
 LUL .             ODESSA:   LOGGING UNIT LOCATION
 ENGI.             LAWSON:   RECORDING ENGINEER
 WITN.            NORWOOD:   WITNESSED BY
 ORIG.      1" 2.5" PRINT:   ORIGIN OF DATA
 UWI .     42371342980000:   UNIQUE WELL ID
~OTHER INFORMATION
~A    DEPT        GRD      NPOR_LS      CALD        CORR        RHOB       DPOR_LS        DT         SPR         ILD         ILM    
# ...
  5174.0000     12.8646     -0.0073      8.3052      0.0153      2.8942     -0.0975     49.8377    -43.8163   1074.7017     79.8629 
  5174.5000     13.3237     -0.0070      8.3048      0.0146      2.8825     -0.0845     49.6522    -43.7798   1037.3188     80.3651 
  5175.0000     13.7347     -0.0068      8.3020      0.0085      2.8598     -0.0886     49.5976    -43.7433   1001.2365     80.7450 
  5175.5000     14.0462     -0.0065      8.2993     -0.0070      2.8458     -0.0843     49.6223    -43.7068    966.4092     80.8008 
  5176.0000     14.0462     -0.0063      8.2965     -0.0265      2.8318     -0.0634     49.6461    -43.6703    932.7934     80.9518 
  5176.5000     13.5326     -0.0060      8.2937     -0.0383      2.8269     -0.0647     49.6418    -43.6338    904.8694     82.8711 
  5177.0000     10.7226     -0.0058      8.2910     -0.0373      2.8321     -0.0815     49.5997    -43.5974    896.3772     84.8359 
  5177.5000     10.3159     -0.0055      8.2882     -0.0116      2.8544     -0.0958     49.3332    -43.5609    897.0999     86.8473 
  5178.0000     11.0973     -0.0053      8.2855      0.0214      2.8843     -0.0974     49.1917    -43.5244    899.1470     88.8848 
  5178.5000     12.4971     -0.0050      8.2827      0.0391      2.9020     -0.0978     49.0502    -43.4879    898.8953     90.8133 
  5179.0000     13.5824     -0.0048      8.2799      0.0392      2.9028     -0.0978     48.9393    -43.4514    888.3777     92.7837 
  5179.5000     14.6375     -0.0045      8.2772      0.0298      2.8943     -0.0935     48.9222    -43.3901    866.0808     94.7969 
  5180.0000     15.6927     -0.0044      8.2744      0.0141      2.8724     -0.0892     48.9429    -43.3208    839.3236     96.8537 
  5180.5000     16.6376     -0.0046      8.2716     -0.0017      2.8591     -0.0801     48.9654    -43.2515    813.3484     97.9013 
  5181.0000     17.1181     -0.0047      8.2689     -0.0102      2.8458     -0.0708     49.0374    -43.1823    791.0577     98.8169 
  5181.5000     17.0051     -0.0048      8.2661     -0.0089      2.8332     -0.0705     49.1442    -43.1130    756.8660     99.7412 
  5182.0000     15.9655     -0.0049      8.2633     -0.0058      2.8326     -0.0764     49.2738    -43.0437    693.5737    100.6741 
  5182.5000     14.7153     -0.0050      8.2606     -0.0058      2.8340     -0.0822     49.3997    -42.9745    665.2399    101.6157 
  5183.0000     13.7691     -0.0052      8.2587     -0.0071      2.8427     -0.0847     49.4115    -42.9052    691.1653    103.5468 
  5183.5000     13.2059     -0.0053      8.2587     -0.0122      2.8475     -0.0796     49.4586    -42.8359    711.9346    107.2889 
  5184.0000     12.9907     -0.0054      8.2587     -0.0172      2.8482     -0.0729     49.6001    -42.7667    715.9406    111.1662 
  5184.5000     13.7153     -0.0055      8.2587     -0.0200      2.8485     -0.0736     49.6051    -42.7043    708.8062    115.1837 
  5185.0000     14.4364     -0.0057      8.2587     -0.0199      2.8517     -0.0805     49.6507    -42.6461    699.4841    119.3464 
  5185.5000     14.7050     -0.0058      8.2587     -0.0178      2.8609     -0.0872     49.6977    -42.5880    699.4841    122.9375 
  5186.0000     14.7050     -0.0059      8.2587      0.0013      2.8955     -0.0932     49.7082    -42.5076    699.4841    125.0450 
  5186.5000     13.9942     -0.0060      8.2587      0.0299      2.9445     -0.0977     49.6655    -42.3948    702.4514    127.1227 
  5187.0000     12.7013     -0.0062      8.2587      0.0577      2.9682     -0.0977     49.6194    -42.2819    764.8897    127.1847 
  5187.5000     11.5693     -0.0063      8.2587      0.0578      2.9568     -0.0976     49.3199    -42.1690    826.0290    128.3408 
  5188.0000     11.5672     -0.0064      8.2587      0.0503      2.9223     -0.0975     49.1497    -42.0561    892.0553    129.8633 
  5188.5000     12.6892     -0.0065      8.2587      0.0226      2.8700     -0.0975     49.0881    -41.9432    963.3597    130.0138 
  5189.0000     13.8278     -0.0066      8.2587     -0.0068      2.8020     -0.0974     49.0512    -41.8304   1005.9278    129.5895 
  5189.5000     15.4925     -0.0068      8.2587     -0.0289      2.8008     -0.0615     49.0512    -41.7175   1012.9579    129.1665 
  5190.0000     16.9584     -0.0069      8.2587     -0.0245      2.8162     -0.0496     49.1579    -41.6046    892.2076    128.1455 
  5190.5000     17.6241     -0.0070      8.2587     -0.0152      2.8446     -0.0746     49.2664    -41.5068    585.8038    127.0862 
  5191.0000     17.4350     -0.0071      8.2587     -0.0058      2.8730     -0.0804     49.3818    -41.4503    470.4327    126.0357 
  5191.5000     15.9172     -0.0073      8.2587     -0.0006      2.8777     -0.0882     49.4981    -41.3937    445.4128    125.8056 
  5192.0000     13.8240     -0.0074      8.2587      0.0001      2.8793     -0.0978     49.5682    -41.3372    451.2585    125.7921 
  5192.5000     12.9469     -0.0075      8.2587      0.0050      2.8790     -0.0994     49.4548    -41.2807    466.8210    128.4262 
  5193.0000     12.8162     -0.0076      8.2587      0.0165      2.8765     -0.0965     49.2801    -41.2242    512.3057    135.7495 
  5193.5000     13.5311     -0.0077      8.2587      0.0226      2.8742     -0.0936     49.0941    -41.1833    593.7748    188.0312 
  5194.0000     14.3123     -0.0079      8.2587      0.0286      2.8718     -0.0971     48.9082    -41.0495    642.5344    262.3658 
  5194.5000     15.1074     -0.0080      8.2587      0.0347      2.8731     -0.0997     48.7997    -40.8774    638.4697    338.3164 
  5195.0000     16.1317     -0.0081      8.2587      0.0429      2.8899     -0.1002     48.6651    -40.8203    642.0735    340.8318 
  5195.5000     16.8428     -0.0080      8.2587      0.0456      2.9213     -0.1002     48.6632    -40.7502    675.7393    239.2153 
  5196.0000     17.2806     -0.0080      8.2587      0.0430      2.9152     -0.1000     48.6677    -40.6461   1046.6613    178.5423 
  5196.5000     17.2806     -0.0080      8.2587      0.0370      2.8969     -0.0994     48.7088    -40.5419   1822.2950    169.3201 
  5197.0000     17.1113     -0.0079      8.2587      0.0076      2.8786     -0.0972     48.7823    -40.4378   1918.5970    172.4206 
  5197.5000     16.6451     -0.0079      8.2587     -0.0144      2.8603     -0.0856     48.8918    -40.3337   1920.3284    178.4980 
  5198.0000     16.1789     -0.0078      8.2587     -0.0236      2.8433     -0.0739     48.9188    -40.2296   1889.3809    187.0859 
  5198.5000     15.7127     -0.0075      8.2587     -0.0320      2.8383     -0.0791     48.9431    -40.1255   1594.4984    191.6611 
  5199.0000     15.2465     -0.0071      8.2587     -0.0267      2.8390     -0.0926     48.9878    -40.0214   1324.5160    193.5594 
  5199.5000     14.7948     -0.0068      8.2587      0.0165      2.8677     -0.0948     49.0538    -39.9794   1100.2473    195.4765 
  5200.0000     14.4155     -0.0064      8.2563      0.0153      2.8926     -0.0945     49.0924    -39.9799    913.9521    195.8303 
  5200.5000     14.0633     -0.0060      8.2514      0.0014      2.8811     -0.0908     49.1239    -39.9805    819.9626    196.3640 
  5201.0000     14.0758     -0.0057      8.2466     -0.0176      2.8661     -0.0813     49.1197    -39.9810    825.2657    198.3390 
  5201.5000     14.6827     -0.0053      8.2417     -0.0243      2.8510     -0.0718     49.0625    -39.9488    845.1342    204.1441 
  5202.0000     15.6919     -0.0050      8.2369     -0.0233      2.8364     -0.0799     49.0035    -39.9124    895.7535    219.0450 
  5202.5000     16.0787     -0.0050      8.2320     -0.0061      2.8365     -0.0970     48.9574    -39.8421    949.4046    241.6109 
  5203.0000     16.0787     -0.0051      8.2272      0.0334      2.8463     -0.0990     48.9462    -39.7086    984.6520    261.0586 
  5203.5000     15.9837     -0.0052      8.2223      0.0390      2.9024     -0.0957     48.8579    -39.5751    977.2061    282.0716 
  5204.0000     15.9070     -0.0052      8.2175      0.0283      2.8983     -0.0925     48.7528    -39.4416    966.1286    304.7761 
