#--------------------------------------------------#
#-------------------ENVERUS, INC.------------------#
#------------------WWW.ENVERUS.COM-----------------#
#------------------COPYRIGHT 2020------------------#
#--------------------------------------------------#
#THIS FILE MAY BE USED ONLY IN ACCORDANCE WITH A CURRENT SUBSCRIPTION AGREEMENT BETWEEN
#THE USER AND ENVERUS, INC. NO PART OF THIS FILE MAY BE REPRODUCED, USED, COPIED,
#MODIFIED, PROPAGATED, OR DISTRIBUTED EXCEPT IN ACCORDANCE WITH THE SUBSCRIPTION
#AGREEMENT. UNAUTHORIZED USE OR DISTRIBUTION OF ALL OR ANY PART OF THIS FILE MAY VIOLATE
#COPYRIGHT, TRADEMARK, AND/OR OTHER LAWS AND IS SUBJECT TO CIVIL AS WELL AS CRIMINAL
#SANCTIONS.
#--------------------------------------------------#
#THIS FILE IS PROVIDED "AS-IS" AND ALL WARRANTIES ARE EXPRESSLY DISCLAIMED, WHETHER
#EXPRESS, ORAL, IMPLIED, STATUTORY OR OTHERWISE, INCLUDING ANY IMPLIED WARRANTY OF FITNESS
#FOR A PARTICULAR PURPOSE, MERCHANTABILITY, TITLE OR NON-INFRINGEMENT, AND ANY WARRANTIES
#ARISING BY VIRTUE OF CUSTOM OF TRADE OR COURSE OF DEALING.  FURTHER, ENVERUS, INC.
#AND ITS LICENSORS DO NOT REPRESENT OR WARRANT THAT THIS FILE WILL MEET USER'S
#REQUIREMENTS OR ARE SUITABLE FOR USER'S NEEDS OR THAT THE DATA OR RESULTS PROVIDED IN
#CONJUNCTION THEREWITH ARE CORRECT, ACCURATE, TIMELY OR RELIABLE. THESE DISCLAIMERS SHALL
#APPLY REGARDLESS OF ANY FAILURE OF ESSENTIAL PURPOSE OF ANY LIMITED REMEDY.  SOME
#JURISDICTIONS DO NOT ALLOW THE EXCLUSION OF CERTAIN WARRANTIES SO SOME OF THE ABOVE
#EXCLUSIONS MAY NOT APPLY. IN NO EVENT SHALL ENVERUS, INC. OR ANY OF ITS AFFILIATES
#BE LIABLE UNDER ANY LEGAL THEORY, WHETHER IN TORT (INCLUDING WITHOUT LIMITATION
#NEGLIGENCE), CONTRACT, STRICT LIABILITY, STATUTORY OR OTHERWISE, FOR ANY SPECIAL,
#INCIDENTAL, CONSEQUENTIAL, EXEMPLARY, PUNITIVE OR INDIRECT DAMAGE OF ANY KIND, INCLUDING
#WITHOUT LIMITATION LOSS OF REVENUE, PROFITS, GOODWILL, USE, AND/OR DATA OR THE COST OF
#PROCUREMENT OF SUBSTITUTE GOODS OR SERVICES, EVEN IF APPRISED OF THE POSSIBILITY OF SUCH
#DAMAGES IN ADVANCE.
#--------------------------------------------------#

~VERSION INFORMATION
VERS. 2.0 : CWLS LOG ASCII STANDARD - VERSION 2.0
WRAP. NO : ONE LINE PER DEPTH STEP
~WELL INFORMATION
#MNEMONIC     .UNIT              VALUE :DESCRIPTION
STRT       .FT                7.00000 :START DEPTH
STOP       .FT                16581.00000 :STOP DEPTH
STEP       .FT                0.50000 :STEP
NULL       .                -999.25000 :NULL VALUE
UWI       .                42389300260000 :UNIQUE WELL ID
API       .                42389300260000 :API NUMBER
COMP       .                 :COMPANY
WELL       .                 :WELL
FLD       .                 :FIELD
LOC       .                 :LOCATION
CNTY       .                 :COUNTY
STAT       .                 :STATE
CTRY       .                 :COUNTRY
SRVC       .                 :SERVICE COMPANY
DATE       .                 :DATE
~CURVE INFORMATION
#MNEMONIC     .UNIT      API CODE :CURVE DESCRIPTION
DEPTH       .FT                      :MEASURED DEPTH
CAL       .IN        UNKNOWN   :CAL
DT       .US/FT        UNKNOWN   :DT
GR       .GAPI        UNKNOWN   :GR
~A    DEPTH    CAL    DT    GR
# ...
5865.00000    -999.25000    78.09710    92.99778
5865.50000    -999.25000    78.51432    85.92915
5866.00000    -999.25000    78.96079    79.13178
5866.50000    -999.25000    79.40726    74.43649
5867.00000    -999.25000    79.61392    69.74119
5867.50000    -999.25000    79.52629    65.04590
5868.00000    -999.25000    79.43865    60.35061
5868.50000    -999.25000    79.35102    55.65531
5869.00000    -999.25000    79.26338    55.51630
5869.50000    -999.25000    79.31675    57.60318
5870.00000    -999.25000    80.21802    59.69007
5870.50000    -999.25000    81.11930    61.77695
5871.00000    -999.25000    82.02057    63.86383
5871.50000    -999.25000    81.98506    63.43931
5872.00000    -999.25000    81.88361    61.12458
5872.50000    -999.25000    81.78217    58.80985
5873.00000    -999.25000    81.68072    56.49512
5873.50000    -999.25000    81.57927    54.18039
5874.00000    -999.25000    81.47783    51.86566
5874.50000    -999.25000    81.83917    53.49482
5875.00000    -999.25000    82.30092    57.86544
5875.50000    -999.25000    82.76267    62.23605
5876.00000    -999.25000    83.22442    66.60667
5876.50000    -999.25000    83.68617    70.97728
5877.00000    -999.25000    84.14791    69.49625
5877.50000    -999.25000    84.60966    64.06182
5878.00000    -999.25000    85.07141    63.07145
5878.50000    -999.25000    84.56369    65.87301
5879.00000    -999.25000    84.05018    68.67458
5879.50000    -999.25000    83.53667    71.47615
5880.00000    -999.25000    77.88599    74.27771
5880.50000    -999.25000    75.74422    77.07928
5881.00000    -999.25000    75.13455    75.02185
5881.50000    -999.25000    74.44933    72.03738
5882.00000    -999.25000    73.76410    69.76845
5882.50000    -999.25000    73.07887    71.15076
5883.00000    -999.25000    72.39365    72.53307
5883.50000    -999.25000    72.15590    73.91539
5884.00000    -999.25000    71.97311    74.48197
5884.50000    -999.25000    71.74904    73.26749
5885.00000    -999.25000    70.92781    72.05300
5885.50000    -999.25000    70.10657    72.42284
5886.00000    -999.25000    69.28534    73.52582
5886.50000    -999.25000    68.46411    74.62879
5887.00000    -999.25000    67.76399    75.73177
5887.50000    -999.25000    67.70076    76.83475
5888.00000    -999.25000    67.76506    77.93773
5888.50000    -999.25000    67.94506    84.84959
5889.00000    -999.25000    68.12507    92.45853
5889.50000    -999.25000    68.30507    100.06746
5890.00000    -999.25000    68.48507    107.19664
5890.50000    -999.25000    68.66507    112.92475
5891.00000    -999.25000    69.38274    118.65286
5891.50000    -999.25000    72.06943    124.38098
5892.00000    -999.25000    74.75612    130.10909
5892.50000    -999.25000    77.44282    135.83721
5893.00000    -999.25000    78.32594    141.56532
5893.50000    -999.25000    78.27551    142.03000
5894.00000    -999.25000    78.22508    136.59168
5894.50000    -999.25000    78.17466    131.15337
5895.00000    -999.25000    78.12423    133.07560
5895.50000    -999.25000    78.07380    137.71710
5896.00000    -999.25000    76.97496    142.35859
5896.50000    -999.25000    74.86584    147.00009
5897.00000    -999.25000    72.92136    145.25759
5897.50000    -999.25000    71.73227    132.74888
5898.00000    -999.25000    70.56942    123.02822
5898.50000    -999.25000    69.40656    128.03094
5899.00000    -999.25000    68.24371    133.03365
5899.50000    -999.25000    69.02062    138.03637
5900.00000    -999.25000    70.23157    131.68350
5900.50000    -999.25000    69.69678    110.59617
5901.00000    -999.25000    66.84188    89.50883
5901.50000    -999.25000    63.98698    68.42150
5902.00000    -999.25000    61.13207    55.55042
5902.50000    -999.25000    60.44041    56.61393
5903.00000    -999.25000    60.74322    57.67744
5903.50000    -999.25000    61.12504    58.74095
5904.00000    -999.25000    62.04657    59.80446
5904.50000    -999.25000    62.96809    68.14460
5905.00000    -999.25000    63.88962    77.60065
5905.50000    -999.25000    64.81114    87.05669
5906.00000    -999.25000    66.63720    96.51274
5906.50000    -999.25000    69.25649    105.96878
5907.00000    -999.25000    71.87578    115.42483
5907.50000    -999.25000    72.61904    105.46472
5908.00000    -999.25000    72.08747    93.34996
5908.50000    -999.25000    71.55590    81.23521
5909.00000    -999.25000    71.16709    69.12045
5909.50000    -999.25000    72.09049    57.00569
5910.00000    -999.25000    72.72162    55.28502
5910.50000    -999.25000    72.49014    56.86392
5911.00000    -999.25000    72.25865    58.44282
5911.50000    -999.25000    72.02717    60.02172
5912.00000    -999.25000    71.96586    61.60062
5912.50000    -999.25000    72.45263    63.17952
5913.00000    -999.25000    72.93940    63.30200
5913.50000    -999.25000    73.42618    60.77243
5914.00000    -999.25000    73.91295    58.24286
5914.50000    -999.25000    74.39972    55.71330
5915.00000    -999.25000    74.88649    55.05462
5915.50000    -999.25000    75.37326    57.78484
5916.00000    -999.25000    74.74161    60.51506
5916.50000    -999.25000    73.85170    59.03178
5917.00000    -999.25000    72.96178    56.63130
5917.50000    -999.25000    73.23290    54.84085
5918.00000    -999.25000    74.94145    56.25102
5918.50000    -999.25000    76.64999    57.66120
5919.00000    -999.25000    78.35854    59.07138
5919.50000    -999.25000    80.06709    60.48156
5920.00000    -999.25000    80.88422    61.89174
5920.50000    -999.25000    79.71122    63.30192
5921.00000    -999.25000    78.53823    60.72409
5921.50000    -999.25000    77.36523    56.78363
5922.00000    -999.25000    76.19223    52.84318
5922.50000    -999.25000    76.85918    48.90272
5923.00000    -999.25000    77.62048    50.70398
5923.50000    -999.25000    78.21504    55.05241
5924.00000    -999.25000    78.27696    59.40084
5924.50000    -999.25000    78.64558    63.74927
5925.00000    -999.25000    79.24002    68.09770
5925.50000    -999.25000    79.83446    72.44613
5926.00000    -999.25000    80.42889    73.99237
5926.50000    -999.25000    80.80795    72.11716
5927.00000    -999.25000    79.92964    72.67771
5927.50000    -999.25000    79.05134    76.05780
5928.00000    -999.25000    78.17304    79.43790
5928.50000    -999.25000    77.32939    82.81799
5929.00000    -999.25000    77.58730    77.73432
5929.50000    -999.25000    77.84521    68.74890
5930.00000    -999.25000    78.10313    59.76348
5930.50000    -999.25000    78.01347    58.74804
5931.00000    -999.25000    77.71727    59.24144
5931.50000    -999.25000    77.42107    59.73484
5932.00000    -999.25000    78.12315    58.24352
5932.50000    -999.25000    79.02001    55.45367
5933.00000    -999.25000    79.91687    52.66383
5933.50000    -999.25000    80.81373    49.87398
5934.00000    -999.25000    81.71059    48.64574
5934.50000    -999.25000    82.11991    48.47025
5935.00000    -999.25000    81.44462    48.29476
5935.50000    -999.25000    80.76933    48.11928
5936.00000    -999.25000    80.09405    47.94379
5936.50000    -999.25000    79.41876    47.76830
5937.00000    -999.25000    80.82861    47.59282
5937.50000    -999.25000    86.29713    47.41733
5938.00000    -999.25000    91.76564    47.24184
5938.50000    -999.25000    97.09657    48.23567
5939.00000    -999.25000    93.58809    50.49370
5939.50000    -999.25000    90.07961    52.75173
5940.00000    -999.25000    86.57113    55.00975
5940.50000    -999.25000    83.06265    57.26778
5941.00000    -999.25000    81.20812    59.52581
5941.50000    -999.25000    80.71032    61.37978
5942.00000    -999.25000    82.99353    60.16601
5942.50000    -999.25000    85.27675    58.95224
5943.00000    -999.25000    87.55997    57.73847
5943.50000    -999.25000    87.13339    56.52470
5944.00000    -999.25000    85.61674    55.31093
5944.50000    -999.25000    84.10009    54.09716
5945.00000    -999.25000    83.55209    52.88339
5945.50000    -999.25000    86.74019    52.23240
5946.00000    -999.25000    89.92829    53.55909
