#--------------------------------------------------#
#-------------------ENVERUS, INC.------------------#
#------------------WWW.ENVERUS.COM-----------------#
#------------------COPYRIGHT 2020------------------#
#--------------------------------------------------#
#THIS FILE MAY BE USED ONLY IN ACCORDANCE WITH A CURRENT SUBSCRIPTION AGREEMENT BETWEEN
#THE USER AND ENVERUS, INC. NO PART OF THIS FILE MAY BE REPRODUCED, USED, COPIED,
#MODIFIED, PROPAGATED, OR DISTRIBUTED EXCEPT IN ACCORDANCE WITH THE SUBSCRIPTION
#AGREEMENT. UNAUTHORIZED USE OR DISTRIBUTION OF ALL OR ANY PART OF THIS FILE MAY VIOLATE
#COPYRIGHT, TRADEMARK, AND/OR OTHER LAWS AND IS SUBJECT TO CIVIL AS WELL AS CRIMINAL
#SANCTIONS.
#--------------------------------------------------#
#THIS FILE IS PROVIDED "AS-IS" AND ALL WARRANTIES ARE EXPRESSLY DISCLAIMED, WHETHER
#EXPRESS, ORAL, IMPLIED, STATUTORY OR OTHERWISE, INCLUDING ANY IMPLIED WARRANTY OF FITNESS
#FOR A PARTICULAR PURPOSE, MERCHANTABILITY, TITLE OR NON-INFRINGEMENT, AND ANY WARRANTIES
#ARISING BY VIRTUE OF CUSTOM OF TRADE OR COURSE OF DEALING.  FURTHER, ENVERUS, INC.
#AND ITS LICENSORS DO NOT REPRESENT OR WARRANT THAT THIS FILE WILL MEET USER'S
#REQUIREMENTS OR ARE SUITABLE FOR USER'S NEEDS OR THAT THE DATA OR RESULTS PROVIDED IN
#CONJUNCTION THEREWITH ARE CORRECT, ACCURATE, TIMELY OR RELIABLE. THESE DISCLAIMERS SHALL
#APPLY REGARDLESS OF ANY FAILURE OF ESSENTIAL PURPOSE OF ANY LIMITED REMEDY.  SOME
#JURISDICTIONS DO NOT ALLOW THE EXCLUSION OF CERTAIN WARRANTIES SO SOME OF THE ABOVE
#EXCLUSIONS MAY NOT APPLY. IN NO EVENT SHALL ENVERUS, INC. OR ANY OF ITS AFFILIATES
#BE LIABLE UNDER ANY LEGAL THEORY, WHETHER IN TORT (INCLUDING WITHOUT LIMITATION
#NEGLIGENCE), CONTRACT, STRICT LIABILITY, STATUTORY OR OTHERWISE, FOR ANY SPECIAL,
#INCIDENTAL, CONSEQUENTIAL, EXEMPLARY, PUNITIVE OR INDIRECT DAMAGE OF ANY KIND, INCLUDING
#WITHOUT LIMITATION LOSS OF REVENUE, PROFITS, GOODWILL, USE, AND/OR DATA OR THE COST OF
#PROCUREMENT OF SUBSTITUTE GOODS OR SERVICES, EVEN IF APPRISED OF THE POSSIBILITY OF SUCH
#DAMAGES IN ADVANCE.
#--------------------------------------------------#

~VERSION INFORMATION
VERS. 2.0 : CWLS LOG ASCII STANDARD - VERSION 2.0
WRAP.  NO : ONE LINE PER DEPTH STEP
~WELL INFORMATION
#MNEMONIC     .UNIT              VALUE :DESCRIPTION
STRT       .FT                2 :START DEPTH
STOP       .FT                6341 :STOP DEPTH
STEP       .FT                   0.500 :STEP
NULL       .                  -999.990 :NULL
UWI        .              42389104050000 :UNIQUE WELL ID
API        .              42389104050000 :API NUMBER
COMP       .         ENDEAVOR ENERGY RESOURCES L.P. :COMPANY
WELL       .        TXL REEVES STATE UNIT  2 :WELL
DATE       .                            :LOG DATE
~CURVE INFORMATION
#MNEMONIC     .UNIT      API CODE :CURVE DESCRIPTION
DEPTH       .FT                      :MEASURED DEPTH
GR.API        UNKNOWN   :GR
DT.US/FT        UNKNOWN   :DT
~A    DEPTH    GR    DT
# ...
 1671.5     6.618   89.376
 1672     8.271   88.018
 1672.5     9.924   86.659
 1673     11.577   85.301
 1673.5     13.229   83.942
 1674     14.882   82.584
 1674.5     16.535   81.225
 1675     18.188   79.866
 1675.5     19.84   78.508
 1676     18.81   77.149
 1676.5     16.835   75.791
 1677     14.861   74.432
 1677.5     12.886   74.344
 1678     10.911   75.429
 1678.5     9.455   76.514
 1679     8.702   77.496
 1679.5     7.95   78.363
 1680     7.197   79.23
 1680.5     6.444   80.097
 1681     5.692   66.806
 1681.5     4.939   66.806
 1682     5.008   66.806
 1682.5     5.676   66.806
 1683     6.344   56.773
 1683.5     7.012   55.313
 1684     7.679   53.853
 1684.5     8.347   52.416
 1685     9.015   53.433
 1685.5     9.819   54.449
 1686     10.678   55.466
 1686.5     11.536   56.482
 1687     12.394   57.499
 1687.5     13.252   57.122
 1688     14.11   56.114
 1688.5     14.968   55.105
 1689     15.826   54.097
 1689.5     16.684   57.027
 1690     17.543   60.556
 1690.5     18.307   64.085
 1691     17.001   67.614
 1691.5     15.694   71.143
 1692     14.388   74.247
 1692.5     13.667   77.024
 1693     14.756   79.802
 1693.5     15.845   82.579
 1694     16.934   81.824
 1694.5     18.024   79.994
 1695     19.113   78.164
 1695.5     20.202   76.334
 1696     18.742   74.504
 1696.5     16.478   72.674
 1697     14.214   70.844
 1697.5     10.293   67.119
 1698     6.613   63.177
 1698.5     6.111   59.235
 1699     5.609   55.293
 1699.5     5.107   53.012
 1700     4.605   54.794
 1700.5     4.912   56.577
 1701     5.656   57.5
 1701.5     6.4   55.912
 1702     7.144   54.324
 1702.5     7.887   53.242
 1703     8.631   54.261
 1703.5     9.375   55.28
 1704     10.119   56.298
 1704.5     10.863   57.317
 1705     11.606   58.335
 1705.5     12.35   59.354
 1706     13.094   60.482
 1706.5     13.838   61.809
 1707     14.709   63.057
 1707.5     15.867   63.924
 1708     17.025   66.18
 1708.5     18.184   68.318
 1709     19.342   67.065
 1709.5     20.5   65.812
 1710     21.658   64.559
 1710.5     22.586   63.306
 1711     19.77   62.054
 1711.5     16.955   64.164
 1712     14.139   67.796
 1712.5     11.323   71.428
 1713     8.508   71.707
 1713.5     5.692   70.241
 1714     4.962   68.775
 1714.5     5.518   67.309
 1715     6.074   66.751
 1715.5     7.036   66.366
 1716     9.744   65.981
 1716.5     12.451   65.65
 1717     15.158   67.341
 1717.5     17.865   69.032
 1718     20.573   70.723
 1718.5     17.295   67.272
 1719     12.803   63.759
 1719.5     8.311   60.245
 1720     5.574   56.731
 1720.5     5.144   53.217
 1721     4.713   50.95
 1721.5     4.683   51.131
 1722     4.771   51.311
 1722.5     4.859   51.492
 1723     4.947   51.672
 1723.5     5.035   51.853
 1724     5.123   52.034
 1724.5     5.334   52.214
 1725     5.834   52.724
 1725.5     6.335   53.236
 1726     6.835   53.748
 1726.5     7.336   54.26
 1727     7.837   54.772
 1727.5     8.337   55.284
 1728     8.838   55.796
 1728.5     9.338   56.308
 1729     9.839   56.82
 1729.5     10.34   58.623
 1730     10.84   60.639
 1730.5     10.612   62.654
 1731     9.608   64.669
 1731.5     8.603   64.542
 1732     7.288   59.612
 1732.5     5.905   54.681
 1733     4.523   50.742
 1733.5     4.104   50.302
 1734     3.95   49.861
 1734.5     3.795   49.421
 1735     3.641   48.98
 1735.5     3.486   49.1
 1736     4.363   49.533
 1736.5     5.44   49.967
 1737     6.518   50.401
 1737.5     7.595   53.472
 1738     8.672   55.749
 1738.5     7.971   55.343
 1739     7.022   54.938
 1739.5     6.073   54.532
 1740     5.541   54.127
 1740.5     5.505   53.721
 1741     5.469   53.588
 1741.5     5.433   54.402
 1742     5.397   55.216
 1742.5     5.249   56.544
 1743     4.344   60.185
 1743.5     3.439   63.826
 1744     2.534   67.467
 1744.5     1.953   69.509
 1745     2.032   69.185
 1745.5     2.111   68.862
 1746     2.19   68.538
 1746.5     2.269   68.214
 1747     2.347   67.89
 1747.5     2.426   67.566
 1748     2.533   67.242
 1748.5     2.903   66.918
 1749     3.272   66.594
 1749.5     3.642   66.925
 1750     4.012   67.938
 1750.5     4.382   68.951
 1751     4.752   69.965
 1751.5     5.121   70.152
 1752     5.491   69.963
 1752.5     5.655   69.774
 1753     5.404   69.584
 1753.5     5.153   69.395
 1754     4.901   69.812
 1754.5     4.65   71.351
 1755     4.399   72.89
 1755.5     4.147   73.245
 1756     3.896   70.968
 1756.5     3.645   68.691
 1757     3.393   66.975
 1757.5     3.142   66.96
 1758     2.891   66.945
 1758.5     2.718   66.93
 1759     2.968   66.915
 1759.5     3.218   66.9
 1760     3.468   66.982
 1760.5     3.718   67.609
 1761     3.754   68.235
 1761.5     3.638   68.862
 1762     3.522   69.228
 1762.5     3.405   69.099
 1763     3.289   68.97
 1763.5     3.799   68.841
 1764     4.666   68.712
 1764.5     5.533   68.583
 1765     6.4   68.455
 1765.5     7.267   68.326
 1766     8.134   68.197
 1766.5     12.263   68.068
 1767     16.688   67.939
 1767.5     21.114   67.469
 1768     25.539   66.834
 1768.5     37.587   66.199
 1769     66.907   65.563
 1769.5     93.156   64.928
 1770     110.57   56.593
 1770.5     120.052   56.521
 1771     129.534   56.449
 1771.5     139.016   56.377
 1772     132.524   56.305
 1772.5     125.604   56.232
 1773     118.683   56.16
 1773.5     111.763   56.088
 1774     71.623   56.89
 1774.5     42.734   58.098
 1775     26.722   59.305
 1775.5     14.164   60.513
 1776     12.064   61.311
 1776.5     9.965   59.279
 1777     7.865   57.247
 1777.5     5.765   55.215
 1778     4.786   53.183
 1778.5     4.283   54.786
 1779     3.781   59.701
 1779.5     3.531   64.616
 1780     3.413   66.203
 1780.5     3.294   64.706
 1781     3.176   63.209
 1781.5     3.057   61.712
 1782     2.939   60.215
 1782.5     3.134   58.718
 1783     4.678   57.222
 1783.5     6.221   55.725
 1784     7.765   54.228
 1784.5     9.309   53.587
 1785     8.2   54.691
 1785.5     7.057   55.796
 1786     5.915   56.9
 1786.5     4.772   58.004
 1787     5.217   59.078
 1787.5     6.036   58.039
 1788     6.854   57
 1788.5     7.672   55.962
 1789     7.464   54.923
 1789.5     6.613   57.346
 1790     5.762   64.482
 1790.5     4.911   65.463
 1791     4.06   65.998
 1791.5     4.316   66.534
 1792     5.101   67.069
 1792.5     5.879   67.605
 1793     5.456   68.141
 1793.5     5.032   68.567
 1794     4.609   67.766
 1794.5     4.186   66.965
 1795     3.762   66.007
 1795.5     3.339   65.007
 1796     2.915   64.007
 1796.5     2.871   63.007
 1797     2.933   62.379
 1797.5     2.995   63.193
 1798     2.664   64.008
 1798.5     2.193   64.822
 1799     1.722   65.636
 1799.5     1.25   66.451
 1800     0.779   67.093
 1800.5     0.307   66.492
 1801     0.559   65.892
 1801.5     1.198   65.292
 1802     1.837   65.119
 1802.5     2.475   65.934
 1803     3.114   66.748
 1803.5     3.753   67.562
 1804     4.392   68.377
 1804.5     4.29   69.191
 1805     3.988   69.774
 1805.5     3.686   69.534
 1806     3.384   69.293
 1806.5     3.082   69.053
 1807     2.78   68.813
 1807.5     2.478   68.572
 1808     2.252   68.332
 1808.5     2.371   68.091
 1809     2.489   67.851
 1809.5     2.608   67.61
 1810     2.726   67.625
 1810.5     2.844   68.228
 1811     2.963   68.831
 1811.5     3.081   69.216
 1812     3.224   68.975
 1812.5     3.474   68.735
 1813     3.723   68.494
 1813.5     3.973   68.254
 1814     4.222   68.014
 1814.5     4.472   67.773
 1815     4.721   67.533
 1815.5     4.971   67.292
 1816     4.937   68.364
 1816.5     4.685   68.136
 1817     4.433   67.908
 1817.5     4.181   67.679
 1818     3.929   67.451
 1818.5     3.677   67.222
 1819     3.491   69.185
 1819.5     3.376   68.922
 1820     3.261   68.66
 1820.5     3.147   68.398
 1821     3.032   68.136
 1821.5     2.917   67.873
 1822     2.802   67.611
 1822.5     2.687   67.349
 1823     2.659   67.087
 1823.5     3.342   66.937
 1824     4.026   66.857
 1824.5     4.71   66.777
