#--------------------------------------------------#
#-------------------ENVERUS, INC.------------------#
#------------------WWW.ENVERUS.COM-----------------#
#------------------COPYRIGHT 2020------------------#
#--------------------------------------------------#
#THIS FILE MAY BE USED ONLY IN ACCORDANCE WITH A CURRENT SUBSCRIPTION AGREEMENT BETWEEN
#THE USER AND ENVERUS, INC. NO PART OF THIS FILE MAY BE REPRODUCED, USED, COPIED,
#MODIFIED, PROPAGATED, OR DISTRIBUTED EXCEPT IN ACCORDANCE WITH THE SUBSCRIPTION
#AGREEMENT. UNAUTHORIZED USE OR DISTRIBUTION OF ALL OR ANY PART OF THIS FILE MAY VIOLATE
#COPYRIGHT, TRADEMARK, AND/OR OTHER LAWS AND IS SUBJECT TO CIVIL AS WELL AS CRIMINAL
#SANCTIONS.
#--------------------------------------------------#
#THIS FILE IS PROVIDED "AS-IS" AND ALL WARRANTIES ARE EXPRESSLY DISCLAIMED, WHETHER
#EXPRESS, ORAL, IMPLIED, STATUTORY OR OTHERWISE, INCLUDING ANY IMPLIED WARRANTY OF FITNESS
#FOR A PARTICULAR PURPOSE, MERCHANTABILITY, TITLE OR NON-INFRINGEMENT, AND ANY WARRANTIES
#ARISING BY VIRTUE OF CUSTOM OF TRADE OR COURSE OF DEALING.  FURTHER, ENVERUS, INC.
#AND ITS LICENSORS DO NOT REPRESENT OR WARRANT THAT THIS FILE WILL MEET USER'S
#REQUIREMENTS OR ARE SUITABLE FOR USER'S NEEDS OR THAT THE DATA OR RESULTS PROVIDED IN
#CONJUNCTION THEREWITH ARE CORRECT, ACCURATE, TIMELY OR RELIABLE. THESE DISCLAIMERS SHALL
#APPLY REGARDLESS OF ANY FAILURE OF ESSENTIAL PURPOSE OF ANY LIMITED REMEDY.  SOME
#JURISDICTIONS DO NOT ALLOW THE EXCLUSION OF CERTAIN WARRANTIES SO SOME OF THE ABOVE
#EXCLUSIONS MAY NOT APPLY. IN NO EVENT SHALL ENVERUS, INC. OR ANY OF ITS AFFILIATES
#BE LIABLE UNDER ANY LEGAL THEORY, WHETHER IN TORT (INCLUDING WITHOUT LIMITATION
#NEGLIGENCE), CONTRACT, STRICT LIABILITY, STATUTORY OR OTHERWISE, FOR ANY SPECIAL,
#INCIDENTAL, CONSEQUENTIAL, EXEMPLARY, PUNITIVE OR INDIRECT DAMAGE OF ANY KIND, INCLUDING
#WITHOUT LIMITATION LOSS OF REVENUE, PROFITS, GOODWILL, USE, AND/OR DATA OR THE COST OF
#PROCUREMENT OF SUBSTITUTE GOODS OR SERVICES, EVEN IF APPRISED OF THE POSSIBILITY OF SUCH
#DAMAGES IN ADVANCE.
#--------------------------------------------------#

~VERSION INFORMATION
VERS. 2.0 : CWLS LOG ASCII STANDARD - VERSION 2.0
WRAP.  NO : ONE LINE PER DEPTH STEP
~WELL INFORMATION
#MNEMONIC     .UNIT              VALUE :DESCRIPTION
STRT       .FT                10841 :START DEPTH
STOP       .FT                18209 :STOP DEPTH
STEP       .FT                   0.500 :STEP
NULL       .                  -999.99 :NULL
UWI        .                42371326180000 :UNIQUE WELL ID
API        .                42371326180000 :API NUMBER
COMP       .         :COMPANY
WELL       .        :WELL
DATE       .                 :LOG DATE
FLD       .                 :FIELD NAME
LOC       .                  UNK :LOCATION
CNTY       .                 UNK :COUNTY
STAT       .                 UNK :STATE
CTRY       .                 UNK :COUNTY
SRVC       .                 UNK :SERVICE COMPANY
~CURVE INFORMATION
#MNEMONIC     .UNIT      API CODE :CURVE DESCRIPTION
DEPTH       .FT                      :MEASURED DEPTH
CAL.IN        UNKNOWN   :CAL
DT.MSEC/FT        UNKNOWN   :DT
GR.API        UNKNOWN   :GR
ILD.OHM        UNKNOWN   :ILD
ILS.OHM        UNKNOWN   :ILS
SP.MV        UNKNOWN   :SP
~A    DEPTH    CAL    DT    GR    ILD    ILS    SP
# ...
 18098     -999.99   -999.99   10.73467   2888.36835   1749.65452   -999.99
 18098.5     -999.99   -999.99   11.12351   2929.33272   1749.72158   -999.99
 18099     -999.99   -999.99   11.51234   3033.89509   1749.78864   -999.99
 18099.5     -999.99   -999.99   11.90118   3138.45746   1749.8557   -999.99
 18100     -999.99   -999.99   11.22602   3251.13961   1749.92276   -999.99
 18100.5     -999.99   -999.99   9.69097   3411.4934   1749.98982   -999.99
 18101     -999.99   -999.99   10.48481   3571.84719   1750.05688   -999.99
 18101.5     -999.99   -999.99   11.37783   3677.74845   1750.12394   -999.99
 18102     -999.99   -999.99   12.01102   3713.72704   1750.191   -999.99
 18102.5     -999.99   -999.99   12.52884   3749.70562   1750.25806   -999.99
 18103     -999.99   -999.99   12.22028   3774.95365   1750.32512   -999.99
 18103.5     -999.99   -999.99   11.86307   3643.74722   1750.39218   -999.99
 18104     -999.99   -999.99   11.34123   3512.54079   1750.45924   -999.99
 18104.5     -999.99   -999.99   10.64305   3381.33436   1750.5263   -999.99
 18105     -999.99   -999.99   9.94487   3625.77611   1750.59336   -999.99
 18105.5     -999.99   -999.99   9.74141   4028.33579   1750.66042   -999.99
 18106     -999.99   -999.99   10.62748   4408.46288   1750.72748   -999.99
 18106.5     -999.99   -999.99   11.51355   4777.09774   1750.79454   -999.99
 18107     -999.99   -999.99   11.88612   4978.64111   1750.8616   -999.99
 18107.5     -999.99   -999.99   11.7863   4363.7356   1750.92866   -999.99
 18108     -999.99   -999.99   11.88941   3748.83008   1750.99572   -999.99
 18108.5     -999.99   -999.99   12.2781   4271.78925   1751.06278   -999.99
 18109     -999.99   -999.99   11.85038   4851.38271   1751.12984   -999.99
 18109.5     -999.99   -999.99   10.91022   5437.83806   1751.1969   -999.99
 18110     -999.99   -999.99   8.77901   6027.57806   1751.26396   -999.99
 18110.5     -999.99   -999.99   7.82438   6617.31807   1751.33102   -999.99
 18111     -999.99   -999.99   9.57592   7529.43491   1751.39808   -999.99
 18111.5     -999.99   -999.99   11.32746   9306.19384   1751.46514   -999.99
 18112     -999.99   -999.99   11.92771   11082.95277   1751.5322   -999.99
 18112.5     -999.99   -999.99   12.07441   9205.51157   1751.59926   -999.99
 18113     -999.99   -999.99   12.16008   7332.31758   1751.66632   -999.99
 18113.5     -999.99   -999.99   12.24898   6296.71543   1751.73338   -999.99
 18114     -999.99   -999.99   12.51056   5706.169   1751.80044   -999.99
 18114.5     -999.99   -999.99   12.77213   5115.62257   1751.8675   -999.99
 18115     -999.99   -999.99   13.29789   5965.9469   1751.93456   -999.99
 18115.5     -999.99   -999.99   14.23513   11881.24188   1752.00162   -999.99
 18116     -999.99   -999.99   15.33794   9955.6985   1752.06868   -999.99
 18116.5     -999.99   -999.99   16.62568   5370.03593   1752.13574   -999.99
 18117     -999.99   -999.99   17.91342   3060.23932   1752.2028   -999.99
 18117.5     -999.99   -999.99   18.32179   2065.78267   1752.26986   -999.99
 18118     -999.99   -999.99   18.32786   1836.14812   1752.33692   -999.99
 18118.5     -999.99   -999.99   14.59737   1761.44277   1609.68454   -999.99
 18119     -999.99   -999.99   10.68123   2223.7068   1736.97981   -999.99
 18119.5     -999.99   -999.99   6.9405   5178.77293   1743.80529   -999.99
 18120     -999.99   -999.99   3.05139   11698.34508   1750.63076   -999.99
 18120.5     -999.99   -999.99   2.33971   18650.9943   1757.45624   -999.99
 18121     -999.99   -999.99   3.49833   25603.64352   1764.28171   -999.99
 18121.5     -999.99   -999.99   9.38967   24265.66667   1771.10719   -999.99
 18122     -999.99   -999.99   15.89102   21002.74849   1777.93266   -999.99
 18122.5     -999.99   -999.99   21.3765   13110.81287   1784.75814   -999.99
 18123     -999.99   -999.99   26.39705   1710.94031   1563.16876   -999.99
 18123.5     -999.99   -999.99   26.02516   721.5153   1177.57745   -999.99
 18124     -999.99   -999.99   20.39545   974.97599   997.92227   -999.99
 18124.5     -999.99   -999.99   15.76262   1352.02759   1109.98138   -999.99
 18125     -999.99   -999.99   12.2042   1729.0792   1424.39092   -999.99
 18125.5     -999.99   -999.99   11.60062   2106.13081   1695.8213   -999.99
 18126     -999.99   -999.99   12.38662   2467.17898   1719.46695   -999.99
 18126.5     -999.99   -999.99   16.28275   2785.17727   1743.1126   -999.99
 18127     -999.99   -999.99   21.28074   2639.20604   1766.75825   -999.99
 18127.5     -999.99   -999.99   25.96491   2038.48775   1790.4039   -999.99
 18128     -999.99   -999.99   29.36344   1433.92305   1667.26286   -999.99
 18128.5     -999.99   -999.99   27.92666   892.3764   1191.35995   -999.99
 18129     -999.99   -999.99   17.23258   350.82974   715.45704   -999.99
 18129.5     -999.99   -999.99   15.34953   330.15038   362.17728   -999.99
 18130     -999.99   -999.99   14.07834   443.57035   442.4084   -999.99
 18130.5     -999.99   -999.99   12.99963   556.99031   615.31873   -999.99
 18131     -999.99   -999.99   12.85849   1051.62797   1481.46873   -999.99
 18131.5     -999.99   -999.99   15.07112   2387.14242   1798.06408   -999.99
 18132     -999.99   -999.99   17.54395   4033.01982   1807.07558   -999.99
 18132.5     -999.99   -999.99   21.82145   3933.86132   1816.08709   -999.99
 18133     -999.99   -999.99   23.38314   3013.54638   1825.09859   -999.99
 18133.5     -999.99   -999.99   24.31919   1640.38344   1652.71004   -999.99
 18134     -999.99   -999.99   24.32519   1341.74646   1436.28286   -999.99
 18134.5     -999.99   -999.99   24.22863   1063.11031   1219.85568   -999.99
 18135     -999.99   -999.99   23.60123   1075.0582   1211.202   -999.99
 18135.5     -999.99   -999.99   21.42441   1087.00609   1301.14616   -999.99
 18136     -999.99   -999.99   20.68309   1077.38935   1246.33187   -999.99
 18136.5     -999.99   -999.99   21.81823   936.19273   1106.83464   -999.99
 18137     -999.99   -999.99   22.95338   794.9961   967.33741   -999.99
 18137.5     -999.99   -999.99   22.65199   933.29764   1037.30361   -999.99
 18138     -999.99   -999.99   21.14205   1091.00677   1323.82963   -999.99
 18138.5     -999.99   -999.99   19.46319   1248.71591   1610.35566   -999.99
 18139     -999.99   -999.99   17.9547   1358.01858   1749.30522   -999.99
 18139.5     -999.99   -999.99   16.83602   1419.64355   1753.22294   -999.99
 18140     -999.99   -999.99   16.69532   1481.26852   1757.14067   -999.99
 18140.5     -999.99   -999.99   16.98958   1733.54743   1761.0584   -999.99
 18141     -999.99   -999.99   17.89044   2054.41819   1764.97612   -999.99
 18141.5     -999.99   -999.99   18.75465   1940.4088   1768.89385   -999.99
 18142     -999.99   -999.99   19.57382   1770.77125   1772.81158   -999.99
 18142.5     -999.99   -999.99   19.56343   1567.22049   1776.72931   -999.99
 18143     -999.99   -999.99   18.80856   1617.04125   1780.64703   -999.99
 18143.5     -999.99   -999.99   15.76546   2034.63117   1784.56476   -999.99
 18144     -999.99   -999.99   15.51507   2452.2211   1788.48249   -999.99
 18144.5     -999.99   -999.99   16.8011   2720.0812   1792.40021   -999.99
 18145     -999.99   -999.99   18.11626   2323.044   1796.31794   -999.99
 18145.5     -999.99   -999.99   19.7722   1926.00681   1797.06972   -999.99
 18146     -999.99   -999.99   19.75447   1528.96961   1415.22366   -999.99
 18146.5     -999.99   -999.99   19.46775   1131.93242   1247.31087   -999.99
 18147     -999.99   -999.99   19.14969   1063.6085   1183.79478   -999.99
 18147.5     -999.99   -999.99   18.80866   1523.31478   1395.80485   -999.99
 18148     -999.99   -999.99   19.20623   2039.32333   1645.31906   -999.99
 18148.5     -999.99   -999.99   20.44837   2496.87574   1744.88383   -999.99
 18149     -999.99   -999.99   23.02847   2012.93015   1731.78898   -999.99
 18149.5     -999.99   -999.99   24.7416   1528.98457   1697.03914   -999.99
 18150     -999.99   -999.99   24.98689   1045.03898   1545.02767   -999.99
