#--------------------------------------------------#
#-------------------ENVERUS, INC.------------------#
#------------------WWW.ENVERUS.COM-----------------#
#------------------COPYRIGHT 2020------------------#
#--------------------------------------------------#
#THIS FILE MAY BE USED ONLY IN ACCORDANCE WITH A CURRENT SUBSCRIPTION AGREEMENT BETWEEN
#THE USER AND ENVERUS, INC. NO PART OF THIS FILE MAY BE REPRODUCED, USED, COPIED,
#MODIFIED, PROPAGATED, OR DISTRIBUTED EXCEPT IN ACCORDANCE WITH THE SUBSCRIPTION
#AGREEMENT. UNAUTHORIZED USE OR DISTRIBUTION OF ALL OR ANY PART OF THIS FILE MAY VIOLATE
#COPYRIGHT, TRADEMARK, AND/OR OTHER LAWS AND IS SUBJECT TO CIVIL AS WELL AS CRIMINAL
#SANCTIONS.
#--------------------------------------------------#
#THIS FILE IS PROVIDED "AS-IS" AND ALL WARRANTIES ARE EXPRESSLY DISCLAIMED, WHETHER
#EXPRESS, ORAL, IMPLIED, STATUTORY OR OTHERWISE, INCLUDING ANY IMPLIED WARRANTY OF FITNESS
#FOR A PARTICULAR PURPOSE, MERCHANTABILITY, TITLE OR NON-INFRINGEMENT, AND ANY WARRANTIES
#ARISING BY VIRTUE OF CUSTOM OF TRADE OR COURSE OF DEALING.  FURTHER, ENVERUS, INC.
#AND ITS LICENSORS DO NOT REPRESENT OR WARRANT THAT THIS FILE WILL MEET USER'S
#REQUIREMENTS OR ARE SUITABLE FOR USER'S NEEDS OR THAT THE DATA OR RESULTS PROVIDED IN
#CONJUNCTION THEREWITH ARE CORRECT, ACCURATE, TIMELY OR RELIABLE. THESE DISCLAIMERS SHALL
#APPLY REGARDLESS OF ANY FAILURE OF ESSENTIAL PURPOSE OF ANY LIMITED REMEDY.  SOME
#JURISDICTIONS DO NOT ALLOW THE EXCLUSION OF CERTAIN WARRANTIES SO SOME OF THE ABOVE
#EXCLUSIONS MAY NOT APPLY. IN NO EVENT SHALL ENVERUS, INC. OR ANY OF ITS AFFILIATES
#BE LIABLE UNDER ANY LEGAL THEORY, WHETHER IN TORT (INCLUDING WITHOUT LIMITATION
#NEGLIGENCE), CONTRACT, STRICT LIABILITY, STATUTORY OR OTHERWISE, FOR ANY SPECIAL,
#INCIDENTAL, CONSEQUENTIAL, EXEMPLARY, PUNITIVE OR INDIRECT DAMAGE OF ANY KIND, INCLUDING
#WITHOUT LIMITATION LOSS OF REVENUE, PROFITS, GOODWILL, USE, AND/OR DATA OR THE COST OF
#PROCUREMENT OF SUBSTITUTE GOODS OR SERVICES, EVEN IF APPRISED OF THE POSSIBILITY OF SUCH
#DAMAGES IN ADVANCE.
#--------------------------------------------------#

~VERSION INFORMATION
VERS. 2.0 : CWLS LOG ASCII STANDARD - VERSION 2.0
WRAP. NO : ONE LINE PER DEPTH STEP
~WELL INFORMATION
#MNEMONIC     .UNIT              VALUE :DESCRIPTION
STRT       .FT                38.00000 :START DEPTH
STOP       .FT                20083.00000 :STOP DEPTH
STEP       .FT                0.50000 :STEP
NULL       .                -999.25000 :NULL VALUE
UWI       .                42389302750000 :UNIQUE WELL ID
API       .                42389302750000 :API NUMBER
COMP       .                 :COMPANY
WELL       .                 :WELL
FLD       .                 :FIELD
LOC       .                 :LOCATION
CNTY       .                 :COUNTY
STAT       .                 :STATE
CTRY       .                 :COUNTRY
SRVC       .                 :SERVICE COMPANY
DATE       .                 :DATE
~CURVE INFORMATION
#MNEMONIC     .UNIT      API CODE :CURVE DESCRIPTION
DEPTH       .FT                      :MEASURED DEPTH
CAL       .IN        UNKNOWN   :CAL
DT       .US/FT        UNKNOWN   :DT
GR       .GAPI        UNKNOWN   :GR
~A    DEPTH    CAL    DT    GR
# ...
20016.50000    7.25383    61.73871    65.25728
20017.00000    7.46300    65.01702    70.74765
20017.50000    6.52824    68.29533    76.23802
20018.00000    6.52387    71.57364    81.72839
20018.50000    6.51949    74.85195    87.21875
20019.00000    6.51511    76.51847    92.70912
20019.50000    6.51074    74.50819    98.19949
20020.00000    6.50636    72.49791    100.61629
20020.50000    6.54375    70.48763    98.13946
20021.00000    6.58195    69.24086    95.66263
20021.50000    6.62016    69.26700    93.18579
20022.00000    6.65836    69.29314    90.70896
20022.50000    6.69657    69.31929    88.23213
20023.00000    6.73478    69.34543    85.52533
20023.50000    6.77298    69.37157    78.76998
20024.00000    6.75859    69.39771    72.01462
20024.50000    6.58388    66.25464    65.25927
20025.00000    6.40916    60.29449    58.50392
20025.50000    6.39890    54.33433    51.74857
20026.00000    6.40409    56.66890    45.14879
20026.50000    6.40928    59.25558    50.24383
20027.00000    6.41447    61.84225    55.33887
20027.50000    6.43613    64.42893    60.43391
20028.00000    6.47733    67.01560    65.52894
20028.50000    6.51853    69.60228    70.62398
20029.00000    6.59627    70.06178    75.71902
20029.50000    6.88711    69.14010    80.81406
20030.00000    6.96046    68.21842    82.03157
20030.50000    6.88093    67.29674    78.97251
20031.00000    6.80140    66.37506    75.91345
20031.50000    6.72187    65.45338    72.85439
20032.00000    6.64234    64.53170    69.79533
20032.50000    6.65547    63.61003    66.73627
20033.00000    6.77514    62.68835    63.67721
20033.50000    6.89481    64.31783    60.61815
20034.00000    7.01448    66.45271    57.55909
20034.50000    7.04335    68.58760    60.20467
20035.00000    7.02828    70.72249    80.44386
20035.50000    7.01321    72.85737    97.21932
20036.00000    6.99814    74.99226    97.74149
20036.50000    6.97370    73.05565    98.26365
20037.00000    6.91099    70.74936    98.78581
20037.50000    6.84828    68.44307    99.30797
20038.00000    6.78557    66.13677    97.41200
20038.50000    6.72676    63.83048    92.82567
20039.00000    6.68100    63.77783    88.23933
20039.50000    6.63524    63.81121    83.65300
20040.00000    6.58948    63.84460    79.06667
20040.50000    6.55550    63.87798    76.65484
20041.00000    6.55223    63.91137    77.80176
20041.50000    6.54896    63.51628    78.94868
20042.00000    6.54568    62.81244    80.09560
20042.50000    6.54241    62.10861    81.24252
20043.00000    6.53914    61.40478    82.38944
20043.50000    6.53587    60.97386    83.53636
20044.00000    6.54640    63.31313    84.80051
20044.50000    6.56696    65.65240    87.93663
20045.00000    6.58752    67.99167    91.07275
20045.50000    6.60808    70.33093    94.20888
20046.00000    6.62001    72.67020    97.34500
20046.50000    6.57991    72.03683    100.48112
20047.00000    6.53981    69.70842    103.61724
20047.50000    6.49971    67.38002    101.69973
20048.00000    6.45961    65.05161    96.41207
20048.50000    6.41951    64.11276    91.12441
20049.00000    6.37941    64.79751    85.83675
20049.50000    6.40296    65.48227    81.82692
20050.00000    6.43037    65.78842    83.59420
20050.50000    6.45777    65.06775    85.36149
20051.00000    6.48518    64.34707    87.12877
20051.50000    6.51259    63.62639    88.01215
20052.00000    6.45628    62.90572    85.86780
20052.50000    6.39638    62.18504    83.72345
20053.00000    6.33647    61.46437    81.57910
20053.50000    6.33851    61.06382    79.43475
20054.00000    6.38930    63.57050    77.29039
20054.50000    6.44009    66.07719    75.14604
20055.00000    6.49088    67.67916    73.00169
20055.50000    6.54167    67.04862    70.85734
20056.00000    6.59247    66.41808    69.53057
20056.50000    6.64326    65.78754    73.88549
20057.00000    6.64939    65.15700    78.24042
20057.50000    6.58949    64.52646    82.59534
20058.00000    6.52959    64.97219    86.95027
20058.50000    6.46986    66.98868    91.30519
20059.00000    6.45132    69.00517    95.66012
20059.50000    6.43278    66.65800    100.01504
20060.00000    6.41425    63.32796    100.89339
20060.50000    6.39571    59.99793    98.41618
20061.00000    6.37717    56.66789    95.93897
20061.50000    6.35863    53.33785    93.46176
20062.00000    6.34009    64.77400    90.98455
20062.50000    6.34227    65.18754    88.50734
20063.00000    6.35258    65.60107    86.03013
20063.50000    6.36288    64.61976    83.70479
20064.00000    6.37318    63.62444    81.54780
20064.50000    6.38349    62.62912    -999.25000
20065.00000    6.39379    61.84275    -999.25000
20065.50000    6.40409    63.40361    -999.25000
20066.00000    6.41439    64.96447    -999.25000
20066.50000    6.42470    66.52532    -999.25000
20067.00000    6.43500    63.99143    -999.25000
20067.50000    6.44530    56.70753    -999.25000
20068.00000    6.70407    49.42363    -999.25000
20068.50000    6.82421    42.97567    -999.25000
20069.00000    6.72919    44.69442    -999.25000
20069.50000    6.63418    46.41316    -999.25000
20070.00000    6.57562    48.13190    -999.25000
20070.50000    6.53054    49.85064    -999.25000
20071.00000    6.48546    51.56938    -999.25000
20071.50000    6.44038    53.28813    -999.25000
20072.00000    6.40295    55.00687    -999.25000
20072.50000    6.39293    56.72561    -999.25000
20073.00000    6.38291    58.44435    -999.25000
20073.50000    6.37289    60.27024    -999.25000
20074.00000    6.36287    62.38851    -999.25000
20074.50000    6.35285    64.50678    -999.25000
20075.00000    6.34283    66.62506    -999.25000
20075.50000    6.33668    68.04445    -999.25000
20076.00000    6.33425    67.91743    -999.25000
20076.50000    6.33182    67.79041    -999.25000
20077.00000    6.32940    67.66339    -999.25000
20077.50000    6.32697    67.53637    -999.25000
20078.00000    6.32454    67.40935    -999.25000
20078.50000    6.32212    67.28233    -999.25000
20079.00000    6.31969    67.15531    -999.25000
20079.50000    6.31726    66.90486    -999.25000
20080.00000    6.31631    66.72331    -999.25000
20080.50000    6.31642    64.97111    -999.25000
20081.00000    6.31654    63.51645    -999.25000
20081.50000    6.31665    -999.25000    -999.25000
20082.00000    6.31677    -999.25000    -999.25000
20082.50000    6.31688    -999.25000    -999.25000
20083.00000    6.31700    -999.25000    -999.25000
