#--------------------------------------------------#
#-------------------ENVERUS, INC.------------------#
#------------------WWW.ENVERUS.COM-----------------#
#------------------COPYRIGHT 2020------------------#
#--------------------------------------------------#
#THIS FILE MAY BE USED ONLY IN ACCORDANCE WITH A CURRENT SUBSCRIPTION AGREEMENT BETWEEN
#THE USER AND ENVERUS, INC. NO PART OF THIS FILE MAY BE REPRODUCED, USED, COPIED,
#MODIFIED, PROPAGATED, OR DISTRIBUTED EXCEPT IN ACCORDANCE WITH THE SUBSCRIPTION
#AGREEMENT. UNAUTHORIZED USE OR DISTRIBUTION OF ALL OR ANY PART OF THIS FILE MAY VIOLATE
#COPYRIGHT, TRADEMARK, AND/OR OTHER LAWS AND IS SUBJECT TO CIVIL AS WELL AS CRIMINAL
#SANCTIONS.
#--------------------------------------------------#
#THIS FILE IS PROVIDED "AS-IS" AND ALL WARRANTIES ARE EXPRESSLY DISCLAIMED, WHETHER
#EXPRESS, ORAL, IMPLIED, STATUTORY OR OTHERWISE, INCLUDING ANY IMPLIED WARRANTY OF FITNESS
#FOR A PARTICULAR PURPOSE, MERCHANTABILITY, TITLE OR NON-INFRINGEMENT, AND ANY WARRANTIES
#ARISING BY VIRTUE OF CUSTOM OF TRADE OR COURSE OF DEALING.  FURTHER, ENVERUS, INC.
#AND ITS LICENSORS DO NOT REPRESENT OR WARRANT THAT THIS FILE WILL MEET USER'S
#REQUIREMENTS OR ARE SUITABLE FOR USER'S NEEDS OR THAT THE DATA OR RESULTS PROVIDED IN
#CONJUNCTION THEREWITH ARE CORRECT, ACCURATE, TIMELY OR RELIABLE. THESE DISCLAIMERS SHALL
#APPLY REGARDLESS OF ANY FAILURE OF ESSENTIAL PURPOSE OF ANY LIMITED REMEDY.  SOME
#JURISDICTIONS DO NOT ALLOW THE EXCLUSION OF CERTAIN WARRANTIES SO SOME OF THE ABOVE
#EXCLUSIONS MAY NOT APPLY. IN NO EVENT SHALL ENVERUS, INC. OR ANY OF ITS AFFILIATES
#BE LIABLE UNDER ANY LEGAL THEORY, WHETHER IN TORT (INCLUDING WITHOUT LIMITATION
#NEGLIGENCE), CONTRACT, STRICT LIABILITY, STATUTORY OR OTHERWISE, FOR ANY SPECIAL,
#INCIDENTAL, CONSEQUENTIAL, EXEMPLARY, PUNITIVE OR INDIRECT DAMAGE OF ANY KIND, INCLUDING
#WITHOUT LIMITATION LOSS OF REVENUE, PROFITS, GOODWILL, USE, AND/OR DATA OR THE COST OF
#PROCUREMENT OF SUBSTITUTE GOODS OR SERVICES, EVEN IF APPRISED OF THE POSSIBILITY OF SUCH
#DAMAGES IN ADVANCE.
#--------------------------------------------------#

~VERSION INFORMATION
VERS. 2.0 : CWLS LOG ASCII STANDARD - VERSION 2.0
WRAP.  NO : ONE LINE PER DEPTH STEP
~WELL INFORMATION
#MNEMONIC     .UNIT              VALUE :DESCRIPTION
STRT       .FT                10841 :START DEPTH
STOP       .FT                18209 :STOP DEPTH
STEP       .FT                   0.500 :STEP
NULL       .                  -999.99 :NULL
UWI        .                42371326180000 :UNIQUE WELL ID
API        .                42371326180000 :API NUMBER
COMP       .         :COMPANY
WELL       .        :WELL
DATE       .                 :LOG DATE
FLD       .                 :FIELD NAME
LOC       .                  UNK :LOCATION
CNTY       .                 UNK :COUNTY
STAT       .                 UNK :STATE
CTRY       .                 UNK :COUNTY
SRVC       .                 UNK :SERVICE COMPANY
~CURVE INFORMATION
#MNEMONIC     .UNIT      API CODE :CURVE DESCRIPTION
DEPTH       .FT                      :MEASURED DEPTH
CAL.IN        UNKNOWN   :CAL
DT.MSEC/FT        UNKNOWN   :DT
GR.API        UNKNOWN   :GR
ILD.OHM        UNKNOWN   :ILD
ILS.OHM        UNKNOWN   :ILS
SP.MV        UNKNOWN   :SP
~A    DEPTH    CAL    DT    GR    ILD    ILS    SP
# ...
 17621     -999.99   -999.99   212.61989   100.25659   103.08359   -999.99
 17621.5     -999.99   -999.99   250.99931   96.78714   100.55043   -999.99
 17622     -999.99   -999.99   251.03471   86.36768   93.14404   -999.99
 17622.5     -999.99   -999.99   251.07011   74.75193   81.15125   -999.99
 17623     -999.99   -999.99   251.10551   67.57492   74.34127   -999.99
 17623.5     -999.99   -999.99   251.14091   63.68219   70.00309   -999.99
 17624     -999.99   -999.99   251.17631   62.90786   68.9232   -999.99
 17624.5     -999.99   -999.99   251.21171   68.84465   71.5676   -999.99
 17625     -999.99   -999.99   246.09464   74.78144   75.2865   -999.99
 17625.5     -999.99   -999.99   228.95933   80.71823   79.00541   -999.99
 17626     -999.99   -999.99   221.15685   86.02208   84.79217   -999.99
 17626.5     -999.99   -999.99   221.02014   91.31501   91.68264   -999.99
 17627     -999.99   -999.99   222.03603   96.60793   96.18684   -999.99
 17627.5     -999.99   -999.99   225.67481   95.30803   93.93327   -999.99
 17628     -999.99   -999.99   240.63406   90.31406   91.6797   -999.99
 17628.5     -999.99   -999.99   244.72962   86.42629   89.42613   -999.99
 17629     -999.99   -999.99   248.0159   88.40539   90.82601   -999.99
 17629.5     -999.99   -999.99   251.05678   90.3845   93.07334   -999.99
 17630     -999.99   -999.99   251.96054   92.3636   95.74039   -999.99
 17630.5     -999.99   -999.99   251.95971   91.22572   98.40743   -999.99
 17631     -999.99   -999.99   251.95888   84.44032   101.07448   -999.99
 17631.5     -999.99   -999.99   251.95805   74.07969   78.16505   -999.99
 17632     -999.99   -999.99   251.95721   63.71254   62.25341   -999.99
 17632.5     -999.99   -999.99   251.95638   53.3454   52.47637   -999.99
 17633     -999.99   -999.99   251.95555   58.19308   59.62868   -999.99
 17633.5     -999.99   -999.99   251.95472   80.92258   66.781   -999.99
 17634     -999.99   -999.99   251.95388   141.33622   125.02344   -999.99
 17634.5     -999.99   -999.99   251.95305   190.94902   205.85321   -999.99
 17635     -999.99   -999.99   251.95222   238.64898   227.76626   -999.99
 17635.5     -999.99   -999.99   251.95138   235.07872   241.16723   -999.99
 17636     -999.99   -999.99   251.95055   231.23858   243.63201   -999.99
 17636.5     -999.99   -999.99   251.94972   207.15868   217.52325   -999.99
 17637     -999.99   -999.99   251.94889   183.07878   190.48701   -999.99
 17637.5     -999.99   -999.99   251.94805   192.30978   187.97658   -999.99
 17638     -999.99   -999.99   251.94722   230.63868   221.43421   -999.99
 17638.5     -999.99   -999.99   251.94639   324.66338   301.09249   -999.99
 17639     -999.99   -999.99   251.94555   386.03388   404.50512   -999.99
 17639.5     -999.99   -999.99   251.94472   378.52388   400.32678   -999.99
 17640     -999.99   -999.99   251.94389   303.4747   383.86674   -999.99
 17640.5     -999.99   -999.99   251.94306   260.83299   298.83874   -999.99
 17641     -999.99   -999.99   251.94222   267.76045   255.57106   -999.99
 17641.5     -999.99   -999.99   251.94139   306.90811   306.08554   -999.99
 17642     -999.99   -999.99   251.94056   445.88129   436.8537   -999.99
 17642.5     -999.99   -999.99   251.93972   549.00865   567.62187   -999.99
 17643     -999.99   -999.99   251.93889   506.44619   536.35197   -999.99
 17643.5     -999.99   -999.99   251.93806   441.23032   486.67788   -999.99
 17644     -999.99   -999.99   251.93723   421.46736   441.13214   -999.99
 17644.5     -999.99   -999.99   251.93639   432.52925   467.96205   -999.99
 17645     -999.99   -999.99   251.93556   477.70195   494.79196   -999.99
 17645.5     -999.99   -999.99   251.93473   501.6926   516.34087   -999.99
 17646     -999.99   -999.99   251.93389   463.56183   449.45678   -999.99
 17646.5     -999.99   -999.99   251.93306   421.215   382.57269   -999.99
 17647     -999.99   -999.99   251.93223   373.59861   315.6886   -999.99
 17647.5     -999.99   -999.99   251.9314   389.11776   383.81245   -999.99
 17648     -999.99   -999.99   251.93056   446.39665   453.56924   -999.99
 17648.5     -999.99   -999.99   251.92973   554.18036   523.32603   -999.99
 17649     -999.99   -999.99   251.9289   540.58685   558.10131   -999.99
 17649.5     -999.99   -999.99   251.92806   488.91468   477.49485   -999.99
 17650     -999.99   -999.99   251.92723   285.45786   253.44802   -999.99
 17650.5     -999.99   -999.99   251.9264   201.91435   191.63139   -999.99
 17651     -999.99   -999.99   251.92557   177.90067   193.38101   -999.99
 17651.5     -999.99   -999.99   251.92473   167.47124   195.13063   -999.99
 17652     -999.99   -999.99   251.9239   168.36813   196.88025   -999.99
 17652.5     -999.99   -999.99   251.92307   167.98769   196.44998   -999.99
 17653     -999.99   -999.99   251.92223   166.08246   190.55683   -999.99
 17653.5     -999.99   -999.99   251.9214   176.15479   193.8948   -999.99
 17654     -999.99   -999.99   251.92057   192.41869   207.58709   -999.99
 17654.5     -999.99   -999.99   251.91974   209.09546   221.27937   -999.99
 17655     -999.99   -999.99   251.9189   226.30501   234.97165   -999.99
 17655.5     -999.99   -999.99   251.91807   208.59848   214.3987   -999.99
 17656     -999.99   -999.99   251.91724   185.65191   188.99577   -999.99
 17656.5     -999.99   -999.99   251.9164   159.59529   168.87517   -999.99
 17657     -999.99   -999.99   251.91557   153.26757   166.58883   -999.99
 17657.5     -999.99   -999.99   251.91474   146.93986   162.41133   -999.99
 17658     -999.99   -999.99   251.91391   128.68331   151.3986   -999.99
 17658.5     -999.99   -999.99   251.91307   109.23279   128.527   -999.99
 17659     -999.99   -999.99   251.91224   91.53393   99.69196   -999.99
 17659.5     -999.99   -999.99   251.91141   73.83507   85.5553   -999.99
 17660     -999.99   -999.99   251.91057   68.97849   81.8037   -999.99
 17660.5     -999.99   -999.99   251.90974   67.58403   78.0521   -999.99
 17661     -999.99   -999.99   251.90891   64.80337   75.29226   -999.99
 17661.5     -999.99   -999.99   251.90808   61.5954   72.94743   -999.99
 17662     -999.99   -999.99   251.90724   61.06378   71.26212   -999.99
 17662.5     -999.99   -999.99   251.90641   63.09877   76.81025   -999.99
 17663     -999.99   -999.99   251.90558   68.20237   82.35837   -999.99
 17663.5     -999.99   -999.99   251.90474   81.38189   100.43968   -999.99
 17664     -999.99   -999.99   251.90391   107.56668   120.06437   -999.99
 17664.5     -999.99   -999.99   251.90308   134.39075   139.68905   -999.99
 17665     -999.99   -999.99   251.90225   161.4627   175.75486   -999.99
 17665.5     -999.99   -999.99   251.90141   188.61108   213.05662   -999.99
 17666     -999.99   -999.99   251.90058   219.41654   250.35837   -999.99
 17666.5     -999.99   -999.99   251.89975   257.04366   279.32411   -999.99
 17667     -999.99   -999.99   251.89891   255.78122   270.28082   -999.99
 17667.5     -999.99   -999.99   251.89808   254.51879   261.23752   -999.99
 17668     -999.99   -999.99   251.89725   244.88589   248.66346   -999.99
 17668.5     -999.99   -999.99   251.89642   231.3139   235.95179   -999.99
 17669     -999.99   -999.99   251.89558   212.30024   221.56016   -999.99
 17669.5     -999.99   -999.99   251.89475   186.13345   196.26619   -999.99
 17670     -999.99   -999.99   251.89392   155.30357   170.485   -999.99
 17670.5     -999.99   -999.99   251.89308   135.00132   140.16882   -999.99
 17671     -999.99   -999.99   251.89225   117.67781   115.82968   -999.99
 17671.5     -999.99   -999.99   251.89142   109.54656   109.578   -999.99
 17672     -999.99   -999.99   251.89059   101.78086   103.32633   -999.99
 17672.5     -999.99   -999.99   251.88975   105.81678   100.07744   -999.99
 17673     -999.99   -999.99   251.88892   111.87313   107.72445   -999.99
 17673.5     -999.99   -999.99   251.88809   124.67138   122.15453   -999.99
 17674     -999.99   -999.99   251.88725   139.70291   145.90447   -999.99
