~VERSION INFORMATION
 VERS.                2.0:   CWLS LOG ASCII STANDARD - VERSION 2.0
 WRAP.                 NO:   ONE LINE PER DEPTH STEP
~WELL INFORMATION
#MNEM.UNIT      DATA TYPE    INFORMATION
#----------   ------------   ------------------------------
 STRT.FT           0.0000:   START DEPTH
 STOP.FT        7147.0000:   STOP DEPTH
 STEP.FT           0.5000:   STEP LENGTH
 NULL.          -999.2500:   NULL VALUE
 COMP. MOBIL PRODUCING TEXAS & NEW MEEXICO INC:   COMPANY
 WELL. SCHLOSER FRED ESTATE B #2:   WELL
 FLD .      ROJO CABALLOS:   FIELD
 LOC .                   :   LOCATION
 CNTY.              PECOS:   COUNTY
 STAT.              TEXAS:   STATE
 CTRY. UNITED STATES OF AMERICA:   COUNTRY
 SRVC.       Schlumberger:   SERVICE COMPANY
 DATE.        10-Jun-1980:   LOGDATE
 API .     42371330900000:   API NUMBER
~CURVE INFORMATION
#MNEM.UNIT       API CODE    CURVE DESCRIPTION
#----------   ------------   ------------------------------
 DEPT.F                  :   
 GRD .GAPI   45 310 01 00:   GAMMA RAY FROM DENSITY LOG
 GRR .GAPI   11 310 01 00:   GAMMA RAY FROM RESISTIVITY LOG
 GRS .GAPI   60 310 01 00:   GAMMA RAY FROM SONIC LOG
 DT  .US/F   60 500 00 00:   DELTA-T (INTERVAL TRANSIT TIME)
 CALD.IN     45 280 60 00:   CALIPER FROM DENSITY LOG
 CORR.G/C3   45 356 01 00:   DENSITY CORRECTION
 RHOB.G/C3   45 350 01 00:   BULK DENSITY
 NPHI_LS.DEC 42 890 01 00:   NEUTRON POROSITY LIMESTONE
 DPHI_LS.DEC 45 890 10 00:   DENSITY POROSITY LIMESTONE
 LLD .OHMM   11 220 10 00:   LATEROLOG DEEP RESISTIVITY
 LLS .OHMM   11 220 09 00:   LATEROLOG SHALLOW RESISTIVITY
~PARAMETER INFORMATION
#MNEM.UNIT          VALUE    DESCRIPTION
#----------   ------------   ------------------------------
 PD  .                 GL:   PERMANENT DATUM
 EPD .FT             2752:   ELEVATION PERMANENT DATUM
 LMF .                 KB:   LOG MEASURED FROM
 DAPD.FT               13:   FEET ABOVE PERMANENT DATUM
 DMF .                 KB:   DRILLING MEASURED FROM
 EKB .FT             2765:   KELLY BUSHING
 EDF .FT             2764:   DRILLING FLOOR
 EGL .FT             2752:   GROUND LEVEL
 DATE.           06/10/80:   RUN DATE
 RUN .                  1:   RUN NUMBER
 DD  .FT             7150:   DEPTH DRILLER
 DL  .FT             7150:   DEPTH LOGGER
 BLI .FT             7147:   BOTTOM LOG INTERVAL
 TLI .FT             5000:   TOP LOG INTERVAL
 CS  .IN            8.625:   CASING SIZE
 CBD .FT             1919:   CASING BOTTOM DRILLER
 CBL .FT             1904:   CASING BOTTOM LOGGER
 BS  .IN            7.875:   BIT SIZE
 BSD .FT             7150:   BIT SIZE AT DEPTH
 DFT .              BRINE:   DRILLING FLUID TYPE
 DFD .                 10:   DRILLING FLUID DENSITY
 DFV .                 35:   DRILLING FLUID VISCOSITY
 DFPH.                9.5:   DRILLING FLUID PH
 DFL .                 20:   DRILLING FLUID LOSS
 MSS .               CIRC:   MUD SAMPLE SOURCE
 RMS .OHMM           .055:   RESISTIVITY MUD SAMPLE
 MST .DEGF             73:   MUD SAMPLE TEMPERATURE
 RMF .OHMM           .055:   RESISTIVITY MUD FILTRATE SAMPLE
 MFST.DEGF             73:   MUD FILTRATE SAMPLE TEMPERATURE
 MFSS.                  M:   MUD FILTRATE SAMPLE SOURCE
 RMB .OHMM            .03:   RESISTIVITY MUD AT BHT
 BHT .DEGF            107:   BOTTOM HOLE TEMPERATURE
 TCS .HRS            1615:   TIME CIRCULATED STOPPED
 TLAB.HRS            0300:   TIME LOGGER AT BOTTOM
 MRT .DEGF            107:   MAXIMUM RECORDED TEMPERATURE
 LUN .               8024:   LOGGING UNIT NUMBER
 LUL .               MONA:   LOGGING UNIT LOCATION
 ENGI.           MC BRIDE:   RECORDING ENGINEER
 CLNT.            :   CLIENT CODE
 ORIG.      1" 2.5" PRINT:   ORIGIN OF DATA
 UWI .     42371330900000:   UNIQUE WELL ID
 
~OTHER INFORMATION
~A    DEPT     GRD        GRR         GRS        DT       CALD       CORR       RHOB      NPHI_LS    DPHI_LS      LLD        LLS   
# ...
 7106.5000    62.7678    58.6523    55.2076    60.2305     8.1228     0.0411     2.6060     0.0931     0.0625    39.9059    24.1156
 7107.0000    60.7714    57.5940    55.8914    61.3105     8.1247     0.0466     2.6066     0.0842     0.0659    36.2727    22.3489
 7107.5000    60.0976    58.4337    59.4868    62.4287     8.1265     0.0518     2.5883     0.0798     0.0738    33.1355    21.0705
 7108.0000    60.0718    60.0669    63.2387    63.3613     8.1283     0.0566     2.5700     0.0864     0.0822    28.8507    17.9137
 7108.5000    61.6563    59.8696    63.6141    63.4314     8.1302     0.0614     2.5517     0.0929     0.0896    24.6285    15.8883
 7109.0000    63.7808    58.7716    62.9082    63.0701     8.1320     0.0638     2.5333     0.0995     0.0963    23.3924    15.5410
 7109.5000    64.8913    57.6254    62.6138    62.5707     8.1338     0.0589     2.5225     0.1100     0.1030    22.5654    15.4717
 7110.0000    65.7096    57.9476    61.4430    62.0328     8.1357     0.0187     2.5329     0.1139     0.1093    22.0383    15.4972
 7110.5000    66.2297    59.1097    61.7698    61.7882     8.1294     0.0191     2.5432     0.1152     0.1089    24.3197    16.5507
 7111.0000    67.4850    60.3052    62.8687    61.9878     8.1278     0.0218     2.5535     0.1177     0.1005    27.3895    18.3175
 7111.5000    69.2402    61.6221    64.7766    62.4222     8.1262     0.0244     2.5638     0.1224     0.0925    30.8468    20.2730
 7112.0000    70.7695    64.5569    66.3245    63.0920     8.1247     0.0270     2.5741     0.1281     0.0872    34.7404    22.3971
 7112.5000    71.8686    68.2155    66.6711    63.3795     8.1231     0.0296     2.5742     0.1316     0.0859    39.0623    24.6979
 7113.0000    72.9840    71.8740    69.5112    63.3790     8.1216     0.0312     2.5724     0.1318     0.0881    41.1727    26.3652
 7113.5000    74.9667    74.6503    72.8083    63.1329     8.1200     0.0287     2.5684     0.1336     0.0894    44.4833    28.8131
 7114.0000    77.7369    74.2671    74.8193    62.1133     8.1184     0.0205     2.5621     0.1362     0.0919    61.2132    37.2061
 7114.5000    80.4827    72.6090    70.2601    60.3997     8.1169     0.0123     2.5561     0.1490     0.0977   109.1121    61.9359
 7115.0000    80.1100    74.3025    59.3989    58.9202     8.1153     0.0042     2.5564     0.1498     0.0992   207.2404   122.7842
 7115.5000    79.0476    76.7041    51.5577    58.0473     8.1138     0.0017     2.5629     0.1429     0.0946   345.5983   161.5442
 7116.0000    78.0056    79.8106    48.2007    57.8777     8.1122     0.0020     2.5929     0.1291     0.0744   494.6981   205.9552
 7116.5000    77.2590  -999.2500    50.6699    59.4528     8.1107     0.0129     2.6267     0.0931     0.0411   481.1984   231.8284
 7117.0000    76.6506  -999.2500    59.2092    61.1676     8.1091     0.0330     2.6605     0.0735     0.0316   442.7263   220.8850
 7117.5000    76.3848  -999.2500  -999.2500    62.2279     8.1075     0.0336     2.6590     0.0668     0.0375   392.3233   196.7099
 7118.0000    76.3249  -999.2500  -999.2500    62.4427     8.1061     0.0230     2.6309     0.0761     0.0533   306.2572   155.2018
 7118.5000    76.8512  -999.2500  -999.2500    62.1842     8.1050     0.0191     2.6085     0.0926     0.0679   246.1765   119.6812
 7119.0000    76.5750  -999.2500  -999.2500    62.1176     8.1039     0.0174     2.6036     0.1015     0.0700   234.6123   113.6685
 7119.5000    76.1614  -999.2500  -999.2500    62.7203     8.1029     0.0182     2.5988     0.1055     0.0695   238.3728   113.6446
 7120.0000    77.2443  -999.2500  -999.2500    64.5204     8.1018     0.0221     2.5946     0.1008     0.0693   269.0732   126.9641
 7120.5000    78.6825  -999.2500  -999.2500    66.1335     8.1007     0.0258     2.5904     0.0907     0.0729   310.8710   142.5990
 7121.0000    79.5512  -999.2500  -999.2500    66.3351     8.0996     0.0294     2.5853     0.0950     0.0800   327.8272   150.5484
 7121.5000    81.4889  -999.2500  -999.2500    66.1792     8.0986     0.0331     2.5798     0.1128     0.0824   282.8755   142.7483
 7122.0000    83.4501  -999.2500  -999.2500    65.2795     8.0975     0.0321     2.5769     0.1297     0.0845   176.0426    92.3219
 7122.5000  -999.2500  -999.2500  -999.2500    63.9833     8.0964     0.0219     2.5719     0.1392     0.0892   119.9206    64.2471
 7123.0000  -999.2500  -999.2500  -999.2500    62.5004     8.0953     0.0121     2.5577     0.1374     0.0984    92.5603    51.5824
 7123.5000  -999.2500  -999.2500  -999.2500    61.6225     8.0942     0.0024     2.5417     0.1343     0.1075    75.0395    46.6132
 7124.0000  -999.2500  -999.2500  -999.2500    61.6727     8.0932     0.0002     2.5276     0.1358     0.1150    65.2327    40.6603
 7124.5000  -999.2500  -999.2500  -999.2500    62.6124     8.0921     0.0012     2.5326     0.1409     0.1144    56.7075    35.7257
 7125.0000  -999.2500  -999.2500  -999.2500    62.9940     8.0910     0.0019     2.5377     0.1448     0.1105    48.4529    32.0552
 7125.5000  -999.2500  -999.2500  -999.2500    62.8651     8.0863     0.0021     2.5327     0.1480     0.1094    42.0507    28.9012
 7126.0000  -999.2500  -999.2500  -999.2500    62.5121     8.0831     0.0024     2.5263     0.1479     0.1160    38.6381    25.5483
 7126.5000  -999.2500  -999.2500  -999.2500    62.2485     8.0810     0.0061     2.5200     0.1477     0.1232    36.6829    23.5583
 7127.0000  -999.2500  -999.2500  -999.2500    62.1833     8.0789     0.0081     2.5162     0.1493     0.1184    35.3419    23.1760
 7127.5000  -999.2500  -999.2500  -999.2500    62.1377     8.0825     0.0100     2.5309     0.1521     0.1093    34.2638    22.5083
 7128.0000  -999.2500  -999.2500  -999.2500    62.1526     8.0849     0.0119     2.5456     0.1530     0.0985    31.3766    21.3395
 7128.5000  -999.2500  -999.2500  -999.2500    62.2518     8.0873     0.0188     2.5603     0.1498     0.0913    30.5999    20.1619
 7129.0000  -999.2500  -999.2500  -999.2500    62.8196     8.0898     0.0252     2.5735     0.1487     0.0869    30.2002    19.2112
 7129.5000  -999.2500  -999.2500  -999.2500    63.3810     8.0922     0.0193     2.5796     0.1495     0.0834    30.1081    18.5153
 7130.0000  -999.2500  -999.2500  -999.2500    64.1639     8.0947     0.0135     2.5753     0.1559     0.0842    31.0163    19.7420
 7130.5000  -999.2500  -999.2500  -999.2500    64.3785     8.0971     0.0129     2.5665     0.1614     0.0893    32.4100    20.9433
 7131.0000  -999.2500  -999.2500  -999.2500    63.9698     8.0995     0.0153     2.5578     0.1621     0.0957    33.7828    21.2809
 7131.5000  -999.2500  -999.2500  -999.2500    63.5554     8.1020     0.0183     2.5490     0.1616     0.1010    34.3313    21.2183
 7132.0000  -999.2500  -999.2500  -999.2500    63.6686     8.1044     0.0256     2.5547     0.1612     0.1028    31.0967    18.8595
 7132.5000  -999.2500  -999.2500  -999.2500    63.9625     8.1069     0.0329     2.5693  -999.2500     0.0965    25.4696    16.1184
 7133.0000  -999.2500  -999.2500  -999.2500    64.6300     8.1093     0.0378     2.5750  -999.2500     0.0886    22.1453    14.4746
 7133.5000  -999.2500  -999.2500  -999.2500    65.5638     8.0894     0.0373     2.5712  -999.2500     0.0867    20.6781    13.7487
 7134.0000  -999.2500  -999.2500  -999.2500    66.1678     8.0838     0.0299     2.5531  -999.2500     0.0975    19.8814    13.1398
 7134.5000  -999.2500  -999.2500  -999.2500    66.8228     8.0832     0.0224     2.5298  -999.2500     0.1163  -999.2500  -999.2500
 7135.0000  -999.2500  -999.2500  -999.2500    67.0251     8.0827     0.0149     2.5123  -999.2500     0.1265  -999.2500  -999.2500
 7135.5000  -999.2500  -999.2500  -999.2500    67.2264     8.0933     0.0142     2.5045  -999.2500     0.1285  -999.2500  -999.2500
 7136.0000  -999.2500  -999.2500  -999.2500    67.3117     8.1089     0.0235     2.5060  -999.2500     0.1265  -999.2500  -999.2500
 7136.5000  -999.2500  -999.2500  -999.2500    66.8814     8.1252     0.0328     2.5096  -999.2500     0.1239  -999.2500  -999.2500
