###############################################
##         ENVERUS                           ##
##         ESS - Open Hole                   ##
##         PERMIAN / DELAWARE                ##
##         Nov 04 2023  V4.0                 ##
##         42-389-00802-00-00                ##
###############################################
## Copyright 2017-2023  ENVERUS.  All Rights Reserved. 
## Confidential - Property of ENVERUS, use governed by terms and 
## conditions found within the existing Information Services Subscription Agreement 
## (as may be amended, the “ISSA”) between Customer and ENVERUS. 
## 
~VERSION INFORMATION
# MNEM.UNIT                               DATA : DESCRIPTION OF MNEMONIC
#-----.-----     ----------------------------- : -----------------------------
VERS.                                     2.00 : CWLS LOG ASCII STANDARD - VERSION 2.00
WRAP.                                       NO : MULTIPLE LINES PER DEPTH STEP
VEND.                                  ENVERUS : VENDOR
TYPE.                          ESS - OPEN HOLE : ENVERUS ESSENTIAL CURVES – ACCESSIBLE THROUGH ENVERUS PRISM(TM)
DOC.                                  31817456 : ENVERUS HEADER RAW DOCUMENT ID
#___________________________________________________________________________________________________ 
~WELL INFORMATION 
# RyAIq6UWQPnCIzV1aSVljU5sZzU8mzXCuHzh8Tf3VVfaeSb2oya67RMqigcBPLsftsjdPp3J13KbDcbgGgUr7w== 
# MNEM.UNIT                                              DATA : DESCRIPTION OF MNEMONIC 
#-----.-----                    ----------------------------- : ----------------------------- 
CNTY.                                                  REEVES : COUNTY 
STATE.                                                  TEXAS : STATE 
CNTRY.                                                    USA : COUNTRY 
API.                                             42-389-00802 : API (10 Digit) 
API_14.                                    42-389-00802-00-00 : API (14 Digits) 
API_14_std.                                 42-389-00802-0000 : API (14 Digits Standard) 
UWI.                                           42389008020000 : UNIQUE WELL ID 
WELL.                                                      1, : WELL NAME
STRT.FT                                                 103.0 : START DEPTH
STOP.FT                                                5419.0 : STOP DEPTH
STEP.FT                                                   0.5 : STEP BETWEEN DEPTHS
NULL.                                                 -999.25 : NULL VALUE
#___________________________________________________________________________________________________ 
~CURVE INFORMATION 
# MNEM.UNIT           : CURVE DESCRIPTION 
#-----.-----          : ----------------------------- 
 DEPT.FT               : MEASURED DEPTH 
 GR.API                : GAMMA RAY (GR) 
 DT.US/FT              : SONIC DELTA TRANSIT TIME (DT) 
 #___________________________________________________________________________________________________ 
~A         DEPT             GR             DT
# ...
         2539.0         14.206         52.996
         2539.5         30.819         53.257
         2540.0         47.432         53.392
         2540.5         55.753         53.089
         2541.0         59.342         52.785
         2541.5         62.931         52.481
         2542.0         66.521         52.177
         2542.5         55.049         52.249
         2543.0         40.232         52.414
         2543.5         26.943         52.579
         2544.0         18.895         52.321
         2544.5         10.847         52.048
         2545.0          4.304         52.039
         2545.5          3.912         52.118
         2546.0          4.876         52.196
         2546.5          7.191         52.275
         2547.0          9.506         52.354
         2547.5         11.821         52.246
         2548.0         14.136         52.047
         2548.5         16.451         51.849
         2549.0         17.037         51.650
         2549.5         15.369         51.451
         2550.0         13.700         51.252
         2550.5         12.032         51.054
         2551.0         11.687         50.855
         2551.5         13.063         51.035
         2552.0         14.438         51.261
         2552.5         15.814         51.487
         2553.0         15.650         51.713
         2553.5         14.187         51.939
         2554.0         13.225         52.165
         2554.5         13.674         52.391
         2555.0         14.123         55.040
         2555.5         14.572         58.907
         2556.0         15.021         62.257
         2556.5         15.470         65.607
         2557.0         15.919         68.425
         2557.5         15.408         69.787
         2558.0         14.052         68.026
         2558.5         12.697         67.251
         2559.0         11.342         69.870
         2559.5          9.987         72.489
         2560.0          8.631         65.027
         2560.5          7.276         65.491
         2561.0          5.921         65.956
         2561.5          4.566         66.421
         2562.0          3.210         66.383
         2562.5          1.855         64.956
         2563.0          1.598         64.887
         2563.5          1.799         64.818
         2564.0          1.999         64.749
         2564.5          2.200         64.835
         2565.0          2.400         65.312
         2565.5          2.601         65.789
         2566.0          2.801         66.267
         2566.5          3.551         66.744
         2567.0          4.322         67.156
         2567.5          5.093         66.914
         2568.0          5.794         66.672
         2568.5          5.206         66.429
         2569.0          4.618         66.362
         2569.5          4.031         66.955
         2570.0          3.443         67.549
         2570.5          2.855         68.142
         2571.0          3.403         68.638
         2571.5          4.002         68.561
         2572.0          4.601         68.485
         2572.5          5.200         68.408
         2573.0          5.799         68.331
         2573.5          5.950         68.254
         2574.0          5.304         68.178
         2574.5          4.657         68.391
         2575.0          4.011         68.606
         2575.5          3.364         68.822
         2576.0          2.718         68.643
         2576.5          2.939         68.177
         2577.0          3.538         67.712
         2577.5          4.138         67.889
         2578.0          4.737         68.189
         2578.5          5.336         68.488
         2579.0          5.935         68.788
         2579.5          6.859         69.087
         2580.0          8.061         69.100
         2580.5          9.264         68.989
         2581.0         10.056         68.879
         2581.5          9.195         68.768
         2582.0          8.334         68.657
         2582.5          7.473         68.547
         2583.0          6.612         68.436
         2583.5          5.750         68.786
         2584.0          4.889         69.137
         2584.5          4.028         69.031
         2585.0          3.167         68.736
         2585.5          3.311         68.441
         2586.0          3.910         68.146
         2586.5          4.509         68.501
         2587.0          5.108         68.982
         2587.5          5.707         69.463
         2588.0          6.211         69.944
         2588.5          5.759         69.708
         2589.0          5.307         69.292
         2589.5          4.855         68.877
         2590.0          4.403         68.462
         2590.5          3.950         68.046
         2591.0          3.498         67.845
         2591.5          3.046         68.130
         2592.0          3.286         68.415
         2592.5          3.766         68.700
         2593.0          4.245         68.854
         2593.5          4.724         68.721
         2594.0          5.203         68.589
         2594.5          5.587         68.456
         2595.0          5.380         68.323
         2595.5          5.174         68.191
         2596.0          4.967         68.376
         2596.5          4.760         68.678
         2597.0          4.554         68.979
         2597.5          4.347         69.281
         2598.0          4.140         69.231
         2598.5          3.934         69.055
         2599.0          3.727         68.879
         2599.5          4.467         68.703
         2600.0          5.974         68.528
         2600.5          6.824         68.352
         2601.0          6.354         68.381
         2601.5          5.883         68.538
         2602.0          5.894         68.696
         2602.5          6.373         68.853
         2603.0          6.852         69.010
         2603.5          7.332         69.168
         2604.0          7.811         69.325
         2604.5          8.291         70.154
         2605.0          8.116         71.133
         2605.5          7.872         72.112
         2606.0          7.627         71.480
         2606.5          7.383         66.213
         2607.0          7.139         68.108
         2607.5          6.894         70.338
         2608.0          6.784         69.528
         2608.5          7.533         68.717
         2609.0          8.283         67.907
         2609.5          9.033         67.096
         2610.0          9.782         75.705
         2610.5          9.683         73.101
         2611.0          9.154         70.497
         2611.5          8.625         67.892
         2612.0          8.096         66.623
         2612.5          7.567         68.951
         2613.0          7.040         68.005
         2613.5          6.789         60.742
         2614.0          6.538         56.126
         2614.5          6.286         56.924
         2615.0          6.085         57.723
         2615.5          6.684         58.522
         2616.0          7.283         56.956
         2616.5          7.882         48.667
         2617.0          8.482         52.564
         2617.5          9.081         53.572
         2618.0          9.680         53.370
         2618.5         10.280         53.168
         2619.0          9.826         52.967
         2619.5          9.082         52.765
         2620.0          8.339         52.952
         2620.5          7.595         53.303
         2621.0          6.851         53.161
         2621.5          6.107         53.012
         2622.0          5.363         52.864
         2622.5          4.619         52.715
         2623.0          4.321         52.566
         2623.5          5.161         52.418
         2624.0          6.001         52.269
         2624.5          5.799         52.376
         2625.0          4.512         52.573
         2625.5          3.225         52.769
