###############################################
##         ENVERUS                           ##
##         ESS - Open Hole                   ##
##         PERMIAN / DELAWARE                ##
##         Nov 03 2023  V4.0                 ##
##         42-109-32572-90-00                ##
###############################################
## Copyright 2017-2023  ENVERUS.  All Rights Reserved. 
## Confidential - Property of ENVERUS, use governed by terms and 
## conditions found within the existing Information Services Subscription Agreement 
## (as may be amended, the “ISSA”) between Customer and ENVERUS. 
## 
~VERSION INFORMATION
# MNEM.UNIT                               DATA : DESCRIPTION OF MNEMONIC
#-----.-----     ----------------------------- : -----------------------------
VERS.                                     2.00 : CWLS LOG ASCII STANDARD - VERSION 2.00
WRAP.                                       NO : MULTIPLE LINES PER DEPTH STEP
VEND.                                  ENVERUS : VENDOR
TYPE.                          ESS - OPEN HOLE : ENVERUS ESSENTIAL CURVES – ACCESSIBLE THROUGH ENVERUS PRISM(TM)
DOC.                                  51093105 : ENVERUS HEADER RAW DOCUMENT ID
#___________________________________________________________________________________________________ 
~WELL INFORMATION 
# JLMmoJa/ja/TVcwAQvDk33OYEn4U2aLD16xKSNtVAxpK3Y/5Eg5lhKgsZNDQ5ZP0fRHfEZLFMAnipg5oeA7W3g== 
# MNEM.UNIT                                              DATA : DESCRIPTION OF MNEMONIC 
#-----.-----                    ----------------------------- : ----------------------------- 
CNTY.                                               CULBERSON : COUNTY 
STATE.                                                  TEXAS : STATE 
CNTRY.                                                    USA : COUNTRY 
API.                                             42-109-32572 : API (10 Digit) 
API_14.                                    42-109-32572-90-00 : API (14 Digits) 
API_14_std.                                 42-109-32572-9000 : API (14 Digits Standard) 
UWI.                                           42109325729000 : UNIQUE WELL ID 
WELL.                               42109325720000_PREV_API14 : WELL NAME
STRT.FT                                                2248.5 : START DEPTH
STOP.FT                                               10721.5 : STOP DEPTH
STEP.FT                                                   0.5 : STEP BETWEEN DEPTHS
NULL.                                                 -999.25 : NULL VALUE
PREV_APII.                                     42109325720000 : WELL IDENTIFIER
#___________________________________________________________________________________________________ 
~PARAMETER INFORMATION 
# MNEM.UNIT                                              DATA : DESCRIPTION OF MNEMONIC 
#-----.-----                    ----------------------------- : ----------------------------- 
EKB.FT                                                   3340 : ELEVATION ABOVE MSL
#___________________________________________________________________________________________________ 
~CURVE INFORMATION 
# MNEM.UNIT           : CURVE DESCRIPTION 
#-----.-----          : ----------------------------- 
 DEPT.FT               : MEASURED DEPTH 
 GR__A.API             : GAMMA RAY (GAMMA RAY) 
 DT__A.US/FT           : SONIC DELTA TRANSIT TIME (SONIC) 
 #___________________________________________________________________________________________________ 
~A         DEPT          GR__A          DT__A
# ...
         3901.5        140.179         97.539
         3902.0        139.530         98.333
         3902.5        137.378         98.098
         3903.0        146.293         98.263
         3903.5        158.665         99.375
         3904.0        157.339         98.841
         3904.5        147.908         96.318
         3905.0        150.257         95.859
         3905.5        156.838         94.467
         3906.0        152.137         92.830
         3906.5        134.526         94.130
         3907.0        130.168         97.383
         3907.5        130.318         96.560
         3908.0        133.961         95.735
         3908.5        148.214         92.806
         3909.0        143.683         92.441
         3909.5        134.147         91.353
         3910.0        133.072         89.976
         3910.5        132.977         83.280
         3911.0        131.414         79.635
         3911.5        134.702         81.549
         3912.0        142.555         81.860
         3912.5        165.840         80.799
         3913.0        174.687         81.788
         3913.5        163.353         83.164
         3914.0        157.459         83.517
         3914.5        190.145         89.424
         3915.0        262.518         92.138
         3915.5        319.455         92.637
         3916.0        326.069         92.170
         3916.5        329.299         91.683
         3917.0        332.713         90.565
         3917.5        302.914         88.787
         3918.0        281.737         87.743
         3918.5        245.971         91.894
         3919.0        291.649         94.019
         3919.5        448.414         97.297
         3920.0        496.729         97.213
         3920.5        449.339         90.648
         3921.0        331.665         85.886
         3921.5        231.834         81.284
         3922.0        204.296         79.756
         3922.5        150.633         79.171
         3923.0        155.272         83.831
         3923.5        157.771         86.592
         3924.0        159.431         86.777
         3924.5        175.312         88.056
         3925.0        195.016         87.843
         3925.5        213.680         88.844
         3926.0        226.527         89.226
         3926.5        293.462         89.551
         3927.0        274.295         90.684
         3927.5        222.771         88.621
         3928.0        208.762         88.237
         3928.5        207.015         86.479
         3929.0        202.997         86.689
         3929.5        188.790         87.283
         3930.0        187.476         88.441
         3930.5        187.049         88.384
         3931.0        180.160         87.700
         3931.5        196.848         90.586
         3932.0        237.056         89.948
         3932.5        279.866         89.511
         3933.0        282.193         88.972
         3933.5        302.132         85.801
         3934.0        324.850         86.484
         3934.5        417.767         93.601
         3935.0        531.843         96.488
         3935.5        600.652         96.602
         3936.0        600.322         92.054
         3936.5        492.998         79.448
         3937.0        357.908         73.611
         3937.5        222.818         75.117
         3938.0        113.498         78.276
         3938.5        130.941         90.412
         3939.0        142.842         95.024
         3939.5        156.660         96.579
         3940.0        152.670         96.445
         3940.5        142.662         91.285
         3941.0        129.939         82.658
         3941.5        110.991         73.056
         3942.0        102.189         72.706
         3942.5         99.259         79.248
         3943.0        105.614         91.874
         3943.5        117.072        103.299
         3944.0        123.416        105.516
         3944.5        131.585        108.250
         3945.0        135.372        108.427
         3945.5        131.133        105.810
         3946.0        126.081        104.173
         3946.5        143.876        103.170
         3947.0        167.901        105.970
         3947.5        170.314        108.893
         3948.0        167.968        108.945
         3948.5        145.974        109.320
         3949.0        137.447        112.875
         3949.5        133.957        115.107
         3950.0        133.855        118.406
         3950.5        133.536        121.818
         3951.0        124.145        121.366
         3951.5        124.820        121.905
         3952.0        128.454        120.840
         3952.5        129.941        115.899
         3953.0        133.381        112.451
         3953.5        140.737        110.588
         3954.0        152.230        109.222
         3954.5        145.923        102.549
         3955.0        124.259        104.820
         3955.5        116.336         97.866
         3956.0        122.410         98.765
         3956.5        128.179        103.723
         3957.0        122.604        107.352
         3957.5        112.582        105.180
         3958.0        111.443        103.600
         3958.5        114.180         99.886
         3959.0        105.572         93.434
         3959.5        102.153         98.549
         3960.0        103.998         96.180
         3960.5        116.129         91.724
         3961.0        130.145         92.691
         3961.5        134.129         93.573
         3962.0        133.193         97.242
         3962.5        130.320        103.605
         3963.0        130.929        103.086
         3963.5        132.025        102.658
         3964.0        133.072        104.392
         3964.5        149.250        104.258
         3965.0        143.646         98.445
         3965.5        123.204        105.245
         3966.0        117.622        104.143
         3966.5        118.919         98.339
         3967.0        131.483        107.934
         3967.5        141.641        109.331
         3968.0        144.597        110.154
         3968.5        134.394        104.533
         3969.0        128.767        103.667
         3969.5        129.790        102.087
         3970.0        131.745        105.098
         3970.5        138.245        108.125
         3971.0        138.011        108.848
         3971.5        135.198        106.139
         3972.0        140.576        103.988
         3972.5        144.441         99.698
         3973.0        134.549         97.366
         3973.5        131.675         95.394
         3974.0        130.894         92.656
         3974.5        123.851         85.930
         3975.0        124.309         82.643
         3975.5        132.221         85.064
         3976.0        134.459         91.792
         3976.5        133.645         94.492
         3977.0        131.716         98.900
         3977.5        145.558         96.475
         3978.0        157.987         94.728
         3978.5        193.771         93.563
         3979.0        197.652         94.152
         3979.5        195.985         96.080
         3980.0        195.303         96.006
         3980.5        209.376         95.908
         3981.0        232.842         93.714
         3981.5        255.364         93.172
         3982.0        254.529         92.957
         3982.5        238.520         94.373
         3983.0        238.356         95.228
         3983.5        233.711         97.853
         3984.0        221.739         96.987
         3984.5        181.579         95.469
         3985.0        163.426         92.144
         3985.5        146.211         85.477
         3986.0        141.903         84.098
         3986.5        132.318         84.736
         3987.0        146.732         90.632
         3987.5        169.141         93.796
         3988.0        174.331         95.277
