# Exported from Transform Software 5.2.0 on 17-Oct-2019 by user kathryn.gehrke
# DI Transform - A Product of Drillinginfo, Inc. - www.drillinginfo.com
#
~VERSION INFORMATION
 VERS.        2.0 : LAS ASCII STANDARD - VERSION 2.0
 WRAP.         NO : ONE LINE PER DEPTH STEP

~WELL INFORMATION
#MNEM.UNIT       DATA TYPE       INFORMATION
#---------       ---------       -----------
 STRT.ft                 100 : Start Depth
 STOP.ft               10126 : Stop Depth
 STEP.ft                 0.5 : Step Length
 NULL.               -999.25 : Null Value
 COMP.                       : Company
 WELL.  42109329790000_API14 : Well Name
 FLD.                        : Field Name
 LOC.                        : Well Location
 CNTY.                       : County
 STAT.                       : State or Province
 CTRY.                       : Country
 SRVC.                       : Service Company
 DATE.                       : Date
 API.         42109329790000 : Well Identifier

~CURVE INFORMATION
#MNEM.UNIT       API CODE       CURVE DESCRIPTION
#---------       --------       -----------------
 DEPT.ft        : <Measured Depth>
 DT.us/ft       : Sonic
 GR.gAPI        : Gamma Ray

~PARAMETER INFORMATION
#MNEM.UNIT       VALUE       DESCRIPTION
#---------       -----       -----------
 EKB.ft      3282 : Elevation above MSL

~A      DEPT          DT          GR
# ...
      5416.5    264.4258     38.2353
        5417    264.4258     38.3653
      5417.5    264.4258     35.0337
        5418    264.4258     33.6088
      5418.5    264.4258     35.1854
        5419    264.4258      33.673
      5419.5    264.4258     33.3856
        5420    264.4258       34.85
      5420.5    264.4258     33.7578
        5421    264.4258     32.6656
      5421.5    264.4258     31.5734
        5422    264.4258      30.061
      5422.5    264.4258     28.9916
        5423    264.4258     28.7169
      5423.5    264.4258     28.2576
        5424    264.4258       29.77
      5424.5    264.4258     29.8319
        5425    264.4258     30.6939
      5425.5    264.4258      32.343
        5426    264.4258     35.0317
      5426.5     264.986     36.9117
        5427     264.986     38.4027
      5427.5     264.986     40.3157
        5428     264.986     38.3209
      5428.5     264.986     35.2962
        5429     264.986     33.6134
      5429.5     264.986     32.1879
        5430    264.4258     30.2328
      5430.5    264.4258     29.6829
        5431    264.4258     29.7291
      5431.5    264.4258     28.6369
        5432    264.6743     26.7044
      5432.5     264.986     26.9179
        5433    265.5462     29.7416
      5433.5    267.5658     33.0273
        5434     270.028     34.8739
      5434.5    268.9076     35.8995
        5435    268.9076     35.8905
      5435.5    268.9076     32.4456
        5436    269.3338     30.1516
      5436.5    267.3173     29.8319
        5437    264.4258     30.6723
      5437.5    264.4258     31.9485
        5438    264.4258     32.7731
      5438.5    264.4258     31.8335
        5439    264.4258     31.8638
      5439.5    264.4258     31.9872
        5440    264.4258     29.1798
      5440.5    264.4258     27.4646
        5441    264.4258     27.8292
      5441.5    264.4258     26.9609
        5442    264.4258     26.6523
      5442.5    264.4258     28.8083
        5443    264.4258     32.3859
      5443.5    264.4258     35.8597
        5444    264.4258     37.7438
      5444.5    264.4258     39.2562
        5445    264.4258     40.3484
      5445.5    264.4258     41.8607
        5446    264.4258     41.0807
      5446.5    264.4258     40.6838
        5447    264.4258     40.1568
      5447.5    264.4258     37.3618
        5448    264.4258     33.1662
      5448.5    264.4258     30.3202
        5449    264.4258     28.2618
      5449.5    264.4258     27.4891
        5450    264.4258     27.7311
      5450.5    264.4258      28.413
        5451    264.4258      30.439
      5451.5    264.4258     31.9328
        5452    264.4258     30.4953
      5452.5    264.4258       31.32
        5453    264.4258     34.2144
      5453.5    264.4258     36.2267
        5454    264.4258     36.5546
      5454.5    264.4258      38.289
        5455    264.4258     38.0064
      5455.5    264.4258     33.3358
        5456    264.4258      30.161
      5456.5    264.4258     29.4118
        5457    264.4258     28.8169
      5457.5    264.4258      28.998
        5458    264.4258     31.6899
      5458.5    264.4258     31.1676
        5459    264.4258     29.8319
      5459.5    264.4258     30.8458
        5460    264.4258     31.5126
      5460.5    264.4258      29.738
        5461    263.8655     29.8438
      5461.5    263.8655     32.6538
        5462    263.8655     31.8844
      5462.5    263.8655     31.0965
        5463    264.2067     30.4164
      5463.5    264.4258     28.8602
        5464    264.4258     26.9715
      5464.5    264.4258     26.8908
        5465    264.4258     26.0476
      5465.5    264.4258     26.7253
        5466    264.4258     28.2377
      5466.5    264.4258     27.3928
        5467    264.4258     27.9011
      5467.5    264.4258     27.7294
        5468    264.4258     27.9846
      5468.5    264.4258     31.8505
        5469    264.4258     33.5304
      5469.5    264.4258     32.7731
        5470    264.4258     33.6139
      5470.5    264.4258     32.9409
        5471    264.4258     27.8151
      5471.5    264.4258      26.975
        5472    264.2023     27.7311
      5472.5    263.8655     28.1513
        5473    263.8655     26.8908
      5473.5    263.8655     29.0745
        5474    263.8655     30.5869
      5474.5    263.8655     32.5194
        5475    263.8655     34.8693
      5475.5    263.8655     37.8151
        5476    265.6552     37.4767
      5476.5    268.1742     37.4815
        5477    268.9076     34.6708
      5477.5    267.7871      31.307
        5478    267.7871     29.4118
      5478.5    267.7871     28.4909
        5479    267.7871     27.3987
      5479.5    265.8876     26.8908
        5480     264.986     27.7269
      5480.5    264.4258     28.8191
        5481    264.4258     30.7516
      5481.5    264.4258      32.264
        5482    264.4258     33.6134
      5482.5    264.4258     34.6558
        5483    264.4258     37.2213
      5483.5    264.4258     37.8151
        5484    264.4258     38.3102
      5484.5    264.4258     40.9181
        5485    264.4258     40.5634
      5485.5    264.4258     36.6942
        5486    264.4258     34.3768
      5486.5    264.4258     31.7408
        5487    264.4258     28.5714
      5487.5    264.4258     28.9916
        5488    264.4258     30.4963
      5488.5    264.4258     31.9328
        5489    264.4258     31.9328
      5489.5    264.4258     31.1938
        5490    264.4258     28.3747
      5490.5    264.4258     26.6478
        5491    264.4258     26.0504
      5491.5    264.4258     26.4706
        5492    264.4258     27.5483
      5492.5    264.4258     30.4421
        5493    264.4258     33.4351
      5493.5    264.4258     34.5273
        5494    264.4258     36.0397
      5494.5    264.4258     35.5572
        5495    264.4258     32.3866
      5495.5    264.4258     29.5913
        5496    264.4258     28.0789
      5496.5    264.4258      27.215
        5497    264.4258     28.3072
      5497.5    264.4258     30.2397
        5498    264.4258      30.853
      5498.5    264.4258     30.1809
        5499     264.986     29.0887
      5499.5    265.0608     28.7262
        5500     264.986     29.8319
      5500.5    264.4258     31.3307
        5501    264.4258     32.8431
      5501.5    264.4258     33.2916
        5502    264.4258     31.3591
      5502.5    264.4258     29.2238
        5503    264.4258     27.0738
      5503.5    264.4258     27.7311
        5504    264.4258     28.4719
      5504.5    264.4258     27.7311
        5505    264.4258     28.1353
      5505.5    264.4258     29.6477
        5506    264.4258     29.7305
      5506.5    264.4258     28.1513
        5507    264.4258      29.563
      5507.5    264.4258     30.6552
        5508    264.4258     30.8577
      5508.5    264.4258     28.9916
        5509    264.4258     28.4696
      5509.5    264.4258     29.5618
        5510    264.4258     31.0742
      5510.5    264.4258     31.7462
        5511    264.4258     34.3743
      5511.5    264.4258     36.1345
        5512    264.4258     34.7251
      5512.5    264.4258     33.6329
        5513    264.4258      31.678
      5513.5    264.4258     28.9275
        5514    264.4258     27.7311
      5514.5    264.4258     28.1513
        5515    264.4258     27.7311
      5515.5    264.4258     28.5714
        5516    264.4258     27.6367
      5516.5    264.4258     26.4706
        5517    265.7416     27.7311
      5517.5    267.7581     26.9125
        5518    268.7111     26.2805
      5518.5    268.3473     26.9525
        5519    268.3473     28.1513
      5519.5    269.0898     27.8764
        5520     268.378     28.5485
      5520.5    266.3615     29.6407
        5521    264.4258     31.4237
      5521.5    264.4258     34.2922
        5522    264.4258     35.4383
      5522.5    264.4258     35.6901
        5523    264.4258     37.6403
      5523.5    264.4258     40.6948
        5524    264.4258     42.8571
      5524.5    264.4258      43.912
