~VERSION INFORMATION
VERS. 2.0 : CWLS Log ASCII Standard - version 2.0
WRAP.  NO : One line per depth step
#--------------------------------------------------#
#----------------DRILLING INFO, INC.---------------#
#---------------WWW.DRILLINGINFO.COM---------------#
#------------------COPYRIGHT 2015------------------#
#--------------------------------------------------#
#THIS FILE MAY BE USED ONLY IN ACCORDANCE WITH A CURRENT SUBSCRIPTION AGREEMENT BETWEEN
#THE USER AND DRILLING INFO, INC. NO PART OF THIS FILE MAY BE REPRODUCED, USED, COPIED,
#MODIFIED, PROPAGATED, OR DISTRIBUTED EXCEPT IN ACCORDANCE WITH THE SUBSCRIPTION
#AGREEMENT. UNAUTHORIZED USE OR DISTRIBUTION OF ALL OR ANY PART OF THIS FILE MAY VIOLATE
#COPYRIGHT, TRADEMARK, AND/OR OTHER LAWS AND IS SUBJECT TO CIVIL AS WELL AS CRIMINAL
#SANCTIONS.
#--------------------------------------------------#
#THIS FILE IS PROVIDED "AS-IS" AND ALL WARRANTIES ARE EXPRESSLY DISCLAIMED, WHETHER
#EXPRESS, ORAL, IMPLIED, STATUTORY OR OTHERWISE, INCLUDING ANY IMPLIED WARRANTY OF FITNESS
#FOR A PARTICULAR PURPOSE, MERCHANTABILITY, TITLE OR NON-INFRINGEMENT, AND ANY WARRANTIES
#ARISING BY VIRTUE OF CUSTOM OF TRADE OR COURSE OF DEALING.  FURTHER, DRILLING INFO,
#INC. AND ITS LICENSORS DO NOT REPRESENT OR WARRANT THAT THIS FILE WILL MEET USER'S
#REQUIREMENTS OR ARE SUITABLE FOR USER'S NEEDS OR THAT THE DATA OR RESULTS PROVIDED IN
#CONJUNCTION THEREWITH ARE CORRECT, ACCURATE, TIMELY OR RELIABLE. THESE DISCLAIMERS SHALL
#APPLY REGARDLESS OF ANY FAILURE OF ESSENTIAL PURPOSE OF ANY LIMITED REMEDY.  SOME
#JURISDICTIONS DO NOT ALLOW THE EXCLUSION OF CERTAIN WARRANTIES SO SOME OF THE ABOVE
#EXCLUSIONS MAY NOT APPLY. IN NO EVENT SHALL DRILLING INFO, INC. OR ANY OF ITS AFFILIATES
#BE LIABLE UNDER ANY LEGAL THEORY, WHETHER IN TORT (INCLUDING WITHOUT LIMITATION
#NEGLIGENCE), CONTRACT, STRICT LIABILITY, STATUTORY OR OTHERWISE, FOR ANY SPECIAL,
#INCIDENTAL, CONSEQUENTIAL, EXEMPLARY, PUNITIVE OR INDIRECT DAMAGE OF ANY KIND, INCLUDING
#WITHOUT LIMITATION LOSS OF REVENUE, PROFITS, GOODWILL, USE, AND/OR DATA OR THE COST OF
#PROCUREMENT OF SUBSTITUTE GOODS OR SERVICES, EVEN IF APPRISED OF THE POSSIBILITY OF SUCH
#DAMAGES IN ADVANCE.
#--------------------------------------------------#
~WELL INFORMATION
#MNEMONIC     .UNIT              VALUE :DESCRIPTION
#--------------------------------------------------#
STRT       .FT                0 :START DEPTH
STOP       .FT                10142 :STOP DEPTH
STEP       .FT                   0.500 :STEP
NULL       .                  -999.250 :NULL
API        .                421093138200 :API NUMBER
COMP       .         SHELL OIL COMPANY :COMPANY
WELL       .        SIBLEY  1 :WELL
DATE       .                08-Aug-1978 :LOG DATE
~CURVE INFORMATION
#MNEMONIC     .UNIT      API CODE :CURVE DESCRIPTION
#--------------------------------------------------#
DEPTH       .FT                      :Measured Depth
CAL.INCH        UNKNOWN   :CAL
DT.US/FT        UNKNOWN   :DT
GR.API        UNKNOWN   :GR
~A    DEPTH    CAL    DT    GR
# ...
 7367     9.531   55.838   78.515
 7367.5     9.519   58.528   79.727
 7368     9.508   61.218   73.68
 7368.5     9.496   63.908   60.549
 7369     9.484   66.598   47.417
 7369.5     9.473   66   38.647
 7370     9.461   65.165   40.738
 7370.5     9.449   64.33   65.692
 7371     9.438   63.496   79.235
 7371.5     9.426   62.702   87.015
 7372     9.414   62.821   90.731
 7372.5     9.402   62.939   85.887
 7373     9.391   63.057   81.042
 7373.5     9.379   62.471   76.197
 7374     9.367   61.417   72.187
 7374.5     9.353   60.363   74.214
 7375     9.334   60.412   76.242
 7375.5     9.314   60.806   78.269
 7376     9.295   61.092   75.6
 7376.5     9.275   61.175   72.753
 7377     9.255   61.259   69.906
 7377.5     9.236   61.342   67.463
 7378     9.216   61.425   67.681
 7378.5     9.197   61.509   67.899
 7379     9.177   61.423   68.117
 7379.5     9.158   61.244   67.644
 7380     9.138   61.065   67.921
 7380.5     9.119   60.887   69.629
 7381     9.099   60.291   71.337
 7381.5     9.08   59.613   70.565
 7382     9.06   58.935   66.837
 7382.5     9.041   59.031   63.11
 7383     9.021   59.29   64.302
 7383.5     9.002   59.809   67.615
 7384     8.982   60.619   70.929
 7384.5     8.963   61.429   69.828
 7385     8.947   61.969   68.3
 7385.5     8.948   61.403   66.773
 7386     8.949   60.634   65.245
 7386.5     8.95   58.745   64.636
 7387     8.951   56.856   68.352
 7387.5     8.952   55.621   72.068
 7388     8.953   56.998   75.784
 7388.5     8.954   58.375   79.5
 7389     8.955   59.752   83.216
 7389.5     8.956   61.129   86.932
 7390     8.957   62.505   79.582
 7390.5     8.958   63.314   72.132
 7391     8.958   62.61   64.681
 7391.5     8.96   61.907   57.231
 7392     8.969   61.39   69.829
 7392.5     8.978   61.366   82.707
 7393     8.987   61.341   80.099
 7393.5     8.995   61.328   77.491
 7394     9.004   61.328   74.883
 7394.5     9.013   61.328   75.371
 7395     9.022   61.575   78.225
 7395.5     9.031   61.943   81.079
 7396     9.04   62.126   79.667
 7396.5     9.048   61.806   76.723
 7397     9.057   61.486   73.778
 7397.5     9.066   61.166   70.833
 7398     9.075   60.867   73.542
 7398.5     9.084   61.994   76.958
 7399     9.093   63.121   80.374
 7399.5     9.101   64.248   75.509
 7400     9.11   64.722   75.677
 7400.5     9.119   64.58   75.846
 7401     9.127   64.437   75.891
 7401.5     9.136   64.295   75.627
 7402     9.145   64.565   76.863
 7402.5     9.153   65.028   78.747
 7403     9.162   65.492   80.631
 7403.5     9.171   65.99   81.001
 7404     9.179   69.254   79.988
 7404.5     9.188   72.517   78.975
 7405     9.197   74.447   82.927
 7405.5     9.21   74.259   91.437
 7406     9.223   72.866   96.98
 7406.5     9.236   67.014   97.048
 7407     9.249   62.988   97.115
 7407.5     9.262   63.861   96.104
 7408     9.275   64.733   91.132
 7408.5     9.285   65.606   86.159
 7409     9.276   65.297   81.186
 7409.5     9.267   62.183   76.214
 7410     9.258   59.506   71.241
 7410.5     9.249   60.302   66.586
 7411     9.241   61.097   67.466
 7411.5     9.232   61.893   68.347
 7412     9.223   62.688   69.227
 7412.5     9.214   63.484   70.107
 7413     9.21   63.587   67.483
 7413.5     9.214   63.611   64.857
 7414     9.218   63.656   62.68
 7414.5     9.221   63.957   65.403
 7415     9.225   64.258   68.126
 7415.5     9.229   64.559   70.846
 7416     9.232   64.86   69.772
 7416.5     9.236   65.04   68.698
 7417     9.24   64.978   67.624
 7417.5     9.244   64.917   66.551
 7418     9.247   64.854   69.392
 7418.5     9.251   63.459   72.667
 7419     9.255   62.063   75.941
 7419.5     9.258   60.668   79.215
 7420     9.262   59.273   80.333
 7420.5     9.266   57.968   79.094
 7421     9.267   59.833   77.855
 7421.5     9.268   61.697   75.776
 7422     9.269   63.562   69.787
 7422.5     9.27   63.997   63.798
 7423     9.271   63.844   57.81
 7423.5     9.273   63.691   51.821
 7424     9.274   63.538   51.559
 7424.5     9.275   63.384   59.449
 7425     9.276   63.231   67.34
 7425.5     9.277   63.078   73.234
 7426     9.278   63.01   70.868
 7426.5     9.28   63   68.502
 7427     9.281   62.989   69.128
 7427.5     9.282   62.979   70.126
 7428     9.283   62.969   71.125
 7428.5     9.284   62.958   71.701
 7429     9.285   62.948   68.625
 7429.5     9.286   62.001   65.638
 7430     9.288   60.912   66.323
 7430.5     9.289   59.822   67.009
 7431     9.29   59.979   67.694
 7431.5     9.291   61.122   67.427
 7432     9.292   62.265   67.12
 7432.5     9.293   62.619   65.637
 7433     9.295   62.727   63.282
 7433.5     9.296   62.835   60.927
 7434     9.297   62.943   58.572
 7434.5     9.298   63.051   57.57
 7435     9.299   63.159   60.531
 7435.5     9.3   63.057   63.493
 7436     9.301   62.715   66.454
 7436.5     9.302   62.372   67.287
 7437     9.302   62.087   68.03
 7437.5     9.302   61.945   68.351
 7438     9.302   61.803   68.074
 7438.5     9.302   61.661   67.796
 7439     9.296   61.103   67.519
 7439.5     9.289   60.026   67.241
 7440     9.282   58.95   66.963
 7440.5     9.275   59.243   66.686
 7441     9.268   60.444   66.408
 7441.5     9.261   61.645   66.13
 7442     9.254   62.846   65.853
 7442.5     9.246   63.607   64.073
 7443     9.239   63.566   61.347
 7443.5     9.232   62.159   58.622
 7444     9.225   61.769   60.769
 7444.5     9.218   61.67   65.115
 7445     9.211   61.383   69.461
 7445.5     9.204   59.151   69.848
 7446     9.197   59.384   69.037
 7446.5     9.189   59.989   68.227
 7447     9.182   60.593   69.06
 7447.5     9.181   61.198   70.32
 7448     9.182   61.255   71.58
 7448.5     9.183   60.727   69.32
 7449     9.184   60.199   64.115
 7449.5     9.185   60.182   58.909
 7450     9.186   60.959   58.432
 7450.5     9.187   61.736   61.077
 7451     9.188   61.707   63.722
 7451.5     9.189   57.219   66.368
 7452     9.19   54.166   69.013
 7452.5     9.192   55.584   69.339
 7453     9.193   57.001   66.365
 7453.5     9.194   58.419   67.625
 7454     9.195   59.836   68.884
 7454.5     9.196   61.192   63.423
 7455     9.197   61.587   57.181
 7455.5     9.198   61.982   50.939
 7456     9.199   62.377   44.697
 7456.5     9.2   62.772   40.587
 7457     9.201   63.168   58.119
 7457.5     9.202   63.527   75.651
 7458     9.203   62.981   75.87
 7458.5     9.204   62.434   73.895
 7459     9.206   61.888   71.92
 7459.5     9.207   61.341   71.62
 7460     9.208   62.038   73.069
 7460.5     9.209   62.831   71.474
 7461     9.21   63.624   68.869
 7461.5     9.211   64.417   66.263
 7462     9.212   64.059   63.658
 7462.5     9.213   61.842   61.053
 7463     9.214   59.625   62.274
 7463.5     9.215   57.408   67.062
 7464     9.216   55.947   71.851
 7464.5     9.217   56.246   76.639
 7465     9.218   56.545   73.653
 7465.5     9.22   57.425   68.053
 7466     9.221   59.426   62.453
 7466.5     9.222   61.427   56.853
 7467     9.223   63.427   51.253
 7467.5     9.224   64.666   45.653
 7468     9.225   65.858   41.232
 7468.5     9.226   65.307   47.588
 7469     9.227   64.398   53.945
 7469.5     9.228   64.762   60.301
 7470     9.255   65.294   66.657
 7470.5     9.281   65.826   72.78
 7471     9.308   66.006   71.585
 7471.5     9.335   64.566   70.391
 7472     9.361   63.126   69.197
 7472.5     9.388   61.686   68.002
 7473     9.415   60.534   68.299
 7473.5     9.441   61.594   69.43
 7474     9.465   62.655   70.56
 7474.5     9.474   63.715   71.691
 7475     9.482   64.759   67.765
 7475.5     9.491   64.046   59.877
 7476     9.499   63.334   59.764
 7476.5     9.507   62.621   60.274
 7477     9.516   61.909   61.332
 7477.5     9.524   61.196   62.39
 7478     9.533   60.484   63.339
 7478.5     9.541   60.909   63.974
 7479     9.55   61.344   64.608
 7479.5     9.558   61.779   65.243
 7480     9.566   62.214   65.878
 7480.5     9.57   62.523   66.512
 7481     9.574   62.082   65.652
 7481.5     9.578   61.642   63.916
 7482     9.582   61.201   62.179
