###############################################
##         ENVERUS                           ##
##         ESS - Open Hole                   ##
##         PERMIAN / DELAWARE                ##
##         Nov 03 2023  V4.0                 ##
##         42-109-32572-90-00                ##
###############################################
## Copyright 2017-2023  ENVERUS.  All Rights Reserved. 
## Confidential - Property of ENVERUS, use governed by terms and 
## conditions found within the existing Information Services Subscription Agreement 
## (as may be amended, the “ISSA”) between Customer and ENVERUS. 
## 
~VERSION INFORMATION
# MNEM.UNIT                               DATA : DESCRIPTION OF MNEMONIC
#-----.-----     ----------------------------- : -----------------------------
VERS.                                     2.00 : CWLS LOG ASCII STANDARD - VERSION 2.00
WRAP.                                       NO : MULTIPLE LINES PER DEPTH STEP
VEND.                                  ENVERUS : VENDOR
TYPE.                          ESS - OPEN HOLE : ENVERUS ESSENTIAL CURVES – ACCESSIBLE THROUGH ENVERUS PRISM(TM)
DOC.                                  51093105 : ENVERUS HEADER RAW DOCUMENT ID
#___________________________________________________________________________________________________ 
~WELL INFORMATION 
# JLMmoJa/ja/TVcwAQvDk33OYEn4U2aLD16xKSNtVAxpK3Y/5Eg5lhKgsZNDQ5ZP0fRHfEZLFMAnipg5oeA7W3g== 
# MNEM.UNIT                                              DATA : DESCRIPTION OF MNEMONIC 
#-----.-----                    ----------------------------- : ----------------------------- 
CNTY.                                               CULBERSON : COUNTY 
STATE.                                                  TEXAS : STATE 
CNTRY.                                                    USA : COUNTRY 
API.                                             42-109-32572 : API (10 Digit) 
API_14.                                    42-109-32572-90-00 : API (14 Digits) 
API_14_std.                                 42-109-32572-9000 : API (14 Digits Standard) 
UWI.                                           42109325729000 : UNIQUE WELL ID 
WELL.                               42109325720000_PREV_API14 : WELL NAME
STRT.FT                                                2248.5 : START DEPTH
STOP.FT                                               10721.5 : STOP DEPTH
STEP.FT                                                   0.5 : STEP BETWEEN DEPTHS
NULL.                                                 -999.25 : NULL VALUE
PREV_APII.                                     42109325720000 : WELL IDENTIFIER
#___________________________________________________________________________________________________ 
~PARAMETER INFORMATION 
# MNEM.UNIT                                              DATA : DESCRIPTION OF MNEMONIC 
#-----.-----                    ----------------------------- : ----------------------------- 
EKB.FT                                                   3340 : ELEVATION ABOVE MSL
#___________________________________________________________________________________________________ 
~CURVE INFORMATION 
# MNEM.UNIT           : CURVE DESCRIPTION 
#-----.-----          : ----------------------------- 
 DEPT.FT               : MEASURED DEPTH 
 GR__A.API             : GAMMA RAY (GAMMA RAY) 
 DT__A.US/FT           : SONIC DELTA TRANSIT TIME (SONIC) 
 #___________________________________________________________________________________________________ 
~A         DEPT          GR__A          DT__A
         2248.5       -999.250         77.992
         2249.0         28.567         85.812
         2249.5         26.624         68.187
         2250.0         24.666         64.807
         2250.5         26.985         56.409
         2251.0         29.342         56.309
         2251.5         31.297         56.891
         2252.0         31.311         56.895
         2252.5         30.137         57.281
         2253.0         28.592         58.130
         2253.5         26.983         58.945
         2254.0         29.121         58.652
         2254.5         29.773         57.200
         2255.0         28.571         56.301
         2255.5         28.180         58.246
         2256.0         27.822         58.359
         2256.5         27.397         58.652
         2257.0         27.751         57.978
         2257.5         28.571         58.540
         2258.0         28.571         58.652
         2258.5         29.354         57.470
         2259.0         25.060         59.129
         2259.5         15.182         60.002
         2260.0         13.430         61.018
         2260.5         33.528         59.414
         2261.0         54.246         57.151
         2261.5         56.337         58.456
         2262.0         51.790         60.913
         2262.5         47.521         58.472
         2263.0         59.381         56.700
         2263.5         87.255         97.008
         2264.0        100.616        114.528
         2264.5        131.026         96.582
         2265.0        154.528        103.423
         2265.5        190.539         93.141
         2266.0        203.259         89.042
         2266.5        207.320         85.095
         2267.0        213.619         87.246
         2267.5        214.835         84.940
         2268.0        198.887         81.082
         2268.5        245.116         88.408
         2269.0        290.718         86.017
         2269.5        321.982         91.714
         2270.0        325.452         89.888
         2270.5        303.844         82.176
         2271.0        273.698         88.999
         2271.5        239.442         88.871
         2272.0        228.536         87.938
         2272.5        209.104         84.166
         2273.0        206.941         84.212
         2273.5        226.599         89.507
         2274.0        238.020         89.713
         2274.5        264.997         89.191
         2275.0        228.198         92.763
         2275.5        197.351         92.157
         2276.0        193.326         91.372
         2276.5        193.346         88.565
         2277.0        192.955         87.266
         2277.5        196.035         88.211
         2278.0        198.043         85.967
         2278.5        197.388         88.992
         2279.0        196.739         91.925
         2279.5        217.144         92.068
         2280.0        228.130         91.656
         2280.5        253.928         98.560
         2281.0        255.969         91.332
         2281.5        233.259         93.752
         2282.0        223.623         96.601
         2282.5        187.733         91.316
         2283.0        176.418         86.007
         2283.5        192.052         83.775
         2284.0        203.042         90.026
         2284.5        203.675         88.376
         2285.0        157.526         80.761
         2285.5        100.627         73.312
         2286.0         99.215         67.394
         2286.5        226.699         74.042
         2287.0        365.458         84.198
         2287.5        488.156        100.268
         2288.0        457.725        107.112
         2288.5        328.367        104.700
         2289.0        230.933         99.061
         2289.5        193.120         87.297
         2290.0        187.124         85.363
         2290.5        227.659         83.161
         2291.0        316.846         96.834
         2291.5        433.407        104.248
         2292.0        418.297        105.269
         2292.5        302.005        101.941
         2293.0        236.087         98.224
         2293.5        201.500         93.368
         2294.0        191.190         93.223
         2294.5        182.973         92.734
         2295.0        175.930         92.734
         2295.5        177.784         93.002
         2296.0        183.752         93.756
         2296.5        186.382         95.957
         2297.0        191.967         94.004
         2297.5        191.988         94.266
         2298.0        190.033         97.836
         2298.5        189.644         93.351
         2299.0        190.002         93.951
         2299.5        192.524         94.482
         2300.0        201.631         95.219
         2300.5        211.021         96.475
         2301.0        215.199         94.535
         2301.5        202.908         96.934
         2302.0        195.921         96.539
         2302.5        205.114         95.139
         2303.0        224.117         96.112
         2303.5        225.158         99.646
         2304.0        221.130        101.035
         2304.5        202.052        103.027
         2305.0        194.121        103.990
         2305.5        207.062        104.611
         2306.0        203.814        104.551
         2306.5        185.298        105.696
         2307.0        178.082        104.461
         2307.5        181.747        103.676
         2308.0        183.702        107.418
         2308.5        183.423        111.055
         2309.0        181.996        108.911
         2309.5        178.339        109.684
         2310.0        177.167        112.889
         2310.5        161.192        111.957
         2311.0        146.894        109.671
         2311.5        117.989        105.947
         2312.0        111.400        102.332
         2312.5        108.524         86.134
         2313.0        114.781         78.605
         2313.5        125.774         89.248
         2314.0        132.055         92.285
         2314.5        155.191        104.384
         2315.0        170.253        110.687
         2315.5        172.189        108.571
         2316.0        168.545        108.662
         2316.5        163.706        109.992
         2317.0        169.760        105.656
         2317.5        177.792        103.382
         2318.0        181.704        106.979
         2318.5        181.701        105.918
         2319.0        181.901        104.248
         2319.5        185.640        104.492
         2320.0        192.975        106.583
         2320.5        179.939        105.820
         2321.0        166.225        103.781
         2321.5        160.936        101.168
         2322.0        160.251         99.895
         2322.5        163.140         99.248
         2323.0        174.910        100.309
         2323.5        188.170         99.478
         2324.0        191.072        102.794
         2324.5        192.726        101.183
         2325.0        210.123        102.189
         2325.5        223.092        102.195
         2326.0        223.320         98.248
         2326.5        213.008        100.383
         2327.0        234.418         99.823
         2327.5        294.590        101.310
         2328.0        315.568        102.720
         2328.5        363.937        101.516
         2329.0        343.196        101.307
         2329.5        265.953        101.306
         2330.0        245.479         97.455
         2330.5        243.014         97.812
         2331.0        263.160        100.844
         2331.5        269.955        102.153
         2332.0        247.184        106.051
         2332.5        203.179        107.753
         2333.0        187.385        105.426
         2333.5        183.511        103.213
         2334.0        179.409        107.425
         2334.5        169.615        108.581
         2335.0        173.902        111.469
