###############################################
##         ENVERUS                           ##
##         ESS - Open Hole                   ##
##         PERMIAN / DELAWARE                ##
##         Nov 03 2023  V4.0                 ##
##         42-109-32572-90-00                ##
###############################################
## Copyright 2017-2023  ENVERUS.  All Rights Reserved. 
## Confidential - Property of ENVERUS, use governed by terms and 
## conditions found within the existing Information Services Subscription Agreement 
## (as may be amended, the “ISSA”) between Customer and ENVERUS. 
## 
~VERSION INFORMATION
# MNEM.UNIT                               DATA : DESCRIPTION OF MNEMONIC
#-----.-----     ----------------------------- : -----------------------------
VERS.                                     2.00 : CWLS LOG ASCII STANDARD - VERSION 2.00
WRAP.                                       NO : MULTIPLE LINES PER DEPTH STEP
VEND.                                  ENVERUS : VENDOR
TYPE.                          ESS - OPEN HOLE : ENVERUS ESSENTIAL CURVES – ACCESSIBLE THROUGH ENVERUS PRISM(TM)
DOC.                                  51093467 : ENVERUS HEADER RAW DOCUMENT ID
#___________________________________________________________________________________________________ 
~WELL INFORMATION 
# 8gl1O6v4swiPFL4GH+dnL3Th7drW/gNnufiOMC39xBbatiyIUGjWQRxOO2UkOAKZqu0QrDKM70MxnzzovQmAYg== 
# MNEM.UNIT                                              DATA : DESCRIPTION OF MNEMONIC 
#-----.-----                    ----------------------------- : ----------------------------- 
CNTY.                                               CULBERSON : COUNTY 
STATE.                                                  TEXAS : STATE 
CNTRY.                                                    USA : COUNTRY 
API.                                             42-109-32572 : API (10 Digit) 
API_14.                                    42-109-32572-90-00 : API (14 Digits) 
API_14_std.                                 42-109-32572-9000 : API (14 Digits Standard) 
UWI.                                           42109325729000 : UNIQUE WELL ID 
WELL.                               42109325720000_PREV_API14 : WELL NAME
STRT.FT                                                2248.5 : START DEPTH
STOP.FT                                               10757.5 : STOP DEPTH
STEP.FT                                                   0.5 : STEP BETWEEN DEPTHS
NULL.                                                 -999.25 : NULL VALUE
PREV_APII.                                     42109325720000 : WELL IDENTIFIER
#___________________________________________________________________________________________________ 
~PARAMETER INFORMATION 
# MNEM.UNIT                                              DATA : DESCRIPTION OF MNEMONIC 
#-----.-----                    ----------------------------- : ----------------------------- 
EKB.FT                                                   3340 : ELEVATION ABOVE MSL
#___________________________________________________________________________________________________ 
~CURVE INFORMATION 
# MNEM.UNIT           : CURVE DESCRIPTION 
#-----.-----          : ----------------------------- 
 DEPT.FT               : MEASURED DEPTH 
 CALI.IN               : CALIPER (CAL - CALIPER) 
 GR.API                : GAMMA RAY (GAMMA RAY) 
 DT.US/FT              : SONIC DELTA TRANSIT TIME (SONIC) 
 #___________________________________________________________________________________________________ 
~A         DEPT           CALI             GR             DT
# ...
         8980.5          9.092        110.959         76.387
         8981.0          9.092        107.578         74.186
         8981.5          9.112        107.574         72.992
         8982.0          9.112        109.155         74.353
         8982.5          9.112        114.378         75.859
         8983.0          9.112         99.713         75.797
         8983.5          9.112         77.885         71.342
         8984.0          9.112         71.196         68.825
         8984.5          9.112         39.973         53.821
         8985.0          9.131         39.225         54.417
         8985.5          9.132         47.170         54.766
         8986.0          9.151         48.656         55.352
         8986.5          9.151         61.965         60.509
         8987.0          9.190         90.121         69.496
         8987.5          9.190         98.441         71.758
         8988.0          9.209         97.159         68.592
         8988.5          9.229         81.603         64.412
         8989.0          9.249         92.569         65.987
         8989.5          9.268        135.391         78.424
         8990.0          9.268        136.597         78.543
         8990.5          9.286        126.854         76.623
         8991.0          9.286        121.139         73.816
         8991.5          9.286        115.465         73.115
         8992.0          9.299        123.528         73.736
         8992.5          9.331        155.729         82.313
         8993.0          9.353        166.018         85.352
         8993.5          9.376        162.165         83.500
         8994.0          9.376        159.146         81.924
         8994.5          9.380        144.735         78.020
         8995.0          9.405        111.387         75.135
         8995.5          9.421         67.375         70.929
         8996.0          9.421         61.397         69.125
         8996.5          9.421         46.004         59.705
         8997.0          9.416         47.284         60.051
         8997.5          9.405         63.903         66.364
         8998.0          9.398         70.446         67.986
         8998.5          9.398        102.620         74.646
         8999.0          9.398        132.268         77.821
         8999.5          9.398        134.181         78.314
         9000.0          9.398        131.248         78.269
         9000.5          9.398        112.827         77.038
         9001.0          9.398        103.049         76.856
         9001.5          9.398        101.566         76.914
         9002.0          9.443        101.539         76.906
         9002.5          9.438         99.972         76.680
         9003.0          9.426         92.419         76.454
         9003.5          9.389         82.004         75.231
         9004.0          9.333         77.784         74.648
         9004.5          9.313         75.115         74.111
         9005.0          9.346         78.178         74.613
         9005.5          9.346         87.086         76.596
         9006.0          9.346         88.810         76.914
         9006.5          9.346         84.958         76.064
         9007.0          9.346         73.741         73.468
         9007.5          9.346         68.900         66.647
         9008.0          9.346         74.358         65.904
         9008.5          9.346         85.478         69.402
         9009.0          9.346         83.663         72.250
         9009.5          9.346         74.237         73.574
         9010.0          9.346         69.439         73.586
         9010.5          9.346         60.391         70.071
         9011.0          9.346         58.904         71.260
         9011.5          9.346         62.337         72.773
         9012.0          9.346         65.097         73.281
         9012.5          9.346         71.575         73.398
         9013.0          9.346         72.944         73.676
         9013.5          9.346         73.560         73.444
         9014.0          9.346         72.172         73.143
         9014.5          9.346         71.394         73.090
         9015.0          9.346         77.133         73.265
         9015.5          9.346         82.992         75.624
         9016.0          9.346         85.447         76.487
         9016.5          9.346         91.139         76.638
         9017.0          9.346         95.049         76.888
         9017.5          9.346         92.570         76.973
         9018.0          9.346         88.710         75.151
         9018.5          9.346         66.773         70.916
         9019.0          9.346         63.226         70.488
         9019.5          9.346         67.625         70.469
         9020.0          9.346         69.995         70.469
         9020.5          9.346         79.448         72.441
         9021.0          9.346         89.807         74.989
         9021.5          9.346         98.333         75.429
         9022.0          9.346         98.768         75.566
         9022.5          9.327         93.227         76.328
         9023.0          9.346         91.069         76.717
         9023.5          9.346         89.041         76.433
         9024.0          9.346         88.074         75.581
         9024.5          9.346         85.571         74.776
         9025.0          9.346         77.605         71.014
         9025.5          9.346         70.678         70.072
         9026.0          9.346         70.960         70.927
         9026.5          9.346         79.982         74.541
         9027.0          9.346         97.729         75.249
         9027.5          9.346        106.995         76.597
         9028.0          9.346        104.459         76.306
         9028.5          9.346         96.364         75.801
         9029.0          9.346         95.695         75.801
         9029.5          9.346         96.211         75.893
         9030.0          9.346         97.481         76.185
         9030.5          9.366        111.759         77.357
         9031.0          9.355        119.333         77.993
         9031.5          9.288        117.541         80.896
         9032.0          9.288        118.975         81.340
         9032.5          9.234        158.031         81.869
         9033.0          9.229        187.459         84.152
         9033.5          9.229        195.005         84.442
         9034.0          9.229        184.491         80.618
         9034.5          9.209        170.237         80.282
         9035.0          9.209        151.564         79.885
         9035.5          9.229        124.924         75.282
         9036.0          9.229        118.691         73.501
         9036.5          9.229        100.749         72.168
         9037.0          9.229         95.499         72.168
         9037.5          9.229         96.086         72.227
         9038.0          9.229         92.854         71.936
         9038.5          9.229         73.774         60.709
         9039.0          9.229         53.098         57.998
         9039.5          9.229         51.558         58.527
         9040.0          9.229         52.536         58.835
         9040.5          9.229         71.235         61.864
         9041.0          9.229        108.394         66.550
         9041.5          9.229        138.318         76.504
         9042.0          9.229        144.797         76.445
         9042.5          9.229        141.208         76.504
         9043.0          9.229        138.552         76.717
         9043.5          9.229        149.573         77.110
         9044.0          9.201        155.114         77.725
         9044.5          9.209        180.347         83.572
         9045.0          9.229        198.268         84.256
         9045.5          9.229        213.141         85.972
         9046.0          9.229        213.549         86.240
