~Version Information
 VERS.                  2.0:   CWLS log ASCII Standard -VERSION 2.0
 WRAP.                   NO:   One line per depth step
~Well Information Block
#MNEM.UNIT     VALUE/NAME     DESCRIPTION
#---------     -----------    ---------------------------
 STRT.F              8400.0000: START DEPTH
 STOP.F             14661.0000: STOP DEPTH
 STEP.F                 0.5000: STEP DEPTH
 NULL.                 -999.25: NULL VALUE
 LOC .            42-109-33545:  LOCATION
 FL1 .            42-109-33545:  LOCATIONLINE1
 DMF .             Drill Floor:  DRILL MEAS FROM
 PDAT.                      GL:  PERMANENT DATUM
 CNTY.               CULBERSON:  COUNTY NAME
 FLD .              WOLFCAMP B:  FIELD NAME
 WELL.           DALE STATE 3H:  WELL NAME
 COMP.     CAPITAN ENERGY INC.:  COMPANY
 DATE.             12-Feb-2020:  DATE
 SVCO.             Halliburton:  SERVICECONAME
 PROV.                      TX:  PROVINCE
 STAT.                      TX:  STATE NAME
 HIDE.                        :  WELLNAMEOPERAT
 BASI.                 PERMIAN:  BASIN
 UWI .            42-109-33545:  UNIQUE WELL IDENTIFIER
 API .            42-109-33545:  API NUMBER
 RANG.                     N/A:  RANGE
 TOWN.                     N/A:  TOWNSHIP
 SECT.                     N/A:  SECTION
 SON .               906290460:  JOB NUMBER
 CTRY.                        :  COUNTRY
 SRVC.             Halliburton:  SERVICE COMPANY
 LMF .             Drill Floor:  LOG MEASURED FROM
 TVDS.ft             3291.0000:  TVDSS CORRECTN
 EGL .ft             3266.0000:  GROUND ELEVATION
 APD .ft               25.0000:  DEPTH ABOVE PD
 EPD .ft             3266.0000:  ELEVATION
 BAP .ft                0.0000:  GL ELEV ONSHORE
 GVFD.g                 1.0000:  GRAVITY FIELD
 EKB .ft             3291.0000:  KB ELEVATION
 EDF .ft             3291.0000:  DF ELEVATION
~Curve Information Block
#MNEM.UNIT                 API CODE     Curve Description
#---------               -----------    ---------------------------
 DEPT.F                 00 000 000 000:  Depth
 CCL .V                 00 000 000 000:  Casing Collar Locator
 NPHI_OH.pu             00 000 000 000:  NPHI_OH
 NPHI_CHI.decp          00 000 000 000:  NPHI_CHI
 GR_OH.api              00 000 000 000:  GR_OH
 GR_CHI.api             00 000 000 000:  GR_CHI
 RHOB_OH.g/cc           00 000 000 000:  RHOB_OH
 RHOB_CHI.g/cc          00 000 000 000:  RHOB_CHI
 PE_OH.NONE             00 000 000 000:  PE_OH
 PE_CHI.NONE            00 000 000 000:  PE_CHI
 LLS_CHI.ohmm           00 000 000 000:  LLS_CHI
 LLS_OH.ohmm            00 000 000 000:  LLS_OH
 LLD_OH.ohmm            00 000 000 000:  LLD_OH
 LLD_CHI.ohmm           00 000 000 000:  LLD_CHI
 DTC_OH.uspf            00 000 000 000:  DTC_OH
 DTC_CHI.uspf           00 000 000 000:  DTC_CHI
 SPHW_CHI.decp          00 000 000 000:  SPHW_CHI
#Other Information
#
#WARRANTY: Halliburton will use its best efforts to furnish customers with 
#accurate information and interpretations that are part of, and incident to, the services 
#provided.  However, Halliburton cannot and does not warrant the accuracy 
#or correctness of such information and interpretations.  Under no circumstances should any 
#such information or interpretation be relied upon as the sole basis for any drilling, 
#completion, production, or financial decision or any procedure involving any risk to the 
#safety of any drilling venture, drilling rig or its crew or any other third party.  The 
#Customer has full responsibility for all drilling, completion and production operation.  
#Halliburton makes no representations or warranties, either expressed or 
#implied, including, but not limited to, the implied warranties of merchantability or fitness 
#for a particular purpose, with respect to the services rendered.  In no event will 
#Halliburton be liable for failure to obtain any particular results or for 
#any damages, including, but not limited to, indirect, special or consequential damages, 
#resulting from the use of any information or interpretation provided by Halliburton.
#
~A    DEPT      CCL   NPHI_OH NPHI_CHI  GR_OH    GR_CHI  RHOB_OH RHOB_CHI  PE_OH  PE_CHI  LLS_CHI   LLS_OH    LLD_OH    LLD_CHI  DTC_OH  DTC_CHI SPHW_CHI 
# ...
   14627.5000  0.0783 -999.25   0.1360  -999.25  91.6237 -999.25   2.5714 -999.25 3.0241   28.9714   -999.25   -999.25   34.9670 -999.25 73.7544 0.1850
   14628.0000  0.0000 -999.25   0.1389  -999.25  88.9286 -999.25   2.5676 -999.25 3.0267   31.2581   -999.25   -999.25   37.5433 -999.25 73.6759 0.1844
   14628.5000  0.0000 -999.25   0.1391  -999.25  85.1126 -999.25   2.5667 -999.25 3.0317   32.4861   -999.25   -999.25   38.8735 -999.25 73.5812 0.1837
   14629.0000  0.0000 -999.25   0.1383  -999.25  83.6228 -999.25   2.5674 -999.25 3.0419   33.1173   -999.25   -999.25   39.6168 -999.25 73.4448 0.1828
   14629.5000  0.0495 -999.25   0.1383  -999.25  90.8993 -999.25   2.5661 -999.25 3.0476   34.9736   -999.25   -999.25   41.8804 -999.25 73.6208 0.1840
   14630.0000  0.0000 -999.25   0.1291  -999.25  64.2480 -999.25   2.5773 -999.25 3.0823   31.1883   -999.25   -999.25   37.2790 -999.25 72.6803 0.1774
   14630.5000  0.0000 -999.25   0.1307  -999.25  73.1475 -999.25   2.5732 -999.25 3.0787   33.9431   -999.25   -999.25   40.4200 -999.25 72.9944 0.1796
   14631.0000  0.0000 -999.25   0.1333  -999.25  85.7584 -999.25   2.5687 -999.25 3.0697   36.6157   -999.25   -999.25   43.5661 -999.25 73.4819 0.1830
   14631.5000 -0.0188 -999.25   0.1352  -999.25  94.5026 -999.25   2.5668 -999.25 3.0632   37.2207   -999.25   -999.25   44.4211 -999.25 73.8418 0.1856
   14632.0000  0.0000 -999.25   0.1320  -999.25  87.4548 -999.25   2.5731 -999.25 3.0701   32.8976   -999.25   -999.25   39.5686 -999.25 73.2472 0.1814
   14632.5000  0.0000 -999.25   0.1280  -999.25  74.7909 -999.25   2.5794 -999.25 3.0802   29.7536   -999.25   -999.25   35.9256 -999.25 72.6028 0.1768
   14633.0000  0.0175 -999.25   0.1285  -999.25  75.0141 -999.25   2.5782 -999.25 3.0696   29.9779   -999.25   -999.25   36.1831 -999.25 72.5064 0.1761
   14633.5000  0.0000 -999.25   0.1316  -999.25  87.1260 -999.25   2.5720 -999.25 3.0543   33.2021   -999.25   -999.25   39.9491 -999.25 72.9009 0.1789
   14634.0000  0.0000 -999.25   0.1339  -999.25  95.1253 -999.25   2.5674 -999.25 3.0447   36.0629   -999.25   -999.25   43.2460 -999.25 73.2940 0.1817
   14634.5000 -0.0280 -999.25   0.1331  -999.25  96.3050 -999.25   2.5676 -999.25 3.0602   37.6295   -999.25   -999.25   45.0875 -999.25 73.2862 0.1817
   14635.0000 -0.0307 -999.25   0.1269  -999.25  77.7488 -999.25   2.5766 -999.25 3.1016   34.3854   -999.25   -999.25   41.3148 -999.25 72.3912 0.1753
   14635.5000  0.0000 -999.25   0.1289  -999.25  86.7770 -999.25   2.5747 -999.25 3.1249   37.5786   -999.25   -999.25   45.2831 -999.25 72.5482 0.1764
   14636.0000  0.0000 -999.25   0.1306  -999.25  90.8844 -999.25   2.5731 -999.25 3.1395   39.9882   -999.25   -999.25   48.2153 -999.25 72.5892 0.1767
   14636.5000  0.0000 -999.25   0.1287  -999.25  79.7820 -999.25   2.5758 -999.25 3.1419   38.0077   -999.25   -999.25   45.7604 -999.25 72.3144 0.1748
   14637.0000 -0.0298 -999.25   0.1270  -999.25  77.0588 -999.25   2.5771 -999.25 3.1505   37.8743   -999.25   -999.25   45.5177 -999.25 72.3368 0.1749
   14637.5000 -0.0410 -999.25   0.1241  -999.25  72.4543 -999.25   2.5801 -999.25 3.1693   37.2429   -999.25   -999.25   44.6984 -999.25 72.2718 0.1745
   14638.0000  0.0000 -999.25   0.1228  -999.25  74.3414 -999.25   2.5810 -999.25 3.1953   38.7520   -999.25   -999.25   46.4694 -999.25 72.3810 0.1753
   14638.5000 -0.0210 -999.25   0.1224  -999.25  73.8219 -999.25   2.5813 -999.25 3.2170   40.5140   -999.25   -999.25   48.5406 -999.25 72.3687 0.1752
   14639.0000  0.0542 -999.25   0.1250  -999.25  79.6870 -999.25   2.5780 -999.25 3.2177   43.3918   -999.25   -999.25   51.9018 -999.25 72.6787 0.1774
   14639.5000  0.0140 -999.25   0.1275  -999.25  83.6889 -999.25   2.5749 -999.25 3.2104   45.5027   -999.25   -999.25   54.3516 -999.25 72.8238 0.1784
   14640.0000  0.0451 -999.25   0.1236  -999.25  70.3006 -999.25   2.5811 -999.25 3.2253   41.2362   -999.25   -999.25   49.4534 -999.25 72.2406 0.1743
   14640.5000 -0.0562 -999.25   0.1209  -999.25  66.4449 -999.25   2.5851 -999.25 3.2403   39.1763   -999.25   -999.25   47.1610 -999.25 71.9936 0.1725
   14641.0000  0.1355 -999.25   0.1182  -999.25  63.1434 -999.25   2.5887 -999.25 3.2525   37.3982   -999.25   -999.25   45.1969 -999.25 71.6620 0.1702
   14641.5000  0.0000 -999.25   0.1203  -999.25  69.5317 -999.25   2.5857 -999.25 3.2443   39.0646   -999.25   -999.25   47.1057 -999.25 72.0479 0.1729
   14642.0000  0.0505 -999.25   0.1248  -999.25  76.4819 -999.25   2.5792 -999.25 3.2289   43.3618   -999.25   -999.25   51.9603 -999.25 72.4798 0.1760
   14642.5000  0.0217 -999.25   0.1240  -999.25  62.9341 -999.25   2.5801 -999.25 3.2355   43.2086   -999.25   -999.25   51.6600 -999.25 71.9381 0.1721
   14643.0000 -0.0425 -999.25   0.1297  -999.25  76.6271 -999.25   2.5722 -999.25 3.2183   49.3418   -999.25   -999.25   58.7473 -999.25 72.3882 0.1753
   14643.5000  0.0000 -999.25   0.1270  -999.25  68.3699 -999.25   2.5763 -999.25 3.2247   46.2166   -999.25   -999.25   55.2947 -999.25 71.8549 0.1715
   14644.0000  0.0000 -999.25   0.1260  -999.25  75.0916 -999.25   2.5777 -999.25 3.2194   44.5858   -999.25   -999.25   53.6380 -999.25 71.8559 0.1715
   14644.5000  0.0000 -999.25   0.1230  -999.25  74.1103 -999.25   2.5822 -999.25 3.2169   40.3713   -999.25   -999.25   48.9335 -999.25 71.5839 0.1696
   14645.0000  0.0000 -999.25   0.1192  -999.25  68.9241 -999.25   2.5875 -999.25 3.2206   36.4852   -999.25   -999.25   44.4848 -999.25 71.1980 0.1669
   14645.5000  0.0000 -999.25   0.1192  -999.25  71.4231 -999.25   2.5868 -999.25 3.2208   37.1316   -999.25   -999.25   45.1929 -999.25 71.3394 0.1679
   14646.0000  0.0000 -999.25   0.1201  -999.25  76.1056 -999.25   2.5851 -999.25 3.2221   38.4752   -999.25   -999.25   46.7049 -999.25 71.6703 0.1702
   14646.5000  0.0000 -999.25   0.1206  -999.25  79.6663 -999.25   2.5846 -999.25 3.2171   38.2725   -999.25   -999.25   46.4288 -999.25 71.9281 0.1721
   14647.0000 -0.0150 -999.25   0.1178  -999.25  70.2299 -999.25   2.5898 -999.25 3.2129   33.8120   -999.25   -999.25   41.2262 -999.25 71.4817 0.1689
   14647.5000  0.0430 -999.25   0.1188  -999.25  76.9893 -999.25   2.5903 -999.25 3.1937   31.6923   -999.25   -999.25   38.8391 -999.25 71.7528 0.1708
   14648.0000  0.0000 -999.25   0.1210  -999.25  83.0093 -999.25   2.5888 -999.25 3.1785   31.1965   -999.25   -999.25   38.3172 -999.25 72.0034 0.1726
   14648.5000  0.0000 -999.25   0.1231  -999.25  86.7942 -999.25   2.5868 -999.25 3.1722   31.7339   -999.25   -999.25   38.9929 -999.25 72.1461 0.1736
   14649.0000  0.0000 -999.25   0.1245  -999.25  85.1329 -999.25   2.5840 -999.25 3.1711   33.6702   -999.25   -999.25   41.1392 -999.25 72.2190 0.1741
   14649.5000 -0.0128 -999.25   0.1254  -999.25  82.7278 -999.25   2.5813 -999.25 3.1669   35.6541   -999.25   -999.25   43.2867 -999.25 72.2553 0.1744
   14650.0000  0.0000 -999.25   0.1245  -999.25  77.0858 -999.25   2.5803 -999.25 3.1661   36.8961   -999.25   -999.25   44.4951 -999.25 72.2107 0.1741
   14650.5000  0.0000 -999.25   0.1277  -999.25  84.0557 -999.25   2.5738 -999.25 3.1493   41.0125   -999.25   -999.25   49.0661 -999.25 72.6315 0.1770
   14651.0000  0.0000 -999.25   0.1272  -999.25  82.7286 -999.25   2.5734 -999.25 3.1562   42.3745   -999.25   -999.25   50.6159 -999.25 72.4891 0.1760
   14651.5000  0.0265 -999.25   0.1268  -999.25  82.1583 -999.25   2.5738 -999.25 3.1720   43.6852   -999.25   -999.25   52.2316 -999.25 72.3409 0.1750
   14652.0000  0.0000 -999.25   0.1270  -999.25  89.2226 -999.25   2.5738 -999.25 3.1968   46.4261   -999.25   -999.25   55.6515 -999.25 72.4483 0.1757
   14652.5000  0.0000 -999.25   0.1239  -999.25  90.1098 -999.25   2.5783 -999.25 3.2391   46.3799   -999.25   -999.25   55.8490 -999.25 72.3849 0.1753
   14653.0000  0.0000 -999.25   0.1165  -999.25  74.3599 -999.25   2.5889 -999.25 3.2899   41.3161   -999.25   -999.25   50.1451 -999.25 71.6676 0.1702
   14653.5000  0.0000 -999.25   0.1160  -999.25  79.1454 -999.25   2.5904 -999.25 3.3113   41.7790   -999.25   -999.25   50.8649 -999.25 71.9463 0.1722
