~VERSION INFORMATION
 VERS.                2.0:   CWLS LOG ASCII STANDARD - VERSION 2.0
 WRAP.                 NO:   ONE LINE PER DEPTH STEP
~WELL INFORMATION
#MNEM.UNIT      DATA TYPE    INFORMATION
#----------   ------------   ------------------------------
 STRT.FT        8672.0000:   START DEPTH
 STOP.FT       14432.0000:   STOP DEPTH
 STEP.FT           0.5000:   STEP LENGTH
 NULL.          -999.2500:   NULL VALUE
 COMP. CAPITAN ENERGY, INCORPORATED:   COMPANY
 WELL.  MOTHER FEE 28 #1H:   WELL
 FLD . FORD, WEST (WOLFCAMP)	:   FIELD
 LOC .                   :   LOCATION
 CNTY.          CULBERSON:   COUNTY
 STAT.              TEXAS:   STATE
 CTRY. UNITED STATES OF AMERICA:   COUNTRY
 SRVC.        HALLIBURTON:   SERVICE COMPANY
 DATE.        16-Nov-2015:   LOGDATE
 API .     42109328880000:   API NUMBER
~CURVE INFORMATION
#MNEM.UNIT       API CODE    CURVE DESCRIPTION
#----------   ------------   ------------------------------
 DEPT.FT                 :   
 CALD_C.IN   45 280 60 00:   CALIPER FROM DENSITY COMPOSITE LOG
 DCOR.G/C3   45 356 01 00:   DENSITY CORRECTION
 DPHI_LS.DEC 45 890 10 00:   DENSITY POROSITY LIMESTONE
 DT_CH.US/F  60 501 00 00:   DELTA FROM THE FULL WAVE SONIC IN CASED HOLE
 GRD .GAPI   45 310 01 00:   GAMMA RAY FROM DENSITY LOG
 LLDC.OHMM   11 220 10 00:   CORRECTED LATEROLOG DEEP RESISTIVITY
 LLSC.OHMM   11 220 09 00:   CORRECTED LATEROLOG SHALLOW RESISTIVITY
 MSFLC.OHMM  11 270 04 00:   CORRECTED MICRO SPHERICALLY FOCUSED RESISTIVITY
 NPHI_LS.DEC 42 890 01 00:   NEUTRON POROSITY LIMESTONE
 PE  .B/E    45 358 01 00:   PHOTO ELECTRIC CROSS SECTION
 RHOB_CH.G/C3 45 350 01 00:   
~PARAMETER INFORMATION
#MNEM.UNIT          VALUE    DESCRIPTION
#----------   ------------   ------------------------------
 DATE.           11/16/15:   RUN DATE
 RUN .                  1:   RUN NUMBER
 BLI .FT            14432:   BOTTOM LOG INTERVAL
 TLI .FT             8672:   TOP LOG INTERVAL
 ORIG.     1" 2" 5" PRINT:   ORIGIN OF DATA
 UWI .     42109328880000:   UNIQUE WELL ID
~OTHER INFORMATION
~A   DEPT         CALD_C      DCOR       DPHI_LS      DT_CH       GRD        LLDC        LLSC        MSFLC       NPHI_LS         PE      RHOB_CH
# ...
  9820.0000      8.4965   -999.2500      0.1044     72.3012    149.4127     50.9709     40.6965     24.0935      0.1704      3.1207      2.5427
  9820.5000      8.4786   -999.2500      0.1038     71.8107    150.9342     55.8176     42.9438     24.6962      0.1649      3.1373      2.5398
  9821.0000      8.4347   -999.2500      0.0962     71.3808    123.8602     40.0971     33.3791     19.8757      0.1571      3.1556      2.5454
  9821.5000      8.3631   -999.2500      0.0929     71.2322    112.5406     35.0880     28.0166     16.5029      0.1512      3.1445      2.5548
  9822.0000      8.3527   -999.2500      0.0935     71.1075    114.6609     37.8664     30.1225     17.5776      0.1476      3.1768      2.5593
  9822.5000      8.3422   -999.2500      0.0936     70.9627    115.3129     41.3395     32.5792     19.1513      0.1446      3.2035      2.5593
  9823.0000      8.3423   -999.2500      0.0940     70.8464    117.7203     45.0663     36.4394     20.8533      0.1422      3.2249      2.5593
  9823.5000      8.3424   -999.2500      0.0944     70.7015    120.9753     51.8730     40.2997     23.3476      0.1390      3.2563      2.5579
  9824.0000      8.3425   -999.2500      0.0934     70.5974    121.3115     54.8447     43.8056     24.2076      0.1356      3.2882      2.5577
  9824.5000      8.3426   -999.2500      0.0919     70.4047    117.3992     54.9042     42.9605     24.5323      0.1327      3.3378      2.5615
  9825.0000      8.3427   -999.2500      0.0896     70.1622    105.5489     49.7423     39.7829     22.8821      0.1290      3.3774      2.5661
  9825.5000      8.3428   -999.2500      0.0832     69.9197     94.3821     41.2780     33.0107     19.0043      0.1267      3.4165      2.5721
  9826.0000      8.3429   -999.2500      0.0831     69.6771     95.1320     43.5198     33.6398     20.0930      0.1294      3.4713      2.5748
  9826.5000      8.3429   -999.2500      0.0813     69.5316     91.3757     42.8653     34.2689     19.5898      0.1305      3.5261      2.5774
  9827.0000      8.3430   -999.2500      0.0798     69.6073     88.9801     42.8785     34.7594     19.4278      0.1303      3.5620      2.5805
  9827.5000      8.3431   -999.2500      0.0802     69.7897     91.7476     44.7972     35.5986     20.5340      0.1311      3.5771      2.5812
  9828.0000      8.3432   -999.2500      0.0810     69.9722     92.4885     46.1430     34.7056     20.2761      0.1313      3.5771      2.5812
  9828.5000      8.3433   -999.2500      0.0802     70.1547     85.1169     41.4062     31.6516     18.8383      0.1317      3.5771      2.5812
  9829.0000      8.3434   -999.2500      0.0789     70.3372     86.6121     35.5797     29.3343     17.2550      0.1335      3.5622      2.5793
  9829.5000      8.3435   -999.2500      0.0834     70.5196     92.1200     40.5186     29.9842     18.2992      0.1371      3.5186      2.5750
  9830.0000      8.3436   -999.2500      0.0822     70.6291     90.6879     34.2739     28.0846     16.4800      0.1390      3.4707      2.5736
  9830.5000      8.3436   -999.2500      0.0845     70.7849     95.1295     33.0782     26.6807     16.0334      0.1414      3.4210      2.5739
  9831.0000      8.3437   -999.2500      0.0852     70.9008     93.8527     30.6436     25.2771     15.2154      0.1442      3.3810      2.5719
  9831.5000      8.3756   -999.2500      0.0856     71.1432     98.3816     29.6756     24.5296     14.6721      0.1465      3.3400      2.5694
  9832.0000   -999.2500   -999.2500      0.0879     71.4504    106.2978     33.5302     28.0816     16.3500      0.1494      3.3216      2.5644
  9832.5000   -999.2500   -999.2500      0.0908     71.6828    114.2139     36.5101     29.5511     17.6880      0.1507      3.2991      2.5629
  9833.0000   -999.2500   -999.2500      0.0922     71.5509    114.1327     37.9115     30.9334     18.1808      0.1515      3.2767      2.5617
  9833.5000   -999.2500   -999.2500      0.0907     71.4469    106.0134     33.4826     26.8141     15.8466      0.1519      3.2591      2.5629
  9834.0000   -999.2500   -999.2500      0.0876     71.8191    108.4114     29.7982     25.3789     14.4376      0.1524      3.2375      2.5632
  9834.5000   -999.2500   -999.2500      0.0928     72.2828    116.8799     35.4811     28.7191     17.2390      0.1562      3.2064      2.5598
  9835.0000   -999.2500   -999.2500      0.0951     72.7464    125.1316     35.8786     29.7699     17.4808      0.1593      3.1862      2.5531
  9835.5000   -999.2500   -999.2500      0.1001     72.8748    136.8575     44.1732     34.5792     20.7677      0.1638      3.1781      2.5495
  9836.0000   -999.2500   -999.2500      0.1017     72.8441    139.0356     42.1614     33.1598     19.4245      0.1659      3.1457      2.5472
  9836.5000   -999.2500   -999.2500      0.0966     73.1908    123.1874     32.1026     26.0627     14.9284      0.1637      3.0915      2.5522
  9837.0000   -999.2500   -999.2500      0.0940     73.7663    121.2273     24.4243     21.1105     12.6896      0.1633      3.0383      2.5522
  9837.5000   -999.2500   -999.2500      0.0958     74.3419    126.5765     22.3438     19.3756     11.8360      0.1663      2.9942      2.5514
  9838.0000   -999.2500   -999.2500      0.0982     74.9174    133.0880     20.5499     17.6665     11.1461      0.1692      2.8914      2.5506
  9838.5000   -999.2500   -999.2500      0.1002     75.4930    133.1461     18.6252     15.9961     10.1999      0.1710      2.8268      2.5461
  9839.0000   -999.2500   -999.2500      0.1006     76.0686    134.2440     16.4128     14.9012      9.3494      0.1707      2.7732      2.5424
  9839.5000   -999.2500   -999.2500      0.1049     76.6441    143.4064     18.1428     15.4199     10.2482      0.1748      2.7189      2.5387
  9840.0000   -999.2500   -999.2500      0.1071     76.9895    144.0070     18.9788     16.2571     10.7598      0.1775      2.7041      2.5350
  9840.5000   -999.2500   -999.2500      0.1096     77.2970    154.4393     20.9301     18.2789     11.7430      0.1803      2.6923      2.5313
  9841.0000   -999.2500   -999.2500      0.1118     77.7855    160.0950     21.4673     18.9697     12.2839      0.1826      2.6923      2.5298
  9841.5000   -999.2500   -999.2500      0.1094     78.3894    149.6140     17.5691     15.3696     10.2616      0.1795      2.7125      2.5290
  9842.0000   -999.2500   -999.2500      0.1131     78.7517    153.7136     17.5470     15.3188      9.9795      0.1858      2.6826      2.5274
  9842.5000   -999.2500   -999.2500      0.1148     79.8964    160.2452     16.4128     14.9115     10.0476      0.1895      2.6518      2.5242
  9843.0000   -999.2500   -999.2500      0.1220     81.0691    180.7258     19.0222     17.1065     11.5224      0.1979      2.5848      2.5155
  9843.5000   -999.2500   -999.2500      0.1254     81.9028    190.2754     21.9546     19.8098     12.8676      0.2045      2.5081      2.5087
  9844.0000   -999.2500   -999.2500      0.1283     82.8339    188.0232     19.1003     17.5224     10.6869      0.2098      2.4263      2.5003
  9844.5000   -999.2500   -999.2500      0.1358     83.5792    221.2718     25.7881     20.0233     15.4932      0.2193      2.3684      2.4925
  9845.0000   -999.2500   -999.2500      0.1362     83.6152    220.4382     24.0906     21.2856     14.5913      0.2213      2.3279      2.4878
  9845.5000   -999.2500   -999.2500      0.1366     81.8125    222.7521     28.5611     23.9909     16.6878      0.2233      2.3553      2.4877
  9846.0000   -999.2500   -999.2500      0.1307     80.1427    214.1376     27.6227     24.6778     15.7993      0.2109      2.4022      2.4966
  9846.5000   -999.2500   -999.2500      0.1229     79.1380    187.7109     24.8480     21.6976     13.5543      0.2000      2.4734      2.5055
  9847.0000   -999.2500   -999.2500      0.1204     78.4327    190.4407     30.6681     24.5257     16.4418      0.1974      2.5303      2.5144
  9847.5000   -999.2500   -999.2500      0.1150     76.9251    171.7487     27.9718     24.0839     14.3917      0.1882      2.6143      2.5232
