~Version Information
 VERS.                  2.0:   CWLS log ASCII Standard -VERSION 2.0
 WRAP.                   NO:   One line per depth step
~Well Information Block
#MNEM.UNIT     VALUE/NAME     DESCRIPTION
#---------     -----------    ---------------------------
 STRT.F              8580.0000: START DEPTH
 STOP.F             14491.0000: STOP DEPTH
 STEP.F                 0.5000: STEP DEPTH
 NULL.               -999.2500: NULL VALUE
 LOC .     1072' FWL & 424' FNL:  LOCATION
 FL2 .     A2085 SEC 12 BLK 113:  LOCATIONLINE2
 FL1 .     1072' FWL & 424' FNL:  LOCATIONLINE1
 CNTY.               CULBERSON:  COUNTY NAME
 FLD .              WOLFCAMP B:  FIELD NAME
 WELL.           DALE STATE 2H:  WELL NAME
 COMP.     CAPITAN ENERGY INC.:  COMPANY
 DMF .                      KB:  DRILL MEAS FROM
 PDAT.                      GL:  PERMANENT DATUM
 DATE.             11-Feb-2020:  DATE
 SVCO.             Halliburton:  SERVICECONAME
 PROV.                      TX:  PROVINCE
 STAT.                      TX:  STATE NAME
 CTRY.                     USA:  COUNTRY NAME
 HIDE.                        :  WELLNAMEOPERAT
 UWI .            42-109-33544:  UNIQUE WELL IDENTIFIER
 API .            42-109-33544:  API NUMBER
 RANG.                     N/A:  RANGE
 TOWN.                     N/A:  TOWNSHIP
 SECT.                     N/A:  SECTION
 SON .               906290231:  JOB NUMBER
 SRVC.             Halliburton:  SERVICE COMPANY
 LMF .                      KB:  LOG MEASURED FROM
 TVDS.ft           3291.000000:  TVDSS CORRECTN
 EGL .ft           3266.000000:  GROUND ELEVATION
 APD .ft             25.000000:  DEPTH ABOVE PD
 EPD .ft           3266.000000:  ELEVATION
 BAP .ft              0.000000:  GL ELEV ONSHORE
 GVFD.g               1.000000:  GRAVITY FIELD
 EKB .ft           3291.000000:  KB ELEVATION
 EDF .ft           3291.000000:  DF ELEVATION
~Parameter Information Block
#MNEM.UNIT       Value        Description
#---------     -----------    ---------------------------
 BARI.                     OFF:  BARITE CORR 
 BRMP.                      No:  BromidePresent 
 CSF5.        Conductor Casing:  Casing Func5 
 CSF6.        Conductor Casing:  Casing Func6 
 DATE.               07-Feb-20:  Run Date 
 DCS .               07-Feb-20:  DateCircEndT 
 DLAB.               07-Feb-20:  LogStartDateT 
 ENGI.                John Doe:  Engineer Name 
 LSRV.             OH WIRELINE:  NameOfService 
 LSTM.ucts  09.26.51 07-Feb-20:  Log Start Time 
 LTYP.                     RAW:  LogDataType 
 LUL .                  ODESSA:  LoggingUnitLoc 
 LUN .                12100315:  LoggingUnitNum 
 SCT1.               07-Feb-20:  StartDateRun1 
 TCS .                   09 26:  Time Ciculation Ended 
 TDCE.ucts  09.26.51 07-Feb-20:  Time Circ End 
 TLAB.                   09 26:  LogStartTimeT 
~Curve Information Block
#MNEM.UNIT                 API CODE     Curve Description
#---------               -----------    ---------------------------
 DEPT.F                 00 000 000 000:  Depth
 CCL .V                 00 000 000 000:  Casing Collar Locator
 NPHI_OH.pu             00 000 000 000:  NPHI_OH
 NPHI_CHI.decp          00 000 000 000:  NPHI_CHI
 GR  .api               00 000 000 000:  Gamma API
 GR_CHI.api             00 000 000 000:  GR_CHI
 RHOB_OH.g/cc           00 000 000 000:  RHOB_OH
 RHOB_CHI.g/cc          00 000 000 000:  RHOB_CHI
 PE_OH.b/e              00 000 000 000:  PE_OH
 PE_CHI.b/e             00 000 000 000:  PE_CHI
 LLS_CHI.ohmm           00 000 000 000:  LLS_CHI
 LLS_OH.ohmm            00 000 000 000:  LLS_OH
 LLD_OH.ohmm            00 000 000 000:  LLD_OH
 LLD_CHI.ohmm           00 000 000 000:  LLD_CHI
 DTC_OH.uspf            00 000 000 000:  DTC_OH
 DTC_CHI.uspf           00 000 000 000:  DTC_CHI
 SPHW_CHI.decp          00 000 000 000:  SPHW_CHI
#Other Information
#
#WARRANTY: Halliburton will use its best efforts to furnish customers with 
#accurate information and interpretations that are part of, and incident to, the services 
#provided.  However, Halliburton cannot and does not warrant the accuracy 
#or correctness of such information and interpretations.  Under no circumstances should any 
#such information or interpretation be relied upon as the sole basis for any drilling, 
#completion, production, or financial decision or any procedure involving any risk to the 
#safety of any drilling venture, drilling rig or its crew or any other third party.  The 
#Customer has full responsibility for all drilling, completion and production operation.  
#Halliburton makes no representations or warranties, either expressed or 
#implied, including, but not limited to, the implied warranties of merchantability or fitness 
#for a particular purpose, with respect to the services rendered.  In no event will 
#Halliburton be liable for failure to obtain any particular results or for 
#any damages, including, but not limited to, indirect, special or consequential damages, 
#resulting from the use of any information or interpretation provided by Halliburton.
#
~A    DEPT       CCL     NPHI_OH  NPHI_CHI    GR      GR_CHI   RHOB_OH  RHOB_CHI   PE_OH   PE_CHI LLS_CHI   LLS_OH     LLD_OH   LLD_CHI   DTC_OH   DTC_CHI SPHW_CHI 
# ...
    9355.0000    0.0000   18.6300   0.0985  130.0095  46.4491    2.4996   2.6121    3.0018 3.4448  30.6558   27.1240    28.9342  41.2797   82.4694 69.1902 0.1527
    9355.5000   24.0814   18.0600   0.1009  130.8327  51.1145    2.4729   2.6086    3.0091 3.4273  32.3377   27.1144    28.9439  43.0973   83.4724 69.6931 0.1562
    9356.0000    0.0000   16.7100   0.1039  130.9083  54.0326    2.4783   2.6051    2.9979 3.3326  28.5561   27.2868    27.8997  37.6276   83.3086 70.0611 0.1588
    9356.5000   12.3148   16.5300   0.1096  134.1410  62.8115    2.4850   2.5967    2.9964 3.2696  29.7654   43.6668    37.7491  38.8910   82.9805 70.8609 0.1645
    9357.0000    0.0000   17.3100   0.1189  137.9135  80.6824    2.4834   2.5812    3.0932 3.2787  42.7645   43.2188    38.6062  55.6186   82.0831 72.3457 0.1750
    9357.5000   10.5689   17.5100   0.1138  132.8405  69.2977    2.4949   2.5896    3.2348 3.3398  39.7536   33.6365    35.7577  52.4149   80.1349 71.3263 0.1678
    9358.0000    0.0000   16.6900   0.1163  121.2418  74.3737    2.5252   2.5845    3.3133 3.3877  49.1950   41.6560    42.3631  65.5366   77.5196 71.5559 0.1694
    9358.5000    0.0000   15.8200   0.1170  110.0251  77.6066    2.5546   2.5809    3.4786 3.3948  55.7656   43.7469    44.4089  75.2755   74.6856 71.3702 0.1681
    9359.0000   11.2939   10.9900   0.1195  102.2339  90.6275    2.5746   2.5711    3.7988 3.4749  89.0466   90.3194    96.6886 121.2439   73.1591 71.6841 0.1703
    9359.5000  -36.5526    9.2400   0.1093   94.0212  75.0689    2.5900   2.5829    4.0474 3.5803  82.6752  139.3689   158.9901 114.9059   71.7105 69.5929 0.1555
    9360.0000    0.0000    9.9000   0.0951   81.0092  64.9369    2.6045   2.5998    4.2488 3.7836  93.8408  139.0080   158.2988 133.4641   71.3327 68.2678 0.1462
    9360.5000    0.0000   10.6500   0.0790   73.2399  59.7755    2.6095   2.6192    4.5287 4.0959 136.4093   85.0336   114.2223 200.7271   72.0408 67.6151 0.1415
    9361.0000    0.0000   10.6500   0.0603   73.2399  50.6796    2.6095   2.6440    4.5287 4.4078 177.0804   85.0336   114.2223 269.7487   72.8309 66.9177 0.1366
    9361.5000   26.3916   14.0600   0.0555   76.8076  51.8190    2.5761   2.6502    4.4029 4.5409 218.6587   57.5548    81.4897 334.3025   75.7186 67.1764 0.1384
    9362.0000  -11.2527   14.8700   0.0561   84.2967  48.6482    2.5177   2.6517    3.6272 4.5187 197.0452   57.1247    80.5902 298.8964   78.0471 67.2322 0.1388
    9362.5000    0.0000   14.4200   0.0595   90.1185  38.5876    2.4938   2.6519    2.9708 4.3320 121.0245   51.9766    66.1793 181.6185   79.5907 66.7911 0.1357
    9363.0000   19.1055   16.8700   0.0784   94.4471  53.1449    2.5013   2.6276    2.8581 4.0268 103.2563   57.7586    67.9151 149.6830   80.4956 68.2847 0.1463
    9363.5000  -31.1814   16.0600   0.0877   95.3010  55.6397    2.5108   2.6175    2.9725 3.8634  84.0510   58.3490    68.3169 120.1976   81.0499 68.7679 0.1497
    9364.0000    0.0000   16.0400   0.0963   91.7913  60.0672    2.5190   2.6068    3.1020 3.6870  68.9647   64.6276    74.3959  97.1571   81.0496 69.2361 0.1530
    9364.5000   22.9870   15.7300   0.1101   90.7173  83.6201    2.5239   2.5843    3.1714 3.5953  95.3480   71.9830    80.2939 131.1393   80.2210 71.1926 0.1669
    9365.0000  -26.4450   15.4800   0.1083   90.2652  81.3494    2.5280   2.5863    3.1126 3.5765  90.1598   71.5198    80.0698 124.2535   78.6300 70.8102 0.1641
    9365.5000    0.0000   15.3100   0.0928   88.6702  56.0178    2.5287   2.6108    3.0066 3.6442  61.2743   68.8703    77.8246  86.8412   77.3720 68.5545 0.1482
    9366.0000   14.6557   13.9700   0.0867   88.1852  51.9901    2.5273   2.6192    3.0309 3.7719  70.4913   62.4607    80.5239 101.3746   76.4277 68.2198 0.1458
    9366.5000   18.6417   12.4600   0.0840   81.3869  53.3482    2.5483   2.6223    3.2094 3.8942  88.6027   61.4098    77.2771 128.1566   75.7471 68.3917 0.1470
    9367.0000   64.2625   12.3500   0.0802   69.7221  49.1231    2.5900   2.6284    3.5282 4.0023  95.8079   55.7801    71.1470 139.4348   75.3579 68.1880 0.1456
    9367.5000    0.0000   12.0400   0.0889   69.5872  65.1210    2.6128   2.6147    3.8791 3.9863 131.7225   41.1607    49.1997 187.5838   75.0177 69.6948 0.1563
    9368.0000   22.6276   12.3900   0.0878   88.7296  54.7709    2.5858   2.6201    3.8747 3.9071  92.1883   37.9825    47.3140 130.0278   74.8950 69.1640 0.1525
    9368.5000    0.0000   12.4400   0.0971  110.7156  55.9115    2.5276   2.6113    3.4472 3.6639  61.4617   35.8858    45.5274  83.8535   74.7969 69.7937 0.1570
    9369.0000    0.0000   14.2400   0.1028  112.2817  48.8919    2.4902   2.6091    3.0579 3.4219  32.8357   48.0365    57.0991  43.4767   74.3395 69.8607 0.1574
    9369.5000   31.2254   13.3100   0.1220   92.3539  70.7536    2.5065   2.5841    3.0895 3.2094  28.9962   69.0496    70.9877  36.9034   74.1570 72.4456 0.1757
    9370.0000  -23.2089   12.8800   0.1294   73.0812  72.7421    2.5651   2.5776    3.6420 3.0957  20.3413   74.3100    75.5142  25.4525   73.5885 73.2541 0.1814
    9370.5000    0.0000   10.5500   0.1379   69.1062  84.8212    2.6125   2.5660    4.3575 3.0951  22.7971   94.4711   105.9312  28.2644   72.1945 74.6137 0.1910
    9371.0000   15.2653   10.8100   0.1440   69.5189  93.6042    2.6078   2.5575    4.5461 3.1068  25.8084   89.8610   104.4018  31.9076   71.6492 75.4936 0.1973
    9371.5000   11.2752   10.9000   0.1382   67.6370  80.0061    2.5549   2.5666    4.1057 3.0821  20.4141   87.3616   100.5429  25.4060   72.6699 74.2292 0.1883
    9372.0000  -20.1285   11.1800   0.1326   70.8402  72.5303    2.5078   2.5732    3.8269 3.0852  19.4586   72.0822    75.0322  24.5264   74.1392 73.1656 0.1808
    9372.5000  -30.7695   11.9700   0.1293   84.0471  72.1673    2.4945   2.5752    4.2627 3.1008  21.1648   49.2969    60.3018  26.9771   75.5448 72.6863 0.1774
    9373.0000   13.1706   11.9700   0.1249   84.0471  71.7341    2.4945   2.5787    4.2627 3.1682  25.8130   49.2969    60.3018  33.2596   75.9907 72.2362 0.1742
    9373.5000   20.1534   13.0800   0.1159   92.6222  61.2026    2.4967   2.5906    4.6038 3.2665  27.3376   48.3715    59.6935  35.7514   75.5826 71.0613 0.1659
    9374.0000  -33.6419   13.4800   0.1101   91.5953  56.1140    2.5115   2.5983    4.0580 3.3608  30.8205   44.5012    59.7268  40.5938   73.5404 70.5372 0.1622
    9374.5000  -16.3993   11.4000   0.1091   75.3243  55.9936    2.5228   2.5999    3.3828 3.3776  32.3496   71.4062    85.8852  42.4807   70.8192 70.5784 0.1625
    9375.0000   33.2854    9.8000   0.1082   54.1937  54.2573    2.5452   2.6017    3.4572 3.3283  28.4263   79.1045    94.5364  37.1481   66.3877 70.4700 0.1617
    9375.5000   35.1256    8.7300   0.1073   44.0576  53.6584    2.6039   2.6032    4.1158 3.2695  24.7393  410.3380   410.0166  32.0887   63.0962 70.4512 0.1616
    9376.0000   18.8851    4.7900   0.1052   41.8780  50.0322    2.6542   2.6064    4.7666 3.1909  18.9442  695.4390   684.1229  24.4639   63.4282 70.1214 0.1593
    9376.5000    0.0000    4.2500   0.1078   50.5723  62.9579    2.6556   2.5986    4.9908 3.2162  25.4303  668.8912   666.1736  32.8805   64.9339 70.8860 0.1647
    9377.0000   22.2565    3.8900   0.1073   58.7161  68.5503    2.5940   2.5951    4.5527 3.2666  32.5870  360.7028   393.9404  42.7011   68.5691 70.8061 0.1641
    9377.5000   26.6752    6.1000   0.1014   68.6343  63.7544    2.5038   2.5999    3.6278 3.3981  41.1877  101.3341   121.8330  55.5669   73.8537 69.6907 0.1562
    9378.0000  -12.3435   16.2400   0.0933   86.9536  50.4806    2.4644   2.6103    2.8914 3.4863  39.7866   99.3904   120.3448  55.3595   77.5283 67.9819 0.1441
    9378.5000  -61.8871   17.8400   0.1076   99.9744  75.8201    2.4855   2.5849    2.6899 3.5187  75.7198   78.8514    87.3882 104.2296   79.6366 69.6664 0.1561
    9379.0000  -25.0650   16.1500   0.1030  110.9721  70.1305    2.5202   2.5898    2.8354 3.6526  89.5358   29.9801    31.3233 126.1605   80.3966 68.7058 0.1493
    9379.5000    0.0000   16.0300   0.1030  123.5481  73.5367    2.5369   2.5878    3.0032 3.7560 116.7128   27.4366    29.8182 165.9969   80.6725 68.7433 0.1495
