~VERSION INFORMATION
VERS.           1.2   :CWLS Log ASCII Standard - VERSION 1.2
WRAP.           NO    :One Line per depth step
PROD.  Schlumberger   :LAS Producer
PROG.  DLIS to ASCII 10C0-306                          :LAS Program name and version
CREA.        2007/06/08 22:43                          :LAS Creation date {YYYY/MM/DD hh:mm}
SOURCE.     294b92a6-1e54-4f75-8d20-4493e48002f1       :DLIS File Name
#--------------------------------------------------
~WELL INFORMATION
#MNEM.UNIT      DATA             DESCRIPTION
#---- ------ --------------   -----------------------------
STRT .F      4145.5000       :START DEPTH     
STOP .F      10380.0000      :STOP DEPTH     
STEP .F       0.5000         :STEP       
NULL .          -999.25      :NULL VALUE
COMP .                 COMPANY:  Chesapeake Operating Inc.          
WELL .                    WELL:  University Lands 4627-1            
FLD  .                   FIELD:  Wildcat                            
LOC  .                LOCATION:  1200' FNL & 1995; FEL              
CNTY .                  COUNTY:  Culberson                          
STAT .                   STATE:  Texas                              
CTRY .                 COUNTRY:                                     
SRVC .         SERVICE COMPANY:  Schlumberger                       
API  .              API NUMBER:  42-109-32287                       
DATE .                LOG DATE:  7-Jun-2007
UWI  .          UNIQUE WELL ID:  42-109-32287-0000                  
#-----------------------------------------------------------------------------
~PARAMETER INFORMATION
#MNEM.UNIT    VALUE                      DESCRIPTION
#---- -----   --------------------       ------------------------
CN   .        Chesapeake Operating Inc.  :Company Name
WN   .        University Lands 4627-1    :Well Name
FN   .        Wildcat                    :Field Name
FL   .        1200' FNL & 1995  FEL      :Field Location
FL1  .        Secion  27  Block  46  Abstract  2860 :Field Location Line 1
COUN .        Culberson                  :County or Rig Name
STAT .        Texas                      :State or Province
NATI .                                   :Nation
DATE .        7-Jun-2007                 :Date as Month-Day-Year
APIN .        42-109-32287               :API Serial Number
SECT .        27                         :Section
TOWN .        46                         :Township
RANG .        2860                       :Range
DMF  .        Kelly Bushing              :Drilling Measured From
LMF  .        Kelly Bushing              :Log Measured From
PDAT .        Ground Level               :Permanent Datum
ENGI .        Tarek Sheira               :Engineer's Name
WITN .        Wiley Tisdale /Jud Walker  :Witness's Name
LATI .                                   :Latitude
LONG .                                   :Longitude
LUL  .        Midland  TX                :Logging Unit Location
LUN  .              2365                 :Logging Unit Number
RUN  .        2                          :Run Number
SON  .        11592406                   :Service Order Number
BHT  .DEGF     185.00000                 :Bottom Hole Temperature (used in calculations)
BS   .IN         8.75000                 :Bit Size
DFD  .LB/G       8.60000                 :Drilling Fluid Density
DFV  .S         39.00000                 :Drilling Fluid Viscosity
DFL  .C3         8.00000                 :Drilling Fluid Loss
RMFS .OHMM       0.42100                 :Resistivity of Mud Filtrate Sample
EKB  .F       4323.00000                 :Elevation of Kelly Bushing
EGL  .F       4283.00000                 :Elevation of Ground Level
BLI  .F       10360.70020                :Bottom Log Interval
BSAL .PPM      500.00000                 :Borehole Salinity
FLEV .                                   :Fluid Level
MCST .                                   :Mud Cake Sample Temperature
MFST .DEGF      96.90000                 :Mud Filtrate Sample Temperature
MRT  .DEGF     185.00000                 :Maximum Recorded Temperature
MST  .DEGF      96.90000                 :Mud Sample Temperature
RMCS .                                   :Resistivity of Mud Cake Sample
RMS  .OHMM       0.42100                 :Resistivity of Mud Sample
RW   .OHMM       1.00000                 :Resistivity of Connate Water
TDD  .F       10350.00000                :Total Depth - Driller
TDL  .F       10362.00000                :Total Depth - Logger
TLI  .F       4200.00000                 :Top Log Interval
HIDE .        Formation Micro Imager     :Header Identifier
MATR .        LIME                       :Rock Matrix for Neutron Porosity Corrections
FNUM .           1.00000                 :Form Factor Numerator
FEXP .           2.00000                 :Form Factor Exponent
DFT  .        Fresh Mud                  :Drilling Fluid Type
DFPH .           9.00000                 :Drilling Fluid PH
MCSS .        Calculated                 :Mud Cake Sample Source
MFSS .        Calculated                 :Mud Filtrate Sample Source
MSS  .        Circulation Tank           :Mud Sample Source
OS1  .        TLD-APS-HNGS               :Other Services Line 1
OS2  .        HRLA-HNGS                  :Other Services Line 2
OS3  .        FMI-GR                     :Other Services Line 3
OS4  .        DSI-GR                     :Other Services Line 4
OS5  .        HNGS                       :Other Services Line 5
R1   .        -Tool ran as per tool sketch. :Remark Line 1
R2   .        -Hole size & standoff corrections applied to APS porosity. :Remark Line 2
R3   .        -Log performed on a limestone matrix (MDEN = 2.71 g/cc  DTM = 47.6 us/ft) :Remark Line 3
R4   .        -Hole & cement volumes computed using FCD = 7 . :Remark Line 4
R5   .        -Source of max. hole temperature is CTEM = 185 DegF. :Remark Line 5
R6   .        -Source of max. hole deviation is company man = 3 Deg. :Remark Line 6
R7   .        -Repeat performed off bottom for 300' as per client request. :Remark Line 7
R8   .        -Density measurment is affected by washouts. :Remark Line 8
TCS  .        9 00                       :Time Circulation Stopped
TLAB .        22 15                      :Time Logger At Bottom
EPD  .F         4283.000000              :Elevation of Permanent Datum above Mean Sea Level
APD  .F          40.000000               :Elevation of Depth Reference (LMF) above Permanent Datum
#-----------------------------------------------------------------------------
~CURVE INFORMATION
#MNEM.UNIT   API CODE                                  DESCRIPTION
#---- -----  --------                                  -----------------------
DEPT .F                                                :DEPTH (BOREHOLE) {F12.4}
C1   .IN                                               :Caliper 1 {F11.4}
C2   .IN                                               :Caliper 2 {F11.4}
CHRP .                                                 :Label Peak Coherence, Receiver Array, Compressional - Monopole P&S {F11.4}
CHR1 .                                                 :Label Peak Coherence, Receiver Array - Lower Dipole {F11.4}
CHR2 .                                                 :Label Peak Coherence, Receiver Array - Upper Dipole {F11.4}
DCAL .IN                                               :Differential Caliper {F11.4}
DEVI .DEG                                              :Hole Deviation {F11.4}
DT1R .US/F                                             :Delta-T Shear, Receiver Array - Lower Dipole {F11.4}
DT2  .US/F                                             :Delta-T Shear - Upper Dipole {F11.4}
DT2R .US/F                                             :Delta-T Shear, Receiver Array - Upper Dipole {F11.4}
DT4P .US/F                                             :Delta-T Compressional - Monopole P&S {F11.4}
DT4S .US/F                                             :Delta-T Shear - Monopole P&S {F11.4}
DTCO .US/F                                             :Delta-T Compressional {F11.4}
DTRP .US/F                                             :Delta-T Compressional, Receiver Array - Monopole P&S {F11.4}
DTRS .US/F                                             :Delta-T Shear, Receiver Array - Monopole P&S {F11.4}
DTSM .US/F                                             :Delta-T Shear {F11.4}
ED   .F                                                :East Departure {F11.4}
GR_EDTC.GAPI                                           :Gamma Ray {F11.4}
GTEM .DEGF                                             :Generalized Borehole Temperature {F11.4}
HAZI .DEG                                              :Hole Azimuth {F11.4}
ITT  .S                                                :Integrated Transit Time {F11.4}
ND   .F                                                :North Departure {F11.4}
P1AZ .DEG                                              :Pad 1 Azimuth {F11.4}
PR   .                                                 :Poisson's Ratio {F11.4}
RB   .DEG                                              :Relative Bearing {F11.4}
SDEV .DEG                                              :Sonde Deviation {F11.4}
SPHI .CFCF                                             :Sonic Porosity {F11.4}
STIT .F                                                :Stuck Tool Indicator, Total {F11.4}
TENS .LBF                                              :Cable Tension {F11.4}
#-----------------------------------------------------------------------------
# 
#      DEPT         C1         C2        CHRP       CHR1       CHR2       DCAL       DEVI       DT1R       DT2        DT2R       DT4P       DT4S       DTCO       DTRP       DTRS       DTSM        ED      GR_EDTC      GTEM       HAZI       ITT         ND        P1AZ        PR         RB        SDEV       SPHI       STIT       TENS
#
~A  
# ...
   7470.5000     9.6536     9.5328     0.5729     0.9292     0.9863     0.8430     1.8783   126.7006   132.4182   127.3962    69.7574   122.8370    69.7574    69.7574   122.8370   132.4182   147.9700    79.0857   160.1648   234.5948     0.1908   -15.0787   286.7399     0.3079    52.1300     1.8783     0.1567     0.0000  3564.0000
   7471.0000     9.6536     9.5205     0.5559     0.9840     0.9860     0.8368     1.8767   129.2367   133.8373   125.4913    70.8007   121.2065    70.8007    70.8007   121.2065   133.8373   147.9565    80.2130   160.1691   234.4439     0.1907   -15.0882   284.7619     0.3057    50.3027     1.8767     0.1641     0.0000  3665.0000
   7471.5000     9.6788     9.5450     0.6034     0.9857     0.9958     0.8617     1.8742   130.9975   133.4639   125.0879    72.3517   120.9968    72.3517    72.3517   120.9968   133.4639   147.9429    76.7455   160.1734   234.6535     0.1907   -15.0977   281.2701     0.2919    46.6016     1.8742     0.1750     0.0000  3755.0000
   7472.0000     9.6914     9.5450     0.5433     0.9916     0.9767     0.8679     1.8774   130.4088   133.8913   124.1713    71.0331   124.0721    71.0331    71.0331   124.0721   133.8913   147.9293    76.7455   160.1777   234.5173     0.1907   -15.1072   280.5326     0.3041    45.9999     1.8774     0.1657     0.0000  3579.0000
   7472.5000     9.6536     9.5450     0.6545     0.9917     0.9797     0.8492     1.8836   134.0252   135.5334   126.4892    71.1158   122.6250    71.1158    71.1158   122.6250   135.5334   147.9157    75.6396   160.1819   234.4571     0.1906   -15.1167   279.2293     0.3100    44.7569     1.8836     0.1663     0.0000  3625.0000
   7473.0000     9.6536     9.5450     0.6552     0.9873     0.9834     0.8492     1.8820   135.8875   136.8903   127.1592    72.5941   120.0687    72.5941    72.5941   120.0687   136.8903   147.9021    80.3854   160.1862   234.4993     0.1906   -15.1262   275.3148     0.3044    40.8002     1.8820     0.1768     0.0000  3768.0000
   7473.5000     9.6410     9.5450     0.7252     0.9898     0.9863     0.8429     1.8814   132.4149   142.7699   125.5063    69.3343   119.4305    69.3343    69.3343   119.4305   142.7699   147.8885    80.7318   160.1905   234.4471     0.1905   -15.1357   277.5779     0.3457    43.1154     1.8814     0.1537     0.0000  3760.0000
   7474.0000     9.6536     9.4470     0.7667     0.9843     0.9818     0.7997     1.8826   130.5525   151.6046   123.9762    69.9501   116.8554    69.9501    69.9501   116.8554   151.6046   147.8749    77.5608   160.1948   234.5536     0.1905   -15.1452   282.9113     0.3648    48.3425     1.8826     0.1581     0.0000  3632.0000
   7474.5000     9.6536     9.4470     0.7792     0.9882     0.9670     0.7997     1.8826   128.3530   142.8112   124.1812    67.9660   116.3777    67.9660    67.9660   116.3777   142.8112   147.8613    76.2617   160.1991   234.5395     0.1905   -15.1546   283.4677     0.3536    48.9130     1.8826     0.1440     0.0000  3646.0000
   7475.0000     9.6536     9.4470     0.7917     0.9897     0.9785     0.7997     1.8845   124.9434   142.1010   121.7977    67.9703   112.7189    67.9703    67.9703   112.7189   142.1010   147.8477    73.6965   160.2034   234.4335     0.1904   -15.1641   282.1014     0.3517    47.6523     1.8845     0.1441     0.0000  3781.0000
   7475.5000     9.6536     9.4470     0.8022     0.9924     0.9880     0.7997     1.8831   120.4199   134.1737   119.8937    66.1321   109.7719    66.1321    66.1321   109.7719   134.1737   147.8341    68.8062   160.2077   234.5096     0.1904   -15.1736   275.1680     0.3396    40.6429     1.8831     0.1311     0.0000  3693.0000
   7476.0000     9.6536     9.4470     0.8088     0.9912     0.9777     0.7997     1.8859   119.0630   154.9321   115.1662    66.0468   108.1035    66.0468    66.0468   108.1035   154.9321   147.8204    66.7466   160.2120   234.5363     0.1904   -15.1831   274.4280     0.3890    39.8765     1.8859     0.1305     0.0000  3661.0000
   7476.5000     9.6536     9.4470     0.8133     0.9834     0.9778     0.7997     1.8887   116.4722   154.3290   113.7861    64.9344   105.5629    64.9344    64.9344   105.5629   154.3290   147.8068    65.5971   160.2163   234.6238     0.1903   -15.1926   271.8234     0.3924    37.1845     1.8887     0.1226     0.0000  3652.0000
   7477.0000     9.6536     9.4470     0.8250     0.9857     0.9778     0.7997     1.8940   110.9306   157.8548   113.7861    63.2957   108.7631    63.2957    63.2957   108.7631   157.8548   147.7931    64.0526   160.2206   234.6021     0.1903   -15.2021   273.4366     0.4042    38.8196     1.8940     0.1110     0.0000  3683.0000
   7477.5000     9.6536     9.4470     0.8272     0.9863     0.9901     0.7997     1.8894   111.2215   126.9249   113.3402    63.4229   108.9347    63.4229    63.4229   108.9347   126.9249   147.7795    61.0884   160.2249   234.6772     0.1903   -15.2116   273.4862     0.3336    38.7937     1.8894     0.1119     0.0000  3662.0000
   7478.0000     9.6536     9.4470     0.8724     0.9881     0.9776     0.7997     1.8909   110.1391    98.1160   111.4360    63.7044   109.8992    63.7044    63.7044   109.8992    98.1160   147.7658    55.3409   160.2292   234.5419     0.1902   -15.2211   273.1335     0.1356    38.5766     1.8909     0.1139     0.0000  3656.0000
   7478.5000     9.6536     9.4470     0.8854     0.9913     0.9838     0.7997     1.8905   109.4105    96.5152   107.3890    62.8841   109.6326    62.8841    62.8841   109.6326    96.5152   147.7520    56.8854   160.2335   234.8169     0.1902   -15.2305   270.8071     0.1312    35.9752     1.8905     0.1081     0.0000  3683.0000
   7479.0000     9.6536     9.4470     0.9093     0.9934     0.9890     0.7997     1.8880   108.2691    96.6016   105.8562    63.4838   108.0457    63.4838    63.4838   108.0457    96.6016   147.7383    56.3321   160.2378   234.7454     0.1902   -15.2400   268.3057     0.1199    33.5459     1.8880     0.1123     0.0000  3668.0000
   7479.5000     9.6536     9.4470     0.9164     0.9977     0.9894     0.7997     1.8910   104.2964    99.2247   106.0172    63.5542   108.5825    63.5542    63.5542   108.5825    99.2247   147.7246    60.9624   160.2421   234.9345     0.1902   -15.2495   264.7342     0.1522    29.7864     1.8910     0.1128     0.0000  3700.0000
   7480.0000     9.6536     9.4470     0.9034     0.9966     0.9845     0.7997     1.8919   103.1825    97.8447   101.3235    63.6158   107.6983    63.6158    63.6158   107.6983    97.8447   147.7108    62.7458   160.2464   234.9174     0.1901   -15.2590   262.2509     0.1339    27.3207     1.8919     0.1133     0.0000  3591.0000
   7480.5000     9.6536     9.4470     0.6947     0.9971     0.9722     0.7997     1.8937   101.0361    98.7170    99.6486    59.8356    99.8440    59.8356    59.8356    99.8440    98.7170   147.6971    62.2756   160.2507   234.9562     0.1901   -15.2684   261.8361     0.2096    26.8672     1.8937     0.0865     0.0000  3491.0000
   7481.0000     9.6536     9.4470     0.7257     0.9971     0.9936     0.7997     1.8914   100.7634    97.5642   100.0906    59.3653    98.6591    59.3653    59.3653    98.6591    97.5642   147.6833    56.8868   160.2550   234.9666     0.1901   -15.2779   260.6660     0.2060    25.6873     1.8914     0.0832     0.0000  3675.0000
   7481.5000     9.6536     9.4470     0.6708     0.9956     0.9887     0.7997     1.8939    99.3801    96.4365    99.8578    56.5491    99.2815    56.5491    56.5491    99.2815    96.4365   147.6696    49.5242   160.2593   234.7992     0.1900   -15.2875   255.8342     0.2380    21.0247     1.8939     0.0633     0.0000  3800.0000
   7482.0000     9.6536     9.4470     0.7357     0.9956     0.9883     0.7997     1.8953    99.2249    96.4207    99.2373    55.6250    98.1253    55.6250    55.6250    98.1253    96.4207   147.6558    45.8704   160.2635   234.9241     0.1900   -15.2970   253.4331     0.2506    18.4997     1.8953     0.0568     0.0000  3738.0000
   7482.5000     9.6536     9.4470     0.7313     0.9981     0.9781     0.7997     1.8962    96.0228    91.1631    97.0946    53.8642    95.7514    53.8642    53.8642    95.7514    91.1631   147.6421    40.8814   160.2678   234.9396     0.1900   -15.3065   253.6166     0.2318    18.6677     1.8962     0.0443     0.0000  3699.0000
