###############################################
##         ENVERUS                           ##
##         ESS - Open Hole                   ##
##         PERMIAN / DELAWARE                ##
##         Nov 02 2023  V4.0                 ##
##         42-109-31391-00-00                ##
###############################################
## Copyright 2017-2023  ENVERUS.  All Rights Reserved. 
## Confidential - Property of ENVERUS, use governed by terms and 
## conditions found within the existing Information Services Subscription Agreement 
## (as may be amended, the “ISSA”) between Customer and ENVERUS. 
## 
~VERSION INFORMATION
# MNEM.UNIT                               DATA : DESCRIPTION OF MNEMONIC
#-----.-----     ----------------------------- : -----------------------------
VERS.                                     2.00 : CWLS LOG ASCII STANDARD - VERSION 2.00
WRAP.                                       NO : MULTIPLE LINES PER DEPTH STEP
VEND.                                  ENVERUS : VENDOR
TYPE.                          ESS - OPEN HOLE : ENVERUS ESSENTIAL CURVES – ACCESSIBLE THROUGH ENVERUS PRISM(TM)
DOC.                                  31999167 : ENVERUS HEADER RAW DOCUMENT ID
#___________________________________________________________________________________________________ 
~WELL INFORMATION 
# BOC9FSWoKCUsCFcWObZ1iTDYvHtSUwfaSl9bEava01AYiR20s/sWwY1hBaxvFz+VJj0aOQNxXrzxY9t5EPBGbg== 
# MNEM.UNIT                                              DATA : DESCRIPTION OF MNEMONIC 
#-----.-----                    ----------------------------- : ----------------------------- 
CNTY.                                               CULBERSON : COUNTY 
STATE.                                                  TEXAS : STATE 
CNTRY.                                                    USA : COUNTRY 
API.                                             42-109-31391 : API (10 Digit) 
API_14.                                    42-109-31391-00-00 : API (14 Digits) 
API_14_std.                                 42-109-31391-0000 : API (14 Digits Standard) 
UWI.                                           42109313910000 : UNIQUE WELL ID 
WELL.                                            TRES ALAS  1 : WELL NAME
STRT.FT                                                     0 : START DEPTH
STOP.FT                                               15494.0 : STOP DEPTH
STEP.FT                                                   0.5 : STEP BETWEEN DEPTHS
NULL.                                                 -999.25 : NULL VALUE
COMP.                           AMERICAN QUASAR PETROLEUM CO. : COMPANY
#___________________________________________________________________________________________________ 
~CURVE INFORMATION 
# MNEM.UNIT           : CURVE DESCRIPTION 
#-----.-----          : ----------------------------- 
 DEPT.FT               : MEASURED DEPTH 
 CALI.IN               : CALIPER (CAL - CAL) 
 GR.API                : GAMMA RAY (GR) 
 DT.US/FT              : SONIC DELTA TRANSIT TIME (DT) 
 #___________________________________________________________________________________________________ 
~A         DEPT           CALI             GR             DT
# ...
         8514.0         13.192         73.378         73.648
         8514.5         13.192         75.633         74.197
         8515.0         13.192         79.820         73.935
         8515.5         13.202         76.899         69.104
         8516.0         13.213         70.019         63.205
         8516.5         13.223         58.353         58.248
         8517.0         13.234         46.688         58.832
         8517.5         13.245         38.922         59.415
         8518.0         13.256         39.306         62.603
         8518.5         13.266         47.516         67.879
         8519.0         13.277         60.019         73.154
         8519.5         13.288         70.307         71.995
         8520.0         13.299         80.594         68.038
         8520.5         13.309         67.382         64.081
         8521.0         13.320         51.039         60.124
         8521.5         13.331         46.291         59.466
         8522.0         13.342         42.166         59.551
         8522.5         13.352         41.655         62.612
         8523.0         13.363         48.777         65.891
         8523.5         13.334         61.757         69.170
         8524.0         13.301         67.553         71.351
         8524.5         13.267         72.149         71.988
         8525.0         13.234         75.090         71.328
         8525.5         13.201         71.302         64.479
         8526.0         13.190         64.576         63.546
         8526.5         13.188         57.850         63.768
         8527.0         13.187         51.125         65.255
         8527.5         13.185         51.638         66.741
         8528.0         13.184         53.688         67.337
         8528.5         13.183         55.921         67.271
         8529.0         13.181         55.757         65.165
         8529.5         13.180         54.841         64.828
         8530.0         13.178         53.925         66.803
         8530.5         13.177         53.009         69.475
         8531.0         13.176         63.515         72.147
         8531.5         13.174         75.987         74.032
         8532.0         13.173         78.719         75.718
         8532.5         13.171         80.841         75.950
         8533.0         13.170         82.963         75.460
         8533.5         13.169         84.280         74.103
         8534.0         13.167         85.271         72.745
         8534.5         13.166         85.523         71.300
         8535.0         13.165         84.904         70.993
         8535.5         13.165         84.056         70.686
         8536.0         13.165         78.959         67.406
         8536.5         13.164         68.998         63.310
         8537.0         13.164         58.881         59.214
         8537.5         13.164         48.757         56.032
         8538.0         13.164         38.482         55.912
         8538.5         13.164         32.540         56.366
         8539.0         13.164         30.830         58.637
         8539.5         13.164         35.318         60.767
         8540.0         13.164         43.935         62.824
         8540.5         13.164         52.552         64.881
         8541.0         13.164         59.671         66.939
         8541.5         13.163         65.866         67.265
         8542.0         13.161         67.568         66.847
         8542.5         13.158         66.892         63.031
         8543.0         13.156         62.501         59.176
         8543.5         13.154         58.111         56.920
         8544.0         13.151         53.720         55.259
         8544.5         13.149         48.028         54.900
         8545.0         13.147         40.344         55.667
         8545.5         13.144         35.856         59.341
         8546.0         13.142         37.158         63.014
         8546.5         13.140         45.171         66.687
         8547.0         13.137         67.724         70.361
         8547.5         13.135         80.202         73.726
         8548.0         13.133         86.685         74.150
         8548.5         13.130         86.062         74.005
         8549.0         13.128         78.314         72.425
         8549.5         13.126         69.384         66.666
         8550.0         13.123         60.455         60.906
         8550.5         13.121         51.526         59.516
         8551.0         13.119         37.617         60.851
         8551.5         13.116         40.306         63.961
         8552.0         13.114         48.552         67.072
         8552.5         13.115         57.942         70.183
         8553.0         13.119         67.333         71.667
         8553.5         13.124         67.822         69.180
         8554.0         13.128         64.613         63.179
         8554.5         13.132         55.666         57.177
         8555.0         13.137         44.995         56.595
         8555.5         13.141         38.495         57.784
         8556.0         13.145         38.060         59.302
         8556.5         13.150         38.572         60.820
         8557.0         13.154         41.722         62.337
         8557.5         13.158         43.456         63.855
         8558.0         13.166         46.047         65.372
         8558.5         13.195         51.510         66.890
         8559.0         13.223         55.956         66.482
         8559.5         13.235         55.955         64.305
         8560.0         13.232         51.802         61.321
         8560.5         13.230         45.915         58.846
         8561.0         13.228         40.029         59.073
         8561.5         13.225         39.766         59.300
         8562.0         13.223         39.997         60.873
         8562.5         13.221         45.991         62.634
         8563.0         13.218         52.062         64.396
         8563.5         13.216         55.328         66.157
         8564.0         13.213         56.943         66.927
         8564.5         13.211         58.538         65.881
         8565.0         13.213         60.133         64.010
         8565.5         13.216         57.257         63.019
         8566.0         13.220         53.415         62.409
         8566.5         13.223         51.917         64.235
         8567.0         13.227         59.165         67.619
         8567.5         13.230         74.020         71.003
         8568.0         13.234         79.500         74.387
         8568.5         13.237         82.772         74.523
         8569.0         13.241         79.776         72.415
         8569.5         13.244         72.689         69.777
         8570.0         13.248         65.603         67.139
         8570.5         13.251         58.517         64.500
         8571.0         13.255         51.430         61.862
         8571.5         13.258         48.477         59.429
         8572.0         13.262         46.096         57.170
         8572.5         13.265         43.715         54.912
         8573.0         13.269         38.531         54.358
         8573.5         13.272         30.489         54.728
         8574.0         13.275         29.350         56.475
         8574.5         13.279         31.809         59.128
         8575.0         13.282         36.804         61.781
         8575.5         13.286         41.799         62.429
         8576.0         13.289         44.006         62.618
         8576.5         13.293         44.268         61.645
         8577.0         13.296         43.153         61.151
         8577.5         13.300         43.103         60.865
         8578.0         13.303         43.087         60.580
         8578.5         13.307         42.985         58.351
         8579.0         13.310         40.078         54.427
         8579.5         13.313         35.724         53.413
