#--------------------------------------------------#
#----------------DRILLING INFO, INC.---------------#
#---------------WWW.DRILLINGINFO.COM---------------#
#------------------COPYRIGHT 2018------------------#
#--------------------------------------------------#
#THIS FILE MAY BE USED ONLY IN ACCORDANCE WITH A CURRENT SUBSCRIPTION AGREEMENT BETWEEN
#THE USER AND DRILLING INFO, INC. NO PART OF THIS FILE MAY BE REPRODUCED, USED, COPIED,
#MODIFIED, PROPAGATED, OR DISTRIBUTED EXCEPT IN ACCORDANCE WITH THE SUBSCRIPTION
#AGREEMENT. UNAUTHORIZED USE OR DISTRIBUTION OF ALL OR ANY PART OF THIS FILE MAY VIOLATE
#COPYRIGHT, TRADEMARK, AND/OR OTHER LAWS AND IS SUBJECT TO CIVIL AS WELL AS CRIMINAL
#SANCTIONS.
#--------------------------------------------------#
#THIS FILE IS PROVIDED "AS-IS" AND ALL WARRANTIES ARE EXPRESSLY DISCLAIMED, WHETHER
#EXPRESS, ORAL, IMPLIED, STATUTORY OR OTHERWISE, INCLUDING ANY IMPLIED WARRANTY OF FITNESS
#FOR A PARTICULAR PURPOSE, MERCHANTABILITY, TITLE OR NON-INFRINGEMENT, AND ANY WARRANTIES
#ARISING BY VIRTUE OF CUSTOM OF TRADE OR COURSE OF DEALING.  FURTHER, DRILLING INFO,
#INC. AND ITS LICENSORS DO NOT REPRESENT OR WARRANT THAT THIS FILE WILL MEET USER'S
#REQUIREMENTS OR ARE SUITABLE FOR USER'S NEEDS OR THAT THE DATA OR RESULTS PROVIDED IN
#CONJUNCTION THEREWITH ARE CORRECT, ACCURATE, TIMELY OR RELIABLE. THESE DISCLAIMERS SHALL
#APPLY REGARDLESS OF ANY FAILURE OF ESSENTIAL PURPOSE OF ANY LIMITED REMEDY.  SOME
#JURISDICTIONS DO NOT ALLOW THE EXCLUSION OF CERTAIN WARRANTIES SO SOME OF THE ABOVE
#EXCLUSIONS MAY NOT APPLY. IN NO EVENT SHALL DRILLING INFO, INC. OR ANY OF ITS AFFILIATES
#BE LIABLE UNDER ANY LEGAL THEORY, WHETHER IN TORT (INCLUDING WITHOUT LIMITATION
#NEGLIGENCE), CONTRACT, STRICT LIABILITY, STATUTORY OR OTHERWISE, FOR ANY SPECIAL,
#INCIDENTAL, CONSEQUENTIAL, EXEMPLARY, PUNITIVE OR INDIRECT DAMAGE OF ANY KIND, INCLUDING
#WITHOUT LIMITATION LOSS OF REVENUE, PROFITS, GOODWILL, USE, AND/OR DATA OR THE COST OF
#PROCUREMENT OF SUBSTITUTE GOODS OR SERVICES, EVEN IF APPRISED OF THE POSSIBILITY OF SUCH
#DAMAGES IN ADVANCE.
#--------------------------------------------------#
# Exported from DI Transform
# DI Transform - A Product of Drillinginfo, Inc. - www.drillinginfo.com
#--------------------------------------------------#
#
~VERSION INFORMATION
 VERS.        2.0 : LAS ASCII STANDARD - VERSION 2.0
 WRAP.         NO : ONE LINE PER DEPTH STEP

~WELL INFORMATION
#MNEM.UNIT       DATA TYPE       INFORMATION
#---------       ---------       -----------
 STRT.ft          9043 : Start Depth
 STOP.ft         16870 : Stop Depth
 STEP.ft           0.5 : Step Length
 NULL.         -999.25 : Null Value
 COMP.                 : Company
 WELL.          DRD_55 : Well Name
 FLD.                  : Field Name
 LOC.                  : Well Location
 CNTY.                 : County
 STAT.                 : State or Province
 CTRY.                 : Country
 SRVC.                 : Service Company
 DATE.                 : Date
 API.   42109326310000 : Well Identifier

~CURVE INFORMATION
#MNEM.UNIT       API CODE       CURVE DESCRIPTION
#---------       --------       -----------------
 DEPT.ft          : <Measured Depth>
 CAL.in           : Caliper
 DPHI.%           : Density Porosity
 DT.us/ft         : Sonic
 GR.gAPI          : Gamma Ray
 ILD.ohmm         : Deep Resistivity
 ILS.ohmm         : Shallow Resistivity
 RHOB.g/cm3       : Density

~PARAMETER INFORMATION
#MNEM.UNIT       VALUE       DESCRIPTION
#---------       -----       -----------
 EKB.ft      3382 : Elevation above MSL

~A       DEPT         CAL        DPHI          DT          GR         ILD         ILS        RHOB
# ...
        11544      6.0707      7.8546     65.9592    321.4337     32.1557     30.6295      2.5643
      11544.5      6.0715      8.0607     65.8617    315.9103     32.6138     30.5846      2.5674
        11545      6.0724       8.253     65.7991    307.9532     31.1052     30.1021      2.5705
      11545.5      6.0732      8.1665     65.6141    301.4401     29.6648     27.9944      2.5734
        11546      6.0741      7.9605     65.5918    307.1411     29.7725     29.2757      2.5749
      11546.5      6.0749      7.7544     65.4694    315.0569     31.9111     30.4251      2.5744
        11547      6.0757      7.6976     65.4694    323.3812     33.4174     31.5877      2.5729
      11547.5      6.0766      7.7869     65.4694    323.6842     34.2425     32.2524      2.5724
        11548      6.0774      7.7869     65.6375    323.6842     35.1531     32.2524      2.5708
      11548.5      6.0783      7.8239     66.3239    323.6842     36.0202     31.9181      2.5714
        11549      6.0791       7.948      67.232    323.6842       34.84     31.4075      2.5735
      11549.5      6.0799      7.9902     69.9802    323.6842     33.9728     30.5846      2.5755
        11550      6.0808      7.8693     73.7756    327.1078     33.6546     30.3152      2.5776
      11550.5      6.0816      7.6424     73.7596    336.1059     33.8015     29.7834      2.5798
        11551      6.0825      7.3752     71.7323    341.6667     34.0082      29.556      2.5779
      11551.5      6.0833       7.421     70.6827    341.6667     34.7707     29.4577      2.5666
        11552      6.0842      7.6312     71.9821    341.6667     36.0704     29.2609      2.5604
      11552.5       6.085      8.1716     74.5099    341.6667     36.5389     29.2609      2.5565
        11553      6.0858      8.5342     75.3244    345.5056     35.8746     29.2609      2.5538
      11553.5      6.0867       8.819     76.1416    345.1342     36.7549      29.521      2.5517
        11554      6.0875      9.0251     72.4753    337.9121     37.9124     29.7834      2.5496
      11554.5      6.0884      9.0984     69.7503    332.0096     38.0291     29.7834      2.5472
        11555      6.0892      9.0984     69.1073    327.8959       35.63     30.0965      2.5438
      11555.5        6.09      9.1515     68.7801    336.6206     33.6574     28.7525        2.54
        11556      6.0909      9.4052      68.898    342.2901     33.3048     27.7871      2.5375
      11556.5      6.0917      9.6456     68.7682    349.4318     33.1312     28.1889      2.5396
        11557      6.0926      9.8568     68.4608    353.3701     35.0661     28.7828      2.5463
      11557.5      6.0934      9.6675     68.1732    345.5056     33.5699     27.1714       2.549
        11558      6.0943      9.3084     68.2857    344.6669     30.9465     24.4523      2.5512
      11558.5      6.0951      9.0383     68.4082    338.9165     29.6879     25.2173      2.5518
        11559      6.0959      9.1186     68.3329    337.9121     30.3997     26.7605      2.5495
      11559.5      6.0968      9.3246     68.0178    335.1188     32.7049     27.9944      2.5475
        11560      6.0976      9.4487     67.5956    335.2475     34.7134     28.9478      2.5452
      11560.5      6.0985      9.4436     67.3531    340.8727     34.4666      29.521      2.5463
        11561      6.0993      9.2623     67.7541    346.6935     34.0173     28.2561      2.5511
      11561.5      6.1001      9.1803      67.551    345.8747      33.831     26.6743      2.5532
        11562       6.101      8.9893     67.4677     333.051     32.9687     26.5468      2.5544
      11562.5      6.1018      8.8525     67.4286    324.2193     32.5277     26.3129      2.5536
        11563      6.1027      8.8525     67.3426    315.8503     34.0041     26.0811      2.5515
      11563.5      6.1035      8.9344     67.0351    313.3795     35.3734     27.3829      2.5494
        11564      6.1044      9.0984     66.7277    322.9476     37.5607     28.7547      2.5475
      11564.5      6.1052      9.1803     66.9351    339.2287     37.9744     29.3974      2.5482
        11565       6.106      9.2401     67.7483    351.0974     37.9928     29.7928      2.5512
      11565.5      6.1069      9.1042     69.3895    353.6077     37.9943     30.0481      2.5533
        11566      6.1077      8.8981     69.8491    337.3265      37.244     29.0031      2.5544
      11566.5      6.1086      8.8525     70.0683    327.2799     35.8629     28.4943      2.5531
        11567      6.1094      8.7705     69.0493     318.758     36.5869      29.521      2.5544
      11567.5      6.1102      8.9332     67.3793    311.7639     36.5869      29.521      2.5599
        11568      6.1111      8.8935     66.8394    318.6573      36.518     28.4191      2.5646
      11568.5      6.1119      8.5226     66.6109    326.2592     34.8287     27.0208      2.5682
        11569      6.1128      8.2355     66.9184    323.6842     34.6534     27.0208      2.5693
      11569.5      6.1136      8.0361     67.2259    320.3125     35.6566     27.0208      2.5678
        11570      6.1145      8.1602     67.8653    320.4114     37.3517     27.3311      2.5667
      11570.5      6.1153      8.2843     68.7265    323.6842     37.9525     27.9093      2.5678
        11571      6.1161      8.2787     69.5339    329.1778     38.3512      28.264      2.5698
      11571.5       6.117      8.1068     69.9251    337.9121     38.3512     28.4943      2.5708
        11572      6.1178      8.0009     70.2326    337.9121       38.42     28.4943      2.5644
      11572.5      6.1187      8.2121     70.5401    337.9121     38.8519     28.6711      2.5558
        11573      6.1195      8.5883     70.5035    339.8811     37.1382     28.3383      2.5507
      11573.5      6.1203      9.0415     69.6128    337.3504     35.8522     27.3289      2.5458
        11574      6.1212       9.317     68.2488    328.2992     35.8325     27.1885      2.5456
      11574.5       6.122      9.5082     66.4213    320.1487     36.1602     27.7478      2.5489
        11575      6.1229      9.4512     65.3576    317.0103     36.1613     27.7478       2.552
      11575.5      6.1237      9.2452     65.6414    316.5852     35.2419     27.7478      2.5557
        11576      6.1246      9.0391     67.1743    317.0103     33.7291      27.261      2.5592
      11576.5      6.1254       8.833     68.2238    323.6842      34.985     27.8888      2.5617
        11577      6.1262       8.627     68.7766    326.2704     35.2752     28.4943      2.5638
      11577.5      6.1271      8.4426      68.898    323.6842     34.9794     28.7476      2.5665
        11578      6.1279      8.2968     69.2767    317.7399     34.0736     28.0009      2.5702
      11578.5      6.1283      8.2547     70.4875    312.5539     33.1312     27.7478      2.5741
        11579      6.1283      8.0486     71.7852    316.3863     33.4285     27.8735      2.5691
      11579.5      6.1185      7.8689     72.0816    321.3952     34.1864      28.175      2.5635
        11580      6.1111      7.9373     72.0714    327.1277     33.8807     27.7478      2.5639
      11580.5      6.1105      8.1434     73.1751    332.4911     33.4792     27.7478      2.5659
        11581      6.1098      8.3494     75.3662     327.609     35.3336     28.9438       2.568
      11581.5      6.1092      8.3607     77.1206    322.4125     37.3001      29.521      2.5707
        11582      6.1086      8.2056     76.4783    317.0103     38.6338      29.521      2.5757
      11582.5      6.1079       7.983     74.3808    317.0103     38.0035      29.283      2.5813
        11583      6.1073      7.5952     72.9215    320.3125     34.9511     28.8943      2.5848
      11583.5      6.1066      7.3508     73.1845    324.3082     34.7168     28.4943      2.5808
        11584       6.106      7.2131     74.9264    317.1845     36.2088     28.6774      2.5727
      11584.5      6.1054      7.4936     75.2013    317.0103     37.2548     29.0031      2.5658
