###############################################
##         ENVERUS                           ##
##         ESS - Open Hole                   ##
##         PERMIAN / DELAWARE                ##
##         Nov 02 2023  V4.0                 ##
##         42-109-32255-00-00                ##
###############################################
## Copyright 2017-2023  ENVERUS.  All Rights Reserved. 
## Confidential - Property of ENVERUS, use governed by terms and 
## conditions found within the existing Information Services Subscription Agreement 
## (as may be amended, the “ISSA”) between Customer and ENVERUS. 
## 
~VERSION INFORMATION
# MNEM.UNIT                               DATA : DESCRIPTION OF MNEMONIC
#-----.-----     ----------------------------- : -----------------------------
VERS.                                     2.00 : CWLS LOG ASCII STANDARD - VERSION 2.00
WRAP.                                       NO : MULTIPLE LINES PER DEPTH STEP
VEND.                                  ENVERUS : VENDOR
TYPE.                          ESS - OPEN HOLE : ENVERUS ESSENTIAL CURVES – ACCESSIBLE THROUGH ENVERUS PRISM(TM)
DOC.                                  31869427 : ENVERUS HEADER RAW DOCUMENT ID
#___________________________________________________________________________________________________ 
~WELL INFORMATION 
# Kns/CyAZPDgS4fEM5w0azv9tYcXlBSx1nHSqICrpKgQv6F2hlFUFpw+R1SAxYfM92i4ks6BDNpB+WhJDZXFO5Q== 
# MNEM.UNIT                                              DATA : DESCRIPTION OF MNEMONIC 
#-----.-----                    ----------------------------- : ----------------------------- 
CNTY.                                               CULBERSON : COUNTY 
STATE.                                                  TEXAS : STATE 
CNTRY.                                                    USA : COUNTRY 
API.                                             42-109-32255 : API (10 Digit) 
API_14.                                    42-109-32255-00-00 : API (14 Digits) 
API_14_std.                                 42-109-32255-0000 : API (14 Digits Standard) 
UWI.                                           42109322550000 : UNIQUE WELL ID 
WELL.                             MELISSA TAYLOR STATE 27  1H : WELL NAME
STRT.FT                                                  94.0 : START DEPTH
STOP.FT                                               13828.0 : STOP DEPTH
STEP.FT                                                   0.5 : STEP BETWEEN DEPTHS
NULL.                                                 -999.25 : NULL VALUE
COMP.                              CHESAPEAKE OPERATING  INC. : COMPANY 
DATE.                                             29-NOV-2005 : LOG DATE
#___________________________________________________________________________________________________ 
~CURVE INFORMATION 
# MNEM.UNIT           : CURVE DESCRIPTION 
#-----.-----          : ----------------------------- 
 DEPT.FT               : MEASURED DEPTH 
 CALI__B.IN            : CALIPER (CAL - CAL) 
 GR__B.API             : GAMMA RAY (GR) 
 DT__B.US/FT           : SONIC DELTA TRANSIT TIME (DT) 
 DPHI__B.V/V           : DENSITY POROSITY (DPHI) 
 NPHI__B.V/V           : NEUTRON POROSITY (NPHI) 
 RHOB__B.G/CC          : BULK DENSITY (RHOB) 
 #___________________________________________________________________________________________________ 
~A         DEPT        CALI__B          GR__B          DT__B        DPHI__B        NPHI__B        RHOB__B
# ...
        11304.0         13.392         73.231         72.889        0.14786        0.14015         2.4910
        11304.5         13.462         72.838         71.788        0.14221        0.13517         2.4880
        11305.0         13.501         72.445         70.728        0.12603        0.13121         2.5040
        11305.5         13.540         72.052         70.753        0.11313        0.13679         2.5200
        11306.0         13.578         71.440         71.582        0.11146        0.14404         2.5150
        11306.5         13.617         70.655         72.410        0.12512        0.14836         2.5030
        11307.0         13.656         69.870         72.697        0.13930        0.14462         2.4910
        11307.5         13.695         69.086         72.069        0.13897        0.13743         2.4810
        11308.0         13.733         68.650         70.326        0.13991        0.14231         2.4940
        11308.5         13.772         69.029         68.757        0.12348        0.15046         2.5130
        11309.0         13.811         69.315         67.640        0.10917        0.15466         2.5530
        11309.5         13.863         69.466         67.267        0.08056        0.15361         2.5930
        11310.0         13.928         69.617         67.418        0.05083        0.14962         2.6320
        11310.5         13.992         69.768         68.192        0.04428        0.13962         2.6080
        11311.0         14.056         69.919         69.001        0.05982        0.12638         2.5820
        11311.5         14.121         69.073         69.425        0.08031        0.11928         2.5560
        11312.0         14.185         67.761         69.424        0.12310        0.13258         2.5300
        11312.5         14.231         67.271         69.425        0.12971        0.15169         2.5040
        11313.0         14.274         68.571         69.525        0.12688        0.16227         2.5090
        11313.5         14.317         69.872         69.452        0.12199        0.16495         2.5150
        11314.0         14.359         71.143         68.449        0.11812        0.16212         2.5170
        11314.5         14.402         68.539         67.378        0.12276        0.15459         2.5100
        11315.0         14.445         65.420         66.609        0.12550        0.14118         2.5250
        11315.5         14.488         62.914         65.841        0.11769        0.12791         2.5430
        11316.0         14.531         63.604         65.225        0.09306        0.11467         2.5610
        11316.5         14.573         64.650         65.212        0.07576        0.10144         2.5790
        11317.0         14.648         66.165         66.345        0.06991        0.09085         2.5890
        11317.5         14.726         66.832         67.783        0.07986        0.10701         2.5710
        11318.0         14.804         66.776         69.340        0.10036        0.12491         2.5520
        11318.5         14.883         66.721         70.448        0.12369        0.14939         2.5340
        11319.0         14.961         66.665         70.735        0.12387        0.16182         2.5150
        11319.5         15.039         65.825         70.751        0.11929        0.16680         2.5200
        11320.0         15.117         63.002         70.995        0.12061        0.16731         2.5130
        11320.5         15.192         60.180         71.280        0.13323        0.16644         2.4980
        11321.0         15.262         61.183         71.032        0.14351        0.16483         2.4850
        11321.5         15.331         64.156         69.936        0.14121        0.16386         2.4910
        11322.0         15.400         69.372         69.045        0.13733        0.16705         2.4970
        11322.5         15.469         73.263         69.064        0.11157        0.17623         2.5130
        11323.0         15.538         73.013         69.733        0.08612        0.18315         2.5540
        11323.5         15.607         72.213         70.487        0.07639        0.18153         2.5950
        11324.0         15.649         70.700         71.051        0.07149        0.17370         2.5860
        11324.5         15.684         69.008         71.354        0.11435        0.16586         2.5700
        11325.0         15.719         67.148         71.245        0.13138        0.15820         2.5360
        11325.5         15.753         65.854         70.177        0.14156        0.15117         2.5020
        11326.0         15.788         65.216         69.046        0.14046        0.14415         2.4900
        11326.5         15.823         64.578         68.461        0.12980        0.14536         2.5120
        11327.0         15.891         66.789         68.900        0.11667        0.15334         2.5340
        11327.5         15.969         70.523         69.803        0.10188        0.16346         2.5560
        11328.0         16.047         73.437         70.332        0.08753        0.17358         2.5490
        11328.5         16.125         73.426         69.793        0.09767        0.17683         2.5290
        11329.0         16.132         68.977         68.937        0.12391        0.17499         2.5090
        11329.5         16.139         63.876         68.515        0.14147        0.17268         2.4880
        11330.0         16.140         61.949         68.800        0.13218        0.17207         2.5010
        11330.5         16.064         63.462         69.091        0.11344        0.17153         2.5380
        11331.0         15.988         66.165         69.784        0.08935        0.16601         2.5600
        11331.5         16.221         68.867         70.572        0.09344        0.15990         2.5340
        11332.0         16.107         67.471         73.230        0.10440        0.15965         2.5090
        11332.5         16.035         65.392         75.567        0.12569        0.16939         2.4840
        11333.0         15.982         63.363         76.467        0.15853        0.17913         2.4590
        11333.5         15.929         61.438         75.718        0.17081        0.18502         2.4400
        11334.0         15.871         61.349         74.508        0.17014        0.18602         2.4450
        11334.5         15.781         62.942         73.188        0.16372        0.18147         2.4560
        11335.0         15.690         65.727         71.725        0.15502        0.17380         2.4660
        11335.5         15.599         65.981         70.304        0.15051        0.16159         2.4680
        11336.0         15.508         66.630         69.218        0.14806        0.14937         2.4700
        11336.5         15.417         68.046         69.356        0.14535        0.14773         2.4720
        11337.0         15.327         69.462         71.234        0.13504        0.15409         2.4860
        11337.5         15.236         72.845         72.865        0.11855        0.16345         2.5210
        11338.0         15.145         70.512         74.030        0.11526        0.16606         2.4960
        11338.5         15.046         65.985         74.442        0.13406        0.16003         2.4670
        11339.0         14.939         64.194         74.488        0.16032        0.15209         2.4490
        11339.5         14.833         63.349         74.459        0.16184        0.14415         2.4620
        11340.0         14.726         63.633         74.045        0.14684        0.13622         2.4760
        11340.5         14.619         63.917         73.450        0.12784        0.12828         2.4900
        11341.0         14.513         64.654         72.842        0.12438        0.12417         2.5030
        11341.5         14.406         65.564         72.389        0.14227        0.12734         2.4870
