~Version Information Block
 VERS.                2.00:     CWLS LOG ASCII STANDARD - VERSION 2.000000
 WRAP.                  NO:     One Line Per Depth Step
#
~Well Information Block
#MNEM.UNIT                     Data                         Information
#----------   ------------------------------------------   ----------------
 STRT.FT                                     4210.0000:     START DEPTH
 STOP.FT                                    10370.0000:     STOP DEPTH
 STEP.FT                                        0.5000:     STEP
 NULL.                                       -999.2500:     NULL VALUE
 COMP.                       CHESAPEAKE OPERATING INC.:     COMPANY
 WELL.                         UNIVERSITY_LANDS_4627-1:     WELL
 FLD .                                         WILDCAT:     FIELD
 LOC .   1200' FNL & 1995' FEL|Section: 27, Block: 46, Abstract: 2860|University Lands Survey:     LOCATION
 SEC .                                              27:     SECTION
 CNTY.                                       CULBERSON:     COUNTY
 STAT.                                           TEXAS:     STATE
 CTRY.                                             USA:     COUNTRY
 SRVC.                                    SCHLUMBERGER:     SERVICE COMPANY
 DATE.                                      11/15/2016:     DATE
 API .                                  42109322870000:     API NUMBER
 UWI .                                  42109322870000:     UWI NUMBER
 TVD .                                              NO:     TVD flag
 WSTA.                                             LOC:     Well status
#
~Curve Information Block
#MNEM.UNIT       API CODE      Curve Description
#----------    -------------   -------------------
 DEPT.FT                   :   Depth in Feet
 RM_HRLT.OHMM                 :   HRLTB Mud Resistivity
 RXOZ.OHMM                 :   Stan Res MicroCFL Resistivity
 RLA5.OHMM                 :   HRLTB Resistivity 5
 RLA4.OHMM                 :   HRLTB Resistivity 4
 RLA3.OHMM                 :   HRLTB Resistivity 3
 DTCO.US/F                 :   Delta-T Compressional
 DTSM.US/F                 :   Delta-T Shear Measurement
 SPHI.V/V                  :   Sonic Porosity [47.6]
 HSGR.GAPI                 :   HNGS Spectroscopy Gamma Ray
 HCGR.GAPI                 :   HNGS Computed Gamma Ray
 HCAL.IN                   :   HILT Caliper
 DPHI.V/V                  :   Density Porosity
 PEFZ.                     :   Std. Res. Formation PE
 HDRA.G/C3                 :   Density Correction
 RHOB.G/C3                 :   Std. Res. Formation Density
 APLC.V/V                  :   APS Near/Array Corrected Limestone Porosity
 PXND.V/V                  :   Crossplot Porosity For Neutron-Density
#
~Parameter Information Block
#MNEM.UNIT            Value               Description
#----------    --------------------    -------------------
 DATE.                 07-Jun-2007:    Date As Month-Day-Year
 RUN .                         ONE:    Run Number
 PDAT.                         UNK:    Permanent Datum
 EPD .FT                -9999.5000:    Elevation Of Perm. Datum
 LMF .                          KB:    Log Measured From
 FAPD.FT                   40.0000:    Feet Above Perm. Datum
 EKB .FT                 4323.0000:    Elevation Of Kelly Bushing
 TD  .FT                10370.0000:    Total Depth
 DFT .                   Fresh Mud:    Drilling Fluid Type
 DFD .LB/G                  8.6000:    Drilling Fluid Density
 RMS .OHMM                  0.4210:    Resistivity Of Mud Sample
 MST .DEGF                 97.0000:    Mud Sample Temperature
 RMF .OHMM                  0.4210:    Mud Filtrate Resistivity
 MFST.DEGF                 97.0000:    Mud Filtrate Sample Temperature
 MFSS.                        CALC:    Mud Filtrate Sample Source
 MCSS.                        CALC:    Mud Cake Sample Source
 RMB .OHMM                  0.2280:    Mud Resistivity At Bht
 BHT .DEGF                185.0000:    Bottom Hole Temperature
 MRT .DEGF                185.0000:    Maximum Recorded Temperature
 WSTA.                         LOC:    
 LATB.FT                    0.0000:    
 LONB.FT                    0.0000:    
#
~Other Information Block
<DescLogPlotStart>   NEURALOG PLOT DEFINITION
PLOTDEFVERSION: 3
LASFILE: E:\nds\projects\Texas Standard Oil LLC\pdf\42109322870000 D\42-109-322
DEPTHSCALE: 240.000000
RESOLUTION: 196
DEPTHLABELFREQ: 100.000000
HEAVYGRIDFREQ: 100.000000
MEDIUMGRIDFREQ: 50.000000
LIGHTGRIDFREQ: 10.000000
#
#   TRACK 1
#
STARTTRACK: 
 LEFTX: 0.500000 inch
 RIGHTX: 3.000000 inch
 SCALETYPE: Linear
 NUMCHARTDIVISIONS: 10
CURVE: RXOZ  0.200000   2000.000000 (0,0,255)      Solid             2     Y   
BACKUP: 2000.000000 20000000.000000 (0,0,255)      Solid             2    
CURVE: RLA5  0.200000   2000.000000 (0,131,131)    Dot               2     Y   
BACKUP: 2000.000000 20000000.000000 (0,131,131)    Dot               2    
CURVE: RLA4  0.200000   2000.000000 (255,0,255)    Short_Dash        2     Y   
BACKUP: 2000.000000 20000000.000000 (255,0,255)    Short_Dash        2    
CURVE: RLA3  0.200000   2000.000000 (255,0,0)      Medium_Dash       2     Y   
BACKUP: 2000.000000 20000000.000000 (255,0,0)      Medium_Dash       2    
CURVE: DTCO  240.000000 40.000000  (0,0,255)      Solid             2     N    
CURVE: DTSM  240.000000 40.000000  (0,131,131)    Dot               2     Y    
BACKUP: 440.000000 240.000000 (0,131,131)    Dot               2    
CURVE: SPHI  0.300000   -0.100000  (255,0,255)    Short_Dash        2     Y    
BACKUP: 0.700000   0.300000   (255,0,255)    Short_Dash        2    
CURVE: HSGR  0.000000   150.000000 (0,0,255)      Solid             2     Y    
BACKUP: 150.000000 300.000000 (0,0,255)      Solid             2    
CURVE: HCGR  0.000000   150.000000 (0,131,131)    Dot               2     N    
CURVE: HCAL  6.000000   16.000000  (255,0,255)    Short_Dash        2     Y    
BACKUP: -4.000000  6.000000   (255,0,255)    Short_Dash        2    
BACKUP: 16.000000  26.000000  (255,0,255)    Short_Dash        2    
ENDTRACK: 
#
#   TRACK 2
#
STARTTRACK: 
 LEFTX: 3.500000 inch
 RIGHTX: 8.500000 inch
 SCALETYPE: Linear
 NUMCHARTDIVISIONS: 10
CURVE: RM_HRLT 0.020000   200.000000 (255,131,0)    Solid             2     N  
CURVE: DPHI  0.300000   -0.100000  (255,0,0)      Solid             2     Y    
BACKUP: 0.700000   0.300000   (255,0,0)      Solid             2    
BACKUP: -0.100000  -0.500000  (255,0,0)      Solid             2    
CURVE: APLC  0.300000   -0.100000  (255,131,0)    Dot               2     Y    
BACKUP: 0.700000   0.300000   (255,131,0)    Dot               2    
BACKUP: 1.100000   0.700000   (255,131,0)    Dot               2    
CURVE: PXND  0.300000   -0.100000  (255,255,0)    Short_Dash        2     Y    
BACKUP: 0.700000   0.300000   (255,255,0)    Short_Dash        2    
ENDTRACK: 
#
#   TRACK 3
#
STARTTRACK: 
 LEFTX: 0.500000 inch
 RIGHTX: 5.500000 inch
 SCALETYPE: Linear
 NUMCHARTDIVISIONS: 10
ENDTRACK: 
#
#   TRACK 4
#
STARTTRACK: 
 LEFTX: 3.500000 inch
 RIGHTX: 6.000000 inch
 SCALETYPE: Linear
 NUMCHARTDIVISIONS: 10
CURVE: PEFZ  0.000000   10.000000  (0,0,255)      Solid             2     N    
ENDTRACK: 
#
#   TRACK 5
#
STARTTRACK: 
 LEFTX: 3.500000 inch
 RIGHTX: 4.750000 inch
 SCALETYPE: Linear
 NUMCHARTDIVISIONS: 10
CURVE: HDRA  -0.050000  0.200000   (0,131,131)    Solid             2     N    
ENDTRACK: 
#
#   TRACK 6
#
STARTTRACK: 
 LEFTX: 3.500000 inch
 RIGHTX: 8.500000 inch
 SCALETYPE: Linear
 NUMCHARTDIVISIONS: 10
CURVE: RHOB  2.000000   3.000000   (255,0,255)    Solid             2     Y    
BACKUP: 1.000000   2.000000   (255,0,255)    Solid             2    
ENDTRACK: 
<DescLogPlotEnd>
~A DEPTH     RM_HRLT             RXOZ             RLA5             RLA4             RLA3             DTCO             DTSM             SPHI             HSGR             HCGR             HCAL             DPHI             PEFZ             HDRA             RHOB             APLC             PXND            
# ...
    7895.500 0.90618861       19.11795157      74.75583192      74.75583192      82.10543248      69.53876349      123.24390000     0.16162905       104.51754700     74.49401955      10.94106252      0.15954946       3.32601397       -0.04542153      2.45110092       0.11258824       0.13384137      
    7896.000 0.92273532       23.10540786      62.32520105      62.32520105      60.11431742      68.94995093      123.50074719     0.15731109       101.70327730     71.40984542      10.79077494      0.13036457       3.27609158       -0.04380342      2.46406531       0.07772549       0.11578482      
    7896.500 0.92273532       38.63884350      73.68459733      73.68459733      61.31717616      69.14622179      124.02401474     0.15377821       97.40773511      68.06360354      11.13838687      0.10338230       3.21311856       -0.02164228      2.52559732       0.06960784       0.09393080      
    7897.000 0.90531772       143.03038069     102.47097003     102.47097003     102.75462809     70.12757605      125.54901961     0.16647891       93.70098896      66.05306512      11.14460772      0.06043095       3.15194677       0.00578256       2.59588867       0.06686275       0.06849734      
    7897.500 0.90726944       87.56837444      67.80106639      67.80106639      64.98139306      71.50147203      126.56862745     0.17459408       94.35486238      66.58531122      11.00878964      0.06638590       3.08978712       0.04493895       2.55812165       0.08895425       0.08471513      
    7898.000 0.86739309       34.97985862      59.91112265      59.91112265      67.11992370      72.67909715      125.39215686     0.18284505       100.03093605     70.17197694      11.10793879      0.08939928       3.02477844       0.07044954       2.50604041       0.10699564       0.10473870      
    7898.500 0.84197130       18.47007819      62.18262279      62.18262279      66.99753437      73.07163886      121.86274510     0.18593974       106.17179547     74.52356109      11.13794173      0.12571335       2.98344842       0.10730182       2.45438827       0.12503704       0.12476228      
    7899.000 0.84291623       13.66835353      41.15742667      41.15742667      46.27843601      73.26790972      120.03777957     0.18753680       109.65953855     75.94298886      10.68092664      0.16425073       3.05329891       0.15034652       2.41580353       0.13392157       0.15009823      
    7899.500 0.83532435       11.96313233      47.97882239      47.97882239      51.10621037      73.07163886      118.35387739     0.18753680       109.74441112     70.57519426      10.64274331      0.17169442       3.12872819       0.20239086       2.46095073       0.12027094       0.14695481      
    7900.000 0.88592186       10.02439428      50.64725947      50.64725947      51.56932015      72.81648675      117.69303824     0.18341511       97.74695127      67.15579937      10.79148768      0.14827200       3.23044162       0.20219523       2.51802761       0.09380570       0.11975215      
    7900.500 0.90618861       10.68833588      59.57650876      59.57650876      59.57650876      72.48282630      117.55820490     0.17968597       80.74221586      57.66509106      10.98032318      0.09095565       3.54278808       0.20255319       2.57455742       0.06734046       0.07709838      
    7901.000 0.88192323       15.61704422      109.03421637     109.03421637     109.03421637     71.69774289      116.96078431     0.17366997       63.15087935      47.38826570      10.80956460      0.00205681       4.04925054       0.20373763       2.63105197       0.04087522       0.03444461      
    7901.500 0.88192323       95.50620521      310.46969993     437.41419752     528.64625173     69.93130520      116.05882353     0.16487839       42.59205628      30.94665004      11.14411860      0.00684514       4.19972503       0.20250602       2.70506476       0.01549020       0.01335953      
    7902.000 0.88192323       95.80487926      118.25577431     118.25577431     156.41266487     67.96859666      117.49891068     0.14643682       44.30004733      32.86760709      11.04318827      0.01751007       4.14364021       0.14335275       2.68731911       0.01588235       0.01296660      
    7902.500 0.91442454       46.18239589      58.51127935      58.51127935      59.75592297      67.18351325      119.31372549     0.14461442       58.78231452      45.41882140      10.96162652      0.03457395       3.91122292       0.09347440       2.65983907       0.01627451       0.02436149      
    7903.000 0.91680481       30.55117587      31.11706692      31.11706692      36.27438224      67.18732486      120.08401296     0.14474975       83.29682806      64.99142660      10.61634402      0.05220372       3.44403794       0.04417108       2.63246346       0.01646421       0.02789784      
    7903.500 0.85568663       25.32650352      33.14536057      33.14536057      34.67459414      67.18546621      119.75376791     0.14435721       104.19776471     75.83795048      10.67245198      0.05325715       3.32284808       0.03706601       2.60524945       0.02700515       0.04833006      
    7904.000 0.82215174       19.73159593      29.47761128      28.95055088      25.98029628      67.18846137      118.31993456     0.14427870       114.41455173     87.68111236      10.59938554      0.07819442       3.32987243       0.05686714       2.57839692       0.06650708       0.05933202      
    7904.500 0.84181336       10.93485186      36.93477694      28.69056523      35.94862613      66.99270208      116.18937568     0.14342384       115.13605664     84.90490704      10.53453689      0.11416729       3.40916818       0.12619511       2.55031428       0.11727802       0.13320236      
    7905.000 0.87398003       12.56802449      36.27438224      36.27438224      39.52013672      66.59470069      113.82352941     0.13984298       105.38114922     85.60155083      10.54035949      0.04888765       3.41087561       0.20152730       2.52500000       0.17313725       0.13005894      
    7905.500 0.94769481       19.11795157      41.15742667      41.15742667      45.45097646      66.00588813      113.07189542     0.13584691       93.14449554      69.80486177      11.01108380      -0.02255212      3.34279620       0.20172996       2.64180065       0.17101961       0.12259332      
    7906.000 1.01011281       180.69892081     59.57650876      59.04149174      69.45066695      66.20215898      113.45882353     0.13415113       79.24349275      60.72992367      11.21968327      -0.08961802      3.29058079       0.19927653       2.75293137       0.16299720       0.11119843      
    7906.500 1.01011281       81.69500800      71.35585329      79.20070064      82.43530467      67.37978410      115.18823529     0.14631992       80.29136790      59.32729113      11.76784725      -0.04819458      3.29023793       0.18559712       2.86519608       0.15470588       0.09705305      
    7907.000 1.01011281       36.60309026      70.08000892      77.95222353      80.96135945      69.14622179      117.24705882     0.15970123       86.05476145      60.14907120      12.48200889      -0.01089912      3.27563632       0.13408726       2.73589779       0.16925903       0.09666012      
    7907.500 0.96543605       36.27438224      80.23429930      75.96308773      103.28956308     71.10893032      119.58823529     0.17209683       90.79814665      66.04079660      12.07282661      0.02039177       3.16378889       0.08035935       2.65376920       0.15221459       0.09626719      
    7908.000 0.82034512       65.79154034      112.02526754     113.38334107     120.40868447     72.87536801      121.25490196     0.18243376       95.06766268      67.80153391      10.98830249      0.04788819       3.15175179       0.05523303       2.62773615       0.12437870       0.09626719      
    7908.500 0.72274779       62.32520105      66.38772436      66.38772436      87.02010714      73.81746811      122.21568627     0.19303238       98.22065320      69.92011024      10.54443909      0.05852030       3.13583701       0.00833167       2.60156147       0.09916300       0.09115914      
