~VERSION INFORMATION
VERS.           1.2   :CWLS Log ASCII Standard - VERSION 1.2
WRAP.           NO    :One Line per depth step
PROD.  Schlumberger   :LAS Producer
PROG.  DLIS to ASCII 10C0-306                          :LAS Program name and version
CREA.        2007/06/08 22:43                          :LAS Creation date {YYYY/MM/DD hh:mm}
SOURCE.     294b92a6-1e54-4f75-8d20-4493e48002f1       :DLIS File Name
#--------------------------------------------------
~WELL INFORMATION
#MNEM.UNIT      DATA             DESCRIPTION
#---- ------ --------------   -----------------------------
STRT .F      4145.5000       :START DEPTH     
STOP .F      10380.0000      :STOP DEPTH     
STEP .F       0.5000         :STEP       
NULL .          -999.25      :NULL VALUE
COMP .                 COMPANY:  Chesapeake Operating Inc.          
WELL .                    WELL:  University Lands 4627-1            
FLD  .                   FIELD:  Wildcat                            
LOC  .                LOCATION:  1200' FNL & 1995; FEL              
CNTY .                  COUNTY:  Culberson                          
STAT .                   STATE:  Texas                              
CTRY .                 COUNTRY:                                     
SRVC .         SERVICE COMPANY:  Schlumberger                       
API  .              API NUMBER:  42-109-32287                       
DATE .                LOG DATE:  7-Jun-2007
UWI  .          UNIQUE WELL ID:  42-109-32287-0000                  
#-----------------------------------------------------------------------------
~PARAMETER INFORMATION
#MNEM.UNIT    VALUE                      DESCRIPTION
#---- -----   --------------------       ------------------------
CN   .        Chesapeake Operating Inc.  :Company Name
WN   .        University Lands 4627-1    :Well Name
FN   .        Wildcat                    :Field Name
FL   .        1200' FNL & 1995  FEL      :Field Location
FL1  .        Secion  27  Block  46  Abstract  2860 :Field Location Line 1
COUN .        Culberson                  :County or Rig Name
STAT .        Texas                      :State or Province
NATI .                                   :Nation
DATE .        7-Jun-2007                 :Date as Month-Day-Year
APIN .        42-109-32287               :API Serial Number
SECT .        27                         :Section
TOWN .        46                         :Township
RANG .        2860                       :Range
DMF  .        Kelly Bushing              :Drilling Measured From
LMF  .        Kelly Bushing              :Log Measured From
PDAT .        Ground Level               :Permanent Datum
ENGI .        Tarek Sheira               :Engineer's Name
WITN .        Wiley Tisdale /Jud Walker  :Witness's Name
LATI .                                   :Latitude
LONG .                                   :Longitude
LUL  .        Midland  TX                :Logging Unit Location
LUN  .              2365                 :Logging Unit Number
RUN  .        2                          :Run Number
SON  .        11592406                   :Service Order Number
BHT  .DEGF     185.00000                 :Bottom Hole Temperature (used in calculations)
BS   .IN         8.75000                 :Bit Size
DFD  .LB/G       8.60000                 :Drilling Fluid Density
DFV  .S         39.00000                 :Drilling Fluid Viscosity
DFL  .C3         8.00000                 :Drilling Fluid Loss
RMFS .OHMM       0.42100                 :Resistivity of Mud Filtrate Sample
EKB  .F       4323.00000                 :Elevation of Kelly Bushing
EGL  .F       4283.00000                 :Elevation of Ground Level
BLI  .F       10360.70020                :Bottom Log Interval
BSAL .PPM      500.00000                 :Borehole Salinity
FLEV .                                   :Fluid Level
MCST .                                   :Mud Cake Sample Temperature
MFST .DEGF      96.90000                 :Mud Filtrate Sample Temperature
MRT  .DEGF     185.00000                 :Maximum Recorded Temperature
MST  .DEGF      96.90000                 :Mud Sample Temperature
RMCS .                                   :Resistivity of Mud Cake Sample
RMS  .OHMM       0.42100                 :Resistivity of Mud Sample
RW   .OHMM       1.00000                 :Resistivity of Connate Water
TDD  .F       10350.00000                :Total Depth - Driller
TDL  .F       10362.00000                :Total Depth - Logger
TLI  .F       4200.00000                 :Top Log Interval
HIDE .        Formation Micro Imager     :Header Identifier
MATR .        LIME                       :Rock Matrix for Neutron Porosity Corrections
FNUM .           1.00000                 :Form Factor Numerator
FEXP .           2.00000                 :Form Factor Exponent
DFT  .        Fresh Mud                  :Drilling Fluid Type
DFPH .           9.00000                 :Drilling Fluid PH
MCSS .        Calculated                 :Mud Cake Sample Source
MFSS .        Calculated                 :Mud Filtrate Sample Source
MSS  .        Circulation Tank           :Mud Sample Source
OS1  .        TLD-APS-HNGS               :Other Services Line 1
OS2  .        HRLA-HNGS                  :Other Services Line 2
OS3  .        FMI-GR                     :Other Services Line 3
OS4  .        DSI-GR                     :Other Services Line 4
OS5  .        HNGS                       :Other Services Line 5
R1   .        -Tool ran as per tool sketch. :Remark Line 1
R2   .        -Hole size & standoff corrections applied to APS porosity. :Remark Line 2
R3   .        -Log performed on a limestone matrix (MDEN = 2.71 g/cc  DTM = 47.6 us/ft) :Remark Line 3
R4   .        -Hole & cement volumes computed using FCD = 7 . :Remark Line 4
R5   .        -Source of max. hole temperature is CTEM = 185 DegF. :Remark Line 5
R6   .        -Source of max. hole deviation is company man = 3 Deg. :Remark Line 6
R7   .        -Repeat performed off bottom for 300' as per client request. :Remark Line 7
R8   .        -Density measurment is affected by washouts. :Remark Line 8
TCS  .        9 00                       :Time Circulation Stopped
TLAB .        22 15                      :Time Logger At Bottom
EPD  .F         4283.000000              :Elevation of Permanent Datum above Mean Sea Level
APD  .F          40.000000               :Elevation of Depth Reference (LMF) above Permanent Datum
#-----------------------------------------------------------------------------
~CURVE INFORMATION
#MNEM.UNIT   API CODE                                  DESCRIPTION
#---- -----  --------                                  -----------------------
DEPT .F                                                :DEPTH (BOREHOLE) {F12.4}
C1   .IN                                               :Caliper 1 {F11.4}
C2   .IN                                               :Caliper 2 {F11.4}
CHRP .                                                 :Label Peak Coherence, Receiver Array, Compressional - Monopole P&S {F11.4}
CHR1 .                                                 :Label Peak Coherence, Receiver Array - Lower Dipole {F11.4}
CHR2 .                                                 :Label Peak Coherence, Receiver Array - Upper Dipole {F11.4}
DCAL .IN                                               :Differential Caliper {F11.4}
DEVI .DEG                                              :Hole Deviation {F11.4}
DT1R .US/F                                             :Delta-T Shear, Receiver Array - Lower Dipole {F11.4}
DT2  .US/F                                             :Delta-T Shear - Upper Dipole {F11.4}
DT2R .US/F                                             :Delta-T Shear, Receiver Array - Upper Dipole {F11.4}
DT4P .US/F                                             :Delta-T Compressional - Monopole P&S {F11.4}
DT4S .US/F                                             :Delta-T Shear - Monopole P&S {F11.4}
DTCO .US/F                                             :Delta-T Compressional {F11.4}
DTRP .US/F                                             :Delta-T Compressional, Receiver Array - Monopole P&S {F11.4}
DTRS .US/F                                             :Delta-T Shear, Receiver Array - Monopole P&S {F11.4}
DTSM .US/F                                             :Delta-T Shear {F11.4}
ED   .F                                                :East Departure {F11.4}
GR_EDTC.GAPI                                           :Gamma Ray {F11.4}
GTEM .DEGF                                             :Generalized Borehole Temperature {F11.4}
HAZI .DEG                                              :Hole Azimuth {F11.4}
ITT  .S                                                :Integrated Transit Time {F11.4}
ND   .F                                                :North Departure {F11.4}
P1AZ .DEG                                              :Pad 1 Azimuth {F11.4}
PR   .                                                 :Poisson's Ratio {F11.4}
RB   .DEG                                              :Relative Bearing {F11.4}
SDEV .DEG                                              :Sonde Deviation {F11.4}
SPHI .CFCF                                             :Sonic Porosity {F11.4}
STIT .F                                                :Stuck Tool Indicator, Total {F11.4}
TENS .LBF                                              :Cable Tension {F11.4}
#-----------------------------------------------------------------------------
# 
#      DEPT         C1         C2        CHRP       CHR1       CHR2       DCAL       DEVI       DT1R       DT2        DT2R       DT4P       DT4S       DTCO       DTRP       DTRS       DTSM        ED      GR_EDTC      GTEM       HAZI       ITT         ND        P1AZ        PR         RB        SDEV       SPHI       STIT       TENS
#
~A  
# ...
   8295.5000    10.1321    11.0407     0.8310     0.9919     0.9746     1.8266     3.2189   102.9932    95.0037    97.6159    56.1481    95.1170    56.1481    56.1481    95.1170    95.0037   115.0557    62.4656   167.2508   277.3361     0.1366   -18.6674   167.0414     0.2316   249.6758     3.2189     0.0605     0.0000  4021.0000
   8296.0000    10.1698    11.0407     0.8523     0.9919     0.9886     1.8463     3.2217   103.1792    94.7427    97.5689    57.6097    97.9320    57.6097    57.6097    97.9320    94.7427   115.0276    64.9132   167.2551   277.3276     0.1365   -18.6640   168.0420     0.2067   250.6861     3.2217     0.0708     0.0000  4038.0000
   8296.5000    10.1824    11.0407     0.7779     0.9928     0.9792     1.8529     3.2245   102.3958    94.9626    97.3117    56.1187    98.1242    56.1187    56.1187    98.1242    94.9626   114.9995    65.1042   167.2593   277.3115     0.1365   -18.6607   169.2793     0.2317   251.9411     3.2245     0.0602     0.0000  4081.0000
   8297.0000    10.1446    11.0407     0.8894     0.9941     0.9835     1.8332     3.2256   101.3792    93.4819    95.5379    55.7532    96.7947    55.7532    55.7532    96.7947    93.4819   114.9714    62.1406   167.2636   277.3136     0.1365   -18.6574   170.5831     0.2240   253.2445     3.2256     0.0577     0.0000  4060.0000
   8297.5000    10.1446    11.1265     0.9279     0.9946     0.9875     1.8743     3.2252   100.9353    95.2125    93.7405    55.3442    96.0439    55.3442    55.3442    96.0439    95.2125   114.9433    62.3363   167.2679   277.2875     0.1364   -18.6541   171.2626     0.2449   253.9510     3.2252     0.0548     0.0000  4059.0000
   8298.0000    10.2076    11.2369     0.9288     0.9909     0.9878     1.9599     3.2279   100.8324    88.8917    92.7768    54.5115    94.0549    54.5115    54.5115    94.0549    88.8917   114.9151    63.0118   167.2722   277.2845     0.1364   -18.6508   171.6239     0.1986   254.3156     3.2279     0.0489     0.0000  4000.0000
   8298.5000    10.1950    11.2491     0.9139     0.9872     0.9719     1.9591     3.2280    97.9725    95.6475    93.7188    54.5528    94.2832    54.5528    54.5528    94.2832    95.6475   114.8870    61.2962   167.2765   277.2711     0.1364   -18.6476   171.6391     0.2589   254.3443     3.2280     0.0492     0.0000  4022.0000
   8299.0000    10.2328    11.2982     0.9459     0.9896     0.9700     2.0023     3.2284    97.3689    95.2077    93.4800    54.0492    93.6511    54.0492    54.0492    93.6511    95.2077   114.8588    54.7117   167.2808   277.2525     0.1364   -18.6443   171.6921     0.2622   254.4162     3.2284     0.0456     0.0000  4109.0000
   8299.5000    10.2328    11.3350     0.9325     0.9915     0.9768     2.0198     3.2304    97.5138    97.4816    93.6596    55.5019    93.2413    55.5019    55.5019    93.2413    97.4816   114.8307    50.8915   167.2851   277.2418     0.1363   -18.6411   171.6528     0.2602   254.3875     3.2304     0.0559     0.0000  3997.0000
   8300.0000    10.2831    11.3350     0.9442     0.9939     0.9737     2.0463     3.2322    97.3926    96.8883    94.9663    55.5196    94.0532    55.5196    55.5196    94.0532    96.8883   114.8025    48.2989   167.2894   277.2351     0.1363   -18.6378   171.4538     0.2556   254.1947     3.2322     0.0560     0.0000  3984.0000
   8300.5000    10.3335    11.3350     0.9077     0.9951     0.9805     2.0727     3.2292    98.5614    97.4705    96.2905    56.9512    95.3531    56.9512    56.9512    95.3531    97.4705   114.7744    52.7327   167.2937   277.2179     0.1363   -18.6345   170.5140     0.2408   253.2709     3.2292     0.0661     0.0000  4070.0000
   8301.0000    10.3335    11.6047     0.9183     0.9964     0.9830     2.2007     3.2343    99.0346    95.4857    96.9076    58.0296   101.5394    58.0296    58.0296   101.5394    95.4857   114.7463    54.4733   167.2980   277.2347     0.1363   -18.6313   169.0978     0.2072   251.8362     3.2343     0.0738     0.0000  4018.0000
   8301.5000    10.4091    11.6292     0.9381     0.9970     0.9781     2.2522     3.2334    99.1454    96.1894    96.5103    57.9623    98.1766    57.9623    57.9623    98.1766    96.1894   114.7182    55.8528   167.3023   277.1972     0.1362   -18.6280   168.2887     0.2149   251.0635     3.2334     0.0733     0.0000  4032.0000
   8302.0000    10.4091    11.6415     0.9585     0.9986     0.9759     2.2580     3.2325    99.6800    97.2775    97.2941    58.1823    98.9377    58.1823    58.1823    98.9377    97.2775   114.6901    57.8234   167.3066   277.1438     0.1362   -18.6247   167.2286     0.2215   250.0555     3.2325     0.0748     0.0000  4029.0000
   8302.5000    10.4091    11.7028     0.9084     0.9976     0.9600     2.2870     3.2327    99.5061    96.9118    97.4622    56.8577    99.6054    56.8577    56.8577    99.6054    96.9118   114.6620    52.4509   167.3109   277.1353     0.1362   -18.6215   165.0829     0.2376   247.9160     3.2327     0.0655     0.0000  4102.0000
   8303.0000    10.4091    11.7028     0.8951     0.9968     0.9754     2.2870     3.2345   100.7318    93.3409    95.0880    55.8548    98.1487    55.8548    55.8548    98.1487    93.3409   114.6339    50.1980   167.3152   277.1082     0.1361   -18.6182   164.4866     0.2211   247.3461     3.2345     0.0584     0.0000  4019.0000
   8303.5000    10.4091    11.8989     0.8201     0.9951     0.9859     2.3791     3.2354   101.1841    93.8778    95.6772    53.6396    93.3344    53.6396    53.6396    93.3344    93.8778   114.6059    45.2321   167.3195   277.0895     0.1361   -18.6149   164.3283     0.2576   247.2062     3.2354     0.0427     0.0000  3979.0000
   8304.0000    10.4091    11.9725     0.8570     0.9898     0.9766     2.4134     3.2365   101.5796    91.6932    96.5896    52.7269    93.4099    52.7269    52.7269    93.4099    91.6932   114.5778    44.6328   167.3238   277.0419     0.1361   -18.6116   163.4469     0.2530   246.3713     3.2365     0.0363     0.0000  4056.0000
   8304.5000    10.4594    11.8989     0.8393     0.9476     0.9797     2.4060     3.2393    99.4568    92.3001    96.2929    51.9412    91.8575    51.9412    51.9412    91.8575    92.3001   114.5498    40.4687   167.3281   277.0288     0.1361   -18.6083   162.7594     0.2683   245.6963     3.2393     0.0307     0.0000  4111.0000
   8305.0000    10.4216    11.8989     0.8082     0.9582     0.9562     2.3858     3.2378    98.0041    92.0862    94.3426    53.3034    92.5754    53.3034    53.3034    92.5754    92.0862   114.5219    43.0756   167.3324   277.0068     0.1360   -18.6050   163.3253     0.2481   246.2847     3.2378     0.0403     0.0000  4021.0000
   8305.5000    10.5098    11.8867     0.7354     0.9572     0.9612     2.4270     3.2386    99.6812    92.7311    95.8708    53.0378    94.0191    53.0378    53.0378    94.0191    92.7311   114.4939    43.4040   167.3367   276.9968     0.1360   -18.6016   163.6882     0.2569   246.6583     3.2386     0.0385     0.0000  4048.0000
   8306.0000    10.5098    11.8131     0.7646     0.9720     0.9517     2.3924     3.2399    99.3388    95.8933    96.1056    54.1375    94.9897    54.1375    54.1375    94.9897    95.8933   114.4660    49.4745   167.3409   276.9375     0.1360   -18.5983   162.7547     0.2661   245.7830     3.2399     0.0462     0.0000  4032.0000
   8306.5000    10.6105    11.8989     0.8009     0.9805     0.9352     2.4863     3.2387   102.8485    98.2769    98.5642    58.0125    97.5630    58.0125    58.0125    97.5630    98.2769   114.4381    49.8138   167.3452   276.8900     0.1359   -18.5949   161.9440     0.2326   245.0190     3.2387     0.0736     0.0000  3982.0000
   8307.0000    10.6105    11.8989     0.7879     0.9902     0.9340     2.4863     3.2424   103.9834    96.8533    98.5536    59.1156    96.2526    59.1156    59.1156    96.2526    96.8533   114.4102    53.9047   167.3495   276.8626     0.1359   -18.5915   160.9240     0.2031   244.0253     3.2424     0.0814     0.0000  4063.0000
   8307.5000    10.7112    11.8989     0.8816     0.9909     0.9398     2.5395     3.2452   105.0548    99.4580   101.7557    59.5864    97.3044    59.5864    59.5864    97.3044    99.4580   114.3823    59.3911   167.3538   276.8144     0.1359   -18.5881   159.9284     0.2200   243.0770     3.2452     0.0848     0.0000  4030.0000
