~Version Information Block
 VERS.                2.00:     CWLS LOG ASCII STANDARD - VERSION 2.000000
 WRAP.                  NO:     One Line Per Depth Step
#
~Well Information Block
#MNEM.UNIT                     Data                         Information
#----------   ------------------------------------------   ----------------
 STRT.F                                        31.0000:     START DEPTH
 STOP.F                                     15936.0000:     STOP DEPTH
 STEP.F                                         0.5000:     STEP
 NULL.                                       -999.2500:     NULL VALUE
 COMP.                             AMERCN QUASAR PETRO:     COMPANY
 WELL.                                    SCOTT UNIT 1:     WELL
 FLD .                                         WILDCAT:     FIELD
 LOC .        Survey  PSL              - Abs  6331     - Blk  45   - Section  19:     LOCATION
 CNTY.                                              TX:     COUNTY
 STAT.                                              TX:     STATE
 CTRY.                        UNITED STATES OF AMERICA:     COUNTRY
 SRVC.                                      GEOGRAPHIX:     SERVICE COMPANY
 DATE.                                                :     DATE
 API .                                  42109313620000:     API NUMBER
 UWI .                                  42109313620000:     UWI NUMBER
 TVD .                                              NO:     TVD flag
 WSTA.                                             LOC:     Well status
#
~Curve Information Block
#MNEM.UNIT       API CODE      Curve Description
#----------    -------------   -------------------
 DEPT.F                    :   Depth in Feet
 LLD .OHMM                 :   LATEROLOG DEEP
 GRS .GAPI                 :   GAMMA RAY FROM SONIC LOG
 CALS.IN                   :   CALIPER FROM SONIC LOG
 MSFL.OHMM                 :   MICRO SPHERICALLY FOCUSED
 LLS .OHMM                 :   LATEROLOG SHALLOW
 DT  .US/F                 :   DELTA TIME
#
~Parameter Information Block
#MNEM.UNIT            Value               Description
#----------    --------------------    -------------------
 RUN .                         ONE:    Run Number
 PDAT.                          GL:    Permanent Datum
 EPD .FT                          :    Elevation Of Perm. Datum
 LMF .               KELLY BUSHING:    Log Measured From
 EKB .FT                          :    Elevation Of Kelly Bushing
 DF .FT                           :    Elevation Of Derrick Floor
 GL .FT                           :    Elevation Of Ground Level
 TD  .FT                          :    Total Depth
 CSGD.FT                          :    Casing Bottom (Driller) 1
 CSGL.FT                          :    Casing Bottom (Logger) 1
 MUD .                            :    Drilling Fluid Type
 MUDV .CP                         :    Drilling Fluid Viscosity
 MUDD .LB/USG                     :    Drilling Fluid Density
 FL .ML/30MIN                     :    Drilling Fluid Loss
 PH.                              :    Drilling Fluid Ph
 MUDS .                           :    Mud Sample Source
 RM .OHMM                         :    Resistivity Of Mud Sample
 RMT .DEGF                        :    Mud Sample Temperature
 RMF .OHMM                        :    Mud Filtrate Resistivity
 RMFT.DEGF                        :    Mud Filtrate Sample Temperature
 RMC .OHMM                        :    Mud Cake Resistivity
 RMCT.DEGF                        :    Mud Cake Sample Temperature
 RMB .OHMM                        :    Mud Resistivity At Bht
 TMAX .DEGF                       :    Bottom Hole Temperature
#
~Other Information Block
<DescLogPlotStart>   NEURALOG PLOT DEFINITION
PLOTDEFVERSION: 3
LASFILE: E:\Nair Innovations\42_TEXAS\109_Culberson\42109313620000_1.las
DEPTHSCALE: 239.999996
RESOLUTION: 200
DEPTHLABELFREQ: 100.000000
HEAVYGRIDFREQ: 50.000000
MEDIUMGRIDFREQ: 50.000000
LIGHTGRIDFREQ: 10.000000
#
#   TRACK 1
#
STARTTRACK: 
 LEFTX: 0.500000 inch
 RIGHTX: 3.000000 inch
 SCALETYPE: Linear
 NUMCHARTDIVISIONS: 10
CURVE: GRS   1.504600   250.000000 (0,0,255)      Solid             2     N    
CURVE: CALS  6.474400   14.873500  (0,131,131)    Solid             2     N    
ENDTRACK: 
#
#   TRACK 2
#
STARTTRACK: 
 LEFTX: 3.500000 inch
 RIGHTX: 6.000000 inch
 SCALETYPE: Log
 NUMCYCLES: 4
 STARTCYCLE: 2
CURVE: LLS   0.200000   2000.000000 (255,0,0)      Solid             4     Y   
BACKUP: 2000.000000 20000000.000000 (255,0,0)      Solid             4    
BACKUP: 0.000020   0.200000   (255,0,0)      Solid             4    
CURVE: MSFL  0.200000   2000.000000 (0,131,131)    Solid             2     N   
ENDTRACK: 
#
#   TRACK 3
#
STARTTRACK: 
 LEFTX: 6.500000 inch
 RIGHTX: 9.000000 inch
 SCALETYPE: Linear
 NUMCHARTDIVISIONS: 10
CURVE: LLD   0.200000   2000.000000 (255,0,255)    Solid             4     N   
CURVE: DT    190.000000 50.000000  (255,0,131)    Solid             2     N    
ENDTRACK: 
<DescLogPlotEnd>
<DepthTrack type='Reference' track='1' Label='0' color='0' hor='0' />
<Reference font='144,0,-900,0,500,0,16777216,Arial' />
~A DEPTH     LLD              GRS              CALS             MSFL             LLS              DT              
# ...
    6016.000 2988.91600000    38.06470000      11.03010000      -999.25000000    1130.95650000    56.43840000     
    6016.500 2980.07860000    36.93060000      11.03010000      -999.25000000    1115.32540000    56.25570000     
    6017.000 3162.00220000    38.85670000      11.03010000      -999.25000000    1146.57470000    55.98170000     
    6017.500 3297.69480000    40.91300000      11.03010000      -999.25000000    1162.49450000    55.61640000     
    6018.000 3439.21040000    46.19550000      11.06020000      -999.25000000    1178.62570000    55.06850000     
    6018.500 3346.46750000    60.50310000      11.06020000      -999.25000000    1194.98050000    57.57050000     
    6019.000 3162.68600000    71.61360000      11.12050000      -999.25000000    1162.25160000    59.50100000     
    6019.500 2740.39500000    79.35220000      11.12050000      -999.25000000    1039.49370000    62.01020000     
    6020.000 2182.56400000    86.44440000      11.15060000      -999.25000000    927.78920000     65.66100000     
    6020.500 1791.04370000    92.69050000      11.15060000      -999.25000000    854.03270000     67.83390000     
    6021.000 1730.12230000    97.34010000      11.15060000      -999.25000000    808.66880000     68.93730000     
    6021.500 1621.21130000    101.20410000     11.15060000      -999.25000000    775.15060000     69.77170000     
    6022.000 1473.15040000    97.49540000      11.15060000      -999.25000000    753.39540000     66.80770000     
    6022.500 1420.69480000    91.09020000      11.15060000      -999.25000000    735.51900000     65.65750000     
    6023.000 1480.00660000    90.51010000      11.18070000      -999.25000000    735.46810000     65.94140000     
    6023.500 1567.44780000    97.85810000      11.18070000      -999.25000000    731.07920000     66.26350000     
    6024.000 1659.99910000    103.87770000     11.21080000      -999.25000000    725.25150000     66.39270000     
    6024.500 1801.78340000    104.43160000     11.21080000      -999.25000000    725.20120000     65.75340000     
    6025.000 1900.16260000    92.19680000      11.24100000      -999.25000000    741.24430000     64.93150000     
    6025.500 1992.92300000    86.07810000      11.24100000      -999.25000000    798.91090000     63.47030000     
    6026.000 2529.63330000    60.89150000      11.27110000      -999.25000000    917.52810000     59.90870000     
    6026.500 3216.19460000    45.26270000      11.27110000      -999.25000000    943.23550000     56.07310000     
    6027.000 3684.63130000    37.07060000      11.27110000      -999.25000000    892.34070000     54.61190000     
    6027.500 3549.58620000    36.07450000      11.30120000      -999.25000000    844.19200000     53.97260000     
    6028.000 2966.59160000    50.34480000      11.30120000      -999.25000000    787.65620000     56.48640000     
    6028.500 2648.41260000    77.09390000      11.33250000      -999.25000000    724.79830000     59.51350000     
    6029.000 2364.16280000    83.12400000      11.36430000      -999.25000000    666.95670000     60.36110000     
    6029.500 2110.51420000    74.54710000      11.39160000      -999.25000000    595.04190000     60.05270000     
    6030.000 1975.00070000    59.33980000      11.42770000      -999.25000000    501.47920000     57.87150000     
    6030.500 1900.92300000    35.71690000      11.48950000      -999.25000000    437.41300000     55.04430000     
    6031.000 1901.47710000    27.38060000      11.53050000      -999.25000000    412.92750000     52.83490000     
    6031.500 1997.07480000    25.11690000      11.64340000      -999.25000000    380.46580000     52.01850000     
    6032.000 2171.27560000    24.63840000      11.77790000      -999.25000000    362.45620000     51.36460000     
    6032.500 2296.08180000    26.23730000      11.88760000      -999.25000000    394.98360000     51.50920000     
    6033.000 1999.50460000    28.11520000      12.00960000      -999.25000000    506.45210000     52.51140000     
    6033.500 1744.95920000    27.35770000      12.10160000      -999.25000000    660.20980000     52.69410000     
    6034.000 1400.95260000    23.96450000      12.11450000      -999.25000000    724.24770000     52.51140000     
    6034.500 1220.17850000    22.07060000      12.14460000      -999.25000000    688.21090000     51.96350000     
    6035.000 1115.59010000    21.69630000      12.11450000      -999.25000000    613.25480000     52.23740000     
    6035.500 1058.53370000    22.44480000      12.11450000      -999.25000000    533.90160000     52.32880000     
    6036.000 1104.29380000    22.36940000      12.11450000      -999.25000000    445.89890000     52.14610000     
    6036.500 1202.36680000    21.21420000      12.08430000      -999.25000000    382.86150000     51.59230000     
    6037.000 1287.11780000    20.81220000      11.99400000      -999.25000000    337.96910000     50.85510000     
    6037.500 1323.86130000    21.05340000      11.87350000      -999.25000000    315.33530000     50.30830000     
    6038.000 1121.31950000    23.34630000      11.74980000      -999.25000000    302.48100000     50.85880000     
    6038.500 873.91990000     28.18780000      11.62930000      -999.25000000    302.46060000     51.79660000     
    6039.000 782.44690000     30.31810000      11.53730000      -999.25000000    348.27060000     52.76200000     
    6039.500 740.51610000     29.50150000      11.47550000      -999.25000000    388.91640000     53.58240000     
    6040.000 663.00650000     32.19040000      11.44380000      -999.25000000    404.47960000     54.50200000     
    6040.500 402.55600000     40.46900000      11.42170000      -999.25000000    309.11060000     56.57260000     
    6041.000 358.55220000     48.37100000      11.39160000      -999.25000000    261.54930000     58.31630000     
    6041.500 309.54270000     64.17970000      11.39160000      -999.25000000    248.05670000     59.68230000     
    6042.000 344.10300000     64.82040000      11.39160000      -999.25000000    241.09610000     61.09590000     
    6042.500 390.43540000     54.00490000      11.39160000      -999.25000000    244.86610000     58.53880000     
    6043.000 508.40640000     46.47020000      11.39160000      -999.25000000    269.81650000     55.25110000     
    6043.500 748.70960000     39.99240000      11.39160000      -999.25000000    304.42850000     53.05940000     
    6044.000 947.07460000     33.13190000      11.39160000      -999.25000000    345.48050000     51.78080000     
    6044.500 907.67310000     30.26640000      11.39160000      -999.25000000    366.87050000     50.86760000     
    6045.000 810.29640000     31.23020000      11.39160000      -999.25000000    356.82350000     51.68950000     
    6045.500 604.89430000     33.17380000      11.39160000      -999.25000000    314.98420000     52.60600000     
    6046.000 417.57220000     34.99870000      11.39160000      -999.25000000    274.22630000     53.63400000     
    6046.500 282.09810000     36.40700000      11.39160000      -999.25000000    259.42970000     54.57280000     
    6047.000 280.95330000     34.04410000      11.39160000      -999.25000000    259.41210000     55.52510000     
    6047.500 306.82930000     30.10480000      11.39160000      -999.25000000    289.78860000     55.41320000     
    6048.000 422.30580000     27.00260000      11.35780000      -999.25000000    361.65340000     54.83790000     
    6048.500 492.11670000     25.49140000      11.32610000      -999.25000000    415.48950000     52.96770000     
    6049.000 478.84610000     25.05730000      11.30120000      -999.25000000    426.98670000     52.69410000     
    6049.500 416.99530000     30.59510000      11.27110000      -999.25000000    396.50520000     53.95280000     
    6050.000 440.96440000     35.48510000      11.28120000      -999.25000000    354.28120000     54.84020000     
    6050.500 524.23590000     30.20950000      11.31290000      -999.25000000    341.11090000     54.88620000     
