~VERSION INFORMATION
VERS. 2.0 : CWLS Log ASCII Standard - Version 2.0
WRAP. NO : One line per depth step
#--------------------------------------------------#
#----------------DRILLING INFO, INC.---------------#
#---------------WWW.DRILLINGINFO.COM---------------#
#------------------COPYRIGHT 2015------------------#
#--------------------------------------------------#
#THIS FILE MAY BE USED ONLY IN ACCORDANCE WITH A CURRENT SUBSCRIPTION AGREEMENT BETWEEN
#THE USER AND DRILLING INFO, INC. NO PART OF THIS FILE MAY BE REPRODUCED, USED, COPIED,
#MODIFIED, PROPAGATED, OR DISTRIBUTED EXCEPT IN ACCORDANCE WITH THE SUBSCRIPTION
#AGREEMENT. UNAUTHORIZED USE OR DISTRIBUTION OF ALL OR ANY PART OF THIS FILE MAY VIOLATE
#COPYRIGHT, TRADEMARK, AND/OR OTHER LAWS AND IS SUBJECT TO CIVIL AS WELL AS CRIMINAL
#SANCTIONS.
#--------------------------------------------------#
#THIS FILE IS PROVIDED "AS-IS" AND ALL WARRANTIES ARE EXPRESSLY DISCLAIMED, WHETHER
#EXPRESS, ORAL, IMPLIED, STATUTORY OR OTHERWISE, INCLUDING ANY IMPLIED WARRANTY OF FITNESS
#FOR A PARTICULAR PURPOSE, MERCHANTABILITY, TITLE OR NON-INFRINGEMENT, AND ANY WARRANTIES
#ARISING BY VIRTUE OF CUSTOM OF TRADE OR COURSE OF DEALING.  FURTHER, DRILLING INFO,
#INC. AND ITS LICENSORS DO NOT REPRESENT OR WARRANT THAT THIS FILE WILL MEET USER'S
#REQUIREMENTS OR ARE SUITABLE FOR USER'S NEEDS OR THAT THE DATA OR RESULTS PROVIDED IN
#CONJUNCTION THEREWITH ARE CORRECT, ACCURATE, TIMELY OR RELIABLE. THESE DISCLAIMERS SHALL
#APPLY REGARDLESS OF ANY FAILURE OF ESSENTIAL PURPOSE OF ANY LIMITED REMEDY.  SOME
#JURISDICTIONS DO NOT ALLOW THE EXCLUSION OF CERTAIN WARRANTIES SO SOME OF THE ABOVE
#EXCLUSIONS MAY NOT APPLY. IN NO EVENT SHALL DRILLING INFO, INC. OR ANY OF ITS AFFILIATES
#BE LIABLE UNDER ANY LEGAL THEORY, WHETHER IN TORT (INCLUDING WITHOUT LIMITATION
#NEGLIGENCE), CONTRACT, STRICT LIABILITY, STATUTORY OR OTHERWISE, FOR ANY SPECIAL,
#INCIDENTAL, CONSEQUENTIAL, EXEMPLARY, PUNITIVE OR INDIRECT DAMAGE OF ANY KIND, INCLUDING
#WITHOUT LIMITATION LOSS OF REVENUE, PROFITS, GOODWILL, USE, AND/OR DATA OR THE COST OF
#PROCUREMENT OF SUBSTITUTE GOODS OR SERVICES, EVEN IF APPRISED OF THE POSSIBILITY OF SUCH
#DAMAGES IN ADVANCE.
#--------------------------------------------------#
~WELL INFORMATION
#MNEMONIC     .UNIT              VALUE :DESCRIPTION
#--------------------------------------------------#
STRT       .ft                52.00000 :START DEPTH
STOP       .ft                8797.00000 :STOP DEPTH
STEP       .ft                0.50000 :STEP
NULL       .                -999.25000 :NULL VALUE
COMP       .                 :COMPANY
WELL       .                 :WELL
FLD       .                 :FIELD
LOC       .                 :LOCATION
CNTY       .                 :COUNTY
STAT       .                 :STATE
CTRY       .                 :COUNTRY
SRVC       .                 :SERVICE COMPANY
DATE       .                 :DATE
API       .                42109700290000 :API NUMBER
~CURVE INFORMATION
#MNEMONIC     .UNIT      API CODE :CURVE DESCRIPTION
#--------------------------------------------------#
DEPTH       .ft                      :Measured Depth
DT       .us/ft        UNKNOWN   :DT
GR       .gAPI        UNKNOWN   :GR
ILD       .ohmm        UNKNOWN   :ILD
ILS       .ohmm        UNKNOWN   :ILS
SP       .mV        UNKNOWN   :SP
~A    DEPTH    DT    GR    ILD    ILS    SP
# ...
726.00000    65.39366    44.53781    57.73227    87.05487    17.94253
726.50000    65.54663    45.50207    57.51783    87.35432    17.97737
727.00000    65.66389    46.46633    58.40568    87.65376    18.01221
727.50000    65.79809    46.51062    59.57989    88.53972    18.04705
728.00000    65.96471    45.85326    60.75410    89.62144    18.08189
728.50000    66.03679    45.19590    61.92831    90.70316    18.11673
729.00000    66.17136    44.53854    63.41690    91.78488    18.15158
729.50000    66.44494    44.13092    65.57385    93.03550    18.18642
730.00000    66.71851    44.38725    67.73080    96.50765    18.22126
730.50000    66.99209    44.64357    69.88775    98.90343    18.25610
731.00000    67.26567    44.89990    72.04470    98.94405    18.29094
731.50000    67.48382    45.15622    74.20165    98.98466    18.32578
732.00000    67.63854    45.41477    74.90255    99.02528    18.36062
732.50000    67.79326    45.67992    74.63225    99.06590    18.51150
733.00000    67.94798    45.94507    74.36195    99.10652    18.88993
733.50000    68.10270    46.21021    74.09165    99.14714    19.26836
734.00000    67.94271    46.47536    73.68939    99.18776    19.64680
734.50000    67.32859    46.74051    73.23882    99.22838    20.02523
735.00000    66.71447    47.24110    72.78825    99.26900    20.40366
735.50000    66.10035    48.23976    72.33768    99.30962    20.78209
736.00000    65.48623    49.23842    71.88712    99.36987    21.16052
736.50000    64.87212    50.23708    71.43655    99.85039    21.53895
737.00000    64.49036    51.23574    72.43192    103.30908    21.91739
737.50000    64.35231    49.91973    73.54653    108.11425    22.29582
738.00000    64.21427    48.38439    74.66115    112.91943    22.67425
738.50000    64.07622    46.84905    75.77577    117.72460    23.05268
739.00000    63.93818    45.31372    79.38547    122.52977    23.43111
739.50000    63.96370    43.77838    86.06739    125.33065    23.80954
740.00000    64.08314    42.24304    92.74932    126.36552    24.18798
740.50000    64.20257    42.09986    91.41257    127.40038    24.50432
741.00000    64.57546    42.06821    89.86150    128.43525    24.81394
741.50000    66.94745    42.03656    88.31043    129.47012    25.12355
742.00000    69.31944    42.00491    86.75936    130.50499    25.43316
742.50000    71.28186    43.35196    85.20829    131.53986    25.74277
743.00000    70.98995    45.61945    83.65722    132.57472    26.05238
743.50000    70.69805    48.40651    82.10615    133.60959    26.36200
744.00000    70.40615    51.29019    80.55508    134.64446    26.67161
744.50000    67.13952    56.29715    79.13412    135.67933    26.98122
745.00000    63.95338    61.30412    77.83218    136.71419    27.29083
745.50000    63.37027    66.31108    76.53024    137.74906    27.91458
746.00000    63.11593    71.31804    75.22829    138.78393    28.20893
746.50000    62.86159    69.13286    73.92635    139.82648    28.97040
747.00000    62.60724    62.15465    72.62441    142.73063    29.70263
747.50000    62.36863    55.17644    72.80394    145.63479    30.43486
748.00000    62.60800    52.61187    73.66967    148.53894    31.16709
748.50000    63.26353    51.29444    74.53539    151.44310    31.89932
749.00000    63.91907    49.59305    75.40112    154.34725    32.63155
749.50000    64.57460    47.04182    76.26684    157.25141    33.36378
750.00000    65.23013    44.49059    77.13256    163.64212    34.09602
750.50000    65.88566    42.37410    80.61044    170.71361    34.82825
751.00000    66.52291    42.73302    84.32115    177.78510    35.56048
751.50000    66.01988    43.09195    88.03185    184.85660    36.29271
752.00000    65.51685    43.45087    91.74256    191.92809    37.57434
752.50000    65.01382    46.04483    95.45326    202.79861    38.78278
753.00000    64.51079    48.70412    99.16397    214.74322    39.99121
753.50000    64.00776    51.36340    111.26353    226.68783    41.19965
754.00000    63.84300    53.62700    117.82194    238.63244    42.40809
754.50000    64.05580    54.93553    124.38036    250.57705    43.61653
755.00000    64.26860    53.27432    130.93877    262.52166    44.82497
755.50000    64.95991    51.58829    137.49718    274.46627    46.03340
756.00000    65.69131    49.90227    144.05560    286.41088    47.24184
756.50000    66.42272    48.21624    145.21397    298.35549    48.45028
757.00000    67.15412    48.70690    145.46404    308.71229    49.65872
757.50000    67.88552    49.27701    145.71411    316.96830    50.86716
758.00000    66.92651    52.15462    145.96417    325.22431    52.07559
758.50000    65.90427    55.93164    146.21424    333.48031    53.28403
759.00000    64.88203    59.70866    146.46431    340.86004    54.49247
759.50000    63.85979    63.48567    146.71438    340.46370    55.70091
760.00000    64.29443    64.77160    146.96444    340.06735    56.90935
760.50000    65.73843    62.90847    147.21451    339.67100    58.11778
761.00000    67.42207    61.04534    147.46458    339.27466    59.32622
761.50000    69.10570    59.18221    147.71464    338.87831    60.53466
762.00000    68.72533    57.31908    148.78002    338.48196    61.74310
762.50000    67.98165    58.57884    149.92192    338.08561    62.95153
763.00000    67.00942    65.52674    151.06381    336.25814    64.15997
763.50000    64.85443    74.22187    152.20570    334.13045    65.36841
764.00000    62.69943    83.89363    153.34760    332.00276    66.57685
764.50000    60.54443    86.81982    154.48949    329.87507    67.78529
765.00000    59.41316    82.25029    155.63139    327.74738    68.99372
765.50000    59.56003    77.68077    156.77328    325.61969    70.20216
766.00000    58.54355    73.03820    157.91517    323.49200    70.83168
766.50000    57.52707    68.31286    159.05707    321.36431    70.93665
767.00000    56.51059    63.58752    160.19896    319.23662    71.04162
767.50000    56.02761    61.53582    162.32709    317.10893    71.14660
768.00000    55.65293    62.84651    166.42214    314.98124    71.25157
768.50000    55.27824    64.15719    170.51720    312.85355    71.35654
769.00000    54.90356    65.46788    174.61226    310.72586    71.46152
769.50000    54.45621    62.03366    178.70731    308.59817    71.56649
770.00000    53.55745    58.49697    182.80237    306.47048    71.67146
770.50000    52.65870    54.96028    186.89743    302.00561    71.77643
771.00000    52.48890    51.82312    189.57737    295.42234    71.44990
771.50000    53.01590    55.34390    188.42523    288.83907    69.65793
772.00000    53.54290    54.87929    187.27309    282.25580    67.86595
772.50000    54.10352    50.20958    186.12095    275.67253    66.07398
773.00000    54.74192    45.53988    184.96881    269.08926    64.28201
773.50000    55.59501    40.87017    172.77577    262.50599    62.49003
774.00000    57.95170    36.20046    157.09778    255.92272    60.69806
774.50000    60.30838    37.67046    141.41978    249.33945    58.90608
775.00000    61.31510    41.43268    125.74178    242.75618    57.11411
775.50000    62.15863    43.14709    110.06378    236.17291    55.32214
776.00000    63.00217    44.86150    99.43858    229.58964    54.07829
776.50000    62.87575    47.58567    98.95655    223.00637    53.33676
777.00000    61.86851    54.88397    98.58479    216.42310    52.59522
777.50000    60.54704    62.18228    98.21304    214.62519    51.85368
778.00000    58.66645    69.48058    97.84129    212.88566    51.11214
778.50000    56.78585    87.46799    97.46954    211.14613    50.37061
779.00000    54.90525    81.99498    97.09778    209.40660    49.62907
779.50000    55.29638    76.52197    96.72603    207.66707    48.88753
780.00000    56.08293    69.32777    96.40909    205.92754    48.14600
780.50000    57.08285    56.53840    96.37304    204.18800    47.40446
781.00000    58.21162    43.74903    96.33698    203.23505    46.66292
781.50000    59.45159    38.85795    96.30093    203.79271    45.92139
782.00000    60.99717    40.56023    96.26488    204.35037    45.17985
