###############################################
##         ENVERUS                           ##
##         ESS - Open Hole                   ##
##         PERMIAN / DELAWARE                ##
##         Nov 03 2023  V4.0                 ##
##         42-109-32978-00-00                ##
###############################################
## Copyright 2017-2023  ENVERUS.  All Rights Reserved. 
## Confidential - Property of ENVERUS, use governed by terms and 
## conditions found within the existing Information Services Subscription Agreement 
## (as may be amended, the “ISSA”) between Customer and ENVERUS. 
## 
~VERSION INFORMATION
# MNEM.UNIT                               DATA : DESCRIPTION OF MNEMONIC
#-----.-----     ----------------------------- : -----------------------------
VERS.                                     2.00 : CWLS LOG ASCII STANDARD - VERSION 2.00
WRAP.                                       NO : MULTIPLE LINES PER DEPTH STEP
VEND.                                  ENVERUS : VENDOR
TYPE.                          ESS - OPEN HOLE : ENVERUS ESSENTIAL CURVES – ACCESSIBLE THROUGH ENVERUS PRISM(TM)
DOC.                                  43644371 : ENVERUS HEADER RAW DOCUMENT ID
#___________________________________________________________________________________________________ 
~WELL INFORMATION 
# sF+t5dzO8TjfhJXm5BhYJSGKqyGjnVcKAr1GJS+XHP+EILfiOmlFF7qBSMjafOrEHsreRpz+nmfYFwcq0MlVOA== 
# MNEM.UNIT                                              DATA : DESCRIPTION OF MNEMONIC 
#-----.-----                    ----------------------------- : ----------------------------- 
CNTY.                                               CULBERSON : COUNTY 
STATE.                                                  TEXAS : STATE 
CNTRY.                                                    USA : COUNTRY 
API.                                             42-109-32978 : API (10 Digit) 
API_14.                                    42-109-32978-00-00 : API (14 Digits) 
API_14_std.                                 42-109-32978-0000 : API (14 Digits Standard) 
UWI.                                           42109329780000 : UNIQUE WELL ID 
WELL.                                    42109329780000_API14 : WELL NAME
STRT.FT                                                 179.0 : START DEPTH
STOP.FT                                                9893.5 : STOP DEPTH
STEP.FT                                                   0.5 : STEP BETWEEN DEPTHS
NULL.                                                 -999.25 : NULL VALUE
#___________________________________________________________________________________________________ 
~PARAMETER INFORMATION 
# MNEM.UNIT                                              DATA : DESCRIPTION OF MNEMONIC 
#-----.-----                    ----------------------------- : ----------------------------- 
EKB.FT                                                   3282 : ELEVATION ABOVE MSL
#___________________________________________________________________________________________________ 
~CURVE INFORMATION 
# MNEM.UNIT           : CURVE DESCRIPTION 
#-----.-----          : ----------------------------- 
 DEPT.FT               : MEASURED DEPTH 
 GR.API                : GAMMA RAY (GAMMA RAY) 
 DT.US/FT              : SONIC DELTA TRANSIT TIME (SONIC) 
 #___________________________________________________________________________________________________ 
~A         DEPT             GR             DT
# ...
          788.0         13.930        280.223
          788.5         16.295        280.223
          789.0         15.747        280.230
          789.5         13.461        280.223
          790.0         10.649        280.223
          790.5         10.493        280.223
          791.0         11.997        280.223
          791.5         13.502        280.223
          792.0         13.788        280.223
          792.5         13.371        280.223
          793.0         14.254        280.223
          793.5         15.042        280.223
          794.0         14.075        280.223
          794.5         12.571        280.223
          795.0         11.066        282.324
          795.5         10.446        283.566
          796.0         10.147        283.566
          796.5          9.610        283.566
          797.0         10.828        283.566
          797.5         14.022        283.566
          798.0         18.466        282.944
          798.5         17.936        281.337
          799.0         14.229        281.337
          799.5         11.735        281.337
          800.0         13.168        281.337
          800.5         14.672        281.337
          801.0         15.877        281.337
          801.5         15.328        281.337
          802.0         14.589        281.337
          802.5         15.042        281.337
          803.0         15.042        281.337
          803.5         14.743        281.337
          804.0         13.239        281.337
          804.5         12.535        281.337
          805.0         13.788        281.337
          805.5         15.090        281.337
          806.0         15.578        281.337
          806.5         14.624        281.337
          807.0         14.624        281.337
          807.5         14.840        281.337
          808.0         16.295        281.337
          808.5         16.713        281.337
          809.0         15.877        281.337
          809.5         15.042        281.337
          810.0         14.408        281.337
          810.5         13.837        281.337
          811.0         13.489        281.337
          811.5         13.085        281.337
          812.0         13.405        281.337
          812.5         12.117        281.337
          813.0         11.232        281.337
          813.5         11.881        281.337
          814.0         15.516        281.337
          814.5         16.747        281.337
          815.0         14.818        281.337
          815.5         10.740        281.337
          816.0          8.357        281.337
          816.5          8.907        281.337
          817.0          9.610        281.337
          817.5         11.506        281.337
          818.0         12.953        281.337
          818.5         12.953        281.337
          819.0         11.433        281.337
          819.5          9.610        281.337
          820.0         10.446        281.337
          820.5         11.749        281.337
          821.0         12.953        281.337
          821.5         12.401        281.337
          822.0         11.699        281.337
          822.5         12.334        281.337
          823.0         14.699        281.337
          823.5         16.596        281.337
          824.0         16.580        281.337
          824.5         16.295        281.337
          825.0         16.295        281.337
          825.5         15.410        281.337
          826.0         13.905        281.337
          826.5         13.371        281.337
          827.0         13.371        281.337
          827.5         13.788        281.337
          828.0         13.738        281.337
          828.5         13.371        281.337
          829.0         12.953        281.337
          829.5         12.920        281.337
          830.0         13.371        281.337
          830.5         12.484        281.337
          831.0         11.281        281.337
          831.5         10.729        281.337
          832.0         10.413        281.337
          832.5         11.499        281.337
          833.0         12.953        281.337
          833.5         13.371        281.337
          834.0         14.206        281.337
          834.5         15.427        281.337
          835.0         17.349        281.337
          835.5         18.392        281.337
          836.0         17.247        281.337
          836.5         16.161        281.337
          837.0         14.657        281.337
          837.5         13.152        282.742
          838.0         12.117        284.748
          838.5         11.281        285.237
          839.0         10.998        284.123
          839.5         13.097        284.123
          840.0         16.950        284.971
          840.5         19.220        284.577
          841.0         18.500        282.049
          841.5         15.958        280.780
          842.0         12.985        280.780
          842.5         11.918        280.780
          843.0         12.535        280.780
          843.5         12.535        280.780
          844.0         12.400        280.780
          844.5         12.117        280.780
          845.0         13.171        280.780
          845.5         14.624        280.780
          846.0         14.926        280.780
          846.5         14.907        280.780
          847.0         13.402        280.780
          847.5         12.316        280.780
          848.0         11.647        280.780
          848.5         12.002        280.780
          849.0         12.535        280.780
          849.5         12.921        280.780
          850.0         13.788        280.780
          850.5         13.788        280.780
          851.0         13.068        280.780
          851.5         11.287        280.780
          852.0         10.028        280.780
          852.5         10.028        280.780
          853.0         10.446        280.780
          853.5         10.864        280.780
          854.0         10.999        280.780
          854.5         11.668        280.780
          855.0         12.117        280.780
          855.5         11.647        280.780
          856.0         10.864        280.780
          856.5         11.694        280.780
          857.0         14.160        280.780
          857.5         15.042        280.780
          858.0         14.624        280.780
          858.5         13.903        280.780
          859.0         12.399        280.780
          859.5         10.894        280.780
          860.0         10.666        280.780
          860.5         12.405        280.780
          861.0         14.870        280.780
          861.5         15.323        280.780
          862.0         14.624        280.780
          862.5         13.568        280.780
          863.0         12.535        280.780
          863.5         12.535        280.780
          864.0         12.117        280.780
          864.5         13.310        280.780
          865.0         14.624        280.780
          865.5         13.788        280.780
          866.0         13.067        280.780
          866.5         11.980        280.780
          867.0         12.087        280.780
          867.5         12.314        280.780
          868.0         12.588        280.780
          868.5         14.245        280.780
          869.0         15.323        280.780
          869.5         15.042        280.780
          870.0         14.293        280.780
          870.5         12.953        280.780
          871.0         12.953        280.780
          871.5         14.272        280.780
          872.0         16.265        280.780
          872.5         16.074        280.780
          873.0         15.042        280.780
          873.5         14.929        280.780
          874.0         15.877        280.223
          874.5         15.295        280.223
