###############################################
##         ENVERUS                           ##
##         ESS - Open Hole                   ##
##         PERMIAN / DELAWARE                ##
##         Nov 03 2023  V4.0                 ##
##         42-109-32508-00-00                ##
###############################################
## Copyright 2017-2023  ENVERUS.  All Rights Reserved. 
## Confidential - Property of ENVERUS, use governed by terms and 
## conditions found within the existing Information Services Subscription Agreement 
## (as may be amended, the “ISSA”) between Customer and ENVERUS. 
## 
~VERSION INFORMATION
# MNEM.UNIT                               DATA : DESCRIPTION OF MNEMONIC
#-----.-----     ----------------------------- : -----------------------------
VERS.                                     2.00 : CWLS LOG ASCII STANDARD - VERSION 2.00
WRAP.                                       NO : MULTIPLE LINES PER DEPTH STEP
VEND.                                  ENVERUS : VENDOR
TYPE.                          ESS - OPEN HOLE : ENVERUS ESSENTIAL CURVES – ACCESSIBLE THROUGH ENVERUS PRISM(TM)
DOC.                                  51093165 : ENVERUS HEADER RAW DOCUMENT ID
#___________________________________________________________________________________________________ 
~WELL INFORMATION 
# 1l9uGBxUQQhBCtjIwzslcirW42fLV8cokTOAxV7sfA093x4JFuWG6+twQwU/7oNL7vvW02EVanlAmdL+peO2nw== 
# MNEM.UNIT                                              DATA : DESCRIPTION OF MNEMONIC 
#-----.-----                    ----------------------------- : ----------------------------- 
CNTY.                                               CULBERSON : COUNTY 
STATE.                                                  TEXAS : STATE 
CNTRY.                                                    USA : COUNTRY 
API.                                             42-109-32508 : API (10 Digit) 
API_14.                                    42-109-32508-00-00 : API (14 Digits) 
API_14_std.                                 42-109-32508-0000 : API (14 Digits Standard) 
UWI.                                           42109325080000 : UNIQUE WELL ID 
WELL.                                  LT. GIBSON 12 STATE 1H : WELL NAME
STRT.FT                                                1970.5 : START DEPTH
STOP.FT                                                8727.0 : STOP DEPTH
STEP.FT                                                   0.5 : STEP BETWEEN DEPTHS
NULL.                                                 -999.25 : NULL VALUE
PREV_APII.                                     42109325080000 : WELL IDENTIFIER
#___________________________________________________________________________________________________ 
~PARAMETER INFORMATION 
# MNEM.UNIT                                              DATA : DESCRIPTION OF MNEMONIC 
#-----.-----                    ----------------------------- : ----------------------------- 
EKB.FT                                                   3552 : ELEVATION ABOVE MSL
#___________________________________________________________________________________________________ 
~CURVE INFORMATION 
# MNEM.UNIT           : CURVE DESCRIPTION 
#-----.-----          : ----------------------------- 
 DEPT.FT               : MEASURED DEPTH 
 GR__A.API             : GAMMA RAY (GAMMA RAY) 
 DT__A.US/FT           : SONIC DELTA TRANSIT TIME (SONIC) 
 #___________________________________________________________________________________________________ 
~A         DEPT          GR__A          DT__A
# ...
         5972.5        216.625         60.982
         5973.0        236.373         58.819
         5973.5        232.438         65.269
         5974.0        206.555         76.119
         5974.5        149.845         86.844
         5975.0        167.753         94.604
         5975.5        184.130        105.369
         5976.0        180.143        114.538
         5976.5        159.515         82.398
         5977.0        151.953         80.312
         5977.5        170.163         79.157
         5978.0        185.823         73.376
         5978.5        187.574         70.602
         5979.0        182.809         70.370
         5979.5        205.172         71.093
         5980.0        212.278         69.810
         5980.5        228.947         59.586
         5981.0        221.405         54.062
         5981.5        215.625         51.097
         5982.0        213.119         49.529
         5982.5        212.109         48.911
         5983.0        214.063         53.216
         5983.5        211.926         53.399
         5984.0        225.660         49.959
         5984.5        267.212         35.697
         5985.0        279.998         30.832
         5985.5        290.666         29.042
         5986.0        286.764         39.182
         5986.5        248.894         47.511
         5987.0        202.927         54.842
         5987.5        207.472         51.996
         5988.0        215.325         40.976
         5988.5        225.481         42.735
         5989.0        229.444         42.251
         5989.5        255.788         40.192
         5990.0        284.316         35.972
         5990.5        316.797         33.272
         5991.0        301.164         32.033
         5991.5        262.868         38.385
         5992.0        239.905         48.905
         5992.5        214.265         55.786
         5993.0        217.132         60.284
         5993.5        240.459         63.610
         5994.0        224.581         66.546
         5994.5        148.207         79.272
         5995.0        131.638         98.350
         5995.5         98.067        117.283
         5996.0         81.604        131.453
         5996.5         55.282        137.723
         5997.0         65.746        140.579
         5997.5        114.819        137.817
         5998.0        137.362        114.190
         5998.5        210.495         91.012
         5999.0        245.914         70.626
         5999.5        266.420         74.562
         6000.0        230.251         78.194
         6000.5        202.661         81.416
         6001.0        216.412         82.261
         6001.5        254.159         45.555
         6002.0        270.623         37.152
         6002.5        265.012         42.634
         6003.0        230.633         56.444
         6003.5        171.869         67.643
         6004.0        164.916         74.712
         6004.5        191.738         81.618
         6005.0        205.231         88.425
         6005.5        215.695         82.112
         6006.0        222.728         67.390
         6006.5        251.307         47.215
         6007.0        285.008         35.859
         6007.5        307.462         44.349
         6008.0        289.686         58.975
         6008.5        184.270         76.017
         6009.0        144.657        107.626
         6009.5         82.453        129.793
         6010.0         67.087        144.156
         6010.5         43.846        157.418
         6011.0         36.773        139.095
         6011.5         32.813        131.661
         6012.0         39.605        128.920
         6012.5         61.084        126.809
         6013.0         89.839        123.279
         6013.5        149.927        111.405
         6014.0        172.164         95.795
         6014.5        274.639         77.590
         6015.0        302.306         53.037
         6015.5        312.298         49.311
         6016.0        309.896         52.855
         6016.5        266.539         54.659
         6017.0        224.022         56.305
         6017.5        206.598         58.848
         6018.0        257.491         61.635
         6018.5        264.168         65.197
         6019.0        252.436         72.130
         6019.5        281.924         73.842
         6020.0        301.603         70.263
         6020.5        303.293         69.201
         6021.0        257.006         68.111
         6021.5        245.225         56.118
         6022.0        245.787         50.877
         6022.5        221.051         54.438
         6023.0        190.098         63.376
         6023.5        206.398         66.396
         6024.0        232.319         64.717
         6024.5        223.281         66.759
         6025.0        184.600         69.644
         6025.5        126.733         98.833
         6026.0         97.266        118.752
         6026.5         50.609        137.113
         6027.0         29.420        138.956
         6027.5         33.839        137.702
         6028.0         49.282        132.930
         6028.5         95.423        111.205
         6029.0        167.868         90.036
         6029.5        224.254        156.341
         6030.0        226.550         96.247
         6030.5        233.196         31.404
         6031.0        252.557         31.189
         6031.5        276.213         34.550
         6032.0        297.656         43.315
         6032.5        276.068         45.433
         6033.0        228.316         46.784
         6033.5        217.188         43.119
         6034.0        214.791         46.604
         6034.5        188.063         66.646
         6035.0        184.835         71.471
         6035.5        203.062         66.710
         6036.0        221.826         56.664
         6036.5        242.255         50.504
         6037.0        264.069         44.877
         6037.5        285.285         42.580
         6038.0        286.328         41.521
         6038.5        269.825         43.320
         6039.0        261.576         50.823
         6039.5        274.368         55.361
         6040.0        282.573         55.556
         6040.5        281.013         56.025
         6041.0        259.714         59.704
         6041.5        232.981         68.254
         6042.0        212.317         77.122
         6042.5        179.369         87.801
         6043.0        169.341         91.137
         6043.5        189.661         93.970
         6044.0        188.705         95.537
         6044.5        130.402         96.296
         6045.0        133.780         95.052
         6045.5        147.897         92.008
         6046.0        149.957         92.008
         6046.5        141.987         92.203
         6047.0        145.204         94.939
         6047.5        120.058         94.327
         6048.0         98.094         90.612
         6048.5        107.359         88.744
         6049.0        142.884         89.140
         6049.5        167.409         92.730
         6050.0        169.846         98.093
         6050.5        126.780        104.982
         6051.0        113.386        110.377
         6051.5        116.329        113.060
         6052.0        132.769        109.790
         6052.5        143.466        106.114
         6053.0        144.767        103.160
         6053.5        134.442        100.409
         6054.0        134.364         99.426
         6054.5        152.677         98.637
         6055.0        157.807         97.853
         6055.5        156.377         95.886
         6056.0        145.681         92.323
         6056.5        122.626         97.976
         6057.0         86.161        108.278
         6057.5         54.912        123.693
         6058.0         46.875        133.968
         6058.5         46.812        141.419
         6059.0         43.361        143.151
