###############################################
##         ENVERUS                           ##
##         ESS - Open Hole                   ##
##         PERMIAN / DELAWARE                ##
##         Nov 02 2023  V4.0                 ##
##         42-109-00406-00-00                ##
###############################################
## Copyright 2017-2023  ENVERUS.  All Rights Reserved. 
## Confidential - Property of ENVERUS, use governed by terms and 
## conditions found within the existing Information Services Subscription Agreement 
## (as may be amended, the “ISSA”) between Customer and ENVERUS. 
## 
~VERSION INFORMATION
# MNEM.UNIT                               DATA : DESCRIPTION OF MNEMONIC
#-----.-----     ----------------------------- : -----------------------------
VERS.                                     2.00 : CWLS LOG ASCII STANDARD - VERSION 2.00
WRAP.                                       NO : MULTIPLE LINES PER DEPTH STEP
VEND.                                  ENVERUS : VENDOR
TYPE.                          ESS - OPEN HOLE : ENVERUS ESSENTIAL CURVES – ACCESSIBLE THROUGH ENVERUS PRISM(TM)
DOC.                                  31976272 : ENVERUS HEADER RAW DOCUMENT ID
#___________________________________________________________________________________________________ 
~WELL INFORMATION 
# f03iSNYnaQ7mQXX2RIaOYtiytuBBABKYYIB1smJtyZkBcGMChrfvYQpeE0DESEj4BN+caz3q2IoGlEPFhwFUwg== 
# MNEM.UNIT                                              DATA : DESCRIPTION OF MNEMONIC 
#-----.-----                    ----------------------------- : ----------------------------- 
CNTY.                                               CULBERSON : COUNTY 
STATE.                                                  TEXAS : STATE 
CNTRY.                                                    USA : COUNTRY 
API.                                             42-109-00406 : API (10 Digit) 
API_14.                                    42-109-00406-00-00 : API (14 Digits) 
API_14_std.                                 42-109-00406-0000 : API (14 Digits Standard) 
UWI.                                           42109004060000 : UNIQUE WELL ID 
WELL.                                                  DRD_55 : WELL NAME
STRT.FT                                                 100.5 : START DEPTH
STOP.FT                                               12629.5 : STOP DEPTH
STEP.FT                                                   0.5 : STEP BETWEEN DEPTHS
NULL.                                                 -999.25 : NULL VALUE
#___________________________________________________________________________________________________ 
~PARAMETER INFORMATION 
# MNEM.UNIT                                              DATA : DESCRIPTION OF MNEMONIC 
#-----.-----                    ----------------------------- : -----------------------------
#___________________________________________________________________________________________________ 
~CURVE INFORMATION 
# MNEM.UNIT           : CURVE DESCRIPTION 
#-----.-----          : ----------------------------- 
 DEPT.FT               : MEASURED DEPTH 
 GR__A.API             : GAMMA RAY (GAMMA RAY) 
 DT__A.US/FT           : SONIC DELTA TRANSIT TIME (SONIC) 
 #___________________________________________________________________________________________________ 
~A         DEPT          GR__A          DT__A
# ...
         2623.5         26.828         70.803
         2624.0         27.605         70.673
         2624.5         28.227         70.218
         2625.0         28.822         69.614
         2625.5         26.863         69.232
         2626.0         26.201         68.864
         2626.5         25.741         68.375
         2627.0         24.816         67.827
         2627.5         23.321         67.456
         2628.0         22.551         67.027
         2628.5         24.870         66.613
         2629.0         28.807         66.361
         2629.5         34.213         65.926
         2630.0         41.154         64.559
         2630.5         46.199         63.257
         2631.0         46.761         62.861
         2631.5         43.970         62.616
         2632.0         41.151         62.356
         2632.5         36.953         62.020
         2633.0         31.587         61.623
         2633.5         29.719         62.097
         2634.0         32.950         63.808
         2634.5         36.839         63.927
         2635.0         40.566         64.295
         2635.5         42.474         64.529
         2636.0         42.125         64.600
         2636.5         40.197         64.882
         2637.0         39.455         65.468
         2637.5         39.488         66.184
         2638.0         40.365         66.627
         2638.5         42.611         66.931
         2639.0         46.029         67.269
         2639.5         49.356         67.479
         2640.0         51.980         67.635
         2640.5         53.574         67.923
         2641.0         54.372         68.326
         2641.5         55.071         68.682
         2642.0         56.492         68.912
         2642.5         58.997         68.741
         2643.0         61.116         68.414
         2643.5         61.003         68.024
         2644.0         60.714         67.680
         2644.5         59.837         67.241
         2645.0         57.607         66.750
         2645.5         53.984         66.025
         2646.0         50.036         65.180
         2646.5         47.185         64.616
         2647.0         45.602         64.226
         2647.5         44.492         64.737
         2648.0         43.036         65.200
         2648.5         41.115         65.575
         2649.0         39.552         65.833
         2649.5         38.454         65.965
         2650.0         37.391         66.088
         2650.5         35.159         66.210
         2651.0         30.795         66.092
         2651.5         26.894         65.893
         2652.0         25.130         67.705
         2652.5         24.702         68.809
         2653.0         24.677         68.998
         2653.5         24.436         69.250
         2654.0         24.740         69.542
         2654.5         25.043         69.717
         2655.0         25.347         69.869
         2655.5         25.540         70.176
         2656.0         25.175         70.446
         2656.5         24.568         70.514
         2657.0         24.107         70.332
         2657.5         24.227         69.948
         2658.0         24.810         69.587
         2658.5         25.859         69.607
         2659.0         27.128         70.019
         2659.5         28.087         69.971
         2660.0         29.341         69.535
         2660.5         31.872         69.389
         2661.0         34.573         69.205
         2661.5         36.547         68.995
         2662.0         38.990         68.749
         2662.5         41.677         68.986
         2663.0         43.808         69.576
         2663.5         45.525         69.913
         2664.0         44.036         69.804
         2664.5         39.975         69.513
         2665.0         35.942         69.321
         2665.5         32.637         69.004
         2666.0         30.452         68.710
         2666.5         29.196         69.418
         2667.0         29.454         69.565
         2667.5         30.365         69.155
         2668.0         30.862         68.704
         2668.5         30.952         68.256
         2669.0         31.281         67.959
         2669.5         31.737         67.759
         2670.0         32.655         67.575
         2670.5         33.609         68.494
         2671.0         30.497         69.229
         2671.5         28.390         69.691
         2672.0         28.381         70.018
         2672.5         28.815         69.532
         2673.0         29.137         69.243
         2673.5         29.577         68.887
         2674.0         30.173         68.575
         2674.5         30.637         68.384
         2675.0         30.947         68.259
         2675.5         30.953         68.136
         2676.0         31.260         68.012
         2676.5         31.728         67.828
         2677.0         32.533         67.693
         2677.5         34.150         68.356
         2678.0         36.899         69.577
         2678.5         39.673         70.661
         2679.0         41.498         71.177
         2679.5         42.506         71.931
         2680.0         44.020         73.052
         2680.5         43.141         73.837
         2681.0         33.912         73.852
         2681.5         29.030         73.114
         2682.0         26.350         73.169
         2682.5         24.893         74.673
         2683.0         24.119         75.323
         2683.5         23.810         75.590
         2684.0         23.965         76.004
         2684.5         24.420         76.907
         2685.0         24.818         77.608
         2685.5         25.122         77.608
         2686.0         25.298         77.317
         2686.5         25.164         77.052
         2687.0         24.790         76.486
         2687.5         24.335         75.689
         2688.0         24.107         74.953
         2688.5         24.107         74.342
         2689.0         23.861         73.922
         2689.5         23.405         73.031
         2690.0         23.018         71.717
         2690.5         23.907         71.092
         2691.0         25.119         70.832
         2691.5         25.738         70.525
         2692.0         25.692         70.623
         2692.5         25.389         70.972
         2693.0         25.510         71.383
         2693.5         26.033         71.724
         2694.0         26.753         71.940
         2694.5         27.334         72.077
         2695.0         26.447         72.439
         2695.5         25.218         72.869
         2696.0         24.004         72.715
         2696.5         23.299         72.560
         2697.0         22.953         72.373
         2697.5         22.917         72.982
         2698.0         23.190         72.701
         2698.5         23.494         72.520
         2699.0         23.940         72.356
         2699.5         25.270         72.726
         2700.0         26.786         72.819
         2700.5         27.539         72.907
         2701.0         27.988         72.971
         2701.5         28.274         72.507
         2702.0         28.274         72.195
         2702.5         28.228         71.796
         2703.0         27.682         71.085
         2703.5         26.488         70.078
         2704.0         25.571         68.951
         2704.5         25.774         68.031
         2705.0         27.960         67.123
         2705.5         31.638         66.372
         2706.0         35.361         65.975
         2706.5         38.893         65.500
         2707.0         42.325         65.139
         2707.5         44.709         65.010
         2708.0         45.536         64.971
         2708.5         45.536         64.848
         2709.0         45.099         64.483
         2709.5         43.884         63.406
         2710.0         43.033         62.240
