~VERSION INFORMATION
VERS. 2.0 : CWLS Log ASCII Standard - version 2.0
WRAP.  NO : One line per depth step
#--------------------------------------------------#
#----------------DRILLING INFO, INC.---------------#
#---------------WWW.DRILLINGINFO.COM---------------#
#------------------COPYRIGHT 2015------------------#
#--------------------------------------------------#
#THIS FILE MAY BE USED ONLY IN ACCORDANCE WITH A CURRENT SUBSCRIPTION AGREEMENT BETWEEN
#THE USER AND DRILLING INFO, INC. NO PART OF THIS FILE MAY BE REPRODUCED, USED, COPIED,
#MODIFIED, PROPAGATED, OR DISTRIBUTED EXCEPT IN ACCORDANCE WITH THE SUBSCRIPTION
#AGREEMENT. UNAUTHORIZED USE OR DISTRIBUTION OF ALL OR ANY PART OF THIS FILE MAY VIOLATE
#COPYRIGHT, TRADEMARK, AND/OR OTHER LAWS AND IS SUBJECT TO CIVIL AS WELL AS CRIMINAL
#SANCTIONS.
#--------------------------------------------------#
#THIS FILE IS PROVIDED "AS-IS" AND ALL WARRANTIES ARE EXPRESSLY DISCLAIMED, WHETHER
#EXPRESS, ORAL, IMPLIED, STATUTORY OR OTHERWISE, INCLUDING ANY IMPLIED WARRANTY OF FITNESS
#FOR A PARTICULAR PURPOSE, MERCHANTABILITY, TITLE OR NON-INFRINGEMENT, AND ANY WARRANTIES
#ARISING BY VIRTUE OF CUSTOM OF TRADE OR COURSE OF DEALING.  FURTHER, DRILLING INFO,
#INC. AND ITS LICENSORS DO NOT REPRESENT OR WARRANT THAT THIS FILE WILL MEET USER'S
#REQUIREMENTS OR ARE SUITABLE FOR USER'S NEEDS OR THAT THE DATA OR RESULTS PROVIDED IN
#CONJUNCTION THEREWITH ARE CORRECT, ACCURATE, TIMELY OR RELIABLE. THESE DISCLAIMERS SHALL
#APPLY REGARDLESS OF ANY FAILURE OF ESSENTIAL PURPOSE OF ANY LIMITED REMEDY.  SOME
#JURISDICTIONS DO NOT ALLOW THE EXCLUSION OF CERTAIN WARRANTIES SO SOME OF THE ABOVE
#EXCLUSIONS MAY NOT APPLY. IN NO EVENT SHALL DRILLING INFO, INC. OR ANY OF ITS AFFILIATES
#BE LIABLE UNDER ANY LEGAL THEORY, WHETHER IN TORT (INCLUDING WITHOUT LIMITATION
#NEGLIGENCE), CONTRACT, STRICT LIABILITY, STATUTORY OR OTHERWISE, FOR ANY SPECIAL,
#INCIDENTAL, CONSEQUENTIAL, EXEMPLARY, PUNITIVE OR INDIRECT DAMAGE OF ANY KIND, INCLUDING
#WITHOUT LIMITATION LOSS OF REVENUE, PROFITS, GOODWILL, USE, AND/OR DATA OR THE COST OF
#PROCUREMENT OF SUBSTITUTE GOODS OR SERVICES, EVEN IF APPRISED OF THE POSSIBILITY OF SUCH
#DAMAGES IN ADVANCE.
#--------------------------------------------------#
~WELL INFORMATION
#MNEMONIC     .UNIT              VALUE :DESCRIPTION
#--------------------------------------------------#
STRT       .FT                0 :START DEPTH
STOP       .FT                10142 :STOP DEPTH
STEP       .FT                   0.500 :STEP
NULL       .                  -999.250 :NULL
API        .                421093138200 :API NUMBER
COMP       .         SHELL OIL COMPANY :COMPANY
WELL       .        SIBLEY  1 :WELL
DATE       .                08-Aug-1978 :LOG DATE
~CURVE INFORMATION
#MNEMONIC     .UNIT      API CODE :CURVE DESCRIPTION
#--------------------------------------------------#
DEPTH       .FT                      :Measured Depth
CAL.INCH        UNKNOWN   :CAL
DT.US/FT        UNKNOWN   :DT
GR.API        UNKNOWN   :GR
~A    DEPTH    CAL    DT    GR
# ...
 9979.5     8.986   59.63   89.35
 9980     8.989   59.689   88.364
 9980.5     8.993   59.803   85.833
 9981     8.998   59.917   84.913
 9981.5     9.002   60.031   83.992
 9982     9.006   60.145   83.072
 9982.5     9.011   60.398   81.646
 9983     9.015   61.967   86.221
 9983.5     9.02   63.535   90.796
 9984     9.024   65.103   94.065
 9984.5     9.029   66.672   96.181
 9985     9.033   68.24   98.297
 9985.5     9.038   69.808   101.504
 9986     9.035   69.589   107.611
 9986.5     9.033   67.925   113.718
 9987     9.03   65.902   119.825
 9987.5     9.028   63.879   125.932
 9988     9.025   62.553   132.038
 9988.5     9.023   61.863   134.824
 9989     9.02   61.828   124.421
 9989.5     9.018   64.004   114.017
 9990     9.015   66.18   104.48
 9990.5     9.013   68.355   108.937
 9991     9.011   69.152   113.394
 9991.5     9.008   68.231   117.851
 9992     9.006   67.311   122.308
 9992.5     9.003   66.391   126.765
 9993     9.001   65.47   131.222
 9993.5     8.998   64.55   135.679
 9994     8.996   65.073   135.635
 9994.5     8.987   65.868   121.949
 9995     8.974   66.58   108.263
 9995.5     8.96   66.775   107.281
 9996     8.947   66.96   107.985
 9996.5     8.934   66.847   108.689
 9997     8.921   66.735   109.393
 9997.5     8.907   66.622   122.278
 9998     8.894   66.51   129.539
 9998.5     8.892   65.6   136.799
 9999     8.903   64.666   144.06
 9999.5     8.914   63.732   151.321
 10000     8.925   62.799   158.582
 10000.5     8.936   62.763   165.843
 10001     8.947   62.862   173.104
 10001.5     8.958   61.277   180.365
 10002     8.963   59.245   187.626
 10002.5     8.958   57.213   194.887
 10003     8.953   55.181   198.604
 10003.5     8.948   53.149   189.631
 10004     8.943   51.886   169.519
 10004.5     8.938   51.728   25.739
 10005     8.933   51.571   26.424
 10005.5     8.929   51.532   29.558
 10006     8.929   52.041   33.842
 10006.5     8.935   52.55   38.126
 10007     8.941   53.059   42.41
 10007.5     8.947   53.569   46.694
 10008     8.952   54.078   43.62
 10008.5     8.958   53.776   39.9
 10009     8.964   53.433   35.704
 10009.5     8.966   52.721   30.028
 10010     8.951   51.735   30.87
 10010.5     8.935   51.1   31.712
 10011     8.919   51.125   32.554
 10011.5     8.904   51.151   33.396
 10012     8.888   51.176   37.07
 10012.5     8.881   51.401   42.438
 10013     8.875   52.321   47.806
 10013.5     8.87   53.24   49.549
 10014     8.864   54.16   49.661
 10014.5     8.858   54.902   45.616
 10015     8.853   54.17   40.706
 10015.5     8.847   53.439   39.265
 10016     8.841   52.707   38.072
 10016.5     8.835   51.975   36.879
 10017     8.829   51.931   35.686
 10017.5     8.823   51.945   35.224
 10018     8.817   51.96   37.593
 10018.5     8.81   52.079   39.961
 10019     8.804   52.583   42.33
 10019.5     8.798   53.087   44.698
 10020     8.8   53.31   44.916
 10020.5     8.802   52.132   41.609
 10021     8.804   51.347   38.917
 10021.5     8.807   51.307   37.366
 10022     8.809   51.266   39.251
 10022.5     8.811   51.563   41.592
 10023     8.813   51.903   43.933
 10023.5     8.815   52.802   46.274
 10024     8.818   54.848   53.212
 10024.5     8.82   56.895   60.307
 10025     8.822   58.941   67.401
 10025.5     8.824   60.041   73.677
 10026     8.826   60.523   79.415
 10026.5     8.829   61.004   85.153
 10027     8.831   61.485   90.891
 10027.5     8.833   61.966   96.315
 10028     8.835   62.091   97.713
 10028.5     8.833   61.658   102.702
 10029     8.83   61.256   107.424
 10029.5     8.827   61.744   112.147
 10030     8.823   62.231   116.87
 10030.5     8.82   62.719   121.593
 10031     8.816   65.177   126.316
 10031.5     8.813   67.658   131.038
 10032     8.81   70.14   135.761
 10032.5     8.828   72.349   140.484
 10033     8.851   74.352   145.207
 10033.5     8.873   76.354   149.929
 10034     8.895   78.356   154.652
 10034.5     8.918   80.358   159.375
 10035     8.94   81.239   164.098
 10035.5     8.953   81.821   168.821
 10036     8.945   82.538   173.543
 10036.5     8.938   84.04   178.266
 10037     8.93   85.542   182.989
 10037.5     8.922   87.043   187.712
 10038     8.914   88.345   192.363
 10038.5     8.906   88.827   191.424
 10039     8.898   89.31   190.485
 10039.5     8.89   89.793   189.546
 10040     8.882   90.276   188.606
 10040.5     8.887   90.376   190.543
 10041     8.892   90.332   195.212
 10041.5     8.896   89.975   199.881
 10042     8.901   89.619   200.197
 10042.5     8.906   89.262   200.193
 10043     8.91   88.906   200.189
 10043.5     8.915   88.561   200.185
 10044     8.919   88.454   200.181
 10044.5     8.924   88.348   200.176
 10045     8.932   88.134   200.172
 10045.5     8.939   87.497   200.168
 10046     8.947   87.058   200.164
 10046.5     8.955   87.133   200.16
 10047     8.923   87.302   200.156
 10047.5     8.878   87.837   200.152
 10048     8.832   88.371   200.148
 10048.5     8.787   88.827   200.144
 10049     8.796   88.799   200.14
 10049.5     8.812   88.771   200.136
 10050     8.828   88.743   200.132
 10050.5     8.843   88.715   200.128
 10051     8.859   88.688   200.124
 10051.5     8.875   88.745   200.12
 10052     8.89   88.823   200.116
 10052.5     8.906   88.901   200.112
 10053     8.909   88.79   200.108
 10053.5     8.89   88.478   200.103
 10054     8.871   88.167   200.099
 10054.5     8.851   87.987   200.095
 10055     8.832   87.862   200.091
 10055.5     8.812   87.737   200.087
 10056     8.793   87.104   200.083
 10056.5     8.774   85.859   200.079
 10057     8.754   84.614   200.075
 10057.5     8.735   83.369   200.071
 10058     8.715   83.305   200.067
 10058.5     8.696   83.463   200.063
 10059     8.677   83.621   200.059
 10059.5     8.657   82.859   200.055
 10060     8.654   82.006   200.051
 10060.5     8.651   81.152   200.047
 10061     8.648   80.298   200.043
 10061.5     8.644   80.024   200.039
 10062     8.652   79.913   200.034
 10062.5     8.672   79.802   200.03
 10063     8.691   79.582   200.026
 10063.5     8.711   78.587   200.022
 10064     8.731   77.592   200.018
 10064.5     8.745   76.597   200.014
 10065     8.748   76.238   200.01
 10065.5     8.751   76.739   200.006
 10066     8.754   77.24   200.002
 10066.5     8.757   77.741   199.998
 10067     8.76   78.242   199.994
 10067.5     8.763   78.743   199.99
 10068     8.766   79.244   199.986
 10068.5     8.769   79.219   199.982
 10069     8.772   79.122   199.978
 10069.5     8.77   79.025   199.974
 10070     8.742   79.064   199.97
 10070.5     8.715   79.591   199.966
 10071     8.688   79.546   199.961
 10071.5     8.675   78.849   199.957
 10072     8.698   78.528   199.953
 10072.5     8.721   78.501   199.949
 10073     8.743   78.474   199.945
 10073.5     8.766   78.447   199.941
 10074     8.789   78.087   199.937
 10074.5     8.758   77.675   199.933
 10075     8.717   77.568   199.929
 10075.5     8.677   77.751   199.925
 10076     8.636   78.552   199.921
 10076.5     8.595   78.991   199.917
 10077     8.555   78.834   199.913
 10077.5     8.514   78.677   199.909
 10078     8.51   78.601   199.905
 10078.5     8.561   78.82   199.901
 10079     8.612   78.916   199.897
 10079.5     8.663   77.968   199.893
 10080     8.714   77.02   199.888
 10080.5     8.741   76.072   199.884
 10081     8.741   76.361   199.88
 10081.5     8.741   77.034   199.876
 10082     8.741   77.707   199.872
 10082.5     8.741   78.096   199.868
 10083     8.74   78.326   199.864
 10083.5     8.74   78.557   199.86
 10084     8.74   78.788   199.856
 10084.5     8.74   79.378   199.852
 10085     8.74   80.468   199.848
 10085.5     8.74   81.558   199.844
 10086     8.74   82.648   199.84
 10086.5     8.74   83.232   199.836
 10087     8.74   83.558   199.832
 10087.5     8.74   83.884   199.828
 10088     8.74   84.21   199.824
 10088.5     8.74   84.535   199.819
 10089     8.74   84.861   199.815
 10089.5     8.74   85.033   199.811
 10090     8.74   85.132   199.807
