###############################################
##         ENVERUS                           ##
##         ESS - Open Hole                   ##
##         PERMIAN / DELAWARE                ##
##         Nov 02 2023  V4.0                 ##
##         42-109-31448-00-00                ##
###############################################
## Copyright 2017-2023  ENVERUS.  All Rights Reserved. 
## Confidential - Property of ENVERUS, use governed by terms and 
## conditions found within the existing Information Services Subscription Agreement 
## (as may be amended, the “ISSA”) between Customer and ENVERUS. 
## 
~VERSION INFORMATION
# MNEM.UNIT                               DATA : DESCRIPTION OF MNEMONIC
#-----.-----     ----------------------------- : -----------------------------
VERS.                                     2.00 : CWLS LOG ASCII STANDARD - VERSION 2.00
WRAP.                                       NO : MULTIPLE LINES PER DEPTH STEP
VEND.                                  ENVERUS : VENDOR
TYPE.                          ESS - OPEN HOLE : ENVERUS ESSENTIAL CURVES – ACCESSIBLE THROUGH ENVERUS PRISM(TM)
DOC.                                  31981796 : ENVERUS HEADER RAW DOCUMENT ID
#___________________________________________________________________________________________________ 
~WELL INFORMATION 
# ZFHslD71edIju97HcKZ52TF5U8X6gSJhIkoGhJkY8ckYnZzQD/y6zifgDis2Hn4asra90GxYkgpqCQaJUi2DCw== 
# MNEM.UNIT                                              DATA : DESCRIPTION OF MNEMONIC 
#-----.-----                    ----------------------------- : ----------------------------- 
CNTY.                                               CULBERSON : COUNTY 
STATE.                                                  TEXAS : STATE 
CNTRY.                                                    USA : COUNTRY 
API.                                             42-109-31448 : API (10 Digit) 
API_14.                                    42-109-31448-00-00 : API (14 Digits) 
API_14_std.                                 42-109-31448-0000 : API (14 Digits Standard) 
UWI.                                           42109314480000 : UNIQUE WELL ID 
WELL.                                               TRIKEN  1 : WELL NAME
STRT.FT                                                   4.0 : START DEPTH
STOP.FT                                               13097.0 : STOP DEPTH
STEP.FT                                                   0.5 : STEP BETWEEN DEPTHS
NULL.                                                 -999.25 : NULL VALUE
COMP.                                             MARALO  LLC : COMPANY 
DATE.                                             04-NOV-1984 : LOG DATE
#___________________________________________________________________________________________________ 
~CURVE INFORMATION 
# MNEM.UNIT           : CURVE DESCRIPTION 
#-----.-----          : ----------------------------- 
 DEPT.FT               : MEASURED DEPTH 
 CALI.IN               : CALIPER (CAL - CAL) 
 GR.API                : GAMMA RAY (GR) 
 DT.US/FT              : SONIC DELTA TRANSIT TIME (DT) 
 #___________________________________________________________________________________________________ 
~A         DEPT           CALI             GR             DT
# ...
         8122.0          9.949         73.901         62.990
         8122.5          9.949         72.627         63.891
         8123.0          9.949         71.353         64.791
         8123.5          9.949         70.078         65.691
         8124.0          9.949         68.804         66.333
         8124.5          9.949         62.513         66.000
         8125.0          9.949         55.316         65.667
         8125.5          9.949         48.120         65.334
         8126.0          9.949         40.923         63.622
         8126.5          9.950         33.727         61.623
         8127.0          9.953         33.309         59.625
         8127.5          9.955         41.251         57.626
         8128.0          9.958         49.192         55.627
         8128.5          9.961         57.133         55.849
         8129.0          9.964         65.075         57.001
         8129.5          9.966         72.870         58.152
         8130.0          9.969         78.480         59.304
         8130.5          9.972         78.327         60.455
         8131.0          9.974         72.934         61.607
         8131.5          9.977         67.540         62.758
         8132.0          9.980         62.147         63.910
         8132.5          9.982         56.754         65.061
         8133.0          9.985         51.360         66.213
         8133.5          9.988         45.967         65.545
         8134.0          9.990         40.573         63.909
         8134.5          9.993         44.862         62.273
         8135.0          9.996         51.418         60.637
         8135.5          9.998         57.973         59.001
         8136.0         10.001         64.528         57.365
         8136.5         10.004         71.084         55.729
         8137.0         10.007         75.895         57.485
         8137.5         10.009         78.340         59.932
         8138.0         10.012         80.785         62.380
         8138.5         10.015         83.230         64.827
         8139.0         10.017         82.980         67.275
         8139.5         10.020         80.739         67.281
         8140.0         10.022         78.499         66.857
         8140.5         10.020         76.258         66.434
         8141.0         10.019         72.819         66.010
         8141.5         10.018         68.918         65.587
         8142.0         10.016         65.016         65.964
         8142.5         10.015         61.114         66.574
         8143.0         10.013         57.750         66.881
         8143.5         10.012         59.532         66.301
         8144.0         10.011         61.314         65.721
         8144.5         10.009         63.096         65.141
         8145.0         10.008         64.878         64.577
         8145.5         10.007         66.660         64.870
         8146.0         10.005         68.442         65.162
         8146.5         10.004         64.516         65.454
         8147.0         10.003         60.190         65.747
         8147.5         10.001         55.864         65.684
         8148.0         10.000         59.725         65.539
         8148.5          9.999         65.026         65.394
         8149.0          9.997         70.327         65.248
         8149.5          9.996         75.604         65.404
         8150.0          9.994         73.171         65.769
         8150.5          9.992         70.738         66.135
         8151.0          9.989         68.305         66.500
         8151.5          9.987         65.872         66.588
         8152.0          9.985         63.439         66.225
         8152.5          9.982         61.007         65.862
         8153.0          9.980         58.859         65.499
         8153.5          9.978         60.726         65.136
         8154.0          9.975         62.593         64.773
         8154.5          9.973         64.459         64.778
         8155.0          9.971         66.326         65.214
         8155.5          9.966         68.192         65.649
         8156.0          9.953         70.059         66.085
         8156.5          9.940         70.918         66.520
         8157.0          9.927         65.383         66.956
         8157.5          9.914         59.848         67.018
         8158.0          9.902         54.314         66.806
         8158.5          9.889         48.779         66.595
         8159.0          9.876         43.244         66.383
         8159.5          9.863         37.710         66.172
         8160.0          9.850         44.822         65.033
         8160.5          9.838         52.339         63.089
         8161.0          9.825         59.856         61.145
         8161.5          9.812         71.444         59.493
         8162.0          9.799         83.532         61.142
         8162.5          9.787         84.193         62.791
         8163.0          9.774         76.823         64.439
         8163.5          9.761         69.452         66.088
         8164.0          9.748         62.082         65.301
         8164.5          9.735         54.711         64.297
         8165.0          9.723         60.612         63.294
         8165.5          9.717         67.110         62.291
         8166.0          9.722         73.608         61.288
         8166.5          9.727         70.961         62.053
         8167.0          9.733         67.059         63.218
         8167.5          9.738         63.157         64.384
         8168.0          9.743         59.255         64.369
         8168.5          9.748         55.353         63.048
         8169.0          9.753         51.451         61.728
         8169.5          9.758         47.549         60.407
         8170.0          9.763         52.218         59.628
         8170.5          9.768         57.415         60.886
         8171.0          9.773         62.613         62.144
         8171.5          9.778         67.176         63.401
         8172.0          9.783         65.648         64.061
         8172.5          9.789         64.120         64.631
         8173.0          9.794         62.592         65.122
         8173.5          9.799         61.064         65.471
         8174.0          9.804         61.358         65.819
         8174.5          9.809         63.700         66.168
         8175.0          9.814         66.042         66.516
         8175.5          9.819         68.384         66.864
         8176.0          9.824         65.318         66.843
         8176.5          9.829         59.776         66.403
         8177.0          9.834         63.725         65.962
         8177.5          9.840         67.674         65.521
         8178.0          9.845         71.608         65.080
         8178.5          9.850         66.926         64.639
         8179.0          9.855         62.245         64.198
         8179.5          9.860         57.564         63.757
         8180.0          9.863         53.811         63.317
         8180.5          9.863         55.422         62.876
         8181.0          9.863         57.033         62.435
         8181.5          9.863         58.645         61.994
         8182.0          9.863         60.256         61.553
         8182.5          9.863         61.867         61.112
         8183.0          9.863         63.478         60.964
         8183.5          9.863         65.089         64.475
         8184.0          9.863         66.700         66.249
         8184.5          9.863         68.311         65.814
         8185.0          9.863         69.731         65.379
         8185.5          9.862         71.130         64.943
         8186.0          9.862         72.530         64.667
         8186.5          9.854         72.033         64.998
         8187.0          9.844         71.141         65.329
         8187.5          9.834         70.249         65.660
