###############################################
##         ENVERUS                           ##
##         ESS - Open Hole                   ##
##         PERMIAN / DELAWARE                ##
##         Nov 02 2023  V4.0                 ##
##         42-109-31550-00-00                ##
###############################################
## Copyright 2017-2023  ENVERUS.  All Rights Reserved. 
## Confidential - Property of ENVERUS, use governed by terms and 
## conditions found within the existing Information Services Subscription Agreement 
## (as may be amended, the “ISSA”) between Customer and ENVERUS. 
## 
~VERSION INFORMATION
# MNEM.UNIT                               DATA : DESCRIPTION OF MNEMONIC
#-----.-----     ----------------------------- : -----------------------------
VERS.                                     2.00 : CWLS LOG ASCII STANDARD - VERSION 2.00
WRAP.                                       NO : MULTIPLE LINES PER DEPTH STEP
VEND.                                  ENVERUS : VENDOR
TYPE.                          ESS - OPEN HOLE : ENVERUS ESSENTIAL CURVES – ACCESSIBLE THROUGH ENVERUS PRISM(TM)
DOC.                                  22584426 : ENVERUS HEADER RAW DOCUMENT ID
#___________________________________________________________________________________________________ 
~WELL INFORMATION 
# ASdzl/zqz3tyMoI2i40d5lqA861uk+/GXWRvioHJ4uiq1sQ7a4yIDDt4z64Puw3+ifUTTkKIB4eyCaXtXAsvCw== 
# MNEM.UNIT                                              DATA : DESCRIPTION OF MNEMONIC 
#-----.-----                    ----------------------------- : ----------------------------- 
CNTY.                                               CULBERSON : COUNTY 
STATE.                                                  TEXAS : STATE 
CNTRY.                                                    USA : COUNTRY 
API.                                             42-109-31550 : API (10 Digit) 
API_14.                                    42-109-31550-00-00 : API (14 Digits) 
API_14_std.                                 42-109-31550-0000 : API (14 Digits Standard) 
UWI.                                           42109315500000 : UNIQUE WELL ID 
WELL.                                       UNIVERSITY_6-46-1 : WELL NAME
STRT.FT                                                 249.5 : START DEPTH
STOP.FT                                               10300.0 : STOP DEPTH
STEP.FT                                                   0.5 : STEP BETWEEN DEPTHS
NULL.                                                 -999.25 : NULL VALUE
COMP.                                    MONSANTO OIL COMPANY : COMPANY 
FLD.                                                  WILDCAT : FIELD 
DATE.                                              10/31/2016 : DATE 
TVD.                                                       NO : TVD FLAG 
WSTA.                                                     LOC : WELL STATUS
#___________________________________________________________________________________________________ 
~PARAMETER INFORMATION 
# MNEM.UNIT                                              DATA : DESCRIPTION OF MNEMONIC 
#-----.-----                    ----------------------------- : ----------------------------- 
RUN.                                                      ONE : RUN NUMBER 
PDAT.                                                      GL : PERMANENT DATUM 
LMF.                                            KELLY BUSHING : LOG MEASURED FROM
#___________________________________________________________________________________________________ 
~CURVE INFORMATION 
# MNEM.UNIT           : CURVE DESCRIPTION 
#-----.-----          : ----------------------------- 
 DEPT.FT               : MEASURED DEPTH 
 DT.US/FT              : SONIC DELTA TRANSIT TIME (DELTA-T) 
 RESS_LL.OHMM          : SHALLOW LATEROLOG (LLS - LATERO-LOG SHALLOW (RESISTIVITY)) 
 RESD_LL.OHMM          : DEEP LATEROLOG (LLD - LATERO-LOG DEEP (RESISTIVITY)) 
 #___________________________________________________________________________________________________ 
~A         DEPT             DT        RESS_LL        RESD_LL
# ...
         2229.5         62.839       817.7432       787.4919
         2230.0         61.995       605.2158       554.9401
         2230.5         60.713       531.4115       482.9972
         2231.0         60.168       492.0223       473.3222
         2231.5         60.377       482.9972       501.4150
         2232.0         61.665       437.1346       501.7648
         2232.5         63.290       394.4700       450.4814
         2233.0         63.801       312.6078       347.8815
         2233.5         64.433       245.7408       250.6445
         2234.0         64.824       200.8344       207.8761
         2234.5         64.463       201.6706       187.7489
         2235.0         63.892       188.3429       189.5965
         2235.5         63.561       198.8127       195.0105
         2236.0         63.719       200.8254       186.1548
         2236.5         64.373       192.7808       191.3967
         2237.0         65.336       171.2747       179.3882
         2237.5         66.510       153.2682       163.5283
         2238.0         66.982       141.0169       149.0705
         2238.5         67.230       135.8910       137.1548
         2239.0         67.351       128.5494       132.1693
         2239.5         67.683       129.7449       128.5494
         2240.0         67.954       121.6045       127.3650
         2240.5         68.164       118.6111       125.0288
         2241.0         68.375       116.1045       123.8767
         2241.5         67.954       112.9247       123.9628
         2242.0         67.156       111.8842       122.8800
         2242.5         67.021       110.8533       120.3865
         2243.0         67.713       107.8173       120.5647
         2243.5         68.405       104.0761       120.4799
         2244.0         68.917       102.8089       116.6553
         2244.5         69.519       101.6212       113.9792
         2245.0         69.910       100.3366       112.6245
         2245.5         70.244        99.1990       111.3070
         2246.0         70.472        96.4822       108.8280
         2246.5         70.688        91.2697       104.8644
         2247.0         70.718        92.1184       105.1728
         2247.5         70.662        89.5955       105.6238
         2248.0         70.752        89.5955       105.8396
         2248.5         70.963        89.5802       105.8396
         2249.0         70.933        89.5955       105.8396
         2249.5         70.662        89.5955       104.8644
         2250.0         71.068        89.5992       102.9409
         2250.5         71.595        89.5784       101.9924
         2251.0         72.166        89.4960       102.0008
         2251.5         72.618        87.8136       100.1128
         2252.0         72.588        87.8969       100.0638
         2252.5         72.287        87.9753       101.0526
         2253.0         72.377        88.7352       103.8982
         2253.5         72.648        90.4507       105.8396
         2254.0         72.528        90.4495       106.8522
         2254.5         72.136        91.2697       106.8085
         2255.0         71.836        91.2697       106.8235
         2255.5         71.444        91.2697       106.8432
         2256.0         70.963        94.7124       105.2096
         2256.5         71.083        89.5955       102.5057
         2257.0         71.685        86.3388        99.8830
         2257.5         72.398        83.9741        97.3330
         2258.0         73.267        83.2004        96.4643
         2258.5         73.498        80.9217        96.5000
         2259.0         73.822        77.9233        92.9960
         2259.5         74.032        75.9936        93.5312
         2260.0         74.273        78.7330        94.1723
         2260.5         74.092        78.7055        94.8108
         2261.0         73.641        85.5433        95.4505
         2261.5         73.551        84.7551        96.0945
         2262.0         73.611        84.7551        96.7428
         2262.5         73.490        80.9217        97.3794
         2263.0         72.828        89.5955       107.8884
         2263.5         71.926        88.7700       116.1045
         2264.0         70.782        96.4822       119.3739
         2264.5         70.090       100.1215       121.6045
         2265.0         70.030       100.1522       117.6734
         2265.5         70.692        96.4276       112.2628
         2266.0         71.512        90.5376       108.0037
         2266.5         71.324        88.7700       103.8982
         2267.0         70.903        88.7700       105.5743
         2267.5         70.662        91.2697       107.8173
         2268.0         70.722        92.9751       109.3824
         2268.5         70.692        92.9751       110.9781
         2269.0         70.661        92.9751       111.8842
         2269.5         70.691        92.9751       109.6343
         2270.0         70.961        92.1184       108.3676
         2270.5         71.233        90.5725       107.4154
         2271.0         71.596        89.5955       106.4715
         2271.5         71.898        90.4287       105.8396
         2272.0         71.926        89.5955       107.7431
         2272.5         71.470        92.1184       109.8254
         2273.0         70.752        92.9751       109.5764
         2273.5         70.211        92.9751       109.1028
         2274.0         70.241        92.9751       108.2598
         2274.5         70.602        91.2697       106.9128
         2275.0         70.963        92.1184       105.5717
         2275.5         70.963        92.1184       104.8646
         2276.0         70.542        92.1184       105.3801
         2276.5         69.970        92.8069       105.7350
         2277.0         69.488        96.3549       108.3305
         2277.5         69.037       100.1215       111.9593
         2278.0         69.368       101.9924       120.4840
         2278.5         69.819       100.9940       117.1842
         2279.0         70.481       100.2026       113.9748
         2279.5         70.843        98.2033       106.8238
         2280.0         70.782        98.2223       107.8173
         2280.5         70.572        98.3356       107.8173
         2281.0         70.361       100.1215       110.8533
         2281.5         70.241       102.9409       115.0347
         2282.0         69.819       105.2924       118.0736
         2282.5         69.609       109.8319       122.8827
         2283.0         69.579       111.8842       121.5134
         2283.5         69.910       109.9900       121.6189
         2284.0         70.181       108.7526       118.6887
         2284.5         70.180       107.8751       117.7163
         2285.0         69.794       107.7193       117.1860
         2285.5         69.470       111.8842       123.2724
         2286.0         68.537       116.7166       132.4632
         2286.5         67.472       130.2605       142.3283
         2287.0         66.750       126.8984       146.3361
         2287.5         66.179       134.7485       147.6970
         2288.0         66.173       134.6066       144.9976
         2288.5         66.570       130.8955       143.6494
         2289.0         66.329       130.8781       145.8878
         2289.5         65.396       134.7067       148.3812
         2290.0         64.965       143.5633       162.7731
         2290.5         64.705       151.8560       177.7353
         2291.0         64.617       157.5841       181.0564
         2291.5         64.587       157.5841       172.7795
         2292.0         64.772       151.8560       165.3579
         2292.5         65.005       147.6970       159.9983
         2293.0         65.005       143.6519       155.7883
         2293.5         64.885       143.6519       154.4607
         2294.0         65.005       142.3283       153.2682
         2294.5         65.577       139.7176       150.1441
         2295.0         66.239       138.4302       147.3500
