~VERSION INFORMATION
VERS. 2.0 : CWLS Log ASCII Standard - version 2.0
WRAP.  NO : One line per depth step
#--------------------------------------------------#
#----------------DRILLING INFO, INC.---------------#
#---------------WWW.DRILLINGINFO.COM---------------#
#------------------COPYRIGHT 2015------------------#
#--------------------------------------------------#
#THIS FILE MAY BE USED ONLY IN ACCORDANCE WITH A CURRENT SUBSCRIPTION AGREEMENT BETWEEN
#THE USER AND DRILLING INFO, INC. NO PART OF THIS FILE MAY BE REPRODUCED, USED, COPIED,
#MODIFIED, PROPAGATED, OR DISTRIBUTED EXCEPT IN ACCORDANCE WITH THE SUBSCRIPTION
#AGREEMENT. UNAUTHORIZED USE OR DISTRIBUTION OF ALL OR ANY PART OF THIS FILE MAY VIOLATE
#COPYRIGHT, TRADEMARK, AND/OR OTHER LAWS AND IS SUBJECT TO CIVIL AS WELL AS CRIMINAL
#SANCTIONS.
#--------------------------------------------------#
#THIS FILE IS PROVIDED "AS-IS" AND ALL WARRANTIES ARE EXPRESSLY DISCLAIMED, WHETHER
#EXPRESS, ORAL, IMPLIED, STATUTORY OR OTHERWISE, INCLUDING ANY IMPLIED WARRANTY OF FITNESS
#FOR A PARTICULAR PURPOSE, MERCHANTABILITY, TITLE OR NON-INFRINGEMENT, AND ANY WARRANTIES
#ARISING BY VIRTUE OF CUSTOM OF TRADE OR COURSE OF DEALING.  FURTHER, DRILLING INFO,
#INC. AND ITS LICENSORS DO NOT REPRESENT OR WARRANT THAT THIS FILE WILL MEET USER'S
#REQUIREMENTS OR ARE SUITABLE FOR USER'S NEEDS OR THAT THE DATA OR RESULTS PROVIDED IN
#CONJUNCTION THEREWITH ARE CORRECT, ACCURATE, TIMELY OR RELIABLE. THESE DISCLAIMERS SHALL
#APPLY REGARDLESS OF ANY FAILURE OF ESSENTIAL PURPOSE OF ANY LIMITED REMEDY.  SOME
#JURISDICTIONS DO NOT ALLOW THE EXCLUSION OF CERTAIN WARRANTIES SO SOME OF THE ABOVE
#EXCLUSIONS MAY NOT APPLY. IN NO EVENT SHALL DRILLING INFO, INC. OR ANY OF ITS AFFILIATES
#BE LIABLE UNDER ANY LEGAL THEORY, WHETHER IN TORT (INCLUDING WITHOUT LIMITATION
#NEGLIGENCE), CONTRACT, STRICT LIABILITY, STATUTORY OR OTHERWISE, FOR ANY SPECIAL,
#INCIDENTAL, CONSEQUENTIAL, EXEMPLARY, PUNITIVE OR INDIRECT DAMAGE OF ANY KIND, INCLUDING
#WITHOUT LIMITATION LOSS OF REVENUE, PROFITS, GOODWILL, USE, AND/OR DATA OR THE COST OF
#PROCUREMENT OF SUBSTITUTE GOODS OR SERVICES, EVEN IF APPRISED OF THE POSSIBILITY OF SUCH
#DAMAGES IN ADVANCE.
#--------------------------------------------------#
~WELL INFORMATION
#MNEMONIC     .UNIT              VALUE :DESCRIPTION
#--------------------------------------------------#
STRT       .FT                0 :START DEPTH
STOP       .FT                10142 :STOP DEPTH
STEP       .FT                   0.500 :STEP
NULL       .                  -999.250 :NULL
API        .                421093138200 :API NUMBER
COMP       .         SHELL OIL COMPANY :COMPANY
WELL       .        SIBLEY  1 :WELL
DATE       .                08-Aug-1978 :LOG DATE
~CURVE INFORMATION
#MNEMONIC     .UNIT      API CODE :CURVE DESCRIPTION
#--------------------------------------------------#
DEPTH       .FT                      :Measured Depth
CAL.INCH        UNKNOWN   :CAL
DT.US/FT        UNKNOWN   :DT
GR.API        UNKNOWN   :GR
~A    DEPTH    CAL    DT    GR
# ...
 697.5     13.088   68.107   47.618
 698     13.084   68.462   49.272
 698.5     13.081   68.729   50.927
 699     13.077   68.378   52.401
 699.5     13.074   68.027   50.462
 700     13.071   67.672   48.523
 700.5     13.067   66.523   46.583
 701     13.064   65.375   45.392
 701.5     13.06   64.764   46.958
 702     13.057   65.232   48.025
 702.5     13.054   65.701   47.331
 703     13.05   66.169   46.637
 703.5     13.047   66.362   45.942
 704     13.044   66.343   49.703
 704.5     13.04   66.323   55.684
 705     13.037   66.304   59.542
 705.5     13.033   67.528   59.576
 706     13.03   69.406   59.611
 706.5     13.027   69.933   59.645
 707     13.023   69.877   59.603
 707.5     13.02   69.82   56.413
 708     13.017   69.764   54.698
 708.5     13.013   69.708   54.426
 709     13.01   69.948   54.153
 709.5     13.006   70.308   53.88
 710     13.003   70.526   53.607
 710.5     13   70.351   53.334
 711     12.996   70.176   53.061
 711.5     12.993   70   52.788
 712     12.99   69.825   52.515
 712.5     12.986   69.234   52.242
 713     12.983   68.62   51.969
 713.5     12.979   68.005   54.025
 714     12.976   68.233   56.692
 714.5     12.973   69.302   59.359
 715     12.969   70.372   59.146
 715.5     12.966   71.441   56.735
 716     12.963   72.398   54.324
 716.5     12.959   71.151   51.913
 717     12.954   69.695   51.838
 717.5     12.948   68.165   53.293
 718     12.941   66.635   54.732
 718.5     12.935   65.105   55.642
 719     12.929   65.959   56.553
 719.5     12.922   66.832   57.464
 720     12.916   67.706   58.375
 720.5     12.909   67.958   60.736
 721     12.903   67.559   63.248
 721.5     12.897   67.16   65.761
 722     12.89   68.258   100.251
 722.5     12.884   69.493   99.903
 723     12.878   70.728   99.555
 723.5     12.876   71.941   95.693
 724     12.878   69.407   83.041
 724.5     12.879   66.872   70.388
 725     12.881   64.338   57.736
 725.5     12.882   61.804   63.13
 726     12.884   59.27   73.708
 726.5     12.885   60.893   84.286
 727     12.887   64.478   81.044
 727.5     12.888   68.063   72.035
 728     12.89   69.266   63.902
 728.5     12.891   68.324   63.908
 729     12.893   67.383   63.914
 729.5     12.894   66.442   63.92
 730     12.896   65.5   65.019
 730.5     12.897   65.849   67.911
 731     12.899   67.768   70.803
 731.5     12.9   69.687   73.695
 732     12.902   70.189   67.454
 732.5     12.903   68.862   60.528
 733     12.905   67.535   53.602
 733.5     12.906   66.207   48.754
 734     12.908   64.88   49.066
 734.5     12.909   64.368   49.378
 735     12.911   64.193   52.199
 735.5     12.912   64.017   55.461
 736     12.914   63.842   58.723
 736.5     12.915   64.425   74.015
 737     12.917   66.177   89.489
 737.5     12.918   67.93   94.192
 738     12.92   69.682   94.47
 738.5     12.921   70.208   84.146
 739     12.923   70.003   78.329
 739.5     12.924   69.798   72.724
 740     12.926   69.593   67.118
 740.5     12.927   69.388   61.745
 741     12.929   68.689   57.145
 741.5     12.93   66.636   52.546
 742     12.932   64.584   51.028
 742.5     12.933   62.531   58.328
 743     12.935   60.863   65.629
 743.5     12.936   63.541   66.022
 744     12.938   66.219   65.395
 744.5     12.939   68.481   64.769
 745     12.941   68.008   62.112
 745.5     12.942   67.534   55.348
 746     12.944   66.984   50.773
 746.5     12.945   65.728   52.035
 747     12.947   64.473   53.298
 747.5     12.948   63.334   54.561
 748     12.95   64.192   55.083
 748.5     12.951   65.049   55.43
 749     12.953   65.907   53.338
 749.5     12.954   66.764   51.209
 750     12.956   65.684   49.08
 750.5     12.957   64.439   46.951
 751     12.959   64.055   47.219
 751.5     12.96   63.672   48.367
 752     12.962   63.288   49.515
 752.5     12.963   62.904   51.645
 753     12.965   63.275   56.792
 753.5     12.966   64.323   61.938
 754     12.968   65.371   67.085
 754.5     12.979   66.418   72.232
 755     13.001   67.466   77.193
 755.5     13.023   68.202   71.985
 756     13.045   68.319   66.776
 756.5     13.067   68.409   64.53
 757     13.089   67.565   63.144
 757.5     13.111   66.72   61.757
 758     13.133   66.855   57.734
 758.5     13.155   67.446   52.767
 759     13.178   66.775   47.799
 759.5     13.2   65.636   44.896
 760     13.222   64.497   43.059
 760.5     13.244   63.357   41.223
 761     13.266   62.894   39.386
 761.5     13.288   64.03   38.228
 762     13.297   65.165   41.36
 762.5     13.302   65.892   43.382
 763     13.308   65.342   42.887
 763.5     13.313   65.074   42.393
 764     13.319   65.632   41.898
 764.5     13.324   66.189   41.404
 765     13.33   66.747   42.242
 765.5     13.335   67.305   43.348
 766     13.341   67.862   42.213
 766.5     13.347   68.42   40.507
 767     13.352   67.803   38.801
 767.5     13.358   66.892   37.095
 768     13.363   65.981   37.21
 768.5     13.369   65.071   38.282
 769     13.374   64.16   39.355
 769.5     13.38   63.653   41.174
 770     13.385   64.343   43.255
 770.5     13.391   65.034   45.336
 771     13.396   65.724   47.417
 771.5     13.402   65.853   49.498
 772     13.408   65.922   51.224
 772.5     13.413   66.038   51.718
 773     13.419   66.981   52.213
 773.5     13.424   67.924   52.707
 774     13.43   68.867   58.541
 774.5     13.435   69.679   64.894
 775     13.441   70.329   68.705
 775.5     13.458   70.978   69.596
 776     13.491   71.628   70.486
 776.5     13.524   72.381   72.189
 777     13.557   73.249   77.195
 777.5     13.59   73.713   76.264
 778     13.623   73.454   70.064
 778.5     13.656   73.194   63.864
 779     13.689   73.358   57.664
 779.5     13.722   73.691   55.01
 780     13.755   73.756   54.926
 780.5     13.788   73.115   54.841
 781     13.76   72.475   54.756
 781.5     13.732   71.834   54.672
 782     13.704   72.874   54.587
 782.5     13.676   74.182   54.503
 783     13.648   75.489   86.142
 783.5     13.62   76.797   102.799
 784     13.592   75.802   102.091
 784.5     13.564   74.248   93.838
 785     13.536   72.694   82.379
 785.5     13.508   71.14   70.919
 786     13.48   69.586   63.488
 786.5     13.452   68.033   58.082
 787     13.424   66.479   52.676
 787.5     13.396   66.681   47.27
 788     13.368   67.257   42.169
 788.5     13.34   67.672   41.306
 789     13.312   67.545   40.443
 789.5     13.285   67.418   41.831
 790     13.257   67.291   43.865
 790.5     13.229   67.164   45.899
 791     13.201   67.037   47.933
 791.5     13.173   67.47   47.494
 792     13.145   68.06   46.816
 792.5     13.117   67.95   46.141
 793     13.096   67.691   46.619
 793.5     13.101   67.431   47.097
 794     13.107   67.809   53.888
 794.5     13.112   68.529   61.431
 795     13.118   69.249   68.974
 795.5     13.123   69.969   74.018
 796     13.129   69.631   72.56
 796.5     13.134   68.564   71.102
 797     13.14   67.496   69.644
 797.5     13.145   69.046   70.893
 798     13.151   70.867   72.517
 798.5     13.157   69.634   71.673
 799     13.154   68.154   66.032
 799.5     13.149   66.674   60.391
 800     13.143   65.681   54.75
 800.5     13.138   66.748   49.11
 801     13.133   67.815   48.019
 801.5     13.127   68.882   49.672
 802     13.122   69.044   51.325
 802.5     13.117   68.008   51.49
 803     13.111   66.971   50.31
 803.5     13.106   68.006   49.131
 804     13.101   69.806   47.952
 804.5     13.095   69.833   51.012
 805     13.09   69.312   54.81
 805.5     13.081   68.792   56.056
 806     13.069   68.271   55.508
 806.5     13.057   67.75   55.614
 807     13.045   68.308   56.98
 807.5     13.034   66.978   58.071
 808     13.022   65.647   54.305
 808.5     13.01   64.316   50.539
 809     12.998   63.513   46.773
 809.5     12.986   64.721   43.194
 810     12.975   65.928   45.869
 810.5     12.963   65.566   48.147
 811     12.951   64.907   48.397
 811.5     12.939   64.249   48.648
 812     12.927   63.591   48.899
 812.5     12.915   62.933   49.15
