~VERSION INFORMATION
VERS. 2.0 : CWLS Log ASCII Standard - Version 2.0
WRAP. NO : One line per depth step
#--------------------------------------------------#
#----------------DRILLING INFO, INC.---------------#
#---------------WWW.DRILLINGINFO.COM---------------#
#------------------COPYRIGHT 2015------------------#
#--------------------------------------------------#
#THIS FILE MAY BE USED ONLY IN ACCORDANCE WITH A CURRENT SUBSCRIPTION AGREEMENT BETWEEN
#THE USER AND DRILLING INFO, INC. NO PART OF THIS FILE MAY BE REPRODUCED, USED, COPIED,
#MODIFIED, PROPAGATED, OR DISTRIBUTED EXCEPT IN ACCORDANCE WITH THE SUBSCRIPTION
#AGREEMENT. UNAUTHORIZED USE OR DISTRIBUTION OF ALL OR ANY PART OF THIS FILE MAY VIOLATE
#COPYRIGHT, TRADEMARK, AND/OR OTHER LAWS AND IS SUBJECT TO CIVIL AS WELL AS CRIMINAL
#SANCTIONS.
#--------------------------------------------------#
#THIS FILE IS PROVIDED "AS-IS" AND ALL WARRANTIES ARE EXPRESSLY DISCLAIMED, WHETHER
#EXPRESS, ORAL, IMPLIED, STATUTORY OR OTHERWISE, INCLUDING ANY IMPLIED WARRANTY OF FITNESS
#FOR A PARTICULAR PURPOSE, MERCHANTABILITY, TITLE OR NON-INFRINGEMENT, AND ANY WARRANTIES
#ARISING BY VIRTUE OF CUSTOM OF TRADE OR COURSE OF DEALING.  FURTHER, DRILLING INFO,
#INC. AND ITS LICENSORS DO NOT REPRESENT OR WARRANT THAT THIS FILE WILL MEET USER'S
#REQUIREMENTS OR ARE SUITABLE FOR USER'S NEEDS OR THAT THE DATA OR RESULTS PROVIDED IN
#CONJUNCTION THEREWITH ARE CORRECT, ACCURATE, TIMELY OR RELIABLE. THESE DISCLAIMERS SHALL
#APPLY REGARDLESS OF ANY FAILURE OF ESSENTIAL PURPOSE OF ANY LIMITED REMEDY.  SOME
#JURISDICTIONS DO NOT ALLOW THE EXCLUSION OF CERTAIN WARRANTIES SO SOME OF THE ABOVE
#EXCLUSIONS MAY NOT APPLY. IN NO EVENT SHALL DRILLING INFO, INC. OR ANY OF ITS AFFILIATES
#BE LIABLE UNDER ANY LEGAL THEORY, WHETHER IN TORT (INCLUDING WITHOUT LIMITATION
#NEGLIGENCE), CONTRACT, STRICT LIABILITY, STATUTORY OR OTHERWISE, FOR ANY SPECIAL,
#INCIDENTAL, CONSEQUENTIAL, EXEMPLARY, PUNITIVE OR INDIRECT DAMAGE OF ANY KIND, INCLUDING
#WITHOUT LIMITATION LOSS OF REVENUE, PROFITS, GOODWILL, USE, AND/OR DATA OR THE COST OF
#PROCUREMENT OF SUBSTITUTE GOODS OR SERVICES, EVEN IF APPRISED OF THE POSSIBILITY OF SUCH
#DAMAGES IN ADVANCE.
#--------------------------------------------------#
~WELL INFORMATION
#MNEMONIC     .UNIT              VALUE :DESCRIPTION
#--------------------------------------------------#
STRT       .ft                51.00000 :START DEPTH
STOP       .ft                9476.00000 :STOP DEPTH
STEP       .ft                0.50000 :STEP
NULL       .                -999.25000 :NULL VALUE
COMP       .                 :COMPANY
WELL       .                 :WELL
FLD       .                 :FIELD
LOC       .                 :LOCATION
CNTY       .                 :COUNTY
STAT       .                 :STATE
CTRY       .                 :COUNTRY
SRVC       .                 :SERVICE COMPANY
DATE       .                 :DATE
API       .                42109100520000 :API NUMBER
~CURVE INFORMATION
#MNEMONIC     .UNIT      API CODE :CURVE DESCRIPTION
#--------------------------------------------------#
DEPTH       .ft                      :Measured Depth
CAL       .in        UNKNOWN   :CAL
DT       .us/ft        UNKNOWN   :DT
GR       .gAPI        UNKNOWN   :GR
~A    DEPTH    CAL    DT    GR
# ...
9422.00000    6.58705    86.46686    169.32614
9422.50000    6.57728    85.80574    151.53591
9423.00000    6.56752    85.68600    146.96516
9423.50000    6.55775    86.36224    142.39441
9424.00000    6.54798    87.03849    137.82365
9424.50000    6.53821    87.71473    133.25289
9425.00000    6.52844    86.14389    128.68214
9425.50000    6.51867    85.55832    134.12667
9426.00000    6.50891    86.85281    142.87449
9426.50000    6.49914    88.14730    151.62231
9427.00000    6.48937    91.40692    160.37013
9427.50000    6.47960    96.10355    169.11795
9428.00000    6.46983    98.44605    177.86577
9428.50000    6.46869    98.65449    180.73436
9429.00000    6.47403    98.86292    183.07329
9429.50000    6.47938    98.48709    185.41222
9430.00000    6.48472    97.11639    187.75115
9430.50000    6.48882    95.74568    190.09008
9431.00000    6.48857    94.37498    192.07211
9431.50000    6.48831    93.32430    189.38143
9432.00000    6.48806    93.50292    186.69075
9432.50000    6.48781    93.68154    184.00007
9433.00000    6.48756    93.79343    181.30939
9433.50000    6.48730    92.61597    144.45124
9434.00000    6.48705    91.43851    146.02878
9434.50000    6.48680    90.26105    147.60631
9435.00000    6.48655    89.08359    149.18385
9435.50000    6.48384    87.90613    150.76139
9436.00000    6.47533    87.10535    152.33893
9436.50000    6.46681    87.43390    152.58183
9437.00000    6.45830    87.76246    144.26511
9437.50000    6.44978    87.58791    135.94838
9438.00000    6.44126    83.32694    127.63166
9438.50000    6.43275    79.06597    104.01085
9439.00000    6.42423    74.80501    73.40358
9439.50000    6.41572    70.54404    59.90968
9440.00000    6.40720    66.28307    76.54516
9440.50000    6.39869    65.85699    93.18064
9441.00000    6.39017    69.81815    109.81612
9441.50000    6.38841    72.37752    111.20439
9442.00000    6.39277    72.71903    104.93256
9442.50000    6.39712    73.06053    103.08450
9443.00000    6.40147    73.40204    106.00634
9443.50000    6.40583    73.74354    108.92818
9444.00000    6.41018    74.08505    111.85001
9444.50000    6.41454    78.31043    114.59389
9445.00000    6.41889    78.46923    112.78561
9445.50000    6.42324    79.72161    110.97734
9446.00000    6.42760    81.50347    112.15095
9446.50000    6.43195    83.28533    114.46708
9447.00000    6.44133    85.06718    116.78322
9447.50000    6.45086    84.85528    119.09935
9448.00000    6.46039    84.52343    120.76328
9448.50000    6.46992    84.19158    121.03885
9449.00000    6.47944    83.85973    121.31441
9449.50000    6.48897    83.52788    121.58998
9450.00000    6.49850    82.01506    119.56265
9450.50000    6.50803    77.94467    117.50867
9451.00000    6.51756    73.87429    115.45469
9451.50000    6.52709    72.25812    113.40071
9452.00000    6.53662    72.98467    111.34674
9452.50000    6.54615    73.71121    109.29276
9453.00000    6.55567    74.43775    113.95960
9453.50000    6.56520    75.16429    120.46169
9454.00000    6.57151    82.15252    125.60375
9454.50000    6.52329    82.63285    130.74580
9455.00000    6.47507    83.11318    133.29443
9455.50000    6.42685    83.59351    131.85745
9456.00000    6.37863    84.07384    130.42048
9456.50000    6.33041    84.55417    128.98351
9457.00000    6.28219    85.03450    129.94563
9457.50000    6.23397    85.51483    132.08343
9458.00000    6.18575    85.99516    134.22123
9458.50000    6.16545    85.76582    130.74829
9459.00000    6.18083    85.28429    125.34830
9459.50000    6.19621    84.80276    119.94832
9460.00000    6.21159    84.32124    120.67025
9460.50000    6.22697    83.83971    124.71734
9461.00000    6.24235    84.29529    126.50932
9461.50000    6.25773    84.87070    127.04638
9462.00000    6.27311    85.44611    127.58343
9462.50000    6.28849    86.02151    128.12049
9463.00000    6.30387    86.59692    128.24373
9463.50000    6.31924    87.17233    127.58229
9464.00000    6.33462    87.74774    126.92084
9464.50000    6.35000    87.43112    126.70717
9465.00000    6.33368    86.99701    126.89929
9465.50000    6.31725    86.56290    127.09141
9466.00000    6.30082    86.71474    127.28354
9466.50000    6.28439    87.17466    127.47566
9467.00000    6.26796    87.63458    127.66778
9467.50000    6.25153    88.09450    127.85990
9468.00000    6.23510    88.55443    127.72188
9468.50000    6.21867    89.01435    127.07685
9469.00000    6.20224    89.47427    126.43181
9469.50000    -999.25000    89.93419    -999.25000
9470.00000    -999.25000    90.39411    -999.25000
9470.50000    -999.25000    90.53527    -999.25000
9471.00000    -999.25000    89.85494    -999.25000
9471.50000    -999.25000    89.17461    -999.25000
9472.00000    -999.25000    88.49428    -999.25000
9472.50000    -999.25000    87.81395    -999.25000
9473.00000    -999.25000    87.13362    -999.25000
9473.50000    -999.25000    86.45329    -999.25000
9474.00000    -999.25000    85.77296    -999.25000
9474.50000    -999.25000    85.09263    -999.25000
9475.00000    -999.25000    84.41230    -999.25000
9475.50000    -999.25000    83.73197    -999.25000
9476.00000    -999.25000    83.05164    -999.25000
