###############################################
##         ENVERUS                           ##
##         ESS - Open Hole                   ##
##         PERMIAN / DELAWARE                ##
##         Nov 02 2023  V4.0                 ##
##         42-109-10429-00-00                ##
###############################################
## Copyright 2017-2023  ENVERUS.  All Rights Reserved. 
## Confidential - Property of ENVERUS, use governed by terms and 
## conditions found within the existing Information Services Subscription Agreement 
## (as may be amended, the “ISSA”) between Customer and ENVERUS. 
## 
~VERSION INFORMATION
# MNEM.UNIT                               DATA : DESCRIPTION OF MNEMONIC
#-----.-----     ----------------------------- : -----------------------------
VERS.                                     2.00 : CWLS LOG ASCII STANDARD - VERSION 2.00
WRAP.                                       NO : MULTIPLE LINES PER DEPTH STEP
VEND.                                  ENVERUS : VENDOR
TYPE.                          ESS - OPEN HOLE : ENVERUS ESSENTIAL CURVES – ACCESSIBLE THROUGH ENVERUS PRISM(TM)
DOC.                                  32032754 : ENVERUS HEADER RAW DOCUMENT ID
#___________________________________________________________________________________________________ 
~WELL INFORMATION 
# hXqYWT5FmhW7UEcPXxReyvN++rqgSwBrBdup88XCyeQNQmx1Fo1vv7xYmZNr9HC+TZh0ltY2ePdKOSE9Z1hlZw== 
# MNEM.UNIT                                              DATA : DESCRIPTION OF MNEMONIC 
#-----.-----                    ----------------------------- : ----------------------------- 
CNTY.                                               CULBERSON : COUNTY 
STATE.                                                  TEXAS : STATE 
CNTRY.                                                    USA : COUNTRY 
API.                                             42-109-10429 : API (10 Digit) 
API_14.                                    42-109-10429-00-00 : API (14 Digits) 
API_14_std.                                 42-109-10429-0000 : API (14 Digits Standard) 
UWI.                                           42109104290000 : UNIQUE WELL ID 
WELL.                                          ROUNSAVILLE  1 : WELL NAME
STRT.FT                                                     0 : START DEPTH
STOP.FT                                                8409.0 : STOP DEPTH
STEP.FT                                                   0.5 : STEP BETWEEN DEPTHS
NULL.                                                 -999.25 : NULL VALUE
COMP.                                     EOG RESOURCES  INC. : COMPANY
#___________________________________________________________________________________________________ 
~CURVE INFORMATION 
# MNEM.UNIT           : CURVE DESCRIPTION 
#-----.-----          : ----------------------------- 
 DEPT.FT               : MEASURED DEPTH 
 CALI.IN               : CALIPER (CAL - CAL) 
 GR.API                : GAMMA RAY (GR) 
 SP.MV                 : SPONTANEOUS POTENTIAL (SP) 
 DT.US/FT              : SONIC DELTA TRANSIT TIME (DT) 
 RESD.OHMM             : DEEP INDUCTION RESISTIVITY (ILD - ILD) 
 #___________________________________________________________________________________________________ 
~A         DEPT           CALI             GR             SP             DT           RESD
# ...
         3564.0         13.028         41.906        -45.372         65.681         60.793
         3564.5         13.031         42.717        -45.563         66.929         56.492
         3565.0         13.039         43.528        -45.755         67.144         55.309
         3565.5         13.047         43.212        -45.947         67.011         54.462
         3566.0         13.055         42.829        -46.138         66.877         53.615
         3566.5         13.064         40.466        -45.558         66.744         52.768
         3567.0         13.071         38.627        -44.922         67.379         51.921
         3567.5         13.078         38.356        -44.286         68.044         51.074
         3568.0         13.085         39.408        -43.650         68.709         50.227
         3568.5         13.091         41.564        -43.014         69.373         49.380
         3569.0         13.098         43.720        -42.904         69.630         48.533
         3569.5         13.105         45.876        -43.198         69.634         47.686
         3570.0         13.100         48.031        -43.492         69.637         47.045
         3570.5         13.074         47.502        -43.866         69.641         47.813
         3571.0         13.049         46.104        -44.289         69.644         48.580
         3571.5         13.032         44.731        -44.750         69.648         49.347
         3572.0         13.031         43.396        -45.403         69.651         50.115
         3572.5         13.029         42.062        -46.056         68.856         50.882
         3573.0         13.028         40.728        -46.710         67.882         51.650
         3573.5         13.027         39.394        -47.363         66.907         52.417
         3574.0         13.026         38.060        -47.790         66.210         53.185
         3574.5         13.024         36.725        -47.898         66.480         53.952
         3575.0         13.023         36.793        -48.006         67.244         54.974
         3575.5         13.022         39.009        -48.099         67.675         57.677
         3576.0         13.027         41.224        -48.102         67.880         60.381
         3576.5         13.031         42.474        -48.105         67.413         63.085
         3577.0         13.035         42.018        -47.794         66.234         65.789
         3577.5         13.040         41.479        -46.953         65.506         68.492
         3578.0         13.031         40.784        -46.112         65.243         71.196
         3578.5         13.015         40.693        -45.271         64.823         73.900
         3579.0         12.999         40.601        -44.771         64.135         76.603
         3579.5         12.983         40.018        -45.037         63.448         77.294
         3580.0         12.967         39.413        -45.302         62.760         76.792
         3580.5         13.014         38.808        -45.649         62.072         76.291
         3581.0         13.090         38.779        -46.032         61.675         75.789
         3581.5         13.167         39.101        -46.414         62.518         74.821
         3582.0         13.130         39.423        -46.797         63.362         73.834
         3582.5         13.073         39.745        -47.179         64.205         72.847
         3583.0         13.015         40.068        -47.562         64.527         71.861
         3583.5         12.998         40.390        -47.944         64.499         70.874
         3584.0         12.990         40.712        -48.326         64.471         69.887
         3584.5         12.982         41.034        -48.329         64.465         68.902
         3585.0         12.974         41.356        -48.332         64.475         67.918
         3585.5         12.967         41.678        -48.336         64.485         66.934
         3586.0         12.959         42.894        -48.339         64.495         65.950
         3586.5         12.951         44.399        -48.438         64.505         64.966
         3587.0         12.957         44.349        -49.361         64.515         63.982
         3587.5         13.000         41.598        -50.284         64.525         62.998
         3588.0         13.044         38.847        -51.207         64.791         62.014
         3588.5         13.087         37.625        -52.128         65.589         61.030
         3589.0         12.975         39.164        -51.743         66.386         60.046
         3589.5         12.858         40.703        -51.358         67.183         59.062
         3590.0         12.929         42.242        -50.974         67.556         58.078
         3590.5         13.032         43.781        -50.589         67.872         57.919
         3591.0         13.063         45.348        -50.205         68.671         58.312
         3591.5         13.068         46.934        -49.820         70.006         58.705
         3592.0         13.074         48.520        -49.750         71.342         59.447
         3592.5         13.080         49.930        -49.753         72.678         61.762
         3593.0         13.085         48.880        -49.756         72.772         64.077
         3593.5         13.091         47.830        -49.682         71.647         66.392
         3594.0         13.096         46.780        -49.575         70.320         68.707
         3594.5         13.087         45.729        -49.469         69.092         71.022
         3595.0         13.058         44.679        -49.362         68.984         73.337
         3595.5         13.029         43.629        -49.256         68.876         75.653
         3596.0         13.001         43.773        -49.149         68.768         77.968
         3596.5         12.972         44.088        -49.043         68.660         83.342
         3597.0         13.011         44.403        -48.936         69.153         89.004
         3597.5         13.051         44.440        -49.367         69.606         94.667
         3598.0         13.091         44.428        -49.873         69.434        100.329
         3598.5         13.105         44.887        -50.379         69.262        105.991
         3599.0         13.085         45.629        -50.886         67.772        110.720
         3599.5         13.064         42.936        -50.601         65.893        106.849
         3600.0         13.044         39.747        -50.099         64.013        102.979
         3600.5         13.023         36.558        -49.596         62.430         99.108
         3601.0         13.003         36.577        -49.094         61.267         94.138
         3601.5         12.993         37.916        -49.000         62.455         89.054
         3602.0         13.096         39.256        -49.071         63.643         83.970
         3602.5         13.116         40.595        -49.142         64.830         78.886
         3603.0         13.029         41.934        -49.214         66.018         73.802
         3603.5         12.942         43.273        -49.285         67.205         68.717
         3604.0         12.981         44.613        -49.451         68.393         65.719
         3604.5         13.040         45.952        -49.669         69.011         64.813
         3605.0         13.097         46.250        -49.887         69.226         63.907
         3605.5         13.051         46.433        -50.105         69.441         63.001
         3606.0         13.005         46.252        -50.322         69.656         62.096
         3606.5         12.959         45.410        -50.540         69.871         61.190
         3607.0         12.954         44.567        -50.758         69.384         60.284
         3607.5         12.964         43.725        -50.637         68.829         60.976
