###############################################
##         ENVERUS                           ##
##         ESS - Open Hole                   ##
##         PERMIAN / DELAWARE                ##
##         Nov 02 2023  V4.0                 ##
##         42-109-10429-00-00                ##
###############################################
## Copyright 2017-2023  ENVERUS.  All Rights Reserved. 
## Confidential - Property of ENVERUS, use governed by terms and 
## conditions found within the existing Information Services Subscription Agreement 
## (as may be amended, the “ISSA”) between Customer and ENVERUS. 
## 
~VERSION INFORMATION
# MNEM.UNIT                               DATA : DESCRIPTION OF MNEMONIC
#-----.-----     ----------------------------- : -----------------------------
VERS.                                     2.00 : CWLS LOG ASCII STANDARD - VERSION 2.00
WRAP.                                       NO : MULTIPLE LINES PER DEPTH STEP
VEND.                                  ENVERUS : VENDOR
TYPE.                          ESS - OPEN HOLE : ENVERUS ESSENTIAL CURVES – ACCESSIBLE THROUGH ENVERUS PRISM(TM)
DOC.                                  32032754 : ENVERUS HEADER RAW DOCUMENT ID
#___________________________________________________________________________________________________ 
~WELL INFORMATION 
# hXqYWT5FmhW7UEcPXxReyvN++rqgSwBrBdup88XCyeQNQmx1Fo1vv7xYmZNr9HC+TZh0ltY2ePdKOSE9Z1hlZw== 
# MNEM.UNIT                                              DATA : DESCRIPTION OF MNEMONIC 
#-----.-----                    ----------------------------- : ----------------------------- 
CNTY.                                               CULBERSON : COUNTY 
STATE.                                                  TEXAS : STATE 
CNTRY.                                                    USA : COUNTRY 
API.                                             42-109-10429 : API (10 Digit) 
API_14.                                    42-109-10429-00-00 : API (14 Digits) 
API_14_std.                                 42-109-10429-0000 : API (14 Digits Standard) 
UWI.                                           42109104290000 : UNIQUE WELL ID 
WELL.                                          ROUNSAVILLE  1 : WELL NAME
STRT.FT                                                     0 : START DEPTH
STOP.FT                                                8409.0 : STOP DEPTH
STEP.FT                                                   0.5 : STEP BETWEEN DEPTHS
NULL.                                                 -999.25 : NULL VALUE
COMP.                                     EOG RESOURCES  INC. : COMPANY
#___________________________________________________________________________________________________ 
~CURVE INFORMATION 
# MNEM.UNIT           : CURVE DESCRIPTION 
#-----.-----          : ----------------------------- 
 DEPT.FT               : MEASURED DEPTH 
 CALI.IN               : CALIPER (CAL - CAL) 
 GR.API                : GAMMA RAY (GR) 
 SP.MV                 : SPONTANEOUS POTENTIAL (SP) 
 DT.US/FT              : SONIC DELTA TRANSIT TIME (DT) 
 RESD.OHMM             : DEEP INDUCTION RESISTIVITY (ILD - ILD) 
 #___________________________________________________________________________________________________ 
~A         DEPT           CALI             GR             SP             DT           RESD
# ...
         7832.0          9.264         52.630        -12.424         77.299         40.153
         7832.5          9.231         53.689        -12.027         82.792         38.333
         7833.0          9.199         54.036        -11.630         85.977         36.950
         7833.5          9.183         52.651        -11.802         76.987         36.212
         7834.0          9.167         53.771        -12.191         72.543         35.474
         7834.5          9.161         55.905        -12.581         72.225         34.736
         7835.0          9.190         58.039        -12.970         71.919         33.998
         7835.5          9.220         59.019        -13.360         72.248         31.744
         7836.0          9.250         57.699        -13.750         72.577         29.206
         7836.5          9.279         54.094        -14.139         72.905         26.667
         7837.0          9.309         50.489        -14.529         73.234         24.129
         7837.5          9.338         52.040        -14.918         72.573         21.803
         7838.0          9.321         52.286        -15.131         73.450         19.607
         7838.5          9.243         51.954        -15.073         75.074         17.412
         7839.0          9.257         52.218        -15.015         77.192         15.216
         7839.5          9.489         53.277        -14.956         79.310         13.021
         7840.0          9.481         55.336        -14.898         81.335         11.085
         7840.5          9.477         67.916        -14.840         83.250         10.718
         7841.0          9.712         71.435        -14.781         85.166         10.351
         7841.5          9.679         72.173        -14.723         86.483          9.984
         7842.0          9.646         71.433        -14.665         86.356          9.915
         7842.5          9.681         70.694        -14.606         85.528         10.366
         7843.0          9.771         63.756        -14.548         84.470         10.816
         7843.5          9.745         62.636        -14.287         83.177         11.280
         7844.0          9.710         63.181        -13.617         82.950         12.119
         7844.5          9.675         64.266        -12.947         82.706         12.959
         7845.0          9.640         66.540        -12.277         81.124         13.798
         7845.5          9.781         67.333        -11.607         81.917         14.637
         7846.0          9.940         68.127        -11.096         82.565         15.477
         7846.5          9.963         67.215        -10.967         82.349         16.355
         7847.0          9.900         65.608        -10.838         81.004         17.410
         7847.5          9.836         66.434        -10.709         79.658         18.465
         7848.0          9.638         68.162        -10.580         78.901         19.520
         7848.5          9.440         69.889        -10.451         80.160         20.575
         7849.0          9.352         69.950        -10.322         81.420         22.489
         7849.5          9.486         69.277        -10.193         81.474         25.276
         7850.0          9.621         69.319        -10.064         81.442         27.718
         7850.5          9.551         70.696         -9.935         80.844         28.598
         7851.0          9.429         68.726         -9.828         80.225         29.477
         7851.5          9.273         72.140         -9.738         79.400         30.414
         7852.0          9.099         75.553         -9.648         78.387         32.746
         7852.5          9.079         75.427         -9.557         78.837         35.078
         7853.0          9.121         72.975         -9.467         79.621         38.711
         7853.5          9.164         70.524         -9.376         82.238         42.491
         7854.0          9.184         68.847         -9.286         83.798         46.271
         7854.5          9.120         70.176         -9.458         81.173         50.051
         7855.0          9.056         72.201         -9.804         80.108         53.866
         7855.5          8.991         69.925        -10.151         80.207         57.729
         7856.0          9.090         67.293        -10.497         79.305         61.591
         7856.5          9.166         64.661        -10.843         73.980         64.519
         7857.0          9.116         62.028        -11.189         72.117         60.629
         7857.5          9.085         63.613        -11.536         72.691         56.534
         7858.0          9.058         64.694        -11.622         73.265         52.005
         7858.5          9.031         62.205        -11.541         73.839         47.475
         7859.0          9.001         59.427        -11.459         74.443         45.445
         7859.5          8.972         57.724        -11.377         75.072         44.444
         7860.0          8.987         59.533        -11.699         75.700         43.444
         7860.5          9.009         61.909        -12.174         76.329         42.878
         7861.0          9.031         64.869        -12.649         76.463         43.168
         7861.5          9.053         67.158        -13.124         76.517         43.458
         7862.0          9.074         67.427        -13.308         76.571         43.748
         7862.5          9.096         66.585        -12.629         76.625         44.038
         7863.0          9.118         65.276        -11.950         76.674         44.900
         7863.5          9.114         64.765        -11.653         75.124         45.764
         7864.0          9.105         64.547        -11.679         74.025         46.629
         7864.5          9.096         61.862        -11.705         75.170         47.493
         7865.0          9.088         61.086        -11.732         76.314         48.357
         7865.5          9.079         63.586        -11.758         75.871         48.387
         7866.0          9.116         66.087        -11.784         73.852         48.305
         7866.5          9.156         66.469        -11.810         68.947         48.224
         7867.0          9.197         65.159        -11.837         72.391         48.142
         7867.5          9.144         63.541        -11.863         75.582         48.060
         7868.0          9.078         62.690        -11.889         75.179         47.571
         7868.5          9.109         63.370        -11.946         74.775         46.746
         7869.0          9.177         64.050        -12.517         77.010         45.921
         7869.5          9.227         66.525        -13.088         77.122         45.096
         7870.0          9.196         67.423        -13.659         77.235         44.271
         7870.5          9.166         65.457        -14.231         76.972         41.181
         7871.0          9.143         66.353        -14.802         76.239         37.494
         7871.5          9.180         67.249        -15.373         75.505         33.807
         7872.0          9.218         66.575        -15.944         74.772         30.242
         7872.5          9.255         65.232        -16.515         75.266         27.297
         7873.0          9.310         63.889        -17.086         76.476         24.353
         7873.5          9.480         62.958        -17.657         77.782         21.408
         7874.0          9.650         64.371        -17.821         79.617         18.464
         7874.5          9.594         66.192        -17.961         81.112         15.677
         7875.0          9.534         68.546        -18.100         81.127         14.480
         7875.5          9.675         70.900        -18.240         81.142         13.283
