###############################################
##         ENVERUS                           ##
##         ESS - Open Hole                   ##
##         PERMIAN / DELAWARE                ##
##         Nov 02 2023  V4.0                 ##
##         42-109-10071-00-00                ##
###############################################
## Copyright 2017-2023  ENVERUS.  All Rights Reserved. 
## Confidential - Property of ENVERUS, use governed by terms and 
## conditions found within the existing Information Services Subscription Agreement 
## (as may be amended, the “ISSA”) between Customer and ENVERUS. 
## 
~VERSION INFORMATION
# MNEM.UNIT                               DATA : DESCRIPTION OF MNEMONIC
#-----.-----     ----------------------------- : -----------------------------
VERS.                                     2.00 : CWLS LOG ASCII STANDARD - VERSION 2.00
WRAP.                                       NO : MULTIPLE LINES PER DEPTH STEP
VEND.                                  ENVERUS : VENDOR
TYPE.                          ESS - OPEN HOLE : ENVERUS ESSENTIAL CURVES – ACCESSIBLE THROUGH ENVERUS PRISM(TM)
DOC.                                  31950413 : ENVERUS HEADER RAW DOCUMENT ID
#___________________________________________________________________________________________________ 
~WELL INFORMATION 
# OfUh2+mdeFjroaXzMJDg/lRWUsinBwpBr+LWp9Jgnw936lSgPWOOCrYxw0Bz1A8ekYSC2IJg55FhS+cGr4hs3w== 
# MNEM.UNIT                                              DATA : DESCRIPTION OF MNEMONIC 
#-----.-----                    ----------------------------- : ----------------------------- 
CNTY.                                               CULBERSON : COUNTY 
STATE.                                                  TEXAS : STATE 
CNTRY.                                                    USA : COUNTRY 
API.                                             42-109-10071 : API (10 Digit) 
API_14.                                    42-109-10071-00-00 : API (14 Digits) 
API_14_std.                                 42-109-10071-0000 : API (14 Digits Standard) 
UWI.                                           42109100710000 : UNIQUE WELL ID 
WELL.                                                  DRD_55 : WELL NAME
STRT.FT                                                 320.5 : START DEPTH
STOP.FT                                               12359.5 : STOP DEPTH
STEP.FT                                                   0.5 : STEP BETWEEN DEPTHS
NULL.                                                 -999.25 : NULL VALUE
#___________________________________________________________________________________________________ 
~PARAMETER INFORMATION 
# MNEM.UNIT                                              DATA : DESCRIPTION OF MNEMONIC 
#-----.-----                    ----------------------------- : -----------------------------
#___________________________________________________________________________________________________ 
~CURVE INFORMATION 
# MNEM.UNIT           : CURVE DESCRIPTION 
#-----.-----          : ----------------------------- 
 DEPT.FT               : MEASURED DEPTH 
 GR.API                : GAMMA RAY (GAMMA RAY) 
 DT.US/FT              : SONIC DELTA TRANSIT TIME (SONIC) 
 #___________________________________________________________________________________________________ 
~A         DEPT             GR             DT
# ...
         5888.5         73.434         63.471
         5889.0         72.419         66.065
         5889.5         71.804         67.133
         5890.0         71.274         65.679
         5890.5         68.743         64.049
         5891.0         62.517         63.697
         5891.5         57.284         61.801
         5892.0         54.730         59.825
         5892.5         52.110         58.009
         5893.0         54.290         60.637
         5893.5         59.519         63.047
         5894.0         67.893         62.350
         5894.5         71.019         60.912
         5895.0         67.813         59.473
         5895.5         49.894         58.034
         5896.0         36.649         56.595
         5896.5         37.007         55.133
         5897.0         45.446         53.894
         5897.5         48.441         53.643
         5898.0         50.990         55.597
         5898.5         56.819         57.587
         5899.0         61.681         59.363
         5899.5         68.063         60.601
         5900.0         69.364         61.918
         5900.5         68.077         62.984
         5901.0         65.997         64.120
         5901.5         62.464         63.704
         5902.0         61.649         61.648
         5902.5         61.341         59.779
         5903.0         61.845         60.195
         5903.5         65.656         60.971
         5904.0         70.673         59.193
         5904.5         72.112         59.595
         5905.0         72.112         61.524
         5905.5         71.496         63.164
         5906.0         71.825         62.663
         5906.5         76.420         62.212
         5907.0         69.962         61.955
         5907.5         60.248         61.896
         5908.0         55.708         61.047
         5908.5         55.115         59.435
         5909.0         52.770         59.028
         5909.5         50.345         58.964
         5910.0         49.228         58.705
         5910.5         48.290         58.327
         5911.0         48.876         57.319
         5911.5         50.563         56.687
         5912.0         50.330         56.028
         5912.5         42.936         54.905
         5913.0         40.012         54.163
         5913.5         35.505         53.775
         5914.0         34.588         53.474
         5914.5         38.698         53.316
         5915.0         41.378         53.027
         5915.5         42.212         52.761
         5916.0         43.186         52.489
         5916.5         50.475         54.298
         5917.0         57.732         55.860
         5917.5         64.756         57.011
         5918.0         68.700         58.806
         5918.5         69.944         61.108
         5919.0         71.859         62.199
         5919.5         77.302         63.447
         5920.0         79.548         64.548
         5920.5         81.581         65.738
         5921.0         80.766         66.074
         5921.5         77.815         67.028
         5922.0         74.041         68.747
         5922.5         73.102         68.604
         5923.0         72.727         67.274
         5923.5         71.986         66.192
         5924.0         67.478         65.806
         5924.5         63.797         64.817
         5925.0         62.201         64.153
         5925.5         61.957         63.692
         5926.0         65.259         63.055
         5926.5         70.215         62.762
         5927.0         67.351         64.230
         5927.5         65.640         65.187
         5928.0         65.274         64.965
         5928.5         65.438         63.780
         5929.0         64.948         64.048
         5929.5         65.840         65.051
         5930.0         64.948         63.642
         5930.5         65.188         63.019
         5931.0         66.683         62.970
         5931.5         68.001         63.152
         5932.0         69.191         63.387
         5932.5         71.286         64.274
         5933.0         79.770         65.712
         5933.5         83.805         67.425
         5934.0         85.754         68.048
         5934.5         77.974         68.289
         5935.0         70.195         68.127
         5935.5         62.833         66.777
         5936.0         60.837         64.805
         5936.5         63.910         63.895
         5937.0         66.016         63.507
         5937.5         62.352         62.332
         5938.0         58.689         60.684
         5938.5         58.572         61.174
         5939.0         63.561         62.604
         5939.5         68.996         61.961
         5940.0         74.301         60.830
         5940.5         74.881         63.962
         5941.0         71.863         65.802
         5941.5         61.390         64.603
         5942.0         59.726         63.999
         5942.5         59.499         62.631
         5943.0         68.971         61.602
         5943.5         75.636         59.819
         5944.0         76.910         61.019
         5944.5         75.495         62.011
         5945.0         73.212         63.053
         5945.5         73.271         65.093
         5946.0         74.297         65.886
         5946.5         74.755         65.394
         5947.0         73.958         64.940
         5947.5         71.795         65.034
         5948.0         68.090         67.138
         5948.5         67.188         67.287
         5949.0         67.611         66.029
         5949.5         69.650         66.458
         5950.0         67.956         67.156
         5950.5         65.709         66.066
         5951.0         63.462         65.971
         5951.5         61.423         66.901
         5952.0         56.494         64.852
         5952.5         51.283         62.650
         5953.0         46.591         60.447
         5953.5         45.340         59.350
         5954.0         41.941         57.065
         5954.5         35.800         55.336
         5955.0         36.511         53.606
         5955.5         43.251         52.888
         5956.0         50.025         55.063
         5956.5         65.098         58.726
         5957.0         70.567         60.341
         5957.5         73.163         61.729
         5958.0         74.653         66.089
         5958.5         75.825         68.135
         5959.0         84.436         67.623
         5959.5         90.835         67.080
         5960.0         89.593         67.631
         5960.5         86.779         70.085
         5961.0         85.372         70.216
         5961.5         88.773         70.265
         5962.0         86.868         70.848
         5962.5         82.144         70.132
         5963.0         76.195         68.607
         5963.5         68.061         66.503
         5964.0         57.403         64.398
         5964.5         52.417         62.294
         5965.0         54.013         60.189
         5965.5         56.728         59.469
         5966.0         62.475         62.085
         5966.5         69.411         64.701
         5967.0         77.294         67.067
         5967.5         79.083         67.287
         5968.0         77.203         66.608
         5968.5         68.811         64.416
         5969.0         60.676         62.225
         5969.5         52.753         60.034
         5970.0         54.705         59.761
         5970.5         63.552         60.776
         5971.0         76.317         62.648
         5971.5         86.202         64.520
         5972.0         87.498         66.393
         5972.5         87.190         68.158
         5973.0         87.358         68.824
         5973.5         90.793         69.333
         5974.0         92.729         69.842
         5974.5         90.479         70.351
         5975.0         87.257         71.057
