###############################################
##         ENVERUS                           ##
##         ESS - Open Hole                   ##
##         PERMIAN / DELAWARE                ##
##         Nov 03 2023  V4.0                 ##
##         42-109-32538-90-00                ##
###############################################
## Copyright 2017-2023  ENVERUS.  All Rights Reserved. 
## Confidential - Property of ENVERUS, use governed by terms and 
## conditions found within the existing Information Services Subscription Agreement 
## (as may be amended, the “ISSA”) between Customer and ENVERUS. 
## 
~VERSION INFORMATION
# MNEM.UNIT                               DATA : DESCRIPTION OF MNEMONIC
#-----.-----     ----------------------------- : -----------------------------
VERS.                                     2.00 : CWLS LOG ASCII STANDARD - VERSION 2.00
WRAP.                                       NO : MULTIPLE LINES PER DEPTH STEP
VEND.                                  ENVERUS : VENDOR
TYPE.                          ESS - OPEN HOLE : ENVERUS ESSENTIAL CURVES – ACCESSIBLE THROUGH ENVERUS PRISM(TM)
DOC.                                  51093252 : ENVERUS HEADER RAW DOCUMENT ID
#___________________________________________________________________________________________________ 
~WELL INFORMATION 
# oCCetX3e+0pvkDd8h//i1tmWwvIHyfHqsQII3M49Y6eU5HggNAlLoqtwY+vCuZvzOG9Fr+Tv1xe2vto6NUMufQ== 
# MNEM.UNIT                                              DATA : DESCRIPTION OF MNEMONIC 
#-----.-----                    ----------------------------- : ----------------------------- 
CNTY.                                               CULBERSON : COUNTY 
STATE.                                                  TEXAS : STATE 
CNTRY.                                                    USA : COUNTRY 
API.                                             42-109-32538 : API (10 Digit) 
API_14.                                    42-109-32538-90-00 : API (14 Digits) 
API_14_std.                                 42-109-32538-9000 : API (14 Digits Standard) 
UWI.                                           42109325389000 : UNIQUE WELL ID 
WELL.                                                  DRD_55 : WELL NAME
STRT.FT                                                2546.5 : START DEPTH
STOP.FT                                               11260.0 : STOP DEPTH
STEP.FT                                                   0.5 : STEP BETWEEN DEPTHS
NULL.                                                 -999.25 : NULL VALUE
PREV_APII.                                     42109325380000 : WELL IDENTIFIER
#___________________________________________________________________________________________________ 
~PARAMETER INFORMATION 
# MNEM.UNIT                                              DATA : DESCRIPTION OF MNEMONIC 
#-----.-----                    ----------------------------- : ----------------------------- 
EKB.FT                                                   3182 : ELEVATION ABOVE MSL
#___________________________________________________________________________________________________ 
~CURVE INFORMATION 
# MNEM.UNIT           : CURVE DESCRIPTION 
#-----.-----          : ----------------------------- 
 DEPT.FT               : MEASURED DEPTH 
 CALI.IN               : CALIPER (CAL - CALIPER) 
 GR.API                : GAMMA RAY (GAMMA RAY) 
 DT.US/FT              : SONIC DELTA TRANSIT TIME (SONIC) 
 RESS.OHMM             : SHALLOW INDUCTION RESISTIVITY (ILS - SHALLOW RESISTIVITY) 
 RESD.OHMM             : DEEP INDUCTION RESISTIVITY (ILD - DEEP RESISTIVITY) 
 DPHI.V/V              : DENSITY POROSITY (DENSITY POROSITY) 
 NPHI.V/V              : NEUTRON POROSITY (NEUTRON POROSITY) 
 RHOB.G/CC             : BULK DENSITY (DENSITY) 
 #___________________________________________________________________________________________________ 
~A         DEPT           CALI             GR             DT           RESS           RESD           DPHI           NPHI           RHOB
# ...
         9449.5       -999.250         63.971       -999.250       -999.250       -999.250     -999.25000        0.17595         2.2737
         9450.0       -999.250         66.806       -999.250       -999.250       -999.250     -999.25000        0.18200         2.2539
         9450.5          6.200         70.495         54.724       -999.250       -999.250        0.33417        0.20813         2.1875
         9451.0          6.200         71.899         54.724       -999.250       -999.250        0.34401        0.20316         2.1549
         9451.5          6.207         69.735         54.724       -999.250       -999.250        0.32953        0.18437         2.1635
         9452.0          6.228         66.265         55.133       -999.250       -999.250        0.31065        0.17597         2.1791
         9452.5          6.206         61.887         55.133       -999.250       -999.250        0.29468        0.17258         2.2068
         9453.0          6.200         61.388         55.542       -999.250       -999.250        0.29038        0.17659         2.2370
         9453.5          6.200         62.370         55.542       -999.250       -999.250        0.29521        0.18693         2.2460
         9454.0          6.200         65.218         56.005       -999.250       -999.250        0.29183        0.19469         2.2360
         9454.5          6.200         69.597         56.360       -999.250       -999.250        0.28208        0.19160         2.2397
         9455.0          6.228         70.872         56.293       -999.250       -999.250        0.26300        0.18870         2.2629
         9455.5          6.228         70.858         55.951       -999.250       -999.250        0.25705        0.19558         2.2852
         9456.0          6.214         70.514         55.871       -999.250       -999.250        0.29022        0.19704         2.2846
         9456.5          6.214         69.713         55.542       -999.250       -999.250        0.31667        0.18568         2.2574
         9457.0          6.214         68.467         55.133       -999.250       -999.250        0.36201        0.17028         2.2080
         9457.5          6.214         67.811         55.133       -999.250       -999.250        0.40002        0.17354         2.1427
         9458.0          6.241         69.483         55.133       -999.250       -999.250        0.42048        0.17548         2.0730
         9458.5          6.241         72.419         55.542       -999.250       -999.250        0.39139        0.16653         2.0314
         9459.0          6.241         76.178         56.360       -999.250       -999.250        0.33437        0.14865         2.0635
         9459.5          6.241         80.159         56.692       -999.250       -999.250        0.30397        0.14012         2.1386
         9460.0          6.228         82.506         57.178       -999.250       -999.250        0.31538        0.13411         2.2040
         9460.5          6.214         83.735         57.178       -999.250       -999.250        0.32251        0.14688         2.2190
         9461.0          6.246         85.775         57.030       -999.250       -999.250        0.37702        0.16649         2.2022
         9461.5          6.228         87.938         56.769       -999.250       -999.250        0.42080        0.17562         2.1514
         9462.0          6.228         90.997         56.199       -999.250       -999.250        0.39199        0.19044         2.0597
         9462.5          6.228         95.139         55.951       -999.250       -999.250        0.28394        0.20119         2.1196
         9463.0          6.228        101.273         55.951       -999.250       -999.250        0.30732        0.19922         2.2398
         9463.5          6.228        108.877         55.951       -999.250       -999.250        0.34558        0.19034         2.2196
         9464.0          6.228        117.590         55.542       -999.250       -999.250        0.42748        0.18199         2.1486
         9464.5          6.228        124.249         55.542       -999.250       -999.250        0.46025        0.17006         2.0704
         9465.0          6.228        131.615         55.542       -999.250       -999.250        0.45532        0.15679         2.0009
         9465.5          6.228        134.884         55.542       -999.250       -999.250        0.43139        0.16524         1.9683
         9466.0          6.228        132.476         55.542       -999.250       -999.250        0.40052        0.18282         1.9924
         9466.5          6.214        124.964         55.133       -999.250       -999.250        0.39548        0.19567         2.0389
         9467.0          6.214        116.058         55.133       -999.250       -999.250        0.43864        0.20626         2.0668
         9467.5          6.214        104.840         55.542       -999.250       -999.250        0.48002        0.19909         2.0065
         9468.0          6.200         95.243         55.542       -999.250       -999.250        0.50523        0.18422         1.9543
         9468.5          6.186         85.259         55.951       -999.250       -999.250        0.48654        0.18422         1.9527
         9469.0          6.172         79.414         55.951       -999.250       -999.250        0.44064        0.18920         1.9527
         9469.5          6.186         76.579         56.303       -999.250       -999.250        0.41316        0.19205         2.0020
         9470.0          6.200         74.595         56.360       -999.250       -999.250        0.42481        0.20041         2.0403
         9470.5          6.214         73.311         56.360       -999.250       -999.250        0.44835        0.21161         2.0475
         9471.0          6.228         70.299         55.951       -999.250       -999.250        0.46649        0.21315         2.0195
         9471.5          6.241         64.586         55.542       -999.250       -999.250        0.47062        0.20776         1.9714
         9472.0          6.241         64.160         55.133       -999.250       -999.250        0.45653        0.19681         1.9523
         9472.5          6.241         67.128         55.133       -999.250       -999.250        0.43166        0.20014         1.9542
         9473.0          6.241         74.974         54.724       -999.250       -999.250        0.40693        0.21276         1.9897
         9473.5          6.241         87.761         54.724       -999.250       -999.250        0.40266        0.19902         2.0417
         9474.0          6.241         98.498         54.724       -999.250       -999.250        0.41864        0.20772         2.0613
         9474.5          6.241        108.326         54.724       -999.250       -999.250        0.43865        0.20774         2.0458
         9475.0          6.241        117.124         55.133       -999.250       -999.250        0.47216        0.20115         2.0175
         9475.5          6.241        129.888         55.133       -999.250       -999.250        0.46288        0.19787         1.9697
         9476.0          6.241        143.653         55.133       -999.250       -999.250        0.43326        0.19584         1.9521
         9476.5          6.228        159.945         55.542       -999.250       -999.250        0.40363        0.26961         1.9519
         9477.0          6.228        154.807         55.542       -999.250       -999.250        0.38215        0.31481         2.0036
         9477.5          6.228        149.998         55.542       -999.250       -999.250        0.39738        0.31820         2.0764
         9478.0          6.228        145.324         55.542       -999.250       -999.250        0.43929        0.25886         2.0970
         9478.5          6.228        136.423         55.542       -999.250       -999.250        0.44857        0.22111         2.0421
