~Version Information
 VERS.                  2.0:   CWLS log ASCII Standard -VERSION 2.0
 WRAP.                   NO:   One line per depth step
~Well Information Block
#MNEM.UNIT       Data Type    Information
#---------     -----------    ---------------------------
 STRT.F              3503.5000:
 STOP.F             12186.0000:
 STEP.F                 0.5000:
 NULL.               -999.2500:
 UWI .            42-109-32278:  API WELLHOLE NUMBER
 COMP.     SAMSON LONE STAR LP:  COMPANY NAME
 COUN.               CULBERSON:  COUNTY
 DAT2.                   02000:  LOGGING DATE 2
 DAT3.                   02000:  LOGGING DATE 3
 DAT4.                   02000:  LOGGING DATE 4
 DATE.                   02000:  LOGGING DATE
 DMF .           KELLY BUSHING:  DRILLING MEASURED
 LOC .    1521' FWL AND 2040' FSL:  FIELD LOCATION
 FL1 .    1521' FWL AND 2040' FSL:  FIELD LOCATION LINE 1
 FL2 .        SEC. 14, BLK. 46:  FIELD LOCATION LINE 2
 FLD .                 WILDCAT:  FIELD NAME
 HDAT.                   02000:  DATUM
 LMF .                    K.B.:  LOG MEASURED FROM
 OS1 .                    XRMI:  OTHER SERVICES LINE 1
 OS2 .               LSS / FWS:  OTHER SERVICES LINE 2
 OS3 .                 SDL/DSN:  OTHER SERVICES LINE 3
 OS4 .                DLL/MGRD:  OTHER SERVICES LINE 4
 PDAT.            GROUND LEVEL:  PERMANENT DATUM
 R1  .    TOOLSTRING: RWCH/D4TS/NGRT/LFS_D2/XRMI/CENT:  REMARKS LINE 1
 R2  .    LOGGING INTERVALS AS PER CUSTOMER REQUEST.:  REMARKS LINE 2
 RDT2.                   02000:  CASING DATE 2
 RDT3.                   02000:  CASING DATE 3
 RDT4.                   02000:  CASING DATE 4
 RDT5.                   02000:  CASING DATE 5
 SON .                 4992511:  SERVICE/TICKET ORDER NUMBER
 PROV.                   TEXAS:  STATE
 WELL.    UNIVERSITY LANDS 46-14 No. 2:  WELL NAME
~Parameter Information Block
#MNEM.UNIT       Value        Description
#---------     -----------    ---------------------------
~Curve Information Block
#MNEM.UNIT                 API CODE     Curve Description
#---------               -----------    ---------------------------
 DEPT.F                 00 000 000 000:  
 LLD .ohmm              00 000 000 000:  LLD                                    
 LLS .ohmm              00 000 000 000:  LLS                                    
 NPHI.decp              00 000 000 000:  Neutron Porosity                       
 GR  .api               00 000 000 000:  Gamma API                              
 MGRD.ohmm              00 000 000 000:  MCGRD                                  
 DRHO.g/cc              00 000 000 000:  DensityCorr                            
 DPHI.decp              00 000 000 000:  DensityPorosity                        
 PE  .b/e               00 000 000 000:  Pe                                     
 RHOB.g/cc              00 000 000 000:  Density                                
 XPHI.decp              00 000 000 000:  CrossplotPhi                           
 CALI.in                00 000 000 000:  Caliper                                
 DTC .                  00 000 000 000:  DELTA-T COMPRESSIONAL - FWS
 GR2 .GAPI              00 000 000 000:  NATURAL GAMMA - FWS
 SPHI.DECP              00 000 000 000:  SONIC POROSITY MTX=47.6 (DTC)
~A  DEPT        LLD        LLS        NPHI       GR         MGRD       DRHO       DPHI       PE         RHOB       XPHI       CALI       DTC        GR2        SPHI   
# ...
10412.5000   455.2129   335.6532     0.0020    17.9382   500.0229     0.0117     0.0110     4.9137     2.6912     0.0074    10.9374    48.6363    15.4482     0.0073 
10413.0000   455.1547   332.2030     0.0026    12.1425   537.8079     0.0135     0.0083     4.9979     2.6958     0.0069    10.9374    48.2118    16.0354     0.0043 
10413.5000   464.9090   338.1239     0.0029    11.0225   541.9620     0.0140     0.0095     5.1058     2.6938     0.0076    10.9374    47.9897    15.3546     0.0028 
10414.0000   484.2814   353.1014     0.0024    13.8136   524.2360     0.0169     0.0094     5.0833     2.6940     0.0073    10.9374    47.8923    13.2486     0.0021 
10414.5000   494.7309   359.4071     0.0020    17.0848   495.3914     0.0215     0.0056     5.0295     2.7004     0.0059    10.9374    48.1543    13.3227     0.0039 
10415.0000   496.8686   358.7360     0.0023    16.3737   478.8610     0.0248     0.0048     5.0339     2.7018     0.0059    10.9450    48.5472    15.4925     0.0067 
10415.5000   488.9272   348.2078     0.0023    14.5070   507.4246     0.0244     0.0074     4.9955     2.6973     0.0066    10.9450    48.8648    16.5221     0.0089 
10416.0000   476.3039   335.1971     0.0023    12.3914   618.7944     0.0229     0.0103     5.0102     2.6923     0.0075    10.9450    49.0483    16.5783     0.0102 
10416.5000   468.9069   328.3423     0.0027    11.3780   564.3124     0.0225     0.0090     5.1303     2.6947     0.0073    10.9450    49.0190    15.8550     0.0100 
10417.0000   464.9264   326.5723     0.0034    11.6803   549.2530     0.0207     0.0140     5.1844     2.6861     0.0093    10.9450    49.0966    15.1581     0.0106 
10417.5000   460.7764   325.2430     0.0034     9.9202   547.0004     0.0192     0.0234     5.1404     2.6699     0.0122    10.9450    49.0182    14.6144     0.0100 
10418.0000   452.5098   322.4460     0.0035    11.8403   584.4329     0.0203     0.0241     5.1247     2.6688     0.0125    10.9527    48.7803    14.0400     0.0083 
10418.5000   438.0786   312.6037     0.0041    14.6137   396.5469     0.0209     0.0228     5.1592     2.6710     0.0125    10.9527    48.4856    13.9081     0.0063 
10419.0000   424.0010   305.2110     0.0046    12.0536   356.7903     0.0215     0.0265     5.1425     2.6646     0.0129    10.9603    48.2477    12.4743     0.0046 
10419.5000   410.4024   296.7475     0.0053    10.0802   373.7689     0.0256     0.0316     5.0717     2.6559     0.0150    10.9527    48.5742    12.2318     0.0069 
10420.0000   398.1506   291.0437     0.0060    10.6491   427.5077     0.0301     0.0319     5.0336     2.6555     0.0171    10.9603    48.7539    13.0060     0.0082 
10420.5000   384.1344   284.2051     0.0061    13.4759   441.1168     0.0326     0.0233     5.0509     2.6701     0.0158    10.9603    48.7267    13.9544     0.0080 
10421.0000   364.1073   270.2043     0.0061    16.5337   401.5146     0.0366     0.0104     5.0731     2.6922     0.0103    10.9603    48.6979    13.2248     0.0078 
10421.5000   348.1492   258.6764     0.0050    18.6315   410.9312     0.0395     0.0075     5.0880     2.6971     0.0087    10.9603    48.7162    12.1843     0.0079 
10422.0000   335.2470   248.1397     0.0046    17.7782   443.9875     0.0381     0.0099     5.1049     2.6930     0.0090    10.9679    48.9673    12.2314     0.0097 
10422.5000   330.6600   243.7507     0.0041    16.6937   484.6635     0.0375     0.0080     5.1068     2.6963     0.0089    10.9679    48.9713    12.3518     0.0097 
10423.0000   334.7792   246.6016     0.0037    15.6804   505.5827     0.0387     0.0079     5.0891     2.6965     0.0078    10.9679    49.0420    12.8998     0.0102 
10423.5000   342.1016   250.8390     0.0037    13.9736   524.7717     0.0369     0.0032     5.0224     2.7046     0.0073    10.9679    48.9897    13.3865     0.0098 
10424.0000   350.5614   255.0396     0.0032    13.3870   536.9023     0.0362    -0.0056     4.9367     2.7195     0.0037    10.9756    48.5733    14.0145     0.0069 
10424.5000   355.6972   256.7304     0.0028    14.0270   581.4957     0.0422    -0.0091     4.9427     2.7255     0.0025    10.9756    48.1125    14.7616     0.0036 
10425.0000   356.8009   254.2891     0.0024    16.4270   552.2042     0.0467    -0.0089     5.0024     2.7253     0.0022    10.9756    47.7612    15.3895     0.0011 
10425.5000   357.2143   255.5716     0.0023    15.8404   534.3465     0.0441    -0.0045     5.0399     2.7177     0.0033    10.9832    47.4962    14.7207    -0.0007 
10426.0000   351.5103   251.4428     0.0024    12.4269   546.0425     0.0411     0.0053     5.1228     2.7010     0.0054    10.9756    47.8072    13.7549     0.0015 
10426.5000   343.0031   248.6142     0.0019    10.1336   642.2715     0.0394     0.0089     5.1880     2.6948     0.0068    10.9832    48.1750    12.5084     0.0041 
10427.0000   325.4096   238.5896     0.0026     9.3869   617.6553     0.0388     0.0060     5.1683     2.6997     0.0065    10.9756    48.5309    11.7170     0.0066 
10427.5000   295.3358   220.1986     0.0037     7.9468   579.2535     0.0392     0.0111     5.1638     2.6910     0.0087    10.9756    48.7199    11.2575     0.0079 
10428.0000   257.1539   194.7704     0.0047     7.9468   509.6660     0.0388     0.0136     5.1635     2.6868     0.0102    10.9832    48.8684    11.1469     0.0090 
10428.5000   220.0800   166.4813     0.0058    10.2936   377.7765     0.0381     0.0044     5.1071     2.7024     0.0083    10.9832    49.5410    11.2448     0.0137 
10429.0000   190.0063   143.0871     0.0073    10.3469   339.0508     0.0352     0.0037     5.0358     2.7037     0.0092    10.9832    49.7951    10.7112     0.0155 
10429.5000   171.8900   127.9073     0.0096     9.4935   300.1671     0.0302     0.0129     5.0131     2.6880     0.0116    10.9832    49.7647    10.1871     0.0153 
10430.0000   166.1019   123.0996     0.0101    10.4002   308.3979     0.0272     0.0165     5.0239     2.6819     0.0149    10.9832    49.9166    10.6500     0.0164 
10430.5000   170.1916   125.3887     0.0107    13.0136   319.2206     0.0261     0.0182     5.0285     2.6789     0.0159    10.9832    50.0699    11.5707     0.0175 
10431.0000   185.5175   137.0413     0.0093    13.4403   387.5269     0.0272     0.0155     5.0722     2.6835     0.0153    10.9908    50.0676    13.1244     0.0175 
10431.5000   202.9355   151.5809     0.0071    10.8802   452.2694     0.0312     0.0058     5.1806     2.7001     0.0097    10.9908    50.0134    14.2059     0.0171 
10432.0000   205.3016   156.4261     0.0061     9.4935   558.4069     0.0356    -0.0014     5.2753     2.7124     0.0069    10.9985    49.8882    13.2572     0.0162 
10432.5000   181.6183   141.9358     0.0063    11.4136   499.5477     0.0393    -0.0070     5.2613     2.7220     0.0056    11.0061    49.5851    12.4573     0.0140 
10433.0000   144.2087   112.8352     0.0090    14.6670   256.1814     0.0423    -0.0082     5.1482     2.7239     0.0064    10.9985    49.4225    11.8957     0.0129 
10433.5000   115.5224    87.0711     0.0138    13.6003   155.2972     0.0431     0.0017     5.0263     2.7072     0.0133    10.9985    49.8447    11.9127     0.0159 
10434.0000   100.2571    72.9568     0.0183     8.3735   112.3574     0.0420     0.0161     4.9484     2.6825     0.0169    10.9832    50.2500    12.0829     0.0187 
10434.5000    96.3107    69.9184     0.0189     6.9335   114.1475     0.0410     0.0251     4.8925     2.6671     0.0238    10.9908    50.5061    11.4234     0.0206 
10435.0000   100.3139    74.6045     0.0183    10.3469   146.8457     0.0392     0.0271     4.9054     2.6636     0.0240    10.9985    51.1536    10.4492     0.0251 
10435.5000   104.1643    78.9882     0.0165    12.6758   174.8722     0.0394     0.0275     5.0514     2.6630     0.0229    11.0061    51.6178     9.2409     0.0284 
10436.0000   101.6730    77.6922     0.0154    15.4137   162.7280     0.0412     0.0273     5.1637     2.6632     0.0220    11.0137    51.7742     8.7218     0.0295 
10436.5000    91.4456    70.1663     0.0172    13.7959   128.3825     0.0389     0.0290     5.1362     2.6603     0.0239    11.0214    51.3202     8.9260     0.0263 
