###############################################
##         ENVERUS                           ##
##         ESS - Open Hole                   ##
##         PERMIAN / DELAWARE                ##
##         Nov 02 2023  V4.0                 ##
##         42-109-31383-00-00                ##
###############################################
## Copyright 2017-2023  ENVERUS.  All Rights Reserved. 
## Confidential - Property of ENVERUS, use governed by terms and 
## conditions found within the existing Information Services Subscription Agreement 
## (as may be amended, the “ISSA”) between Customer and ENVERUS. 
## 
~VERSION INFORMATION
# MNEM.UNIT                               DATA : DESCRIPTION OF MNEMONIC
#-----.-----     ----------------------------- : -----------------------------
VERS.                                     2.00 : CWLS LOG ASCII STANDARD - VERSION 2.00
WRAP.                                       NO : MULTIPLE LINES PER DEPTH STEP
VEND.                                  ENVERUS : VENDOR
TYPE.                          ESS - OPEN HOLE : ENVERUS ESSENTIAL CURVES – ACCESSIBLE THROUGH ENVERUS PRISM(TM)
DOC.                                  31887493 : ENVERUS HEADER RAW DOCUMENT ID
#___________________________________________________________________________________________________ 
~WELL INFORMATION 
# e8MMFGpko9nixUfuEkfb9P8cKS4olzuguLrtdgPIjARTX3oRymgI2EYtnk6GmA/F0PbYW2Z7xnLx5OgyGayifw== 
# MNEM.UNIT                                              DATA : DESCRIPTION OF MNEMONIC 
#-----.-----                    ----------------------------- : ----------------------------- 
CNTY.                                               CULBERSON : COUNTY 
STATE.                                                  TEXAS : STATE 
CNTRY.                                                    USA : COUNTRY 
API.                                             42-109-31383 : API (10 Digit) 
API_14.                                    42-109-31383-00-00 : API (14 Digits) 
API_14_std.                                 42-109-31383-0000 : API (14 Digits Standard) 
UWI.                                           42109313830000 : UNIQUE WELL ID 
WELL.                                          KIRK  T. A.  1 : WELL NAME
STRT.FT                                                  43.0 : START DEPTH
STOP.FT                                               16492.0 : STOP DEPTH
STEP.FT                                                   0.5 : STEP BETWEEN DEPTHS
NULL.                                                 -999.25 : NULL VALUE
COMP.                                             EXXON CORP. : COMPANY 
DATE.                                             05-AUG-1981 : LOG DATE
#___________________________________________________________________________________________________ 
~CURVE INFORMATION 
# MNEM.UNIT           : CURVE DESCRIPTION 
#-----.-----          : ----------------------------- 
 DEPT.FT               : MEASURED DEPTH 
 CALI.IN               : CALIPER (CAL - CAL) 
 GR.API                : GAMMA RAY (GR) 
 SP.MV                 : SPONTANEOUS POTENTIAL (SP) 
 DT.US/FT              : SONIC DELTA TRANSIT TIME (DT) 
 RESS.OHMM             : SHALLOW INDUCTION RESISTIVITY (ILS - ILS) 
 RESD.OHMM             : DEEP INDUCTION RESISTIVITY (ILD - ILD) 
 NPHI.V/V              : NEUTRON POROSITY (NPHI) 
 #___________________________________________________________________________________________________ 
~A         DEPT           CALI             GR             SP             DT           RESS           RESD           NPHI
# ...
         9590.5         12.730         76.851       -999.250         77.448         28.124         32.307     -999.25000
         9591.0         12.730         74.821       -999.250         76.977         29.005         32.052     -999.25000
         9591.5         12.733         72.791       -999.250         76.505         29.886         31.796     -999.25000
         9592.0         12.735         70.813       -999.250         76.033         30.768         31.541     -999.25000
         9592.5         12.737         71.628       -999.250         75.589         31.649         31.286     -999.25000
         9593.0         12.740         72.442       -999.250         75.496         30.808         31.030     -999.25000
         9593.5         12.742         73.256       -999.250         75.403         29.949         30.778     -999.25000
         9594.0         12.744         74.070       -999.250         75.310         29.089         30.528     -999.25000
         9594.5         12.747         70.596       -999.250         75.217         28.230         30.277     -999.25000
         9595.0         12.749         63.864       -999.250         75.123         27.371         30.027     -999.25000
         9595.5         12.751         57.131       -999.250         74.360         26.511         29.777     -999.25000
         9596.0         12.753         55.738       -999.250         70.964         25.652         29.527     -999.25000
         9596.5         12.756         57.391       -999.250         67.568         24.793         29.276     -999.25000
         9597.0         12.758         59.045       -999.250         67.729         24.254         29.026     -999.25000
         9597.5         12.760         60.698       -999.250         69.356         26.226         28.996     -999.25000
         9598.0         12.763         62.352       -999.250         71.587         28.197         29.275     -999.25000
         9598.5         12.765         64.005       -999.250         74.543         29.729         29.555     -999.25000
         9599.0         12.767         60.635       -999.250         77.499         29.652         29.834     -999.25000
         9599.5         12.770         56.472       -999.250         77.610         29.575         30.207     -999.25000
         9600.0         12.772         52.309       -999.250         72.553         29.497         30.781     -999.25000
         9600.5         12.774         48.147       -999.250         68.724         29.420         31.355     -999.25000
         9601.0         12.776         43.984       -999.250         64.954         29.343         31.928     -999.25000
         9601.5         12.779         39.821       -999.250         61.546         34.493         32.502     -999.25000
         9602.0         12.781         38.734       -999.250         60.110         40.525         33.076     -999.25000
         9602.5         12.783         48.161       -999.250         61.262         38.849         33.650     -999.25000
         9603.0         12.786         54.121       -999.250         63.245         37.173         34.223     -999.25000
         9603.5         12.788         59.373       -999.250         66.317         35.497         33.869     -999.25000
         9604.0         12.790         64.624       -999.250         69.390         33.821         33.473     -999.25000
         9604.5         12.793         69.876       -999.250         72.439         32.145         33.078     -999.25000
         9605.0         12.795         70.028       -999.250         75.484         30.469         32.683     -999.25000
         9605.5         12.797         69.061       -999.250         77.316         28.793         32.147     -999.25000
         9606.0         12.799         68.094       -999.250         78.822         31.569         31.426     -999.25000
         9606.5         12.802         66.713       -999.250         80.327         38.804         30.705     -999.25000
         9607.0         12.804         60.584       -999.250         81.832         46.039         29.985     -999.25000
         9607.5         12.806         54.456       -999.250         81.694         53.274         29.264     -999.25000
         9608.0         12.809         53.693       -999.250         77.321         54.484         28.543     -999.25000
         9608.5         12.811         55.031       -999.250         72.947         47.907         27.823     -999.25000
         9609.0         12.813         56.370       -999.250         73.310         41.329         26.764     -999.25000
         9609.5         12.816         56.086       -999.250         73.884         34.752         25.243     -999.25000
         9610.0         12.818         54.314       -999.250         74.459         28.337         23.722     -999.25000
         9610.5         12.820         52.541       -999.250         75.033         22.060         22.201     -999.25000
         9611.0         12.822         50.768       -999.250         73.365         16.977         20.680     -999.25000
         9611.5         12.825         48.995       -999.250         71.206         14.348         20.126     -999.25000
         9612.0         12.827         47.222       -999.250         69.048         12.461         19.743     -999.25000
         9612.5         12.829         51.045       -999.250         66.890         14.714         19.360     -999.25000
         9613.0         12.832         55.121       -999.250         65.372         16.967         18.977     -999.25000
         9613.5         12.834         59.197       -999.250         69.210         19.220         18.595     -999.25000
         9614.0         12.836         63.267       -999.250         71.902         21.473         18.212     -999.25000
         9614.5         12.838         58.990       -999.250         74.593         23.726         18.933     -999.25000
         9615.0         12.838         54.713       -999.250         77.285         25.980         20.200     -999.25000
         9615.5         12.838         50.437       -999.250         73.521         26.662         21.467     -999.25000
         9616.0         12.838         50.507       -999.250         69.439         26.242         22.733     -999.25000
         9616.5         12.839         57.497       -999.250         65.356         25.822         24.000     -999.25000
         9617.0         12.839         64.487       -999.250         74.153         28.894         25.267     -999.25000
         9617.5         12.839         65.294       -999.250         76.774         33.951         26.490     -999.25000
         9618.0         12.839         62.853       -999.250         79.394         39.009         27.681     -999.25000
         9618.5         12.839         60.411       -999.250         77.929         44.066         28.872     -999.25000
         9619.0         12.839         57.969       -999.250         75.635         41.872         29.168     -999.25000
         9619.5         12.839         55.528       -999.250         73.679         39.378         29.136     -999.25000
         9620.0         12.839         54.065       -999.250         73.317         36.883         29.105     -999.25000
         9620.5         12.839         58.997       -999.250         72.259         36.479         29.073     -999.25000
         9621.0         12.839         63.928       -999.250         69.177         37.734         29.041     -999.25000
         9621.5         12.839         68.860       -999.250         72.301         38.990         29.009     -999.25000
         9622.0         12.839         72.789       -999.250         75.530         38.493         28.200     -999.25000
         9622.5         12.839         69.964       -999.250         78.781         31.751         23.409     -999.25000
         9623.0         12.840         67.138       -999.250         82.032         25.009         20.881     -999.25000
         9623.5         12.840         64.312       -999.250         85.284         19.375         21.049     -999.25000
