###############################################
##         ENVERUS                           ##
##         ESS - Open Hole                   ##
##         PERMIAN / DELAWARE                ##
##         Nov 02 2023  V4.0                 ##
##         42-109-30915-00-00                ##
###############################################
## Copyright 2017-2023  ENVERUS.  All Rights Reserved. 
## Confidential - Property of ENVERUS, use governed by terms and 
## conditions found within the existing Information Services Subscription Agreement 
## (as may be amended, the “ISSA”) between Customer and ENVERUS. 
## 
~VERSION INFORMATION
# MNEM.UNIT                               DATA : DESCRIPTION OF MNEMONIC
#-----.-----     ----------------------------- : -----------------------------
VERS.                                     2.00 : CWLS LOG ASCII STANDARD - VERSION 2.00
WRAP.                                       NO : MULTIPLE LINES PER DEPTH STEP
VEND.                                  ENVERUS : VENDOR
TYPE.                          ESS - OPEN HOLE : ENVERUS ESSENTIAL CURVES – ACCESSIBLE THROUGH ENVERUS PRISM(TM)
DOC.                                  32305988 : ENVERUS HEADER RAW DOCUMENT ID
#___________________________________________________________________________________________________ 
~WELL INFORMATION 
# YiEbrulvYUtXh1D3opxUtnvhUVpPAvxlEBgV2kjbCTHvWrxGcz1+vOa1jEIuqGtoxi0rQ+ZQV9RU/rHAPCAAKQ== 
# MNEM.UNIT                                              DATA : DESCRIPTION OF MNEMONIC 
#-----.-----                    ----------------------------- : ----------------------------- 
CNTY.                                               CULBERSON : COUNTY 
STATE.                                                  TEXAS : STATE 
CNTRY.                                                    USA : COUNTRY 
API.                                             42-109-30915 : API (10 Digit) 
API_14.                                    42-109-30915-00-00 : API (14 Digits) 
API_14_std.                                 42-109-30915-0000 : API (14 Digits Standard) 
UWI.                                           42109309150000 : UNIQUE WELL ID 
WELL.                             VELMA CASEY ROUNSAVILLE A 1 : WELL NAME
STRT.FT                                                  82.0 : START DEPTH
STOP.FT                                               11225.0 : STOP DEPTH
STEP.FT                                                   0.5 : STEP BETWEEN DEPTHS
NULL.                                                 -999.25 : NULL VALUE
#___________________________________________________________________________________________________ 
~CURVE INFORMATION 
# MNEM.UNIT           : CURVE DESCRIPTION 
#-----.-----          : ----------------------------- 
 DEPT.FT               : MEASURED DEPTH 
 CALI.IN               : CALIPER (CAL - CAL) 
 GR.API                : GAMMA RAY (GR) 
 DT.US/FT              : SONIC DELTA TRANSIT TIME (DT) 
 NPHI.V/V              : NEUTRON POROSITY (NPHI) 
 RHOB.G/CC             : BULK DENSITY (RHOB) 
 #___________________________________________________________________________________________________ 
~A         DEPT           CALI             GR             DT           NPHI           RHOB
# ...
         9234.0          7.458        103.280         61.488        0.09297         2.6281
         9234.5          7.458        106.760         61.855        0.10458         2.6206
         9235.0          7.458        110.241         61.325        0.11618         2.6243
         9235.5          7.458        113.721         60.795        0.12778         2.6299
         9236.0          7.457        117.202         60.265        0.13939         2.6356
         9236.5          7.457        120.682         59.735        0.14842         2.6412
         9237.0          7.457        119.011         59.263        0.13949         2.6469
         9237.5          7.457        117.312         60.310        0.13055         2.6525
         9238.0          7.457        115.612         61.356        0.12162         2.6459
         9238.5          7.457        113.912         61.749        0.11269         2.6358
         9239.0          7.456        116.418         60.965        0.11693         2.6257
         9239.5          7.456        122.469         60.182        0.12327         2.6253
         9240.0          7.456        128.519         59.689        0.12961         2.6315
         9240.5          7.456        129.394         61.026        0.13595         2.6377
         9241.0          7.456        126.371         62.363        0.14229         2.6439
         9241.5          7.455        123.348         62.049        0.14460         2.6500
         9242.0          7.455        120.325         61.580        0.13844         2.6562
         9242.5          7.455        117.302         61.110        0.13227         2.6548
         9243.0          7.455        114.279         60.641        0.12611         2.6469
         9243.5          7.455        111.256         60.171        0.11995         2.6390
         9244.0          7.455        108.233         60.417        0.11378         2.6311
         9244.5          7.455        108.589         61.644        0.12400         2.6232
         9245.0          7.455        109.542         61.735        0.15050         2.6153
         9245.5          7.455        110.496         61.184        0.14263         2.6074
         9246.0          7.455        111.449         60.634        0.13477         2.5995
         9246.5          7.455        112.402         60.083        0.12690         2.5916
         9247.0          7.455        103.750         59.966        0.11903         2.5853
         9247.5          7.455         93.802         59.860        0.11116         2.5976
         9248.0          7.455         90.881         59.755        0.10330         2.6100
         9248.5          7.455         89.503         58.894        0.09680         2.6223
         9249.0          7.455         88.126         57.831        0.09309         2.6346
         9249.5          7.455         86.749         58.314        0.08937         2.6445
         9250.0          7.455         85.371         58.890        0.08565         2.6343
         9250.5          7.455         83.994         59.466        0.08194         2.6240
         9251.0          7.454         82.616         59.908        0.07822         2.6137
         9251.5          7.454         81.239         60.089        0.07450         2.6034
         9252.0          7.454         81.047         60.271        0.07352         2.6021
         9252.5          7.454         81.724         60.453        0.07765         2.6055
         9253.0          7.454         82.400         60.634        0.08177         2.6159
         9253.5          7.454         83.077         60.816        0.08590         2.6263
         9254.0          7.454         84.388         60.998        0.09002         2.6155
         9254.5          7.454         85.818         61.038        0.09415         2.6004
         9255.0          7.454         87.247         60.962        0.09827         2.5876
         9255.5          7.454         86.934         60.885        0.08870         2.5876
         9256.0          7.454         86.046         60.808        0.08477         2.5896
         9256.5          7.454         85.158         60.246        0.08948         2.6110
         9257.0          7.454         84.270         59.682        0.09419         2.6324
         9257.5          7.454         83.382         59.720        0.09890         2.6436
         9258.0          7.454         82.684         59.757        0.10262         2.6498
         9258.5          7.454         84.476         59.794        0.09946         2.6559
         9259.0          7.454         86.268         59.831        0.09630         2.6621
         9259.5          7.454         88.060         59.554        0.09314         2.6966
         9260.0          7.454         89.852         58.354        0.08998         2.6908
         9260.5          7.453         91.644         56.755        0.08682         2.6626
         9261.0          7.453         93.436         55.155        0.08366         2.6343
         9261.5          7.453         89.098         53.556        0.08124         2.6198
         9262.0          7.453         84.123         55.373        0.08531         2.6281
         9262.5          7.453         79.148         57.553        0.08937         2.6364
         9263.0          7.453         74.173         59.733        0.09344         2.6446
         9263.5          7.453         83.071         59.755        0.09750         2.6529
         9264.0          7.453         92.342         59.295        0.10157         2.6612
         9264.5          7.453        101.613         59.153        0.10563         2.6638
         9265.0          7.453        104.042         59.015        0.10384         2.6557
         9265.5          7.453         99.683         58.876        0.09847         2.6476
         9266.0          7.453         95.324         58.541        0.09311         2.6395
         9266.5          7.453         90.964         57.838        0.08774         2.6314
         9267.0          7.453         86.605         57.135        0.08238         2.6242
         9267.5          7.453         82.245         56.433        0.07701         2.6263
         9268.0          7.453         77.886         56.603        0.07165         2.6283
         9268.5          7.453         83.430         57.525        0.06629         2.6303
         9269.0          7.453         89.092         59.143        0.06785         2.6518
         9269.5          7.453         94.754         60.762        0.08782         2.6921
         9270.0          7.452        100.416         61.283        0.10778         2.7220
         9270.5          7.452        106.078         61.242        0.12775         2.7070
         9271.0          7.452        111.535         61.201        0.13746         2.6920
         9271.5          7.452        108.644         60.358        0.13018         2.6771
         9272.0          7.452        105.753         59.458        0.12290         2.6621
         9272.5          7.452        102.861         58.559        0.11562         2.6471
         9273.0          7.452         99.970         57.999        0.10834         2.6362
         9273.5          7.452         97.078         58.417        0.10106         2.6349
         9274.0          7.452         95.409         58.835        0.09833         2.6335
         9274.5          7.452         97.592         59.252        0.12046         2.6334
         9275.0          7.452         99.776         59.670        0.11632         2.6382
         9275.5          7.452         97.881         59.852        0.11217         2.6430
         9276.0          7.452         94.857         59.453        0.10802         2.6458
         9276.5          7.452         91.832         59.054        0.10387         2.6382
         9277.0          7.452         88.808         58.655        0.09973         2.6305
         9277.5          7.452         92.862         58.866        0.09558         2.6229
