~VERSION INFORMATION
VERS.           1.2   :CWLS Log ASCII Standard - VERSION 1.2
WRAP.           NO    :One Line per depth step
PROD.  Schlumberger   :LAS Producer
PROG.  DLIS to ASCII 10C0-306                          :LAS Program name and version
CREA.        2007/06/08 22:43                          :LAS Creation date {YYYY/MM/DD hh:mm}
SOURCE.     294b92a6-1e54-4f75-8d20-4493e48002f1       :DLIS File Name
#--------------------------------------------------
~WELL INFORMATION
#MNEM.UNIT      DATA             DESCRIPTION
#---- ------ --------------   -----------------------------
STRT .F      4145.5000       :START DEPTH     
STOP .F      10380.0000      :STOP DEPTH     
STEP .F       0.5000         :STEP       
NULL .          -999.25      :NULL VALUE
COMP .                 COMPANY:  Chesapeake Operating Inc.          
WELL .                    WELL:  University Lands 4627-1            
FLD  .                   FIELD:  Wildcat                            
LOC  .                LOCATION:  1200' FNL & 1995; FEL              
CNTY .                  COUNTY:  Culberson                          
STAT .                   STATE:  Texas                              
CTRY .                 COUNTRY:                                     
SRVC .         SERVICE COMPANY:  Schlumberger                       
API  .              API NUMBER:  42-109-32287                       
DATE .                LOG DATE:  7-Jun-2007
UWI  .          UNIQUE WELL ID:  42-109-32287-0000                  
#-----------------------------------------------------------------------------
~PARAMETER INFORMATION
#MNEM.UNIT    VALUE                      DESCRIPTION
#---- -----   --------------------       ------------------------
CN   .        Chesapeake Operating Inc.  :Company Name
WN   .        University Lands 4627-1    :Well Name
FN   .        Wildcat                    :Field Name
FL   .        1200' FNL & 1995  FEL      :Field Location
FL1  .        Secion  27  Block  46  Abstract  2860 :Field Location Line 1
COUN .        Culberson                  :County or Rig Name
STAT .        Texas                      :State or Province
NATI .                                   :Nation
DATE .        7-Jun-2007                 :Date as Month-Day-Year
APIN .        42-109-32287               :API Serial Number
SECT .        27                         :Section
TOWN .        46                         :Township
RANG .        2860                       :Range
DMF  .        Kelly Bushing              :Drilling Measured From
LMF  .        Kelly Bushing              :Log Measured From
PDAT .        Ground Level               :Permanent Datum
ENGI .        Tarek Sheira               :Engineer's Name
WITN .        Wiley Tisdale /Jud Walker  :Witness's Name
LATI .                                   :Latitude
LONG .                                   :Longitude
LUL  .        Midland  TX                :Logging Unit Location
LUN  .              2365                 :Logging Unit Number
RUN  .        2                          :Run Number
SON  .        11592406                   :Service Order Number
BHT  .DEGF     185.00000                 :Bottom Hole Temperature (used in calculations)
BS   .IN         8.75000                 :Bit Size
DFD  .LB/G       8.60000                 :Drilling Fluid Density
DFV  .S         39.00000                 :Drilling Fluid Viscosity
DFL  .C3         8.00000                 :Drilling Fluid Loss
RMFS .OHMM       0.42100                 :Resistivity of Mud Filtrate Sample
EKB  .F       4323.00000                 :Elevation of Kelly Bushing
EGL  .F       4283.00000                 :Elevation of Ground Level
BLI  .F       10360.70020                :Bottom Log Interval
BSAL .PPM      500.00000                 :Borehole Salinity
FLEV .                                   :Fluid Level
MCST .                                   :Mud Cake Sample Temperature
MFST .DEGF      96.90000                 :Mud Filtrate Sample Temperature
MRT  .DEGF     185.00000                 :Maximum Recorded Temperature
MST  .DEGF      96.90000                 :Mud Sample Temperature
RMCS .                                   :Resistivity of Mud Cake Sample
RMS  .OHMM       0.42100                 :Resistivity of Mud Sample
RW   .OHMM       1.00000                 :Resistivity of Connate Water
TDD  .F       10350.00000                :Total Depth - Driller
TDL  .F       10362.00000                :Total Depth - Logger
TLI  .F       4200.00000                 :Top Log Interval
HIDE .        Formation Micro Imager     :Header Identifier
MATR .        LIME                       :Rock Matrix for Neutron Porosity Corrections
FNUM .           1.00000                 :Form Factor Numerator
FEXP .           2.00000                 :Form Factor Exponent
DFT  .        Fresh Mud                  :Drilling Fluid Type
DFPH .           9.00000                 :Drilling Fluid PH
MCSS .        Calculated                 :Mud Cake Sample Source
MFSS .        Calculated                 :Mud Filtrate Sample Source
MSS  .        Circulation Tank           :Mud Sample Source
OS1  .        TLD-APS-HNGS               :Other Services Line 1
OS2  .        HRLA-HNGS                  :Other Services Line 2
OS3  .        FMI-GR                     :Other Services Line 3
OS4  .        DSI-GR                     :Other Services Line 4
OS5  .        HNGS                       :Other Services Line 5
R1   .        -Tool ran as per tool sketch. :Remark Line 1
R2   .        -Hole size & standoff corrections applied to APS porosity. :Remark Line 2
R3   .        -Log performed on a limestone matrix (MDEN = 2.71 g/cc  DTM = 47.6 us/ft) :Remark Line 3
R4   .        -Hole & cement volumes computed using FCD = 7 . :Remark Line 4
R5   .        -Source of max. hole temperature is CTEM = 185 DegF. :Remark Line 5
R6   .        -Source of max. hole deviation is company man = 3 Deg. :Remark Line 6
R7   .        -Repeat performed off bottom for 300' as per client request. :Remark Line 7
R8   .        -Density measurment is affected by washouts. :Remark Line 8
TCS  .        9 00                       :Time Circulation Stopped
TLAB .        22 15                      :Time Logger At Bottom
EPD  .F         4283.000000              :Elevation of Permanent Datum above Mean Sea Level
APD  .F          40.000000               :Elevation of Depth Reference (LMF) above Permanent Datum
#-----------------------------------------------------------------------------
~CURVE INFORMATION
#MNEM.UNIT   API CODE                                  DESCRIPTION
#---- -----  --------                                  -----------------------
DEPT .F                                                :DEPTH (BOREHOLE) {F12.4}
C1   .IN                                               :Caliper 1 {F11.4}
C2   .IN                                               :Caliper 2 {F11.4}
CHRP .                                                 :Label Peak Coherence, Receiver Array, Compressional - Monopole P&S {F11.4}
CHR1 .                                                 :Label Peak Coherence, Receiver Array - Lower Dipole {F11.4}
CHR2 .                                                 :Label Peak Coherence, Receiver Array - Upper Dipole {F11.4}
DCAL .IN                                               :Differential Caliper {F11.4}
DEVI .DEG                                              :Hole Deviation {F11.4}
DT1R .US/F                                             :Delta-T Shear, Receiver Array - Lower Dipole {F11.4}
DT2  .US/F                                             :Delta-T Shear - Upper Dipole {F11.4}
DT2R .US/F                                             :Delta-T Shear, Receiver Array - Upper Dipole {F11.4}
DT4P .US/F                                             :Delta-T Compressional - Monopole P&S {F11.4}
DT4S .US/F                                             :Delta-T Shear - Monopole P&S {F11.4}
DTCO .US/F                                             :Delta-T Compressional {F11.4}
DTRP .US/F                                             :Delta-T Compressional, Receiver Array - Monopole P&S {F11.4}
DTRS .US/F                                             :Delta-T Shear, Receiver Array - Monopole P&S {F11.4}
DTSM .US/F                                             :Delta-T Shear {F11.4}
ED   .F                                                :East Departure {F11.4}
GR_EDTC.GAPI                                           :Gamma Ray {F11.4}
GTEM .DEGF                                             :Generalized Borehole Temperature {F11.4}
HAZI .DEG                                              :Hole Azimuth {F11.4}
ITT  .S                                                :Integrated Transit Time {F11.4}
ND   .F                                                :North Departure {F11.4}
P1AZ .DEG                                              :Pad 1 Azimuth {F11.4}
PR   .                                                 :Poisson's Ratio {F11.4}
RB   .DEG                                              :Relative Bearing {F11.4}
SDEV .DEG                                              :Sonde Deviation {F11.4}
SPHI .CFCF                                             :Sonic Porosity {F11.4}
STIT .F                                                :Stuck Tool Indicator, Total {F11.4}
TENS .LBF                                              :Cable Tension {F11.4}
#-----------------------------------------------------------------------------
# 
#      DEPT         C1         C2        CHRP       CHR1       CHR2       DCAL       DEVI       DT1R       DT2        DT2R       DT4P       DT4S       DTCO       DTRP       DTRS       DTSM        ED      GR_EDTC      GTEM       HAZI       ITT         ND        P1AZ        PR         RB        SDEV       SPHI       STIT       TENS
#
~A  
   4145.5000     8.9295     9.0489     0.8544     0.9270     0.9577     0.2390     1.5018    90.9926    98.1908    98.9620    57.9401   100.0243    55.9622    57.9401   100.0243    98.1908   318.7213    48.6691   131.6061   294.6235     0.4299    24.1616   195.8638     0.2595   261.2375     1.5018     0.0591     0.0000  2571.0000
   4146.0000     8.9295     9.0489     0.8544     0.9270     0.9577     0.2390     1.5018    90.9926    98.1908    98.9620    57.9401   100.0243    55.9622    57.9401   100.0243    98.1908   318.7213    43.9578   131.6104   294.6235     0.4299    24.1616   195.8638     0.2595   261.2375     1.5018     0.0591     0.0000  2564.0000
   4146.5000     8.9295     9.0489     0.8544     0.9270     0.9577     0.2390     1.5018    90.9926    98.1908    98.9620    57.9401   100.0243    55.9622    57.9401   100.0243    98.1908   318.7213    45.0575   131.6147   294.6235     0.4299    24.1616   195.8638     0.2595   261.2375     1.5018     0.0591     0.0000  2556.0000
   4147.0000     8.9295     9.0489     0.8544     0.9270     0.9577     0.2390     1.5018    90.9926    98.1908    98.9620    57.9401   100.0243    55.9622    57.9401   100.0243    98.1908   318.7213    48.2915   131.6190   294.6235     0.4299    24.1616   195.8638     0.2595   261.2375     1.5018     0.0591     0.0000  2614.0000
   4147.5000     8.9295     9.0489     0.8544     0.9270     0.9577     0.2390     1.5018    90.9926    98.1908    98.9620    57.9401   100.0243    55.9622    57.9401   100.0243    98.1908   318.7213    51.3531   131.6233   294.6235     0.4299    24.1616   195.8638     0.2595   261.2375     1.5018     0.0591     0.0000  2537.0000
   4148.0000     8.9295     9.0489     0.8544     0.9270     0.9577     0.2390     1.5018    90.9926    98.1908    98.9620    57.9401   100.0243    55.9622    57.9401   100.0243    98.1908   318.7213    54.1463   131.6275   294.6235     0.4299    24.1616   195.8638     0.2595   261.2375     1.5018     0.0591     0.0000  2601.0000
   4148.5000     8.9295     9.0489     0.8544     0.9270     0.9577     0.2390     1.5018    90.9926    98.1908    98.9620    57.9401   100.0243    55.9622    57.9401   100.0243    98.1908   318.7213    54.4828   131.6319   294.6235     0.4299    24.1616   195.8638     0.2595   261.2375     1.5018     0.0591     0.0000  2565.0000
   4149.0000     8.9295     9.0489     0.8544     0.9270     0.9577     0.2390     1.5018    90.9926    98.1908    98.9620    57.9401   100.0243    55.9622    57.9401   100.0243    98.1908   318.7213    51.3939   131.6361   294.6235     0.4299    24.1616   195.8638     0.2595   261.2375     1.5018     0.0591     0.0000  2592.0000
   4149.5000     8.9295     9.0612     0.8544     0.9270     0.9577     0.2451     1.5018    90.9926    98.1908    98.9620    57.9401   100.0243    55.9622    57.9401   100.0243    98.1908   318.7213    46.8749   131.6404   294.6235     0.4299    24.1616   195.8638     0.2595   261.2375     1.5018     0.0591     0.0000  2622.0000
   4150.0000     8.9295     9.0489     0.8544     0.9270     0.9577     0.2390     1.3497    90.9926    98.1908    98.9620    57.9401   100.0243    55.9622    57.9401   100.0243    98.1908   318.7126    46.7220   131.6447   290.6634     0.4299    24.1574   124.4498     0.2595   193.7830     1.3497     0.0591     0.0000  2622.0000
   4150.5000     8.9295     9.0489     0.8544     0.9270     0.9577     0.2390     1.2597    90.9926    98.1908    98.9620    57.9401   100.0243    55.9622    57.9401   100.0243    98.1908   318.7035    49.8109   131.6490   281.4572     0.4299    24.1536   178.6228     0.2595   257.1625     1.2597     0.0591     0.0000  2595.0000
   4151.0000     8.9295     9.0489     0.8544     0.9270     0.9577     0.2390     1.2457    90.9926    98.1908    98.9620    57.9401   100.0243    55.9622    57.9401   100.0243    98.1908   318.6935    52.4827   131.6533   288.2507     0.4299    24.1501   150.8146     0.2595   222.5572     1.2457     0.0591     0.0000  2630.0000
   4151.5000     8.9295     9.0489     0.8544     0.9270     0.9577     0.2390     1.2297    90.9926    98.1908    98.9620    57.9401   100.0243    55.9622    57.9401   100.0243    98.1908   318.6829    49.6500   131.6576   288.9913     0.4299    24.1483   157.0762     0.2595   228.0783     1.2297     0.0591     0.0000  2589.0000
   4152.0000     8.9295     9.0612     0.8544     0.9270     0.9577     0.2451     1.2003    90.9926    98.1908    98.9620    57.9401   100.0243    55.9622    57.9401   100.0243    98.1908   318.6714    46.9283   131.6619   290.5206     0.4299    24.1480   203.3796     0.2595   272.8596     1.2003     0.0591     0.0000  2627.0000
   4152.5000     8.9295     9.0612     0.8544     0.9270     0.9577     0.2451     1.0295    90.9926    98.1908    98.9620    57.9401   100.0243    55.9622    57.9401   100.0243    98.1908   318.6590    39.5671   131.6662   283.6131     0.4299    24.1487   142.7386     0.2595   219.1211     1.0295     0.0591     0.0000  2630.0000
   4153.0000     8.9295     9.0735     0.8544     0.9270     0.9577     0.2512     0.9324    90.9926    98.1908    98.9620    57.9401   100.0243    55.9622    57.9401   100.0243    98.1908   318.6460    33.9532   131.6705   273.2935     0.4299    24.1496   195.4401     0.2595   282.1478     0.9324     0.0591     0.0000  2642.0000
   4153.5000     8.9295     9.0489     0.8544     0.9270     0.9577     0.2390     0.9011    90.9926    98.1908    98.9620    57.9401   100.0243    55.9622    57.9401   100.0243    98.1908   318.6326    29.2751   131.6748   271.2348     0.4299    24.1503    44.6207     0.2595   133.3896     0.9011     0.0591     0.0000  2674.0000
   4154.0000     8.9295     9.0489     0.8544     0.9270     0.9577     0.2390     0.8055    90.9926    98.1908    98.9620    57.9401   100.0243    55.9622    57.9401   100.0243    98.1908   318.6192    29.8424   131.6791   263.2472     0.4299    24.1518    43.7188     0.2595   140.4747     0.8055     0.0591     0.0000  2628.0000
   4154.5000     8.9295     9.0489     0.8651     0.9270     0.9577     0.2390     0.7516    90.9926    98.1908    98.9620    56.8249    98.3442    55.9622    56.8249    98.3442    98.1908   318.6062    29.0937   131.6834   257.7975     0.4299    24.1549    43.2121     0.2595   145.4170     0.7516     0.0591     0.0000  2652.0000
   4155.0000     8.9295     9.0489     0.9083     0.9270     0.9577     0.2390     0.7157    90.9926    98.1908    98.9620    56.6114    96.7112    55.9622    56.6114    96.7112    98.1908   318.5941    24.5909   131.6877   241.0560     0.4299    24.1594   191.2466     0.2595   310.1931     0.7157     0.0591     0.0000  2661.0000
   4155.5000     8.9295     9.0489     0.8996     0.9270     0.9577     0.2390     0.7000    90.9926    98.1908    98.9620    57.3179    94.4682    55.9622    57.3179    94.4682    98.1908   318.5829    20.5245   131.6920   225.6059     0.4299    24.1654   197.5654     0.2595   331.9613     0.7000     0.0591     0.0000  2616.0000
   4156.0000     8.9295     9.0489     0.9218     0.9270     0.9577     0.2390     0.6775    90.9926    98.1908    98.9620    55.7619    94.5913    55.9622    55.7619    94.5913    98.1908   318.5725    18.1516   131.6963   217.8768     0.4299    24.1726   184.6280     0.2595   326.7530     0.6775     0.0591     0.0000  2671.0000
   4156.5000     8.9295     9.0489     0.9170     0.9270     0.9577     0.2390     0.6411    90.9926    98.1908    98.9620    55.9622    95.1156    55.9622    55.9622    95.1156    98.1908   318.5623    17.2235   131.7006   217.2923     0.4299    24.1804    17.3125     0.2595   160.0212     0.6411     0.0591     0.0000  2668.0000
   4157.0000     8.9295     9.0489     0.8958     0.7977     0.8129     0.2390     0.5097    97.7185    94.4310    92.3494    55.8902    95.5341    55.8902    55.8902    95.5341    94.4310   318.5521    18.9029   131.7048   217.3336     0.4298    24.1890    20.8633     0.2304   163.5306     0.5097     0.0586     0.0000  2598.0000
   4157.5000     8.9295     9.0489     0.8507     0.0000     0.9065     0.2390     0.6461   122.1051   100.4100   100.7231    56.1027    97.0242    56.1027    56.1027    97.0242   100.4100   318.5419    19.6446   131.7092   208.8457     0.4298    24.1981    69.5296     0.2731   220.6820     0.6461     0.0601     0.0000  2600.0000
