~Version Information
 VERS.                  2.0:   CWLS log ASCII Standard -VERSION 2.0
 WRAP.                   NO:   One line per depth step
~Well Information Block
#MNEM.UNIT     VALUE/NAME     DESCRIPTION
#---------     -----------    ---------------------------
 STRT.F              8650.0000: START DEPTH
 STOP.F             14150.0000: STOP DEPTH
 STEP.F                 0.5000: STEP DEPTH
 NULL.                 -999.25: NULL VALUE
 LOC .     A1759-SEC34-BLK58-T2-:  LOCATION
 FL4 .        API 42-109-33169:  LOCATIONLINE4
 FL2 .     T&P RR CO-337FSL-25:  LOCATIONLINE2
 FL1 .     A1759-SEC34-BLK58-T2-:  LOCATIONLINE1
 DMF .                      KB:  DRILL MEAS FROM
 PDAT.                      GL:  PERMANENT DATUM
 CNTY.               CULBERSON:  COUNTY NAME
 FLD .     FORD, WEST (WOLFCAMP):  FIELD NAME
 WELL.         ALICE FEE 34 2H:  WELL NAME
 COMP.     CAPITAN ENERGY INC.:  COMPANY
 DATE.             27-Mar-2018:  DATE
 SVCO.             Halliburton:  SERVICECONAME
 PROV.                   TEXAS:  PROVINCE
 STAT.                   TEXAS:  STATE NAME
 CTRY.                     USA:  COUNTRY NAME
 HIDE.                        :  WELLNAMEOPERAT
 BASI.                 PERMIAN:  BASIN
 UWI .            42-109-33169LAT:  UNIQUE WELL IDENTIFIER
 API .            42-109-33169LAT:  API NUMBER
 RANG.                     N/A:  RANGE
 TOWN.                     N/A:  TOWNSHIP
 SECT.                     N/A:  SECTION
 SRVC.             Halliburton:  SERVICE COMPANY
 LMF .                      KB:  LOG MEASURED FROM
 TVDS.ft             3088.0000:  TVDSS CORRECTN
 EGL .ft             3063.0000:  GROUND ELEVATION
 APD .ft               25.0000:  DEPTH ABOVE PD
 EPD .ft             3063.0000:  ELEVATION
 BAP .ft                0.0000:  GL ELEV ONSHORE
 GVFD.g                 1.0000:  GRAVITY FIELD
 EKB .ft             3088.0000:  KB ELEVATION
 EDF .ft             3087.0000:  DF ELEVATION
~Curve Information Block
#MNEM.UNIT                 API CODE     Curve Description
#---------               -----------    ---------------------------
 DEPT.F                 00 000 000 000:  Depth
 CCL .mV                00 000 000 000:  Casing Collar Locator
 NPHI_OH.pu             00 000 000 000:  NPHI_OH
 NPHI_CHI.pu            00 000 000 000:  NPHI_CHI
 GR_OH.api              00 000 000 000:  GR_OH
 GR_CHI.api             00 000 000 000:  GR_CHI
 RHOB_OH.g/cc           00 000 000 000:  RHOB_OH
 RHOB_CHI.g/cc          00 000 000 000:  RHOB_CHI
 PE_OH.b/e              00 000 000 000:  PE_OH
 PE_CHI.b/e             00 000 000 000:  PE_CHI
 MSFL_OH.ohmm           00 000 000 000:  MSFL_OH
 MSFL_CHI.ohmm          00 000 000 000:  MSFL_CHI
 LLS_OH.ohmm            00 000 000 000:  LLS_OH
 LLS_CHI.ohmm           00 000 000 000:  LLS_CHI
 LLD_OH.ohmm            00 000 000 000:  LLD_OH
 LLD_CHI.ohmm           00 000 000 000:  LLD_CHI
 DTC_OH.uspf            00 000 000 000:  DTC_OH
 DTC_CHI.uspf           00 000 000 000:  DTC_CHI
 SPHI_CHI.pu            00 000 000 000:  SPHI_CHI
 SGF .cu                00 000 000 000:  Formation Sigma
 CRNF.NONE              00 000 000 000:  CM GrsCaptRatio
 RIN .NONE              00 000 000 000:  CM GrsInelRatio
#Other Information
#
#WARRANTY: Halliburton will use its best efforts to furnish customers with 
#accurate information and interpretations that are part of, and incident to, the services 
#provided.  However, Halliburton cannot and does not warrant the accuracy 
#or correctness of such information and interpretations.  Under no circumstances should any 
#such information or interpretation be relied upon as the sole basis for any drilling, 
#completion, production, or financial decision or any procedure involving any risk to the 
#safety of any drilling venture, drilling rig or its crew or any other third party.  The 
#Customer has full responsibility for all drilling, completion and production operation.  
#Halliburton makes no representations or warranties, either expressed or 
#implied, including, but not limited to, the implied warranties of merchantability or fitness 
#for a particular purpose, with respect to the services rendered.  In no event will 
#Halliburton be liable for failure to obtain any particular results or for 
#any damages, including, but not limited to, indirect, special or consequential damages, 
#resulting from the use of any information or interpretation provided by Halliburton.
#
~A    DEPT       CCL    NPHI_OH NPHI_CHI  GR_OH    GR_CHI  RHOB_OH RHOB_CHI  PE_OH  PE_CHI  MSFL_OH   MSFL_CHI  LLS_OH   LLS_CHI   LLD_OH   LLD_CHI  DTC_OH  DTC_CHI SPHI_CHI   SGF    CRNF   RIN   
# ...
   13385.5000    0.0000 -999.25  11.3146  -999.25  96.9844 -999.25   2.5820 -999.25 3.5974    -999.25  32.5470   -999.25  52.3255   -999.25  59.2232 -999.25 66.9198  13.6600 23.3810 0.6793 1.0109
   13386.0000    0.0000 -999.25  10.5797  -999.25  83.0276 -999.25   2.5925 -999.25 3.6441    -999.25  26.0508   -999.25  42.9481   -999.25  49.0587 -999.25 66.1890  13.1500 23.5357 0.6902 1.0129
   13386.5000    0.0000 -999.25  10.4359  -999.25  82.7204 -999.25   2.5947 -999.25 3.6452    -999.25  25.7330   -999.25  42.0972   -999.25  48.0661 -999.25 65.8783  12.9300 23.7981 0.7016 1.0184
   13387.0000    0.0000 -999.25  11.8076  -999.25 112.3360 -999.25   2.5756 -999.25 3.5288    -999.25  39.7338   -999.25  59.7227   -999.25  67.0518 -999.25 66.9141  13.6600 24.2105 0.7110 1.0244
   13387.5000    0.0000 -999.25  12.6115  -999.25 126.6976 -999.25   2.5642 -999.25 3.4721    -999.25  47.3816   -999.25  67.4275   -999.25  75.4857 -999.25 67.6469  14.1800 24.5829 0.7185 1.0324
   13388.0000    0.0000 -999.25  11.9366  -999.25 106.3756 -999.25   2.5736 -999.25 3.4995    -999.25  32.4318   -999.25  48.5524   -999.25  55.6151 -999.25 67.2823  13.9200 24.9377 0.7270 1.0426
   13388.5000    0.0000 -999.25  11.3610  -999.25  89.0446 -999.25   2.5816 -999.25 3.5313    -999.25  21.6209   -999.25  33.8412   -999.25  39.4027 -999.25 66.9946  13.7200 25.2395 0.7371 1.0493
   13389.0000    0.0000 -999.25  11.4676  -999.25  89.4418 -999.25   2.5802 -999.25 3.5068    -999.25  20.1997   -999.25  31.2875   -999.25  36.5423 -999.25 67.1842  13.8500 25.3833 0.7409 1.0538
   13389.5000    0.0000 -999.25  11.7104  -999.25  93.2672 -999.25   2.5770 -999.25 3.4738    -999.25  20.5811   -999.25  31.3819   -999.25  36.6219 -999.25 67.5496  14.1100 25.4649 0.7442 1.0525
   13390.0000  -47.2534 -999.25  11.9554  -999.25  97.3864 -999.25   2.5736 -999.25 3.4488    -999.25  21.8559   -999.25  33.0562   -999.25  38.4260 -999.25 67.9820  14.4100 25.4682 0.7360 1.0479
   13390.5000    0.0000 -999.25  11.3765  -999.25  82.9494 -999.25   2.5817 -999.25 3.4918    -999.25  16.3815   -999.25  25.6557   -999.25  30.1528 -999.25 67.5038  14.0800 25.4569 0.7241 1.0400
   13391.0000    0.0000 -999.25  11.6857  -999.25  89.8008 -999.25   2.5774 -999.25 3.4647    -999.25  18.5894   -999.25  28.6584   -999.25  33.5068 -999.25 67.8596  14.3300 25.4581 0.7139 1.0326
   13391.5000    0.0000 -999.25  12.5132  -999.25 109.8840 -999.25   2.5659 -999.25 3.4079    -999.25  27.1463   -999.25  39.7057   -999.25  45.7087 -999.25 68.5281  14.8000 25.4778 0.7097 1.0292
   13392.0000    0.0000 -999.25  12.6057  -999.25 115.6560 -999.25   2.5649 -999.25 3.3941    -999.25  29.7366   -999.25  42.5472   -999.25  48.6752 -999.25 68.3878  14.7000 25.5203 0.7187 1.0268
   13392.5000    0.0000 -999.25  12.6529  -999.25 120.1424 -999.25   2.5645 -999.25 3.3818    -999.25  31.7682   -999.25  44.4924   -999.25  50.7041 -999.25 68.1782  14.5500 25.4861 0.7335 1.0288
   13393.0000    0.0000 -999.25  12.2906  -999.25 113.2858 -999.25   2.5696 -999.25 3.4011    -999.25  28.1832   -999.25  39.9896   -999.25  45.8474 -999.25 67.7306  14.2400 25.3738 0.7444 1.0336
   13393.5000    0.0000 -999.25  12.2587  -999.25 109.7354 -999.25   2.5698 -999.25 3.4113    -999.25  26.7067   -999.25  38.4597   -999.25  44.2798 -999.25 67.8638  14.3300 25.2894 0.7511 1.0376
   13394.0000    0.0000 -999.25  12.3204  -999.25 106.5392 -999.25   2.5685 -999.25 3.4233    -999.25  25.9815   -999.25  38.1698   -999.25  44.1259 -999.25 68.1915  14.5600 25.2527 0.7491 1.0411
   13394.5000    0.0000 -999.25  12.4384  -999.25 106.0868 -999.25   2.5666 -999.25 3.4268    -999.25  26.3686   -999.25  39.1129   -999.25  45.2671 -999.25 68.4926  14.7800 25.1500 0.7517 1.0426
   13395.0000    0.0000 -999.25  12.8471  -999.25 114.0308 -999.25   2.5607 -999.25 3.4057    -999.25  30.5149   -999.25  44.3413   -999.25  51.0495 -999.25 68.9334  15.0900 25.2247 0.7490 1.0430
   13395.5000    0.0000 -999.25  12.4599  -999.25 105.3604 -999.25   2.5662 -999.25 3.4324    -999.25  26.4852   -999.25  39.6060   -999.25  45.8343 -999.25 68.6113  14.8600 25.2843 0.7448 1.0427
   13396.0000   41.0356 -999.25  12.3433  -999.25 102.2452 -999.25   2.5677 -999.25 3.4418    -999.25  25.1327   -999.25  37.9830   -999.25  44.0520 -999.25 68.5416  14.8100 25.4494 0.7401 1.0417
   13396.5000    0.0000 -999.25  12.8759  -999.25 115.4324 -999.25   2.5604 -999.25 3.4031    -999.25  31.1173   -999.25  45.1163   -999.25  51.8009 -999.25 68.9572  15.1000 25.5275 0.7338 1.0413
   13397.0000    0.0000 -999.25  12.5571  -999.25 108.4912 -999.25   2.5650 -999.25 3.4160    -999.25  27.2002   -999.25  40.0294   -999.25  46.2587 -999.25 68.6255  14.8700 25.4401 0.7294 1.0412
   13397.5000    0.0000 -999.25  12.6299  -999.25 111.1142 -999.25   2.5641 -999.25 3.3993    -999.25  27.5057   -999.25  39.8179   -999.25  45.9903 -999.25 68.6003  14.8500 25.0292 0.7273 1.0400
   13398.0000    0.0000 -999.25  12.7630  -999.25 115.6384 -999.25   2.5622 -999.25 3.3951    -999.25  30.5695   -999.25  43.4194   -999.25  50.0592 -999.25 68.5185  14.7900 24.5829 0.7267 1.0417
   13398.5000    0.0000 -999.25  12.7300  -999.25 115.9474 -999.25   2.5624 -999.25 3.4183    -999.25  33.2318   -999.25  47.5591   -999.25  54.7021 -999.25 68.4007  14.7100 24.2600 0.7262 1.0424
   13399.0000    0.0000 -999.25  12.4313  -999.25 108.8244 -999.25   2.5662 -999.25 3.4637    -999.25  31.8744   -999.25  47.2870   -999.25  54.5237 -999.25 68.1715  14.5500 24.1998 0.7242 1.0438
   13399.5000    0.0000 -999.25  12.1215  -999.25 101.7484 -999.25   2.5704 -999.25 3.5032    -999.25  29.7430   -999.25  45.6828   -999.25  52.7716 -999.25 67.9489  14.3900 24.3980 0.7230 1.0423
   13400.0000    0.0000 -999.25  12.1642  -999.25 103.6636 -999.25   2.5699 -999.25 3.5000    -999.25  30.8164   -999.25  47.2558   -999.25  54.3677 -999.25 68.0119  14.4400 24.7702 0.7229 1.0399
   13400.5000    0.0000 -999.25  11.8854  -999.25  99.0456 -999.25   2.5740 -999.25 3.5103    -999.25  27.8103   -999.25  43.2758   -999.25  49.7794 -999.25 67.7931  14.2800 25.1049 0.7278 1.0365
   13401.0000    0.0000 -999.25  11.7869  -999.25  98.1842 -999.25   2.5758 -999.25 3.4956    -999.25  25.7832   -999.25  39.8622   -999.25  45.8368 -999.25 67.7197  14.2300 25.4260 0.7367 1.0352
   13401.5000    0.0000 -999.25  12.7188  -999.25 120.6826 -999.25   2.5632 -999.25 3.4062    -999.25  34.4211   -999.25  49.0410   -999.25  55.6387 -999.25 68.3643  14.6800 25.5307 0.7458 1.0356
   13402.0000    0.0000 -999.25  12.9258  -999.25 125.2208 -999.25   2.5605 -999.25 3.3796    -999.25  35.4962   -999.25  49.4157   -999.25  56.0353 -999.25 68.5020  14.7800 25.4839 0.7494 1.0382
   13402.5000    0.0000 -999.25  12.6070  -999.25 114.4396 -999.25   2.5647 -999.25 3.3941    -999.25  29.0745   -999.25  41.5370   -999.25  47.7258 -999.25 68.3721  14.6900 25.4528 0.7487 1.0422
   13403.0000    0.0000 -999.25  12.7628  -999.25 114.9602 -999.25   2.5623 -999.25 3.3924    -999.25  29.6833   -999.25  42.5049   -999.25  48.9211 -999.25 68.6656  14.9000 25.2762 0.7482 1.0445
   13403.5000    0.0000 -999.25  12.0602  -999.25  95.1986 -999.25   2.5718 -999.25 3.4491    -999.25  20.8808   -999.25  31.8213   -999.25  37.2273 -999.25 68.2283  14.5900 25.3441 0.7485 1.0471
   13404.0000    0.0000 -999.25  12.6996  -999.25 110.2532 -999.25   2.5627 -999.25 3.4159    -999.25  28.7865   -999.25  42.1102   -999.25  48.7359 -999.25 68.7445  14.9500 25.4983 0.7539 1.0475
   13404.5000    0.0000 -999.25  12.2385  -999.25  99.2434 -999.25   2.5692 -999.25 3.4437    -999.25  23.1263   -999.25  34.9014   -999.25  40.7329 -999.25 68.3524  14.6800 25.6123 0.7531 1.0464
   13405.0000    0.0000 -999.25  12.4987  -999.25 105.5064 -999.25   2.5657 -999.25 3.4169    -999.25  25.2746   -999.25  37.2318   -999.25  43.3066 -999.25 68.5611  14.8200 25.7431 0.7557 1.0446
   13405.5000    0.0000 -999.25  12.9035  -999.25 114.1412 -999.25   2.5600 -999.25 3.3862    -999.25  29.0174   -999.25  41.5948   -999.25  48.1143 -999.25 68.9710  15.1100 25.6878 0.7553 1.0436
