###############################################
##         ENVERUS                           ##
##         ESS - Open Hole                   ##
##         PERMIAN / DELAWARE                ##
##         Nov 02 2023  V4.0                 ##
##         42-109-31391-00-00                ##
###############################################
## Copyright 2017-2023  ENVERUS.  All Rights Reserved. 
## Confidential - Property of ENVERUS, use governed by terms and 
## conditions found within the existing Information Services Subscription Agreement 
## (as may be amended, the “ISSA”) between Customer and ENVERUS. 
## 
~VERSION INFORMATION
# MNEM.UNIT                               DATA : DESCRIPTION OF MNEMONIC
#-----.-----     ----------------------------- : -----------------------------
VERS.                                     2.00 : CWLS LOG ASCII STANDARD - VERSION 2.00
WRAP.                                       NO : MULTIPLE LINES PER DEPTH STEP
VEND.                                  ENVERUS : VENDOR
TYPE.                          ESS - OPEN HOLE : ENVERUS ESSENTIAL CURVES – ACCESSIBLE THROUGH ENVERUS PRISM(TM)
DOC.                                  31999167 : ENVERUS HEADER RAW DOCUMENT ID
#___________________________________________________________________________________________________ 
~WELL INFORMATION 
# BOC9FSWoKCUsCFcWObZ1iTDYvHtSUwfaSl9bEava01AYiR20s/sWwY1hBaxvFz+VJj0aOQNxXrzxY9t5EPBGbg== 
# MNEM.UNIT                                              DATA : DESCRIPTION OF MNEMONIC 
#-----.-----                    ----------------------------- : ----------------------------- 
CNTY.                                               CULBERSON : COUNTY 
STATE.                                                  TEXAS : STATE 
CNTRY.                                                    USA : COUNTRY 
API.                                             42-109-31391 : API (10 Digit) 
API_14.                                    42-109-31391-00-00 : API (14 Digits) 
API_14_std.                                 42-109-31391-0000 : API (14 Digits Standard) 
UWI.                                           42109313910000 : UNIQUE WELL ID 
WELL.                                            TRES ALAS  1 : WELL NAME
STRT.FT                                                     0 : START DEPTH
STOP.FT                                               15494.0 : STOP DEPTH
STEP.FT                                                   0.5 : STEP BETWEEN DEPTHS
NULL.                                                 -999.25 : NULL VALUE
COMP.                           AMERICAN QUASAR PETROLEUM CO. : COMPANY
#___________________________________________________________________________________________________ 
~CURVE INFORMATION 
# MNEM.UNIT           : CURVE DESCRIPTION 
#-----.-----          : ----------------------------- 
 DEPT.FT               : MEASURED DEPTH 
 CALI.IN               : CALIPER (CAL - CAL) 
 GR.API                : GAMMA RAY (GR) 
 DT.US/FT              : SONIC DELTA TRANSIT TIME (DT) 
 #___________________________________________________________________________________________________ 
~A         DEPT           CALI             GR             DT
# ...
        11088.0          9.569         67.885         63.746
        11088.5          9.570         65.462         63.218
        11089.0          9.570         67.754         63.335
        11089.5          9.571         76.151         61.721
        11090.0          9.571         78.512         66.820
        11090.5          9.572         77.339         67.887
        11091.0          9.572         71.673         68.115
        11091.5          9.573         67.739         65.624
        11092.0          9.574         70.731         65.180
        11092.5          9.578         73.723         65.891
        11093.0          9.581         67.408         66.602
        11093.5          9.585         58.977         63.674
        11094.0          9.588         56.080         61.035
        11094.5          9.592         55.988         58.936
        11095.0          9.595         56.230         61.545
        11095.5          9.599         55.774         64.154
        11096.0          9.603         51.365         64.238
        11096.5          9.606         47.694         62.014
        11097.0          9.610         50.406         59.409
        11097.5          9.613         55.424         56.594
        11098.0          9.617         63.766         59.391
        11098.5          9.620         71.535         62.461
        11099.0          9.624         73.003         65.595
        11099.5          9.627         72.386         67.213
        11100.0          9.631         71.768         67.035
        11100.5          9.634         71.095         66.171
        11101.0          9.638         70.367         66.168
        11101.5          9.641         69.639         66.801
        11102.0          9.642         67.081         66.322
        11102.5          9.631         63.867         65.005
        11103.0          9.620         53.658         62.909
        11103.5          9.608         46.552         58.445
        11104.0          9.597         46.818         57.999
        11104.5          9.586         47.931         60.521
        11105.0          9.574         55.295         63.082
        11105.5          9.563         59.906         65.697
        11106.0          9.552         61.028         66.187
        11106.5          9.540         58.075         65.126
        11107.0          9.533         54.919         61.043
        11107.5          9.532         53.859         57.480
        11108.0          9.532         55.810         57.799
        11108.5          9.532         59.057         61.206
        11109.0          9.532         66.914         64.768
        11109.5          9.532         73.373         68.420
        11110.0          9.532         71.166         70.488
        11110.5          9.532         68.959         69.758
        11111.0          9.531         57.458         68.374
        11111.5          9.531         44.684         57.417
        11112.0          9.531         41.087         55.414
        11112.5          9.531         41.757         54.228
        11113.0          9.531         44.782         55.807
        11113.5          9.531         49.282         59.317
        11114.0          9.531         60.128         63.209
        11114.5          9.531         65.465         67.232
        11115.0          9.525         66.938         67.395
        11115.5          9.518         64.733         67.424
        11116.0          9.511         64.294         68.622
        11116.5          9.504         69.460         69.911
        11117.0          9.497         72.177         72.409
        11117.5          9.490         70.558         73.613
        11118.0          9.483         65.556         71.751
        11118.5          9.477         61.113         68.230
        11119.0          9.470         56.670         63.359
        11119.5          9.463         52.409         59.139
        11120.0          9.456         50.761         59.796
        11120.5          9.459         52.516         61.685
        11121.0          9.462         54.271         63.401
        11121.5          9.466         53.424         64.591
        11122.0          9.469         52.455         64.805
        11122.5          9.472         50.592         62.505
        11123.0          9.476         45.029         60.580
        11123.5          9.479         40.783         56.484
        11124.0          9.483         38.576         55.217
        11124.5          9.486         36.874         54.733
        11125.0          9.490         38.839         54.857
        11125.5          9.493         40.803         55.502
        11126.0          9.496         43.349         58.325
        11126.5          9.499         46.751         63.566
        11127.0          9.503         51.717         67.400
        11127.5          9.506         58.664         67.779
        11128.0          9.508         60.722         66.209
        11128.5          9.505         61.222         64.128
        11129.0          9.501         62.131         63.798
        11129.5          9.497         63.165         63.986
        11130.0          9.494         64.199         63.792
        11130.5          9.490         68.323         64.396
        11131.0          9.487         75.101         64.222
        11131.5          9.483         79.368         64.397
        11132.0          9.479         78.314         65.599
        11132.5          9.476         75.486         66.807
        11133.0          9.472         75.324         68.913
        11133.5          9.470         76.942         71.020
        11134.0          9.470         78.359         73.126
        11134.5          9.470         78.358         72.953
        11135.0          9.470         76.274         72.061
        11135.5          9.470         73.893         70.334
        11136.0          9.470         69.451         67.977
        11136.5          9.470         61.135         64.876
        11137.0          9.469         60.361         62.975
        11137.5          9.469         62.400         64.366
        11138.0          9.469         66.101         67.026
        11138.5          9.469         70.239         69.530
        11139.0          9.469         74.692         70.945
        11139.5          9.469         73.196         70.573
        11140.0          9.469         68.222         69.825
        11140.5          9.469         63.247         68.967
        11141.0          9.469         48.681         68.087
        11141.5          9.468         37.456         62.473
        11142.0          9.468         33.360         58.396
        11142.5          9.468         32.379         57.402
        11143.0          9.468         36.082         57.911
        11143.5          9.468         45.011         61.094
        11144.0          9.468         57.283         65.121
        11144.5          9.468         57.281         66.336
        11145.0          9.467         57.280         66.011
        11145.5          9.467         58.474         64.655
        11146.0          9.466         59.972         64.470
        11146.5          9.464         62.856         65.843
        11147.0          9.462         66.780         65.846
        11147.5          9.461         66.162         65.863
        11148.0          9.459         62.687         65.880
        11148.5          9.458         59.212         65.898
        11149.0          9.456         56.248         64.195
        11149.5          9.455         61.927         64.414
        11150.0          9.453         68.134         65.229
        11150.5          9.451         78.368         67.918
        11151.0          9.450         85.834         71.353
        11151.5          9.448         83.668         73.257
        11152.0          9.447         81.501         73.440
        11152.5          9.445         76.500         73.246
        11153.0          9.443         67.977         71.839
        11153.5          9.442         59.454         68.839
