~VERSION INFORMATION
VERS.           1.2   :CWLS Log ASCII Standard - VERSION 1.2
WRAP.           NO    :One Line per depth step
PROD.  Schlumberger   :LAS Producer
PROG.  DLIS to ASCII 10C0-306                          :LAS Program name and version
CREA.        2007/06/08 22:43                          :LAS Creation date {YYYY/MM/DD hh:mm}
SOURCE.     294b92a6-1e54-4f75-8d20-4493e48002f1       :DLIS File Name
#--------------------------------------------------
~WELL INFORMATION
#MNEM.UNIT      DATA             DESCRIPTION
#---- ------ --------------   -----------------------------
STRT .F      4145.5000       :START DEPTH     
STOP .F      10380.0000      :STOP DEPTH     
STEP .F       0.5000         :STEP       
NULL .          -999.25      :NULL VALUE
COMP .                 COMPANY:  Chesapeake Operating Inc.          
WELL .                    WELL:  University Lands 4627-1            
FLD  .                   FIELD:  Wildcat                            
LOC  .                LOCATION:  1200' FNL & 1995; FEL              
CNTY .                  COUNTY:  Culberson                          
STAT .                   STATE:  Texas                              
CTRY .                 COUNTRY:                                     
SRVC .         SERVICE COMPANY:  Schlumberger                       
API  .              API NUMBER:  42-109-32287                       
DATE .                LOG DATE:  7-Jun-2007
UWI  .          UNIQUE WELL ID:  42-109-32287-0000                  
#-----------------------------------------------------------------------------
~PARAMETER INFORMATION
#MNEM.UNIT    VALUE                      DESCRIPTION
#---- -----   --------------------       ------------------------
CN   .        Chesapeake Operating Inc.  :Company Name
WN   .        University Lands 4627-1    :Well Name
FN   .        Wildcat                    :Field Name
FL   .        1200' FNL & 1995  FEL      :Field Location
FL1  .        Secion  27  Block  46  Abstract  2860 :Field Location Line 1
COUN .        Culberson                  :County or Rig Name
STAT .        Texas                      :State or Province
NATI .                                   :Nation
DATE .        7-Jun-2007                 :Date as Month-Day-Year
APIN .        42-109-32287               :API Serial Number
SECT .        27                         :Section
TOWN .        46                         :Township
RANG .        2860                       :Range
DMF  .        Kelly Bushing              :Drilling Measured From
LMF  .        Kelly Bushing              :Log Measured From
PDAT .        Ground Level               :Permanent Datum
ENGI .        Tarek Sheira               :Engineer's Name
WITN .        Wiley Tisdale /Jud Walker  :Witness's Name
LATI .                                   :Latitude
LONG .                                   :Longitude
LUL  .        Midland  TX                :Logging Unit Location
LUN  .              2365                 :Logging Unit Number
RUN  .        2                          :Run Number
SON  .        11592406                   :Service Order Number
BHT  .DEGF     185.00000                 :Bottom Hole Temperature (used in calculations)
BS   .IN         8.75000                 :Bit Size
DFD  .LB/G       8.60000                 :Drilling Fluid Density
DFV  .S         39.00000                 :Drilling Fluid Viscosity
DFL  .C3         8.00000                 :Drilling Fluid Loss
RMFS .OHMM       0.42100                 :Resistivity of Mud Filtrate Sample
EKB  .F       4323.00000                 :Elevation of Kelly Bushing
EGL  .F       4283.00000                 :Elevation of Ground Level
BLI  .F       10360.70020                :Bottom Log Interval
BSAL .PPM      500.00000                 :Borehole Salinity
FLEV .                                   :Fluid Level
MCST .                                   :Mud Cake Sample Temperature
MFST .DEGF      96.90000                 :Mud Filtrate Sample Temperature
MRT  .DEGF     185.00000                 :Maximum Recorded Temperature
MST  .DEGF      96.90000                 :Mud Sample Temperature
RMCS .                                   :Resistivity of Mud Cake Sample
RMS  .OHMM       0.42100                 :Resistivity of Mud Sample
RW   .OHMM       1.00000                 :Resistivity of Connate Water
TDD  .F       10350.00000                :Total Depth - Driller
TDL  .F       10362.00000                :Total Depth - Logger
TLI  .F       4200.00000                 :Top Log Interval
HIDE .        Formation Micro Imager     :Header Identifier
MATR .        LIME                       :Rock Matrix for Neutron Porosity Corrections
FNUM .           1.00000                 :Form Factor Numerator
FEXP .           2.00000                 :Form Factor Exponent
DFT  .        Fresh Mud                  :Drilling Fluid Type
DFPH .           9.00000                 :Drilling Fluid PH
MCSS .        Calculated                 :Mud Cake Sample Source
MFSS .        Calculated                 :Mud Filtrate Sample Source
MSS  .        Circulation Tank           :Mud Sample Source
OS1  .        TLD-APS-HNGS               :Other Services Line 1
OS2  .        HRLA-HNGS                  :Other Services Line 2
OS3  .        FMI-GR                     :Other Services Line 3
OS4  .        DSI-GR                     :Other Services Line 4
OS5  .        HNGS                       :Other Services Line 5
R1   .        -Tool ran as per tool sketch. :Remark Line 1
R2   .        -Hole size & standoff corrections applied to APS porosity. :Remark Line 2
R3   .        -Log performed on a limestone matrix (MDEN = 2.71 g/cc  DTM = 47.6 us/ft) :Remark Line 3
R4   .        -Hole & cement volumes computed using FCD = 7 . :Remark Line 4
R5   .        -Source of max. hole temperature is CTEM = 185 DegF. :Remark Line 5
R6   .        -Source of max. hole deviation is company man = 3 Deg. :Remark Line 6
R7   .        -Repeat performed off bottom for 300' as per client request. :Remark Line 7
R8   .        -Density measurment is affected by washouts. :Remark Line 8
TCS  .        9 00                       :Time Circulation Stopped
TLAB .        22 15                      :Time Logger At Bottom
EPD  .F         4283.000000              :Elevation of Permanent Datum above Mean Sea Level
APD  .F          40.000000               :Elevation of Depth Reference (LMF) above Permanent Datum
#-----------------------------------------------------------------------------
~CURVE INFORMATION
#MNEM.UNIT   API CODE                                  DESCRIPTION
#---- -----  --------                                  -----------------------
DEPT .F                                                :DEPTH (BOREHOLE) {F12.4}
C1   .IN                                               :Caliper 1 {F11.4}
C2   .IN                                               :Caliper 2 {F11.4}
CHRP .                                                 :Label Peak Coherence, Receiver Array, Compressional - Monopole P&S {F11.4}
CHR1 .                                                 :Label Peak Coherence, Receiver Array - Lower Dipole {F11.4}
CHR2 .                                                 :Label Peak Coherence, Receiver Array - Upper Dipole {F11.4}
DCAL .IN                                               :Differential Caliper {F11.4}
DEVI .DEG                                              :Hole Deviation {F11.4}
DT1R .US/F                                             :Delta-T Shear, Receiver Array - Lower Dipole {F11.4}
DT2  .US/F                                             :Delta-T Shear - Upper Dipole {F11.4}
DT2R .US/F                                             :Delta-T Shear, Receiver Array - Upper Dipole {F11.4}
DT4P .US/F                                             :Delta-T Compressional - Monopole P&S {F11.4}
DT4S .US/F                                             :Delta-T Shear - Monopole P&S {F11.4}
DTCO .US/F                                             :Delta-T Compressional {F11.4}
DTRP .US/F                                             :Delta-T Compressional, Receiver Array - Monopole P&S {F11.4}
DTRS .US/F                                             :Delta-T Shear, Receiver Array - Monopole P&S {F11.4}
DTSM .US/F                                             :Delta-T Shear {F11.4}
ED   .F                                                :East Departure {F11.4}
GR_EDTC.GAPI                                           :Gamma Ray {F11.4}
GTEM .DEGF                                             :Generalized Borehole Temperature {F11.4}
HAZI .DEG                                              :Hole Azimuth {F11.4}
ITT  .S                                                :Integrated Transit Time {F11.4}
ND   .F                                                :North Departure {F11.4}
P1AZ .DEG                                              :Pad 1 Azimuth {F11.4}
PR   .                                                 :Poisson's Ratio {F11.4}
RB   .DEG                                              :Relative Bearing {F11.4}
SDEV .DEG                                              :Sonde Deviation {F11.4}
SPHI .CFCF                                             :Sonic Porosity {F11.4}
STIT .F                                                :Stuck Tool Indicator, Total {F11.4}
TENS .LBF                                              :Cable Tension {F11.4}
#-----------------------------------------------------------------------------
# 
#      DEPT         C1         C2        CHRP       CHR1       CHR2       DCAL       DEVI       DT1R       DT2        DT2R       DT4P       DT4S       DTCO       DTRP       DTRS       DTSM        ED      GR_EDTC      GTEM       HAZI       ITT         ND        P1AZ        PR         RB        SDEV       SPHI       STIT       TENS
#
~A  
# ...
   5808.0000     9.2309     8.2870     0.7154     0.4693     0.4279    -0.0038     3.3110   189.8620   186.2847   179.2625   113.5498  -999.2500   113.5498   113.5498  -999.2500   186.2847   233.3564    90.4028   145.8854   248.1817     0.3061     2.7279   125.9654     0.2044   237.7404     3.3110     0.4664     0.0000  3059.0000
   5808.5000     9.2560     8.2870     0.7805     0.4693     0.4279     0.0081     3.3211   189.8620   183.6750   179.2625   113.4610  -999.2500   113.4610   113.4610  -999.2500   183.6750   233.3283    88.0730   145.8897   248.1875     0.3061     2.7169   126.6087     0.1915   238.3780     3.3211     0.4658     0.0000  3012.0000
   5809.0000     9.1555     8.1026     0.0000     0.4414     0.8231    -0.1370     3.3278   175.1867   114.3118   108.2459  -442.8945   114.9098  -442.8945  -442.8945   114.9098   114.3118   233.3002    87.7015   145.8940   248.1413     0.3060     2.7058   126.1208  -499.5293   237.9359     3.3278     0.0000     0.0000  3045.0000
   5809.5000     9.1555     8.0903     0.4622     0.9089     0.8901    -0.1435     3.3315   132.4803   113.3650   105.3061    68.4089   102.9916    68.4089    68.4089   102.9916   113.3650   233.2720    82.1581   145.8983   248.1736     0.3060     2.6948   127.7194     0.2137   239.5034     3.3315     0.1472     0.0000  3028.0000
   5810.0000     9.1555     8.0903     0.5029     0.9490     0.8913    -0.1435     3.3366   127.9501   118.8044   116.5237    77.1440   116.1425    77.1440    77.1440   116.1425   118.8044   233.2438    76.2462   145.9026   248.0913     0.3060     2.6837   130.2894     0.1355   242.1579     3.3366     0.2089     0.0000  3010.0000
   5810.5000     9.1555     8.0657     0.4773     0.9563     0.8055    -0.1566     3.3454   129.8547   118.0318   117.3635    76.2871   117.7646    76.2871    76.2871   117.7646   118.0318   233.2155    74.7089   145.9069   248.1016     0.3060     2.6726   136.3328     0.1413   248.1975     3.3454     0.2029     0.0000  3045.0000
   5811.0000     9.1555     8.0412     0.3360     0.9113     0.9384    -0.1697     3.3526   128.1503   123.1352   126.4131    77.9569   117.4246    77.9569    77.9569   117.4246   123.1352   233.1872    72.3895   145.9112   248.0553     0.3059     2.6616   138.7152     0.1655   250.6291     3.3526     0.2147     0.0000  3018.0000
   5811.5000     9.1555     8.0657     0.5514     0.9790     0.6768    -0.1566     3.3578   129.9566   124.3985   128.1529    76.3599   117.3966    76.3599    76.3599   117.3966   124.3985   233.1589    75.5274   145.9155   248.0402     0.3059     2.6505   140.3954     0.1977   252.3266     3.3578     0.2034     0.0000  3040.0000
   5812.0000     9.1555     8.0657     0.5554     0.9741     0.9398    -0.1566     3.3693   121.5461   118.9141   121.3241    76.1169   118.8820    76.1169    76.1169   118.8820   118.9141   233.1305    72.8979   145.9198   248.0874     0.3058     2.6394   141.5313     0.1529   253.4168     3.3693     0.2017     0.0000  3081.0000
   5812.5000     9.1555     8.0657     0.5850     0.8984     0.9408    -0.1566     3.3745   127.7815   120.8143   124.3920    72.6592   116.9661    72.6592    72.6592   116.9661   120.8143   233.1021    73.4694   145.9241   248.0925     0.3058     2.6283   141.9766     0.2167   253.8576     3.3745     0.1772     0.0000  3047.0000
   5813.0000     9.1555     8.0535     0.3366     0.7153     0.8272    -0.1632     3.3813   129.1739   114.8450   113.4650    68.4599   116.3692    68.4599    68.4599   116.3692   114.8450   233.0736    70.4659   145.9284   248.1640     0.3058     2.6173   140.2288     0.2244   252.0355     3.3813     0.1475     0.0000  3055.0000
   5813.5000     9.1555     8.0576     0.0000     0.8633     0.8351    -0.1610     3.3921   135.1235   117.7696   117.8089    67.9695   112.1530    67.9695    67.9695   112.1530   117.7696   233.0450    68.0809   145.9327   248.1695     0.3057     2.6062   139.1375     0.2503   250.9370     3.3921     0.1441     0.0000  3025.0000
   5814.0000     9.1555     8.0657     0.4023     0.8718     0.8399    -0.1566     3.3947   117.8111   114.6103   116.5523    67.4792   112.4738    67.4792    67.4792   112.4738   114.6103   233.0165    63.1449   145.9370   248.1832     0.3057     2.5951   138.4360     0.2347   250.2209     3.3947     0.1406     0.0000  3042.0000
   5814.5000     9.1555     8.1026     0.4250     0.7081     0.8225    -0.1370     3.4024   114.6961   117.0686   124.9340    69.1045   111.2505    69.1045    69.1045   111.2505   117.0686   232.9879    59.6257   145.9413   248.2023     0.3057     2.5840   137.7534     0.2326   249.5179     3.4024     0.1521     0.0000  3083.0000
   5815.0000     9.1555     8.0657     0.4165     0.8270     0.8488    -0.1566     3.4072   109.2988   109.5399   112.5177    63.8046   106.9314    63.8046    63.8046   106.9314   109.5399   232.9593    57.9932   145.9455   248.2128     0.3056     2.5730   135.5590     0.2432   247.3102     3.4072     0.1146     0.0000  3022.0000
   5815.5000     9.1555     8.0535     0.4671     0.7802     0.8937    -0.1632     3.4119   102.1785   114.2735   122.5599    72.2634   106.0879    72.2634    72.2634   106.0879   114.2735   232.9306    63.5018   145.9498   248.2377     0.3056     2.5619   134.9206     0.1668   246.6459     3.4119     0.1744     0.0000  2996.0000
   5816.0000     9.1555     8.0412     0.4940     0.7973     0.8509    -0.1697     3.4179   107.6415   112.5069   116.6224    67.3314   109.5326    67.3314    67.3314   109.5326   112.5069   232.9019    63.7004   145.9541   248.2273     0.3056     2.5508   136.1884     0.2210   247.9255     3.4179     0.1395     0.0000  3089.0000
   5816.5000     9.1555     8.0412     0.4816     0.9234     0.8852    -0.1697     3.4214   119.6457   108.4990   110.2694    68.0430   108.3540    68.0430    68.0430   108.3540   108.4990   232.8732    65.6999   145.9584   248.2207     0.3055     2.5397   137.6479     0.1759   249.3935     3.4214     0.1446     0.0000  3033.0000
   5817.0000     9.1555     8.0657     0.5836     0.9380     0.9373    -0.1566     3.4285   117.0667   110.0126   111.6015    67.9564   109.0846    67.9564    67.9564   109.0846   110.0126   232.8444    63.1292   145.9627   248.2472     0.3055     2.5287   138.7222     0.1915   250.4426     3.4285     0.1440     0.0000  3018.0000
   5817.5000     9.1555     8.0535     0.6775     0.8205     0.9268    -0.1632     3.4351   132.7394   110.5118   111.0413    69.7408   111.9099    69.7408    69.7408   111.9099   110.5118   232.8156    69.5712   145.9670   248.2732     0.3055     2.5177   140.3605     0.1691   252.0573     3.4351     0.1566     0.0000  3138.0000
   5818.0000     9.1555     8.0535     0.6051     0.9668     0.9555    -0.1632     3.4371   120.0744   112.8795   116.0263    73.4005   113.3811    73.4005    73.4005   113.3811   112.8795   232.7867    73.9500   145.9713   248.3121     0.3054     2.5066   141.9236     0.1337   253.5835     3.4371     0.1825     0.0000  3028.0000
   5818.5000     9.1555     8.0412     0.6607     0.9839     0.9518    -0.1697     3.4427   123.1759   113.4648   113.0541    72.3109   115.0618    72.3109    72.3109   115.0618   113.4648   232.7579    83.6534   145.9756   248.3633     0.3054     2.4956   143.1251     0.1580   254.7355     3.4427     0.1748     0.0000  3115.0000
   5819.0000     9.1555     8.0535     0.6807     0.9927     0.9659    -0.1632     3.4494   121.6557   113.7767   115.8860    69.0738   112.5030    69.0738    69.0738   112.5030   113.7767   232.7289    98.1593   145.9799   248.4285     0.3053     2.4847   144.5070     0.2081   256.0541     3.4494     0.1519     0.0000  3076.0000
   5819.5000     9.1555     8.0535     0.6631     0.9595     0.9607    -0.1632     3.4521   119.3984   107.0909   116.6405    70.0792   112.2419    70.0792    70.0792   112.2419   107.0909   232.6999   110.1083   145.9842   248.4840     0.3053     2.4737   145.0840     0.1255   256.5765     3.4521     0.1590     0.0000  3021.0000
   5820.0000     9.1555     8.0412     0.6410     0.9844     0.7787    -0.1697     3.4595   119.3507   113.7806   128.9634    66.8241   104.7294    66.8241    66.8241   104.7294   113.7806   232.6709   107.7497   145.9885   248.5231     0.3053     2.4628   146.0478     0.2367   257.5026     3.4595     0.1360     0.0000  3112.0000
