###############################################
##         ENVERUS                           ##
##         ESS - Open Hole                   ##
##         PERMIAN / DELAWARE                ##
##         Nov 03 2023  V4.0                 ##
##         42-109-32620-90-00                ##
###############################################
## Copyright 2017-2023  ENVERUS.  All Rights Reserved. 
## Confidential - Property of ENVERUS, use governed by terms and 
## conditions found within the existing Information Services Subscription Agreement 
## (as may be amended, the “ISSA”) between Customer and ENVERUS. 
## 
~VERSION INFORMATION
# MNEM.UNIT                               DATA : DESCRIPTION OF MNEMONIC
#-----.-----     ----------------------------- : -----------------------------
VERS.                                     2.00 : CWLS LOG ASCII STANDARD - VERSION 2.00
WRAP.                                       NO : MULTIPLE LINES PER DEPTH STEP
VEND.                                  ENVERUS : VENDOR
TYPE.                          ESS - OPEN HOLE : ENVERUS ESSENTIAL CURVES – ACCESSIBLE THROUGH ENVERUS PRISM(TM)
DOC.                                  51092896 : ENVERUS HEADER RAW DOCUMENT ID
#___________________________________________________________________________________________________ 
~WELL INFORMATION 
# mS4wxE9S4ErBCd3MEwtzWWb7vaBLyBp2a6hoNdhJ+t1pinRta8/5SsS3wr5CrR4pTncMCKeAGTUU45xlgh6yRQ== 
# MNEM.UNIT                                              DATA : DESCRIPTION OF MNEMONIC 
#-----.-----                    ----------------------------- : ----------------------------- 
CNTY.                                               CULBERSON : COUNTY 
STATE.                                                  TEXAS : STATE 
CNTRY.                                                    USA : COUNTRY 
API.                                             42-109-32620 : API (10 Digit) 
API_14.                                    42-109-32620-90-00 : API (14 Digits) 
API_14_std.                                 42-109-32620-9000 : API (14 Digits Standard) 
UWI.                                           42109326209000 : UNIQUE WELL ID 
WELL.                               42109326200000_PREV_API14 : WELL NAME
STRT.FT                                                2338.5 : START DEPTH
STOP.FT                                               10866.0 : STOP DEPTH
STEP.FT                                                   0.5 : STEP BETWEEN DEPTHS
NULL.                                                 -999.25 : NULL VALUE
PREV_APII.                                     42109326200000 : WELL IDENTIFIER
#___________________________________________________________________________________________________ 
~PARAMETER INFORMATION 
# MNEM.UNIT                                              DATA : DESCRIPTION OF MNEMONIC 
#-----.-----                    ----------------------------- : ----------------------------- 
EKB.FT                                                   3330 : ELEVATION ABOVE MSL
#___________________________________________________________________________________________________ 
~CURVE INFORMATION 
# MNEM.UNIT           : CURVE DESCRIPTION 
#-----.-----          : ----------------------------- 
 DEPT.FT               : MEASURED DEPTH 
 CALI.IN               : CALIPER (CAL - CALIPER) 
 GR.API                : GAMMA RAY (GAMMA RAY) 
 DT.US/FT              : SONIC DELTA TRANSIT TIME (PRESSURE WAVE SONIC) 
 #___________________________________________________________________________________________________ 
~A         DEPT           CALI             GR             DT
# ...
         4054.5         10.053         62.859         72.210
         4055.0          9.992         63.673         70.636
         4055.5          9.912         63.797         69.426
         4056.0          9.872         68.008         69.436
         4056.5          9.852         91.160         70.615
         4057.0          9.792        110.243         70.873
         4057.5          9.773        118.703         70.752
         4058.0          9.773        127.852         70.970
         4058.5          9.765        177.691         71.633
         4059.0          9.704        221.320         70.831
         4059.5          9.623        206.266         69.941
         4060.0          9.573        176.158         69.456
         4060.5          9.605        160.919         69.572
         4061.0          9.633        144.379         70.680
         4061.5          9.667         99.942         68.991
         4062.0          9.673         88.072         67.457
         4062.5          9.673         62.387         66.370
         4063.0          9.693         67.894         66.419
         4063.5          9.713         74.184         66.774
         4064.0          9.713         76.435         67.322
         4064.5          9.712         88.017         67.687
         4065.0          9.673        110.844         68.542
         4065.5          9.673        137.225         69.119
         4066.0          9.673        142.470         69.055
         4066.5          9.673        111.721         68.764
         4067.0          9.673         86.756         67.745
         4067.5          9.693         82.761         68.127
         4068.0          9.713         82.490         68.104
         4068.5          9.703         88.887         68.165
         4069.0          9.693         94.118         67.741
         4069.5          9.673         87.928         67.389
         4070.0          9.673         88.758         67.023
         4070.5          9.633         95.696         67.527
         4071.0          9.633        114.764         68.866
         4071.5          9.613        139.568         69.417
         4072.0          9.595        140.944         69.316
         4072.5          9.574        135.829         68.866
         4073.0          9.592        139.992         67.839
         4073.5          9.573        150.616         68.788
         4074.0          9.573        186.795         71.025
         4074.5          9.596       -999.250         74.009
         4075.0          9.633        299.801         75.623
         4075.5          9.698        300.074         72.397
         4076.0          9.713        223.889         67.466
         4076.5          9.713         66.537         61.344
         4077.0          9.761         47.329         58.918
         4077.5          9.773         43.912         58.999
         4078.0          9.852         44.219         60.578
         4078.5          9.932         46.104         65.070
         4079.0          9.965         47.705         69.461
         4079.5         10.066         44.659         73.098
         4080.0         10.127         44.663         75.517
         4080.5         10.228         47.949         78.326
         4081.0         10.309         50.757         79.082
         4081.5         10.391         57.811         79.829
         4082.0         10.471         61.165         80.439
         4082.5         10.471         56.131         81.047
         4083.0         10.513         51.678         81.626
         4083.5         10.571         51.070         82.630
         4084.0         10.591         57.675         83.089
         4084.5         10.591         56.227         82.953
         4085.0         10.591         51.571         82.353
         4085.5         10.571         50.100         81.198
         4086.0         10.551         51.994         80.206
         4086.5         10.501         55.489         74.409
         4087.0         10.440         54.376         71.046
         4087.5         10.339         54.011         68.031
         4088.0         10.331         55.020         69.560
         4088.5         10.345         54.890         74.580
         4089.0         10.406         53.009         77.213
         4089.5         10.451         46.772         80.802
         4090.0         10.451         45.135         80.983
         4090.5         10.471         46.172         80.568
         4091.0         10.491         45.712         80.381
         4091.5         10.471         47.237         79.633
         4092.0         10.471         51.083         76.946
         4092.5         10.428         54.536         73.471
         4093.0         10.331         54.529         72.416
         4093.5         10.331         51.119         74.835
         4094.0         10.351         47.819         78.306
         4094.5         10.411         44.263         81.912
         4095.0         10.411         43.114         81.697
         4095.5         10.411         46.133         81.331
         4096.0         10.471         50.500         79.776
         4096.5         10.459         52.311         74.090
         4097.0         10.398         50.569         72.192
         4097.5         10.351         52.102         72.448
         4098.0         10.367         54.282         74.461
         4098.5         10.431         51.153         79.864
         4099.0         10.451         52.394         80.731
         4099.5         10.511         55.268         80.626
         4100.0         10.531         55.489         80.441
         4100.5         10.511         55.681         80.321
         4101.0         10.491         56.963         80.367
         4101.5         10.491         64.779         79.058
         4102.0         10.411         72.757         76.128
         4102.5         10.254         97.545         71.980
         4103.0         10.122        105.385         70.036
         4103.5         10.005        106.300         69.850
         4104.0          9.932        109.320         69.789
         4104.5          9.872        107.146         69.640
         4105.0          9.872        102.209         69.641
         4105.5          9.872        100.798         69.850
         4106.0          9.839         98.950         69.889
         4106.5          9.812         90.030         69.867
         4107.0          9.777         86.627         69.789
         4107.5          9.773         88.024         69.680
         4108.0          9.733         87.144         69.782
         4108.5          9.713        103.692         70.451
         4109.0          9.673        138.796         70.869
         4109.5          9.613        174.053         73.294
         4110.0          9.473        227.676         73.822
         4110.5          9.473        225.649         71.425
         4111.0          9.409        183.315         66.236
         4111.5          9.373        178.969         64.487
         4112.0          9.353        197.053         63.978
         4112.5          9.353        208.694         66.619
         4113.0          9.362        222.433         70.526
         4113.5          9.373        242.569         72.404
         4114.0          9.433        229.463         72.826
         4114.5          9.525        174.125         71.758
         4115.0          9.573        127.789         69.569
         4115.5          9.607         99.709         67.546
         4116.0          9.613         87.396         66.658
         4116.5          9.613         77.036         65.744
         4117.0          9.613         86.577         65.923
         4117.5          9.631        107.164         66.832
         4118.0          9.652        120.517         68.224
         4118.5          9.694        111.497         70.134
         4119.0          9.733        102.507         70.506
         4119.5          9.756         96.401         70.391
         4120.0          9.792         89.417         70.344
