~Version Information
 VERS.                  2.0:   CWLS log ASCII Standard -VERSION 2.0
 WRAP.                   NO:   One line per depth step
~Well Information Block
#MNEM.UNIT     VALUE/NAME     DESCRIPTION
#---------     -----------    ---------------------------
 STRT.F              8400.0000: START DEPTH
 STOP.F             14661.0000: STOP DEPTH
 STEP.F                 0.5000: STEP DEPTH
 NULL.                 -999.25: NULL VALUE
 LOC .            42-109-33545:  LOCATION
 FL1 .            42-109-33545:  LOCATIONLINE1
 DMF .             Drill Floor:  DRILL MEAS FROM
 PDAT.                      GL:  PERMANENT DATUM
 CNTY.               CULBERSON:  COUNTY NAME
 FLD .              WOLFCAMP B:  FIELD NAME
 WELL.           DALE STATE 3H:  WELL NAME
 COMP.     CAPITAN ENERGY INC.:  COMPANY
 DATE.             12-Feb-2020:  DATE
 SVCO.             Halliburton:  SERVICECONAME
 PROV.                      TX:  PROVINCE
 STAT.                      TX:  STATE NAME
 HIDE.                        :  WELLNAMEOPERAT
 BASI.                 PERMIAN:  BASIN
 UWI .            42-109-33545:  UNIQUE WELL IDENTIFIER
 API .            42-109-33545:  API NUMBER
 RANG.                     N/A:  RANGE
 TOWN.                     N/A:  TOWNSHIP
 SECT.                     N/A:  SECTION
 SON .               906290460:  JOB NUMBER
 CTRY.                        :  COUNTRY
 SRVC.             Halliburton:  SERVICE COMPANY
 LMF .             Drill Floor:  LOG MEASURED FROM
 TVDS.ft             3291.0000:  TVDSS CORRECTN
 EGL .ft             3266.0000:  GROUND ELEVATION
 APD .ft               25.0000:  DEPTH ABOVE PD
 EPD .ft             3266.0000:  ELEVATION
 BAP .ft                0.0000:  GL ELEV ONSHORE
 GVFD.g                 1.0000:  GRAVITY FIELD
 EKB .ft             3291.0000:  KB ELEVATION
 EDF .ft             3291.0000:  DF ELEVATION
~Curve Information Block
#MNEM.UNIT                 API CODE     Curve Description
#---------               -----------    ---------------------------
 DEPT.F                 00 000 000 000:  Depth
 CCL .V                 00 000 000 000:  Casing Collar Locator
 NPHI_OH.pu             00 000 000 000:  NPHI_OH
 NPHI_CHI.decp          00 000 000 000:  NPHI_CHI
 GR_OH.api              00 000 000 000:  GR_OH
 GR_CHI.api             00 000 000 000:  GR_CHI
 RHOB_OH.g/cc           00 000 000 000:  RHOB_OH
 RHOB_CHI.g/cc          00 000 000 000:  RHOB_CHI
 PE_OH.NONE             00 000 000 000:  PE_OH
 PE_CHI.NONE            00 000 000 000:  PE_CHI
 LLS_CHI.ohmm           00 000 000 000:  LLS_CHI
 LLS_OH.ohmm            00 000 000 000:  LLS_OH
 LLD_OH.ohmm            00 000 000 000:  LLD_OH
 LLD_CHI.ohmm           00 000 000 000:  LLD_CHI
 DTC_OH.uspf            00 000 000 000:  DTC_OH
 DTC_CHI.uspf           00 000 000 000:  DTC_CHI
 SPHW_CHI.decp          00 000 000 000:  SPHW_CHI
#Other Information
#
#WARRANTY: Halliburton will use its best efforts to furnish customers with 
#accurate information and interpretations that are part of, and incident to, the services 
#provided.  However, Halliburton cannot and does not warrant the accuracy 
#or correctness of such information and interpretations.  Under no circumstances should any 
#such information or interpretation be relied upon as the sole basis for any drilling, 
#completion, production, or financial decision or any procedure involving any risk to the 
#safety of any drilling venture, drilling rig or its crew or any other third party.  The 
#Customer has full responsibility for all drilling, completion and production operation.  
#Halliburton makes no representations or warranties, either expressed or 
#implied, including, but not limited to, the implied warranties of merchantability or fitness 
#for a particular purpose, with respect to the services rendered.  In no event will 
#Halliburton be liable for failure to obtain any particular results or for 
#any damages, including, but not limited to, indirect, special or consequential damages, 
#resulting from the use of any information or interpretation provided by Halliburton.
#
~A    DEPT      CCL   NPHI_OH NPHI_CHI  GR_OH    GR_CHI  RHOB_OH RHOB_CHI  PE_OH  PE_CHI  LLS_CHI   LLS_OH    LLD_OH    LLD_CHI  DTC_OH  DTC_CHI SPHW_CHI 
# ...
   12560.5000  0.0000 -999.25   0.1126  -999.25  83.9523 -999.25   2.5825 -999.25 3.4479   72.5363   -999.25   -999.25   87.3058 -999.25 70.3498 0.1609
   12561.0000  0.0000 -999.25   0.1138  -999.25  85.4917 -999.25   2.5806 -999.25 3.4613   77.8142   -999.25   -999.25   93.3317 -999.25 70.5168 0.1621
   12561.5000  0.0385 -999.25   0.1150  -999.25  84.7127 -999.25   2.5777 -999.25 3.4557   80.7480   -999.25   -999.25   96.2794 -999.25 70.6395 0.1629
   12562.0000  0.0131 -999.25   0.1166  -999.25  87.1549 -999.25   2.5745 -999.25 3.4323   81.2001   -999.25   -999.25   96.2844 -999.25 70.9044 0.1648
   12562.5000  0.0000 -999.25   0.1174  -999.25  87.0614 -999.25   2.5732 -999.25 3.4099   79.0014   -999.25   -999.25   93.5293 -999.25 70.9655 0.1652
   12563.0000  0.0000 -999.25   0.1178  -999.25  90.2488 -999.25   2.5738 -999.25 3.3908   75.6799   -999.25   -999.25   89.8352 -999.25 71.1121 0.1663
   12563.5000 -0.0163 -999.25   0.1186  -999.25  99.9952 -999.25   2.5749 -999.25 3.3716   72.4690   -999.25   -999.25   86.5505 -999.25 71.3674 0.1681
   12564.0000 -0.0261 -999.25   0.1165  -999.25  99.3477 -999.25   2.5800 -999.25 3.3699   65.2445   -999.25   -999.25   78.6873 -999.25 71.0931 0.1661
   12564.5000  0.0000 -999.25   0.1130  -999.25  91.1430 -999.25   2.5857 -999.25 3.3792   58.6234   -999.25   -999.25   71.2412 -999.25 70.6506 0.1630
   12565.0000 -0.0193 -999.25   0.1111  -999.25  88.6123 -999.25   2.5891 -999.25 3.3827   54.7120   -999.25   -999.25   66.8076 -999.25 70.4941 0.1619
   12565.5000  0.0000 -999.25   0.1109  -999.25  90.4320 -999.25   2.5910 -999.25 3.3807   52.1316   -999.25   -999.25   63.9355 -999.25 70.5830 0.1625
   12566.0000  0.0000 -999.25   0.1117  -999.25  91.4102 -999.25   2.5926 -999.25 3.3717   48.9168   -999.25   -999.25   60.3515 -999.25 70.7949 0.1640
   12566.5000  0.0000 -999.25   0.1107  -999.25  83.2696 -999.25   2.5959 -999.25 3.3812   45.6494   -999.25   -999.25   56.5927 -999.25 70.8395 0.1644
   12567.0000  0.0209 -999.25   0.1118  -999.25  82.3777 -999.25   2.5937 -999.25 3.3846   47.7894   -999.25   -999.25   58.8085 -999.25 71.1235 0.1664
   12567.5000  0.0000 -999.25   0.1135  -999.25  82.9640 -999.25   2.5889 -999.25 3.3816   52.3957   -999.25   -999.25   63.6494 -999.25 71.3337 0.1678
   12568.0000  0.0000 -999.25   0.1181  -999.25  94.5815 -999.25   2.5799 -999.25 3.3520   59.3613   -999.25   -999.25   71.1011 -999.25 72.0456 0.1729
   12568.5000 -0.0307 -999.25   0.1200  -999.25  91.3154 -999.25   2.5761 -999.25 3.3264   60.5316   -999.25   -999.25   72.0289 -999.25 72.1009 0.1733
   12569.0000 -0.0418 -999.25   0.1211  -999.25  87.5518 -999.25   2.5749 -999.25 3.3006   58.8006   -999.25   -999.25   69.9594 -999.25 71.9133 0.1719
   12569.5000  0.0000 -999.25   0.1219  -999.25  87.8830 -999.25   2.5736 -999.25 3.2961   60.2168   -999.25   -999.25   71.6088 -999.25 71.8456 0.1715
   12570.0000  0.0181 -999.25   0.1211  -999.25  85.2669 -999.25   2.5737 -999.25 3.3077   61.5572   -999.25   -999.25   73.1229 -999.25 71.6617 0.1702
   12570.5000 -0.0224 -999.25   0.1222  -999.25  93.1770 -999.25   2.5719 -999.25 3.3166   65.8285   -999.25   -999.25   78.0852 -999.25 71.9677 0.1723
   12571.0000  0.0000 -999.25   0.1213  -999.25  91.1286 -999.25   2.5740 -999.25 3.3208   63.6071   -999.25   -999.25   75.7331 -999.25 71.8033 0.1712
   12571.5000  0.0000 -999.25   0.1213  -999.25  93.1614 -999.25   2.5764 -999.25 3.3160   60.1107   -999.25   -999.25   72.0714 -999.25 71.7393 0.1707
   12572.0000 -0.0170 -999.25   0.1193  -999.25  88.3207 -999.25   2.5814 -999.25 3.3272   55.2416   -999.25   -999.25   66.8027 -999.25 71.4625 0.1688
   12572.5000 -0.0183 -999.25   0.1185  -999.25  92.6982 -999.25   2.5839 -999.25 3.3382   53.4931   -999.25   -999.25   65.0485 -999.25 71.5871 0.1696
   12573.0000 -0.0112 -999.25   0.1147  -999.25  88.8021 -999.25   2.5894 -999.25 3.3766   51.4252   -999.25   -999.25   62.8734 -999.25 71.5517 0.1694
   12573.5000  0.0000 -999.25   0.1105  -999.25  80.5166 -999.25   2.5952 -999.25 3.4187   49.1995   -999.25   -999.25   60.4224 -999.25 71.3986 0.1683
   12574.0000  0.0149 -999.25   0.1112  -999.25  82.1630 -999.25   2.5941 -999.25 3.4229   50.5876   -999.25   -999.25   61.8904 -999.25 71.6718 0.1702
   12574.5000 -0.0300 -999.25   0.1145  -999.25  88.0219 -999.25   2.5909 -999.25 3.4085   52.1858   -999.25   -999.25   63.7492 -999.25 72.1885 0.1739
   12575.0000  0.0000 -999.25   0.1199  -999.25  94.6315 -999.25   2.5846 -999.25 3.3709   54.9682   -999.25   -999.25   66.8609 -999.25 72.4197 0.1755
   12575.5000  0.0319 -999.25   0.1213  -999.25  90.0673 -999.25   2.5835 -999.25 3.3458   53.0753   -999.25   -999.25   64.5869 -999.25 72.2051 0.1740
   12576.0000 -0.2955 -999.25   0.1249  -999.25 101.0203 -999.25   2.5786 -999.25 3.3181   55.7345   -999.25   -999.25   67.6509 -999.25 72.3334 0.1749
   12576.5000 -0.0752 -999.25   0.1247  -999.25  99.7911 -999.25   2.5775 -999.25 3.2942   54.3110   -999.25   -999.25   65.7136 -999.25 72.2083 0.1740
   12577.0000  0.0591 -999.25   0.1219  -999.25  89.2840 -999.25   2.5801 -999.25 3.2864   50.6881   -999.25   -999.25   61.2740 -999.25 71.8675 0.1716
   12577.5000 -0.1351 -999.25   0.1243  -999.25  93.6272 -999.25   2.5755 -999.25 3.2518   51.9054   -999.25   -999.25   62.3561 -999.25 72.1612 0.1737
   12578.0000 -0.0133 -999.25   0.1279  -999.25 102.2554 -999.25   2.5696 -999.25 3.2146   54.2791   -999.25   -999.25   64.8697 -999.25 72.6885 0.1774
   12578.5000  0.0000 -999.25   0.1307  -999.25 110.0163 -999.25   2.5645 -999.25 3.1869   56.9297   -999.25   -999.25   67.6972 -999.25 73.3417 0.1820
   12579.0000 -0.0514 -999.25   0.1254  -999.25  87.9258 -999.25   2.5705 -999.25 3.1928   50.0945   -999.25   -999.25   59.4403 -999.25 72.2971 0.1747
   12579.5000 -0.0295 -999.25   0.1286  -999.25  96.3425 -999.25   2.5654 -999.25 3.1761   54.1323   -999.25   -999.25   63.9743 -999.25 72.7657 0.1780
   12580.0000 -0.0140 -999.25   0.1294  -999.25  94.7002 -999.25   2.5640 -999.25 3.1800   56.2958   -999.25   -999.25   66.3617 -999.25 72.7280 0.1777
   12580.5000  0.0000 -999.25   0.1287  -999.25  88.8245 -999.25   2.5646 -999.25 3.1901   56.5516   -999.25   -999.25   66.5692 -999.25 72.4087 0.1755
   12581.0000  0.0000 -999.25   0.1270  -999.25  80.6267 -999.25   2.5657 -999.25 3.2066   56.6592   -999.25   -999.25   66.4761 -999.25 71.9095 0.1719
   12581.5000  0.0555 -999.25   0.1321  -999.25 101.9808 -999.25   2.5572 -999.25 3.1800   65.0895   -999.25   -999.25   75.8723 -999.25 73.2105 0.1811
   12582.0000  0.0000 -999.25   0.1308  -999.25  99.9304 -999.25   2.5587 -999.25 3.1915   64.6256   -999.25   -999.25   75.4207 -999.25 72.9900 0.1796
   12582.5000  0.0000 -999.25   0.1271  -999.25  92.3306 -999.25   2.5650 -999.25 3.2196   60.1755   -999.25   -999.25   70.7319 -999.25 72.4301 0.1756
   12583.0000  0.0175 -999.25   0.1259  -999.25  94.5500 -999.25   2.5687 -999.25 3.2339   58.0809   -999.25   -999.25   68.8826 -999.25 72.3643 0.1751
   12583.5000  0.0000 -999.25   0.1244  -999.25  95.2419 -999.25   2.5728 -999.25 3.2350   53.7542   -999.25   -999.25   64.3231 -999.25 72.1052 0.1733
   12584.0000  0.0000 -999.25   0.1245  -999.25  96.9295 -999.25   2.5727 -999.25 3.2159   51.5253   -999.25   -999.25   61.6994 -999.25 72.2159 0.1741
   12584.5000 -0.0380 -999.25   0.1242  -999.25  92.6191 -999.25   2.5723 -999.25 3.2086   50.8647   -999.25   -999.25   60.7333 -999.25 72.1232 0.1734
   12585.0000  0.0239 -999.25   0.1225  -999.25  85.8514 -999.25   2.5744 -999.25 3.2183   49.3224   -999.25   -999.25   58.8748 -999.25 71.8640 0.1716
   12585.5000  0.0000 -999.25   0.1270  -999.25 103.1100 -999.25   2.5694 -999.25 3.2208   55.8893   -999.25   -999.25   66.7388 -999.25 72.5898 0.1767
   12586.0000 -0.0259 -999.25   0.1283  -999.25 109.6656 -999.25   2.5691 -999.25 3.2292   57.3701   -999.25   -999.25   68.7410 -999.25 72.6949 0.1775
   12586.5000  0.0000 -999.25   0.1235  -999.25  91.7534 -999.25   2.5756 -999.25 3.2584   52.9210   -999.25   -999.25   63.5104 -999.25 72.0009 0.1726
