###############################################
##         ENVERUS                           ##
##         ESS - Open Hole                   ##
##         PERMIAN / DELAWARE                ##
##         Nov 03 2023  V4.0                 ##
##         42-109-32572-90-00                ##
###############################################
## Copyright 2017-2023  ENVERUS.  All Rights Reserved. 
## Confidential - Property of ENVERUS, use governed by terms and 
## conditions found within the existing Information Services Subscription Agreement 
## (as may be amended, the “ISSA”) between Customer and ENVERUS. 
## 
~VERSION INFORMATION
# MNEM.UNIT                               DATA : DESCRIPTION OF MNEMONIC
#-----.-----     ----------------------------- : -----------------------------
VERS.                                     2.00 : CWLS LOG ASCII STANDARD - VERSION 2.00
WRAP.                                       NO : MULTIPLE LINES PER DEPTH STEP
VEND.                                  ENVERUS : VENDOR
TYPE.                          ESS - OPEN HOLE : ENVERUS ESSENTIAL CURVES – ACCESSIBLE THROUGH ENVERUS PRISM(TM)
DOC.                                  51093467 : ENVERUS HEADER RAW DOCUMENT ID
#___________________________________________________________________________________________________ 
~WELL INFORMATION 
# 8gl1O6v4swiPFL4GH+dnL3Th7drW/gNnufiOMC39xBbatiyIUGjWQRxOO2UkOAKZqu0QrDKM70MxnzzovQmAYg== 
# MNEM.UNIT                                              DATA : DESCRIPTION OF MNEMONIC 
#-----.-----                    ----------------------------- : ----------------------------- 
CNTY.                                               CULBERSON : COUNTY 
STATE.                                                  TEXAS : STATE 
CNTRY.                                                    USA : COUNTRY 
API.                                             42-109-32572 : API (10 Digit) 
API_14.                                    42-109-32572-90-00 : API (14 Digits) 
API_14_std.                                 42-109-32572-9000 : API (14 Digits Standard) 
UWI.                                           42109325729000 : UNIQUE WELL ID 
WELL.                               42109325720000_PREV_API14 : WELL NAME
STRT.FT                                                2248.5 : START DEPTH
STOP.FT                                               10757.5 : STOP DEPTH
STEP.FT                                                   0.5 : STEP BETWEEN DEPTHS
NULL.                                                 -999.25 : NULL VALUE
PREV_APII.                                     42109325720000 : WELL IDENTIFIER
#___________________________________________________________________________________________________ 
~PARAMETER INFORMATION 
# MNEM.UNIT                                              DATA : DESCRIPTION OF MNEMONIC 
#-----.-----                    ----------------------------- : ----------------------------- 
EKB.FT                                                   3340 : ELEVATION ABOVE MSL
#___________________________________________________________________________________________________ 
~CURVE INFORMATION 
# MNEM.UNIT           : CURVE DESCRIPTION 
#-----.-----          : ----------------------------- 
 DEPT.FT               : MEASURED DEPTH 
 CALI.IN               : CALIPER (CAL - CALIPER) 
 GR.API                : GAMMA RAY (GAMMA RAY) 
 DT.US/FT              : SONIC DELTA TRANSIT TIME (SONIC) 
 #___________________________________________________________________________________________________ 
~A         DEPT           CALI             GR             DT
# ...
         6142.5          9.152        121.594         67.472
         6143.0          9.197        137.798         69.437
         6143.5          9.243        128.107         69.732
         6144.0          9.264        124.751         69.444
         6144.5          9.247        120.965         67.517
         6145.0          9.160        113.610         66.070
         6145.5          9.129        109.594         67.990
         6146.0          9.116        115.376         70.518
         6146.5          9.076        141.792         70.565
         6147.0          9.062        132.611         69.473
         6147.5          9.062        112.652         67.479
         6148.0          9.032        109.350         67.384
         6148.5          8.995        116.710         68.204
         6149.0          8.995        119.016         67.969
         6149.5          9.017        109.987         66.437
         6150.0          9.017        105.114         65.411
         6150.5          9.017         90.931         62.999
         6151.0          9.017         85.457         62.793
         6151.5          9.017         85.323         62.581
         6152.0          9.017         84.354         62.239
         6152.5          9.017         87.835         62.575
         6153.0          9.017        102.927         64.620
         6153.5          9.017        105.196         64.605
         6154.0          9.017         97.781         63.903
         6154.5          9.017         81.038         62.116
         6155.0          9.017         88.116         62.065
         6155.5          9.017        121.398         66.426
         6156.0          9.017        130.716         66.558
         6156.5          9.017        143.053         68.324
         6157.0          9.017        142.050         69.370
         6157.5          9.017        133.416         69.302
         6158.0          9.017        119.522         67.755
         6158.5          9.017        109.495         68.111
         6159.0          9.017        108.219         68.021
         6159.5          9.017        104.653         68.643
         6160.0          9.017         94.616         68.467
         6160.5          9.017         86.651         64.633
         6161.0          9.017         88.103         66.345
         6161.5          9.017        111.194         69.415
         6162.0          9.017        124.088         72.479
         6162.5          9.017        146.412         70.364
         6163.0          9.017        131.646         68.313
         6163.5          9.017        114.803         65.783
         6164.0          9.017        117.782         66.072
         6164.5          9.017        166.297         72.634
         6165.0          9.017        191.526         75.166
         6165.5          9.022        196.179         75.153
         6166.0          9.029        174.131         74.674
         6166.5          9.036        102.791         64.813
         6167.0          9.040         67.588         59.491
         6167.5          9.040         53.007         61.290
         6168.0          9.040         52.265         65.976
         6168.5          9.040         75.882         66.037
         6169.0          9.036         71.450         63.726
         6169.5          9.017         62.208         60.461
         6170.0          8.994         60.480         59.818
         6170.5          8.938        101.325         65.173
         6171.0          8.928        120.870         68.163
         6171.5          8.928        123.306         68.983
         6172.0          8.928        133.630         70.987
         6172.5          8.927        179.607         76.743
         6173.0          8.909        197.066         77.595
         6173.5          8.905        199.203         78.733
         6174.0          8.905        197.193         77.386
         6174.5          8.905        176.201         71.960
         6175.0          8.907        101.946         68.787
         6175.5          8.909         76.507         67.411
         6176.0          8.910         71.445         67.409
         6176.5          8.912         78.401         69.074
         6177.0          8.914         88.551         70.412
         6177.5          8.915         96.483         70.643
         6178.0          8.917         94.115         70.343
         6178.5          8.919         91.580         69.530
         6179.0          8.920         85.799         68.413
         6179.5          8.922         77.885         67.157
         6180.0          8.924         73.378         66.777
         6180.5          8.925         70.451         65.870
         6181.0          8.927         73.378         65.136
         6181.5          8.929         79.837         66.012
         6182.0          8.930         88.389         66.511
         6182.5          8.932        102.061         67.034
         6183.0          8.933        123.642         70.669
         6183.5          8.935        142.263         73.114
         6184.0          8.937        157.327         74.069
         6184.5          8.938        166.327         76.654
         6185.0          8.940        163.753         78.303
         6185.5          8.942        156.121         79.603
         6186.0          8.943        168.951         79.730
         6186.5          8.945        182.780         79.668
         6187.0          8.947        198.700         79.499
         6187.5          8.948        197.080         75.204
         6188.0          8.950        176.019         74.402
         6188.5          8.956        182.336         75.137
         6189.0          8.961        193.900         79.514
         6189.5          8.967        195.112         81.824
         6190.0          8.972        184.062         80.749
         6190.5          8.978        159.431         76.877
         6191.0          8.984        151.895         73.581
         6191.5          8.989        138.575         76.613
         6192.0          8.995        168.027         77.632
         6192.5          8.995        201.756         78.555
         6193.0          9.012        211.990         78.151
         6193.5          9.017        183.636         75.273
         6194.0          9.017        171.273         75.055
         6194.5          9.017        166.162         76.025
         6195.0          9.017        168.236         78.609
         6195.5          8.996        168.134         76.620
         6196.0          8.987        146.000         75.743
         6196.5          8.978        128.825         75.342
         6197.0          8.974        127.628         72.879
         6197.5          8.986        141.451         70.961
         6198.0          8.995        171.971         74.208
         6198.5          8.995        204.468         77.753
         6199.0          8.995        213.223         78.274
         6199.5          8.997        195.812         75.829
         6200.0          9.007        135.531         74.672
         6200.5          9.017        115.034         75.577
         6201.0          9.017        116.199         75.948
         6201.5          9.017        132.832         77.487
         6202.0          9.017        146.593         77.722
         6202.5          9.017        136.641         72.166
         6203.0          9.017        103.730         71.801
         6203.5          9.015         93.786         69.172
         6204.0          9.001         88.606         69.121
         6204.5          8.995         82.151         68.159
         6205.0          8.995         71.888         66.796
         6205.5          8.995         64.579         66.719
         6206.0          8.995         75.586         67.270
         6206.5          8.996        132.695         76.866
         6207.0          8.997        169.519         87.553
         6207.5          8.998        186.715         88.340
         6208.0          9.000        189.940         88.299
