###############################################
##         ENVERUS                           ##
##         ESS - Open Hole                   ##
##         PERMIAN / DELAWARE                ##
##         Nov 03 2023  V4.0                 ##
##         42-109-32978-00-00                ##
###############################################
## Copyright 2017-2023  ENVERUS.  All Rights Reserved. 
## Confidential - Property of ENVERUS, use governed by terms and 
## conditions found within the existing Information Services Subscription Agreement 
## (as may be amended, the “ISSA”) between Customer and ENVERUS. 
## 
~VERSION INFORMATION
# MNEM.UNIT                               DATA : DESCRIPTION OF MNEMONIC
#-----.-----     ----------------------------- : -----------------------------
VERS.                                     2.00 : CWLS LOG ASCII STANDARD - VERSION 2.00
WRAP.                                       NO : MULTIPLE LINES PER DEPTH STEP
VEND.                                  ENVERUS : VENDOR
TYPE.                          ESS - OPEN HOLE : ENVERUS ESSENTIAL CURVES – ACCESSIBLE THROUGH ENVERUS PRISM(TM)
DOC.                                  43644371 : ENVERUS HEADER RAW DOCUMENT ID
#___________________________________________________________________________________________________ 
~WELL INFORMATION 
# sF+t5dzO8TjfhJXm5BhYJSGKqyGjnVcKAr1GJS+XHP+EILfiOmlFF7qBSMjafOrEHsreRpz+nmfYFwcq0MlVOA== 
# MNEM.UNIT                                              DATA : DESCRIPTION OF MNEMONIC 
#-----.-----                    ----------------------------- : ----------------------------- 
CNTY.                                               CULBERSON : COUNTY 
STATE.                                                  TEXAS : STATE 
CNTRY.                                                    USA : COUNTRY 
API.                                             42-109-32978 : API (10 Digit) 
API_14.                                    42-109-32978-00-00 : API (14 Digits) 
API_14_std.                                 42-109-32978-0000 : API (14 Digits Standard) 
UWI.                                           42109329780000 : UNIQUE WELL ID 
WELL.                                    42109329780000_API14 : WELL NAME
STRT.FT                                                 179.0 : START DEPTH
STOP.FT                                                9893.5 : STOP DEPTH
STEP.FT                                                   0.5 : STEP BETWEEN DEPTHS
NULL.                                                 -999.25 : NULL VALUE
#___________________________________________________________________________________________________ 
~PARAMETER INFORMATION 
# MNEM.UNIT                                              DATA : DESCRIPTION OF MNEMONIC 
#-----.-----                    ----------------------------- : ----------------------------- 
EKB.FT                                                   3282 : ELEVATION ABOVE MSL
#___________________________________________________________________________________________________ 
~CURVE INFORMATION 
# MNEM.UNIT           : CURVE DESCRIPTION 
#-----.-----          : ----------------------------- 
 DEPT.FT               : MEASURED DEPTH 
 GR.API                : GAMMA RAY (GAMMA RAY) 
 DT.US/FT              : SONIC DELTA TRANSIT TIME (SONIC) 
 #___________________________________________________________________________________________________ 
~A         DEPT             GR             DT
# ...
         8531.0         28.892        277.994
         8531.5         30.396        277.994
         8532.0         31.755        277.994
         8532.5         32.173        277.994
         8533.0         31.944        277.994
         8533.5         32.235        277.994
         8534.0         30.974        277.994
         8534.5         27.631        277.994
         8535.0         23.881        277.994
         8535.5         21.080        277.994
         8536.0         22.718        277.994
         8536.5         27.209        277.994
         8537.0         32.474        277.994
         8537.5         36.924        277.994
         8538.0         37.793        277.994
         8538.5         37.667        277.994
         8539.0         38.022        277.994
         8539.5         39.713        277.994
         8540.0         43.004        277.994
         8540.5         44.290        277.994
         8541.0         42.703        277.994
         8541.5         36.927        277.994
         8542.0         33.008        277.994
         8542.5         33.008        277.994
         8543.0         34.606        277.994
         8543.5         35.098        277.994
         8544.0         33.949        277.994
         8544.5         32.371        277.994
         8545.0         29.499        277.994
         8545.5         27.347        277.994
         8546.0         27.222        278.078
         8546.5         30.711        278.552
         8547.0         36.237        278.552
         8547.5         41.710        278.552
         8548.0         44.520        278.552
         8548.5         46.264        278.552
         8549.0         44.811        278.552
         8549.5         40.089        278.552
         8550.0         36.382        278.552
         8550.5         36.718        278.552
         8551.0         40.238        278.552
         8551.5         41.469        278.552
         8552.0         41.365        278.552
         8552.5         40.780        278.552
         8553.0         39.924        278.552
         8553.5         37.174        278.552
         8554.0         32.066        278.552
         8554.5         25.306        278.552
         8555.0         20.305        278.552
         8555.5         19.638        278.552
         8556.0         20.955        279.666
         8556.5         21.727        279.666
         8557.0         21.874        279.666
         8557.5         24.393        279.666
         8558.0         29.962        279.666
         8558.5         36.638        280.780
         8559.0         40.426        280.361
         8559.5         39.325        278.355
         8560.0         34.958        277.994
         8560.5         31.199        277.994
         8561.0         30.084        277.994
         8561.5         30.816        277.994
         8562.0         31.755        277.994
         8562.5         32.989        277.994
         8563.0         33.657        277.994
         8563.5         33.844        277.994
         8564.0         31.752        277.994
         8564.5         28.743        277.994
         8565.0         27.159        277.994
         8565.5         29.107        277.994
         8566.0         33.587        277.994
         8566.5         38.081        277.994
         8567.0         41.796        277.994
         8567.5         42.618        277.994
         8568.0         41.018        277.994
         8568.5         40.176        277.994
         8569.0         41.262        277.994
         8569.5         42.767        277.994
         8570.0         41.412        277.994
         8570.5         35.285        277.994
         8571.0         29.472        277.994
         8571.5         27.159        277.994
         8572.0         28.918        277.994
         8572.5         32.335        277.994
         8573.0         34.912        277.994
         8573.5         36.834        277.994
         8574.0         38.756        277.994
         8574.5         40.752        277.994
         8575.0         44.234        277.994
         8575.5         45.311        277.994
         8576.0         41.731        277.994
         8576.5         35.190        277.994
         8577.0         30.487        277.994
         8577.5         29.647        277.994
         8578.0         30.734        277.994
         8578.5         30.436        277.994
         8579.0         30.817        277.994
         8579.5         33.515        277.994
         8580.0         39.185        277.994
         8580.5         44.128        277.994
         8581.0         45.609        277.994
         8581.5         44.809        277.994
         8582.0         42.529        277.994
         8582.5         38.503        277.994
         8583.0         34.098        277.994
         8583.5         30.579        277.994
         8584.0         26.995        277.994
         8584.5         22.741        277.994
         8585.0         20.891        277.994
         8585.5         21.309        277.994
         8586.0         22.563        277.994
         8586.5         22.246        277.994
         8587.0         21.877        277.437
         8587.5         22.563        277.437
         8588.0         22.145        277.437
         8588.5         23.322        277.437
         8589.0         27.223        277.437
         8589.5         32.981        277.437
         8590.0         36.334        277.437
         8590.5         33.863        277.437
         8591.0         29.082        277.437
         8591.5         25.639        277.437
         8592.0         24.652        277.437
         8592.5         23.833        277.437
         8593.0         22.747        277.437
         8593.5         22.145        277.437
         8594.0         21.828        277.437
         8594.5         21.727        277.437
         8595.0         22.145        279.086
         8595.5         23.214        280.223
         8596.0         22.914        280.134
         8596.5         19.521        279.666
         8597.0         16.563        279.666
         8597.5         16.279        280.758
         8598.0         18.109        281.337
         8598.5         20.123        279.020
         8599.0         20.891        277.014
         8599.5         21.042        276.880
         8600.0         20.490        276.880
         8600.5         19.404        276.880
         8601.0         16.337        276.880
         8601.5         13.471        276.880
         8602.0         12.535        276.880
         8602.5         14.993        276.880
         8603.0         18.109        277.193
         8603.5         19.638        277.437
         8604.0         19.638        277.437
         8604.5         19.371        277.639
         8605.0         22.096        277.994
         8605.5         25.630        277.994
         8606.0         27.226        277.994
         8606.5         27.258        277.994
         8607.0         25.394        277.994
         8607.5         22.386        277.994
         8608.0         20.239        277.994
         8608.5         21.269        277.994
         8609.0         25.030        277.994
         8609.5         26.741        277.994
         8610.0         24.892        277.994
         8610.5         22.746        277.994
         8611.0         23.048        277.994
         8611.5         25.080        277.994
         8612.0         27.880        277.994
         8612.5         31.298        277.437
         8613.0         34.079        277.437
         8613.5         35.098        277.437
         8614.0         33.943        277.437
         8614.5         33.426        276.880
         8615.0         33.829        276.880
         8615.5         31.911        276.880
         8616.0         28.242        276.323
         8616.5         26.004        276.323
         8617.0         25.488        276.323
         8617.5         26.308        276.323
