~Version Information
 VERS.                  2.0:   CWLS log ASCII Standard -VERSION 2.0
 WRAP.                   NO:   One line per depth step
~Well Information Block
#MNEM.UNIT     VALUE/NAME     DESCRIPTION
#---------     -----------    ---------------------------
 STRT.F              8400.0000: START DEPTH
 STOP.F             13890.0000: STOP DEPTH
 STEP.F                 0.5000: STEP DEPTH
 NULL.                 -999.25: NULL VALUE
 LOC .     506' FEL & 344' FSL:  LOCATION
 FL6 .       API  42-109-33224:  LOCATIONLINE6
 FL4 .           ABSTRACT 4479:  LOCATIONLINE4
 FL3 .        T&P RR CO SURVEY:  LOCATIONLINE3
 FL2 .     SECTION 30, BLOCK 58 T2:  LOCATIONLINE2
 FL1 .     506' FEL & 344' FSL:  LOCATIONLINE1
 DMF .                      KB:  DRILL MEAS FROM
 PDAT.                      GL:  PERMANENT DATUM
 CNTY.               CULBERSON:  COUNTY NAME
 FLD .     FORD, WEST (WOLFCAMP):  FIELD NAME
 WELL.      LAUREN STATE 30 2H:  WELL NAME
 COMP.     CAPITAN ENERGY, INC.:  COMPANY
 DATE.             19-Feb-2018:  DATE
 SVCO.             Halliburton:  SERVICECONAME
 PROV.                   TEXAS:  PROVINCE
 STAT.                   TEXAS:  STATE NAME
 CTRY.                     USA:  COUNTRY NAME
 HIDE.                        :  WELLNAMEOPERAT
 BASI.                 PERMIAN:  BASIN
 UWI .            42-109-33224:  UNIQUE WELL IDENTIFIER
 API .            42-109-33224:  API NUMBER
 RANG.                     N/A:  RANGE
 TOWN.                     N/A:  TOWNSHIP
 SECT.                     N/A:  SECTION
 SON .               904646015:  JOB NUMBER
 SRVC.             Halliburton:  SERVICE COMPANY
 LMF .                      KB:  LOG MEASURED FROM
 EGL .ft             3168.0000:  GROUND ELEVATION
 BAP .ft                0.0000:  GL ELEV ONSHORE
 GVFD.g                 1.0000:  GRAVITY FIELD
 EKB .ft             3194.0000:  KB ELEVATION
 EDF .ft             3193.0000:  DF ELEVATION
~Curve Information Block
#MNEM.UNIT                 API CODE     Curve Description
#---------               -----------    ---------------------------
 DEPT.F                 00 000 000 000:  Depth
 CCL .V                 00 000 000 000:  Casing Collar Locator
 NPHI_OH.pu             00 000 000 000:  NPHI_OH
 NPHI_CHI.pu            00 000 000 000:  NPHI_CHI
 GR_OH.api              00 000 000 000:  GR_OH
 GR_CHI.api             00 000 000 000:  GR_CHI
 RHOB_OH.g/cc           00 000 000 000:  RHOB_OH
 RHOB_CHI.g/cc          00 000 000 000:  RHOB_CHI
 PE_OH.b/e              00 000 000 000:  PE_OH
 PE_CHI.b/e             00 000 000 000:  PE_CHI
 RT10_OH.ohmm           00 000 000 000:  RT10_OH
 RT10_CHI.ohmm          00 000 000 000:  RT10_CHI
 RT30_OH.ohmm           00 000 000 000:  RT30_OH
 RT30_CHI.ohmm          00 000 000 000:  RT30_CHI
 RT90_OH.ohmm           00 000 000 000:  RT90_OH
 RT90_CHI.ohmm          00 000 000 000:  RT90_CHI
 DTC_OH.uspf            00 000 000 000:  DTC_OH
 DTC_CHI.uspf           00 000 000 000:  DTC_CHI
 SPHI_CHI.pu            00 000 000 000:  SPHI_CHI
 SGF .cu                00 000 000 000:  Formation Sigma
 CRNF.NONE              00 000 000 000:  CM GrsCaptRatio
 RIN .NONE              00 000 000 000:  CM GrsInelRatio
#Other Information
#
#WARRANTY: Halliburton will use its best efforts to furnish customers with 
#accurate information and interpretations that are part of, and incident to, the services 
#provided.  However, Halliburton cannot and does not warrant the accuracy 
#or correctness of such information and interpretations.  Under no circumstances should any 
#such information or interpretation be relied upon as the sole basis for any drilling, 
#completion, production, or financial decision or any procedure involving any risk to the 
#safety of any drilling venture, drilling rig or its crew or any other third party.  The 
#Customer has full responsibility for all drilling, completion and production operation.  
#Halliburton makes no representations or warranties, either expressed or 
#implied, including, but not limited to, the implied warranties of merchantability or fitness 
#for a particular purpose, with respect to the services rendered.  In no event will 
#Halliburton be liable for failure to obtain any particular results or for 
#any damages, including, but not limited to, indirect, special or consequential damages, 
#resulting from the use of any information or interpretation provided by Halliburton.
#
~A    DEPT      CCL   NPHI_OH NPHI_CHI  GR_OH    GR_CHI  RHOB_OH RHOB_CHI  PE_OH  PE_CHI  RT10_OH  RT10_CHI RT30_OH  RT30_CHI RT90_OH  RT90_CHI DTC_OH  DTC_CHI SPHI_CHI   SGF    CRNF   RIN   
# ...
   13503.0000  0.0000 -999.25  17.4086  -999.25 122.1415 -999.25   2.5250 -999.25  2.8910  -999.25  24.0572  -999.25  22.8252  -999.25  24.9320 -999.25 73.1761  18.0900 32.9939 1.1663 1.1364
   13503.5000  0.0000 -999.25  18.0961  -999.25 136.4744 -999.25   2.5150 -999.25  2.9227  -999.25  22.9594  -999.25  21.7068  -999.25  23.7831 -999.25 73.8813  18.5900 32.3598 1.1404 1.1350
   13504.0000  0.0000 -999.25  17.8632  -999.25 135.0596 -999.25   2.5173 -999.25  2.9744  -999.25  22.4768  -999.25  21.2168  -999.25  23.3066 -999.25 73.5906  18.3800 31.7387 1.1300 1.1342
   13504.5000  0.0000 -999.25  17.0667  -999.25 126.8528 -999.25   2.5266 -999.25  3.0418  -999.25  22.1523  -999.25  20.8524  -999.25  22.8358 -999.25 72.8680  17.8700 31.0916 1.1287 1.1326
   13505.0000  0.0000 -999.25  16.8054  -999.25 129.9214 -999.25   2.5273 -999.25  3.1039  -999.25  22.3245  -999.25  20.8448  -999.25  22.6528 -999.25 73.0116  17.9700 30.7833 1.1471 1.1304
   13505.5000  0.0000 -999.25  16.2703  -999.25 124.0937 -999.25   2.5327 -999.25  3.1342  -999.25  23.7202  -999.25  22.1048  -999.25  23.8922 -999.25 72.7605  17.7900 30.4581 1.1628 1.1248
   13506.0000  0.0000 -999.25  16.8869  -999.25 134.7187 -999.25   2.5223 -999.25  3.1180  -999.25  26.6850  -999.25  24.7628  -999.25  26.5962 -999.25 73.8315  18.5500 30.2055 1.1814 1.1174
   13506.5000  0.0000 -999.25  16.6417  -999.25 125.4693 -999.25   2.5256 -999.25  3.0789  -999.25  29.7214  -999.25  27.6804  -999.25  29.7788 -999.25 73.6671  18.4400 29.9342 1.1942 1.1118
   13507.0000  0.0000 -999.25  17.2551  -999.25 131.4605 -999.25   2.5167 -999.25  3.0575  -999.25  31.9755  -999.25  29.7866  -999.25  32.2203 -999.25 74.3751  18.9400 29.6173 1.1977 1.1095
   13507.5000  0.0000 -999.25  17.1155  -999.25 124.0680 -999.25   2.5193 -999.25  3.0555  -999.25  31.2569  -999.25  29.1868  -999.25  31.9596 -999.25 73.9678  18.6500 29.3978 1.1905 1.1103
   13508.0000  0.0000 -999.25  16.9521  -999.25 117.9373 -999.25   2.5219 -999.25  3.0673  -999.25  30.3106  -999.25  28.3469  -999.25  31.3592 -999.25 73.5607  18.3600 28.9880 1.1687 1.1093
   13508.5000  0.0000 -999.25  16.8758  -999.25 115.8276 -999.25   2.5229 -999.25  3.0856  -999.25  29.5943  -999.25  27.6774  -999.25  30.7784 -999.25 73.3595  18.2200 28.7941 1.1504 1.1076
   13509.0000  0.0000 -999.25  17.2999  -999.25 125.1925 -999.25   2.5153 -999.25  3.1212  -999.25  30.1717  -999.25  28.1016  -999.25  31.2755 -999.25 73.9894  18.6600 28.5542 1.1399 1.1054
   13509.5000  0.0000 -999.25  17.1151  -999.25 128.1758 -999.25   2.5161 -999.25  3.1484  -999.25  32.1489  -999.25  29.8944  -999.25  32.8933 -999.25 74.1543  18.7800 28.4845 1.1488 1.1032
   13510.0000  0.0000 -999.25  16.0677  -999.25 115.8719 -999.25   2.5296 -999.25  3.1781  -999.25  33.0294  -999.25  30.7789  -999.25  33.5634 -999.25 73.2236  18.1200 28.5658 1.1628 1.1034
   13510.5000  0.0000 -999.25  15.9187  -999.25 116.3708 -999.25   2.5310 -999.25  3.1946  -999.25  33.5312  -999.25  31.2368  -999.25  33.9035 -999.25 73.1905  18.1000 28.7086 1.1718 1.1047
   13511.0000  0.0000 -999.25  16.4062  -999.25 121.9470 -999.25   2.5247 -999.25  3.1846  -999.25  32.9224  -999.25  30.6248  -999.25  33.4116 -999.25 73.6013  18.3900 29.1100 1.1708 1.1077
   13511.5000  0.0000 -999.25  16.5054  -999.25 119.6594 -999.25   2.5245 -999.25  3.1653  -999.25  31.5935  -999.25  29.4094  -999.25  32.3161 -999.25 73.4739  18.3000 29.2537 1.1604 1.1096
   13512.0000  0.0000 -999.25  16.3376  -999.25 114.1653 -999.25   2.5284 -999.25  3.1293  -999.25  30.7909  -999.25  28.7376  -999.25  31.6007 -999.25 73.1217  18.0500 29.1733 1.1496 1.1093
   13512.5000  0.0000 -999.25  16.1323  -999.25 110.9488 -999.25   2.5316 -999.25  3.1172  -999.25  30.9049  -999.25  28.8788  -999.25  31.6666 -999.25 72.9099  17.9000 28.8748 1.1492 1.1065
   13513.0000  0.0000 -999.25  17.2109  -999.25 131.9726 -999.25   2.5152 -999.25  3.1456  -999.25  31.3096  -999.25  29.0795  -999.25  31.8557 -999.25 74.2449  18.8400 28.4221 1.1455 1.1031
   13513.5000  0.0000 -999.25  17.4130  -999.25 138.6220 -999.25   2.5112 -999.25  3.1914  -999.25  30.8449  -999.25  28.5465  -999.25  31.3025 -999.25 74.4993  19.0200 28.0359 1.1426 1.1003
   13514.0000  0.0000 -999.25  17.1478  -999.25 134.5064 -999.25   2.5142 -999.25  3.2298  -999.25  30.0909  -999.25  27.8187  -999.25  30.6839 -999.25 74.1516  18.7800 27.6993 1.1311 1.0975
   13514.5000  0.0000 -999.25  16.1393  -999.25 118.8778 -999.25   2.5278 -999.25  3.2571  -999.25  30.0481  -999.25  27.8624  -999.25  30.7389 -999.25 73.0672  18.0100 27.4856 1.1291 1.0961
   13515.0000  0.0000 -999.25  15.5449  -999.25 110.0371 -999.25   2.5353 -999.25  3.2739  -999.25  30.7795  -999.25  28.6062  -999.25  31.5312 -999.25 72.4866  17.6000 27.4803 1.1354 1.0967
   13515.5000  0.0000 -999.25  15.7561  -999.25 116.7714 -999.25   2.5309 -999.25  3.2924  -999.25  32.5009  -999.25  30.1642  -999.25  33.0716 -999.25 72.9802  17.9500 27.4807 1.1479 1.0984
   13516.0000  0.0000 -999.25  15.2563  -999.25 109.1277 -999.25   2.5380 -999.25  3.2913  -999.25  32.6552  -999.25  30.3858  -999.25  33.2449 -999.25 72.4410  17.5700 27.7042 1.1590 1.1019
   13516.5000  0.0000 -999.25  15.4558  -999.25 110.5858 -999.25   2.5354 -999.25  3.2745  -999.25  33.3265  -999.25  31.0198  -999.25  33.9710 -999.25 72.6752  17.7300 28.0303 1.1686 1.1041
   13517.0000  0.0000 -999.25  16.4438  -999.25 123.2222 -999.25   2.5220 -999.25  3.2332  -999.25  34.4457  -999.25  32.0153  -999.25  35.1130 -999.25 73.7755  18.5100 28.2423 1.1692 1.1036
   13517.5000  0.0000 -999.25  16.0981  -999.25 114.1971 -999.25   2.5284 -999.25  3.1916  -999.25  33.8720  -999.25  31.5831  -999.25  34.6688 -999.25 73.2655  18.1500 28.7299 1.1675 1.1028
   13518.0000  0.0000 -999.25  16.2334  -999.25 113.6372 -999.25   2.5274 -999.25  3.1627  -999.25  33.5958  -999.25  31.3563  -999.25  34.4899 -999.25 73.3204  18.1900 28.7824 1.1656 1.1023
   13518.5000  0.0000 -999.25  16.9423  -999.25 125.1098 -999.25   2.5183 -999.25  3.1418  -999.25  32.9585  -999.25  30.6868  -999.25  33.7083 -999.25 74.0364  18.7000 28.8292 1.1602 1.1040
   13519.0000  0.0000 -999.25  17.0083  -999.25 126.6893 -999.25   2.5175 -999.25  3.1451  -999.25  32.6480  -999.25  30.3781  -999.25  33.3635 -999.25 74.0924  18.7400 28.5580 1.1601 1.1055
   13519.5000  0.0000 -999.25  16.7538  -999.25 122.8729 -999.25   2.5210 -999.25  3.1341  -999.25  33.4338  -999.25  31.1569  -999.25  34.0879 -999.25 73.9009  18.6000 28.5475 1.1617 1.1037
   13520.0000  0.0000 -999.25  16.8568  -999.25 126.2142 -999.25   2.5185 -999.25  3.1527  -999.25  34.6006  -999.25  32.2225  -999.25  35.1969 -999.25 74.1518  18.7800 28.6347 1.1688 1.1018
   13520.5000  0.0000 -999.25  16.1083  -999.25 113.7451 -999.25   2.5293 -999.25  3.1461  -999.25  34.4168  -999.25  32.1474  -999.25  35.0613 -999.25 73.3234  18.1900 28.8626 1.1711 1.0995
   13521.0000  0.0000 -999.25  15.8184  -999.25 108.5336 -999.25   2.5340 -999.25  3.1510  -999.25  32.8645  -999.25  30.7084  -999.25  33.5815 -999.25 72.8355  17.8500 29.0609 1.1685 1.1003
   13521.5000  0.0000 -999.25  16.0625  -999.25 110.5561 -999.25   2.5317 -999.25  3.1463  -999.25  31.0649  -999.25  29.0023  -999.25  31.8910 -999.25 72.8642  17.8700 29.0159 1.1615 1.1043
   13522.0000  0.0000 -999.25  16.3288  -999.25 114.2958 -999.25   2.5286 -999.25  3.1452  -999.25  29.8997  -999.25  27.8876  -999.25  30.7498 -999.25 73.0204  17.9800 28.8263 1.1569 1.1066
   13522.5000  0.0000 -999.25  16.9020  -999.25 124.6721 -999.25   2.5202 -999.25  3.1636  -999.25  29.3439  -999.25  27.2728  -999.25  30.1534 -999.25 73.6381  18.4100 28.3780 1.1541 1.1087
   13523.0000  0.0000 -999.25  16.6632  -999.25 122.7184 -999.25   2.5228 -999.25  3.1850  -999.25  29.4793  -999.25  27.3855  -999.25  30.2286 -999.25 73.4489  18.2800 27.9062 1.1559 1.1082
   13523.5000  0.0000 -999.25  15.7144  -999.25 108.4998 -999.25   2.5353 -999.25  3.2160  -999.25  29.6711  -999.25  27.6389  -999.25  30.5034 -999.25 72.4274  17.5600 27.7294 1.1598 1.1077
