###############################################
##         ENVERUS                           ##
##         ESS - Open Hole                   ##
##         PERMIAN / DELAWARE                ##
##         Nov 03 2023  V4.0                 ##
##         42-109-32709-00-00                ##
###############################################
## Copyright 2017-2023  ENVERUS.  All Rights Reserved. 
## Confidential - Property of ENVERUS, use governed by terms and 
## conditions found within the existing Information Services Subscription Agreement 
## (as may be amended, the “ISSA”) between Customer and ENVERUS. 
## 
~VERSION INFORMATION
# MNEM.UNIT                               DATA : DESCRIPTION OF MNEMONIC
#-----.-----     ----------------------------- : -----------------------------
VERS.                                     2.00 : CWLS LOG ASCII STANDARD - VERSION 2.00
WRAP.                                       NO : MULTIPLE LINES PER DEPTH STEP
VEND.                                  ENVERUS : VENDOR
TYPE.                          ESS - OPEN HOLE : ENVERUS ESSENTIAL CURVES – ACCESSIBLE THROUGH ENVERUS PRISM(TM)
DOC.                                  32116645 : ENVERUS HEADER RAW DOCUMENT ID
#___________________________________________________________________________________________________ 
~WELL INFORMATION 
# 8SOIrMNgLSTosdYTMQVb7KPebVRgGb4NQOaGG3/cpRvPeoxWQd7So5pZ7XPWbXIrV4d26no2f3ffGwkTWQV8GA== 
# MNEM.UNIT                                              DATA : DESCRIPTION OF MNEMONIC 
#-----.-----                    ----------------------------- : ----------------------------- 
CNTY.                                               CULBERSON : COUNTY 
STATE.                                                  TEXAS : STATE 
CNTRY.                                                    USA : COUNTRY 
API.                                             42-109-32709 : API (10 Digit) 
API_14.                                    42-109-32709-00-00 : API (14 Digits) 
API_14_std.                                 42-109-32709-0000 : API (14 Digits Standard) 
UWI.                                           42109327090000 : UNIQUE WELL ID 
WELL.                                    42109327090000_API14 : WELL NAME
STRT.FT                                                  26.5 : START DEPTH
STOP.FT                                                5244.0 : STOP DEPTH
STEP.FT                                                   0.5 : STEP BETWEEN DEPTHS
NULL.                                                 -999.25 : NULL VALUE
#___________________________________________________________________________________________________ 
~PARAMETER INFORMATION 
# MNEM.UNIT                                              DATA : DESCRIPTION OF MNEMONIC 
#-----.-----                    ----------------------------- : ----------------------------- 
EKB.FT                                                   3124 : ELEVATION ABOVE MSL
#___________________________________________________________________________________________________ 
~CURVE INFORMATION 
# MNEM.UNIT           : CURVE DESCRIPTION 
#-----.-----          : ----------------------------- 
 DEPT.FT               : MEASURED DEPTH 
 CALI.IN               : CALIPER (CAL - CALIPER) 
 GR.API                : GAMMA RAY (GAMMA RAY) 
 DT.US/FT              : SONIC DELTA TRANSIT TIME (SONIC) 
 PE.B/E                : PHOTOELECTRIC EFFECT/FACTOR (PHOTOELECTRIC FACTOR) 
 RESS.OHMM             : SHALLOW INDUCTION RESISTIVITY (ILS - SHALLOW RESISTIVITY) 
 RESS_LL.OHMM          : SHALLOW LATEROLOG (LLS - SHALLOW RESISTIVITY) 
 RESD_LL.OHMM          : DEEP LATEROLOG (LLD - DEEP RESISTIVITY) 
 DPHI.V/V              : DENSITY POROSITY (DENSITY POROSITY) 
 NPHI.V/V              : NEUTRON POROSITY (NEUTRON POROSITY) 
 RHOB.G/CC             : BULK DENSITY (DENSITY) 
 #___________________________________________________________________________________________________ 
~A         DEPT           CALI             GR             DT             PE           RESS        RESS_LL        RESD_LL           DPHI           NPHI           RHOB
# ...
         5171.5          7.581        240.816        343.000         2.6135          6.989         9.2272         8.6718        0.07326        0.05711         2.5958
         5172.0          7.581        238.512        343.000         2.5247          7.319         9.0942         8.6718        0.09020        0.05819         2.5649
         5172.5          7.581        242.960        343.000         2.4852          9.351         9.6705         8.6718        0.09781        0.06211         2.5536
         5173.0          7.581        237.915        343.000         2.5049          7.511         8.8794         8.5646        0.10095        0.06584         2.5481
         5173.5          7.581        230.030        343.000         2.5595          4.115         7.7060         8.2540        0.10693        0.06955         2.5394
         5174.0          7.561        233.623        343.000         2.6036          3.806         7.1168         7.7758        0.11249        0.07521         2.5303
         5174.5          7.544        237.729        343.000         2.6036          5.325         6.5691         7.3256        0.11172        0.08158         2.5308
         5175.0          7.522        237.749        342.337         2.5450          6.531         6.7638         7.1659        0.10558        0.08733         2.5402
         5175.5          7.522        239.737        279.164         2.4852          6.349         6.7423         7.1011        0.09684        0.08876         2.5486
         5176.0          7.522        240.862        243.415         2.4634          5.699         6.6772         7.1768        0.09242        0.09056         2.5596
         5176.5          7.525        239.687        243.309         2.4655          6.580         6.5437         7.7600        0.09241        0.09102         2.5617
         5177.0          7.542        236.277        243.000         2.4655          9.848         6.6034         8.1312        0.09423        0.09382         2.5581
         5177.5          7.561        233.812        243.000         2.4458          9.463         7.4956         8.5142        0.09736        0.08750         2.5536
         5178.0          7.568        238.319        243.000         2.4260          8.415         7.4939         8.9153        0.09724        0.08777         2.5473
         5178.5          7.581        246.074        243.000         2.4655          7.326         6.7577         9.3254        0.09645        0.08698         2.5481
         5179.0          7.591        248.695        243.000         2.5545          6.474         6.1330         9.1576        0.09743        0.08608         2.5517
         5179.5          7.621        247.911        243.000         2.6897          6.155         5.9690         9.3469        0.09934     -999.25000         2.5495
         5180.0          7.621        241.094        243.000         2.7741          7.272         6.3379         9.5241        0.10393     -999.25000         2.5440
         5180.5          7.640        232.830        243.000         2.7402          8.966         6.8209        10.4258        0.11031     -999.25000         2.5391
         5181.0          7.640        229.150        243.000         2.5804          9.623         7.8145        11.8460        0.11635     -999.25000         2.5206
         5181.5          7.640        226.360        243.000         2.4487         10.740         9.2852        13.7220        0.12270     -999.25000         2.5280
         5182.0          7.660        222.375        243.000         2.4638         11.225        10.0638        14.3684        0.12485     -999.25000         2.5454
         5182.5          7.679        219.321        243.000         2.5049         10.155        10.4619        14.6861        0.11759     -999.25000         2.5459
         5183.0          7.680        228.235        243.000         2.5049          9.180         9.7831        14.0691        0.11144     -999.25000         2.5464
         5183.5          7.680        241.509        243.000         2.5270          9.653         9.7587        13.6568        0.11105     -999.25000         2.5470
         5184.0          7.680        237.647        243.000         2.6036         11.257        10.2735        14.1445        0.10928     -999.25000         2.5473
         5184.5          7.680        193.794        243.000         2.6036         12.512        10.4060        10.3336        0.10557     -999.25000         2.5473
         5185.0          7.680        103.695        243.000         2.5577         10.984         8.8719         8.6586        0.10355     -999.25000         2.5441
         5185.5          7.748         29.223        243.000         2.4698          6.809         8.4789         7.5797        0.10273     -999.25000         2.5413
         5186.0          7.818          3.445        243.000         2.4063          5.513         7.1746         6.8489        0.10076     -999.25000         2.5387
         5186.5          7.827          0.392        243.000         2.3565         10.086         7.5952         6.7020        0.09705     -999.25000         2.5354
         5187.0          7.623       -999.250        243.000         2.5918         31.525         8.4387         7.3844        0.10926     -999.25000         2.5314
         5187.5          7.058       -999.250        243.000         2.5444         55.830        12.4014        12.8373        0.13324     -999.25000         2.4979
         5188.0          5.270       -999.250       -999.250         2.5247         65.518        22.3558        29.2994        0.16404     -999.25000         2.4491
         5188.5          4.498       -999.250       -999.250         2.5247         67.119        24.6468        34.6406        0.16959     -999.25000         2.4333
         5189.0          4.498       -999.250       -999.250         2.5161         56.924        25.4525        34.4918        0.15878     -999.25000      -999.2500
         5189.5          4.478       -999.250       -999.250      -999.2500         50.554        25.6501        33.9920     -999.25000     -999.25000      -999.2500
         5190.0       -999.250       -999.250       -999.250      -999.2500         45.494        23.9816        33.3595     -999.25000     -999.25000      -999.2500
         5190.5       -999.250       -999.250       -999.250      -999.2500         30.503        21.8572        31.7844     -999.25000     -999.25000      -999.2500
         5191.0       -999.250       -999.250       -999.250      -999.2500         22.581        21.3129        31.1590     -999.25000     -999.25000      -999.2500
         5191.5       -999.250       -999.250       -999.250      -999.2500         23.252        19.6616        28.4198     -999.25000     -999.25000      -999.2500
         5192.0       -999.250       -999.250       -999.250      -999.2500         30.014        15.0148        17.8815     -999.25000     -999.25000      -999.2500
         5192.5       -999.250       -999.250       -999.250      -999.2500         34.487        12.2448        16.8880     -999.25000     -999.25000      -999.2500
         5193.0       -999.250       -999.250       -999.250      -999.2500         27.720        11.8185        16.6894     -999.25000     -999.25000      -999.2500
         5193.5       -999.250       -999.250       -999.250      -999.2500         22.759        12.4968        17.1816     -999.25000     -999.25000      -999.2500
         5194.0       -999.250       -999.250       -999.250      -999.2500         21.409        13.5739        18.1386     -999.25000     -999.25000      -999.2500
         5194.5       -999.250       -999.250       -999.250      -999.2500         15.676        14.4594        20.1825     -999.25000     -999.25000      -999.2500
         5195.0       -999.250       -999.250       -999.250      -999.2500         10.826        14.5067        20.1179     -999.25000     -999.25000      -999.2500
         5195.5       -999.250       -999.250       -999.250      -999.2500         10.460        13.7651        19.3881     -999.25000     -999.25000      -999.2500
