###############################################
##         ENVERUS                           ##
##         ESS - Open Hole                   ##
##         PERMIAN / DELAWARE                ##
##         Nov 03 2023  V4.0                 ##
##         42-109-32709-00-00                ##
###############################################
## Copyright 2017-2023  ENVERUS.  All Rights Reserved. 
## Confidential - Property of ENVERUS, use governed by terms and 
## conditions found within the existing Information Services Subscription Agreement 
## (as may be amended, the “ISSA”) between Customer and ENVERUS. 
## 
~VERSION INFORMATION
# MNEM.UNIT                               DATA : DESCRIPTION OF MNEMONIC
#-----.-----     ----------------------------- : -----------------------------
VERS.                                     2.00 : CWLS LOG ASCII STANDARD - VERSION 2.00
WRAP.                                       NO : MULTIPLE LINES PER DEPTH STEP
VEND.                                  ENVERUS : VENDOR
TYPE.                          ESS - OPEN HOLE : ENVERUS ESSENTIAL CURVES – ACCESSIBLE THROUGH ENVERUS PRISM(TM)
DOC.                                  32116645 : ENVERUS HEADER RAW DOCUMENT ID
#___________________________________________________________________________________________________ 
~WELL INFORMATION 
# 8SOIrMNgLSTosdYTMQVb7KPebVRgGb4NQOaGG3/cpRvPeoxWQd7So5pZ7XPWbXIrV4d26no2f3ffGwkTWQV8GA== 
# MNEM.UNIT                                              DATA : DESCRIPTION OF MNEMONIC 
#-----.-----                    ----------------------------- : ----------------------------- 
CNTY.                                               CULBERSON : COUNTY 
STATE.                                                  TEXAS : STATE 
CNTRY.                                                    USA : COUNTRY 
API.                                             42-109-32709 : API (10 Digit) 
API_14.                                    42-109-32709-00-00 : API (14 Digits) 
API_14_std.                                 42-109-32709-0000 : API (14 Digits Standard) 
UWI.                                           42109327090000 : UNIQUE WELL ID 
WELL.                                    42109327090000_API14 : WELL NAME
STRT.FT                                                  26.5 : START DEPTH
STOP.FT                                                5244.0 : STOP DEPTH
STEP.FT                                                   0.5 : STEP BETWEEN DEPTHS
NULL.                                                 -999.25 : NULL VALUE
#___________________________________________________________________________________________________ 
~PARAMETER INFORMATION 
# MNEM.UNIT                                              DATA : DESCRIPTION OF MNEMONIC 
#-----.-----                    ----------------------------- : ----------------------------- 
EKB.FT                                                   3124 : ELEVATION ABOVE MSL
#___________________________________________________________________________________________________ 
~CURVE INFORMATION 
# MNEM.UNIT           : CURVE DESCRIPTION 
#-----.-----          : ----------------------------- 
 DEPT.FT               : MEASURED DEPTH 
 CALI.IN               : CALIPER (CAL - CALIPER) 
 GR.API                : GAMMA RAY (GAMMA RAY) 
 DT.US/FT              : SONIC DELTA TRANSIT TIME (SONIC) 
 PE.B/E                : PHOTOELECTRIC EFFECT/FACTOR (PHOTOELECTRIC FACTOR) 
 RESS.OHMM             : SHALLOW INDUCTION RESISTIVITY (ILS - SHALLOW RESISTIVITY) 
 RESS_LL.OHMM          : SHALLOW LATEROLOG (LLS - SHALLOW RESISTIVITY) 
 RESD_LL.OHMM          : DEEP LATEROLOG (LLD - DEEP RESISTIVITY) 
 DPHI.V/V              : DENSITY POROSITY (DENSITY POROSITY) 
 NPHI.V/V              : NEUTRON POROSITY (NEUTRON POROSITY) 
 RHOB.G/CC             : BULK DENSITY (DENSITY) 
 #___________________________________________________________________________________________________ 
~A         DEPT           CALI             GR             DT             PE           RESS        RESS_LL        RESD_LL           DPHI           NPHI           RHOB
# ...
         3040.0          8.372         68.538        343.000         2.0513          5.918         7.5724        10.3123        0.22378        0.19046         2.3551
         3040.5          8.372         69.321        343.000         2.1692          5.457         7.7060        10.6866        0.21148        0.17099         2.3739
         3041.0          8.391         67.178        343.000         2.2485          4.983         7.5247        10.5699        0.20254        0.18088         2.3843
         3041.5          8.391         61.999        343.000         2.2880          5.389         6.7297        10.4942        0.20475        0.19258         2.3770
         3042.0          8.391         60.705        343.000         2.3471          5.868         6.9130        10.5900        0.20546        0.19389         2.3864
         3042.5          8.391         61.097        343.000         2.3669          5.815         7.3248        11.0232        0.19625        0.18368         2.4063
         3043.0          8.391         61.014        342.999         2.3013          6.264         8.3231        11.7541        0.19625        0.19269         2.3943
         3043.5          8.391         64.463        342.999         2.2091          7.590         8.3624        11.8095        0.19517        0.19838         2.3899
         3044.0          8.391         74.663        342.998         2.2181          7.483         8.2581        11.9173        0.19167        0.19540         2.4033
         3044.5          8.391         89.336        342.997         2.2880          6.090         8.6471        11.9173        0.18600        0.18402         2.4085
         3045.0          8.391        101.577        342.997         2.2565          5.420         8.2305        11.3236        0.19813        0.18166         2.3825
         3045.5          8.391        104.961        342.996         2.1565          5.223         7.7060        10.8825        0.21249        0.18763         2.3642
         3046.0          8.391        102.126        342.996         2.0710          5.115         7.9108        10.9707        0.21633        0.17921         2.3592
         3046.5          8.411        101.682        342.995         2.1065          5.679         8.3590        11.4874        0.21763        0.18375         2.3618
         3047.0          8.411        106.049        342.994         2.2064          6.576         9.0034        12.4211        0.20826        0.17577         2.3839
         3047.5          8.411         98.569        342.994         2.3649          7.542        10.5900        13.1695        0.19249        0.18050         2.4061
         3048.0          8.411         78.116        342.993         2.4655          7.343         9.7034        12.4442        0.18363        0.19389         2.4152
         3048.5          8.411         63.962        342.992         2.4852          6.228         8.9298        11.9173        0.18553        0.20217         2.4037
         3049.0          8.411         58.329        342.992         2.4036          5.833         9.1576        12.1358        0.19795        0.19943         2.3833
         3049.5          8.411         57.871        342.991         2.3077          7.618         9.1878        11.8095        0.20746        0.19416         2.3797
         3050.0          8.411         60.250        342.990         2.3722          7.538         9.6206        12.0732        0.19435        0.18939         2.3807
         3050.5          8.411         62.238        342.990         2.5247          6.061         9.4536        12.5848        0.18902        0.17442         2.4029
         3051.0          8.411         63.055        342.989         2.4395          5.428         9.1576        12.5848        0.19788        0.18334         2.3875
         3051.5          8.411         63.080        342.988         2.3180          6.785        10.1510        13.9136        0.22173        0.20507         2.3595
         3052.0          8.451         65.850        342.988         2.2485          9.667        12.4838        17.0104        0.22836        0.21806         2.4898
         3052.5          8.431         70.188        342.987         2.3060         12.061        16.6494        22.1976        0.16140        0.20841         2.3538
         3053.0          8.431         73.463        342.986         2.4789         12.835        19.1120        24.4239        0.12547        0.19586         2.5127
         3053.5          8.451         75.872        342.986         2.4826         11.884        17.5377        22.1695        0.11706        0.18443         2.5209
         3054.0          8.451         76.762        342.985         2.5802         10.133        14.9046        19.0422        0.12140        0.18729         2.5113
         3054.5          8.451         75.196        342.984         2.5467          8.433        12.7323        15.6222        0.12935        0.19823         2.4961
         3055.0          8.470         78.304        342.984         2.5049          7.233         9.9896        11.5467        0.13991        0.20234         2.4774
         3055.5          8.470         81.462        342.983         2.5247          5.513         7.8509        10.1959        0.15570        0.21877         2.4475
         3056.0          8.470         74.928        342.982         2.4441          3.925         7.1659         9.9376        0.18263        0.22272         2.3951
         3056.5          8.470         69.077        342.982         2.2736          3.027         6.4189         9.9376        0.22658        0.23024         2.3281
         3057.0          8.470         68.494        342.981         2.5641          3.120         6.2572         9.9376        0.26255        0.24141         2.2794
         3057.5          8.470         68.538        342.981         2.5838          4.167         6.5769         9.9376        0.27458        0.24506         2.2705
         3058.0          8.470         66.565        342.980         2.4852          6.722         8.6780         9.7133        0.26313        0.26002         2.3108
         3058.5          8.437         63.795        342.979         2.2007          9.461         8.9453         9.6705        0.21358        0.25396         2.3929
         3059.0          8.411         62.736        342.979         2.4108          7.304         8.8308         9.6705        0.16661        0.19487         2.4515
         3059.5          8.411         64.826        342.978         2.4852          4.659         7.6662         9.0802        0.15713        0.18896         2.4259
         3060.0          8.431         66.188        342.977         2.3545          4.403         7.2454         8.5323        0.20044        0.20439         2.3683
         3060.5          8.451         64.530        342.977         2.1165          5.513         7.1564         8.5376        0.23963        0.20753         2.3218
         3061.0          8.451         63.637        342.976         2.1057          5.611         7.9607        10.0391        0.23127        0.21580         2.3472
         3061.5          8.451         66.235        342.975         2.1302          5.506         8.9102        11.3866        0.21914        0.21007         2.3551
         3062.0          8.451         67.755        342.975         2.1105          6.290         8.7510        10.7730        0.21860        0.19866         2.3617
         3062.5          8.411         66.415        342.974         2.0907          5.936         8.4291        10.1083        0.20445        0.19745         2.3884
         3063.0          8.477         61.126        342.973         2.1505          4.594         7.6510         9.5663        0.19531        0.20582         2.3923
         3063.5          8.490         57.290        342.973         2.1893          3.899         7.0513         9.3254        0.21828        0.21103         2.3388
         3064.0          8.510         59.062        342.972         2.2288          4.019         6.5242         9.3254        0.24514        0.22735         2.3035
