~Version Information Block
 VERS.                2.00:     CWLS LOG ASCII STANDARD - VERSION 2.000000
 WRAP.                  NO:     One Line Per Depth Step
#
~Well Information Block
#MNEM.UNIT                     Data                         Information
#----------   ------------------------------------------   ----------------
 STRT.FT                                     4210.0000:     START DEPTH
 STOP.FT                                    10370.0000:     STOP DEPTH
 STEP.FT                                        0.5000:     STEP
 NULL.                                       -999.2500:     NULL VALUE
 COMP.                       CHESAPEAKE OPERATING INC.:     COMPANY
 WELL.                         UNIVERSITY_LANDS_4627-1:     WELL
 FLD .                                         WILDCAT:     FIELD
 LOC .   1200' FNL & 1995' FEL|Section: 27, Block: 46, Abstract: 2860|University Lands Survey:     LOCATION
 SEC .                                              27:     SECTION
 CNTY.                                       CULBERSON:     COUNTY
 STAT.                                           TEXAS:     STATE
 CTRY.                                             USA:     COUNTRY
 SRVC.                                    SCHLUMBERGER:     SERVICE COMPANY
 DATE.                                      11/15/2016:     DATE
 API .                                  42109322870000:     API NUMBER
 UWI .                                  42109322870000:     UWI NUMBER
 TVD .                                              NO:     TVD flag
 WSTA.                                             LOC:     Well status
#
~Curve Information Block
#MNEM.UNIT       API CODE      Curve Description
#----------    -------------   -------------------
 DEPT.FT                   :   Depth in Feet
 RM_HRLT.OHMM                 :   HRLTB Mud Resistivity
 RXOZ.OHMM                 :   Stan Res MicroCFL Resistivity
 RLA5.OHMM                 :   HRLTB Resistivity 5
 RLA4.OHMM                 :   HRLTB Resistivity 4
 RLA3.OHMM                 :   HRLTB Resistivity 3
 DTCO.US/F                 :   Delta-T Compressional
 DTSM.US/F                 :   Delta-T Shear Measurement
 SPHI.V/V                  :   Sonic Porosity [47.6]
 HSGR.GAPI                 :   HNGS Spectroscopy Gamma Ray
 HCGR.GAPI                 :   HNGS Computed Gamma Ray
 HCAL.IN                   :   HILT Caliper
 DPHI.V/V                  :   Density Porosity
 PEFZ.                     :   Std. Res. Formation PE
 HDRA.G/C3                 :   Density Correction
 RHOB.G/C3                 :   Std. Res. Formation Density
 APLC.V/V                  :   APS Near/Array Corrected Limestone Porosity
 PXND.V/V                  :   Crossplot Porosity For Neutron-Density
#
~Parameter Information Block
#MNEM.UNIT            Value               Description
#----------    --------------------    -------------------
 DATE.                 07-Jun-2007:    Date As Month-Day-Year
 RUN .                         ONE:    Run Number
 PDAT.                         UNK:    Permanent Datum
 EPD .FT                -9999.5000:    Elevation Of Perm. Datum
 LMF .                          KB:    Log Measured From
 FAPD.FT                   40.0000:    Feet Above Perm. Datum
 EKB .FT                 4323.0000:    Elevation Of Kelly Bushing
 TD  .FT                10370.0000:    Total Depth
 DFT .                   Fresh Mud:    Drilling Fluid Type
 DFD .LB/G                  8.6000:    Drilling Fluid Density
 RMS .OHMM                  0.4210:    Resistivity Of Mud Sample
 MST .DEGF                 97.0000:    Mud Sample Temperature
 RMF .OHMM                  0.4210:    Mud Filtrate Resistivity
 MFST.DEGF                 97.0000:    Mud Filtrate Sample Temperature
 MFSS.                        CALC:    Mud Filtrate Sample Source
 MCSS.                        CALC:    Mud Cake Sample Source
 RMB .OHMM                  0.2280:    Mud Resistivity At Bht
 BHT .DEGF                185.0000:    Bottom Hole Temperature
 MRT .DEGF                185.0000:    Maximum Recorded Temperature
 WSTA.                         LOC:    
 LATB.FT                    0.0000:    
 LONB.FT                    0.0000:    
#
~Other Information Block
<DescLogPlotStart>   NEURALOG PLOT DEFINITION
PLOTDEFVERSION: 3
LASFILE: E:\nds\projects\Texas Standard Oil LLC\pdf\42109322870000 D\42-109-322
DEPTHSCALE: 240.000000
RESOLUTION: 196
DEPTHLABELFREQ: 100.000000
HEAVYGRIDFREQ: 100.000000
MEDIUMGRIDFREQ: 50.000000
LIGHTGRIDFREQ: 10.000000
#
#   TRACK 1
#
STARTTRACK: 
 LEFTX: 0.500000 inch
 RIGHTX: 3.000000 inch
 SCALETYPE: Linear
 NUMCHARTDIVISIONS: 10
CURVE: RXOZ  0.200000   2000.000000 (0,0,255)      Solid             2     Y   
BACKUP: 2000.000000 20000000.000000 (0,0,255)      Solid             2    
CURVE: RLA5  0.200000   2000.000000 (0,131,131)    Dot               2     Y   
BACKUP: 2000.000000 20000000.000000 (0,131,131)    Dot               2    
CURVE: RLA4  0.200000   2000.000000 (255,0,255)    Short_Dash        2     Y   
BACKUP: 2000.000000 20000000.000000 (255,0,255)    Short_Dash        2    
CURVE: RLA3  0.200000   2000.000000 (255,0,0)      Medium_Dash       2     Y   
BACKUP: 2000.000000 20000000.000000 (255,0,0)      Medium_Dash       2    
CURVE: DTCO  240.000000 40.000000  (0,0,255)      Solid             2     N    
CURVE: DTSM  240.000000 40.000000  (0,131,131)    Dot               2     Y    
BACKUP: 440.000000 240.000000 (0,131,131)    Dot               2    
CURVE: SPHI  0.300000   -0.100000  (255,0,255)    Short_Dash        2     Y    
BACKUP: 0.700000   0.300000   (255,0,255)    Short_Dash        2    
CURVE: HSGR  0.000000   150.000000 (0,0,255)      Solid             2     Y    
BACKUP: 150.000000 300.000000 (0,0,255)      Solid             2    
CURVE: HCGR  0.000000   150.000000 (0,131,131)    Dot               2     N    
CURVE: HCAL  6.000000   16.000000  (255,0,255)    Short_Dash        2     Y    
BACKUP: -4.000000  6.000000   (255,0,255)    Short_Dash        2    
BACKUP: 16.000000  26.000000  (255,0,255)    Short_Dash        2    
ENDTRACK: 
#
#   TRACK 2
#
STARTTRACK: 
 LEFTX: 3.500000 inch
 RIGHTX: 8.500000 inch
 SCALETYPE: Linear
 NUMCHARTDIVISIONS: 10
CURVE: RM_HRLT 0.020000   200.000000 (255,131,0)    Solid             2     N  
CURVE: DPHI  0.300000   -0.100000  (255,0,0)      Solid             2     Y    
BACKUP: 0.700000   0.300000   (255,0,0)      Solid             2    
BACKUP: -0.100000  -0.500000  (255,0,0)      Solid             2    
CURVE: APLC  0.300000   -0.100000  (255,131,0)    Dot               2     Y    
BACKUP: 0.700000   0.300000   (255,131,0)    Dot               2    
BACKUP: 1.100000   0.700000   (255,131,0)    Dot               2    
CURVE: PXND  0.300000   -0.100000  (255,255,0)    Short_Dash        2     Y    
BACKUP: 0.700000   0.300000   (255,255,0)    Short_Dash        2    
ENDTRACK: 
#
#   TRACK 3
#
STARTTRACK: 
 LEFTX: 0.500000 inch
 RIGHTX: 5.500000 inch
 SCALETYPE: Linear
 NUMCHARTDIVISIONS: 10
ENDTRACK: 
#
#   TRACK 4
#
STARTTRACK: 
 LEFTX: 3.500000 inch
 RIGHTX: 6.000000 inch
 SCALETYPE: Linear
 NUMCHARTDIVISIONS: 10
CURVE: PEFZ  0.000000   10.000000  (0,0,255)      Solid             2     N    
ENDTRACK: 
#
#   TRACK 5
#
STARTTRACK: 
 LEFTX: 3.500000 inch
 RIGHTX: 4.750000 inch
 SCALETYPE: Linear
 NUMCHARTDIVISIONS: 10
CURVE: HDRA  -0.050000  0.200000   (0,131,131)    Solid             2     N    
ENDTRACK: 
#
#   TRACK 6
#
STARTTRACK: 
 LEFTX: 3.500000 inch
 RIGHTX: 8.500000 inch
 SCALETYPE: Linear
 NUMCHARTDIVISIONS: 10
CURVE: RHOB  2.000000   3.000000   (255,0,255)    Solid             2     Y    
BACKUP: 1.000000   2.000000   (255,0,255)    Solid             2    
ENDTRACK: 
<DescLogPlotEnd>
~A DEPTH     RM_HRLT             RXOZ             RLA5             RLA4             RLA3             DTCO             DTSM             SPHI             HSGR             HCGR             HCAL             DPHI             PEFZ             HDRA             RHOB             APLC             PXND            
# ...
    6667.000 1.01929326       30.56069302      24.83450230      28.10998421      28.10998421      63.85235721      112.53221289     0.11819185       68.46896596      42.94622309      9.12002108       0.08122260       3.72263020       -0.01117668      2.58051162       0.08207171       0.08330059      
    6667.500 1.01929326       32.26038639      32.84770413      32.98925646      32.98925646      63.06477930      113.76750700     0.11413150       66.77938920      42.01149187      9.12000022       0.08054310       3.77055721       -0.01304829      2.56917340       0.07299440       0.07111984      
    6668.000 1.03790522       47.54795649      41.90671983      47.92987909      47.92987909      62.46171160      114.65826331     0.10864713       61.53496609      38.89593507      9.12019113       0.07036078       3.83483319       -0.00427604      2.57773912       0.06391709       0.06208251      
    6668.500 1.03796025       63.45986495      41.15742667      47.22765919      47.22765919      61.67100530      114.93277311     0.10235525       57.19899869      37.25458665      9.12897060       0.06466963       3.87158157       -0.00283239      2.59337210       0.06137255       0.06011788      
    6669.000 1.03794804       63.91134252      39.69879296      45.35556018      45.35556018      60.90284593      113.91176471     0.09848217       57.71661952      36.22893103      9.13974099       0.06709109       3.84900707       0.00223478       2.59170366       0.06568627       0.06466799      
    6669.500 1.03735479       51.19973134      37.94798005      45.54746301      45.54746301      60.70657507      112.27843137     0.09568204       59.67421068      35.74314238      9.11997939       0.07453477       3.94905030       0.03855580       2.58679848       0.06725490       0.06941814      
    6670.000 1.03557098       35.56671769      43.44647834      42.61179265      42.61179265      61.29538763      110.58823529     0.10148095       59.67095270      35.79247393      9.12045598       0.05984329       4.04006322       0.11449987       2.57889757       0.06490196       0.06793130      
    6670.500 1.03379247       29.21289245      45.93825345      45.86284014      45.86284014      62.00196271      109.09225163     0.10708870       56.63193130      35.52284497      9.12011702       0.04134710       4.14842449       0.10421247       2.61569569       0.06372549       0.06364648      
    6671.000 1.03203529       31.68356991      45.81205317      47.12095990      47.12095990      61.88420020      108.55948089     0.10545310       55.42790359      35.14577429      9.12006017       0.02744899       4.07197761       0.09610012       2.66813883       0.06450980       0.06247544      
    6671.500 1.03029072       45.45097646      45.11583640      44.23744491      44.23744491      61.49165849      109.10630891     0.10085404       55.98234719      35.40201086      9.12009936       0.05659824       3.97738935       0.05017972       2.60717732       0.06529412       0.06601179      
    6672.000 1.02857986       68.20888736      38.95310617      45.04281146      45.04281146      61.09911678      110.29795130     0.10012363       57.46813101      36.77058387      9.12020452       0.08377749       3.85371655       0.01142142       2.53760172       0.07196078       0.08251473      
    6672.500 1.02850803       65.19454725      38.99997747      37.26946926      37.26946926      61.09911678      111.86274510     0.09953609       60.03312064      37.51247189      9.11978278       0.10263903       3.81604636       0.00659034       2.54064358       0.07117647       0.08408644      
    6673.000 1.02839274       62.89595044      38.17438828      37.21824444      37.21824444      60.70657507      114.55294118     0.09764475       62.37074980      37.93406960      9.11776358       0.09582109       3.78288891       0.01932535       2.54430136       0.07000000       0.08565815      
    6673.500 1.03482800       64.62373199      48.54049873      48.30406387      48.30406387      60.51030422      117.35294118     0.09528950       62.82052509      38.02202940      9.14033779       0.09333986       3.82217308       0.02499828       2.54783229       0.07039216       0.08605108      
    6674.000 1.04694237       53.97249050      38.20725129      38.31316116      38.31316116      61.88420020      126.56862745     0.10912659       63.57157574      38.47152025      9.11738593       0.10509305       3.80649670       0.03032733       2.53367107       0.07196078       0.08840864      
    6674.500 1.02855714       45.86284014      36.27438224      36.27438224      36.27438224      64.82826300      128.52941176     0.12473013       66.31566274      39.33427922      9.13985321       0.10313418       3.70723051       0.04253722       2.53361948       0.07509804       0.08998035      
    6675.000 1.00101504       46.27843601      35.62579542      35.62579542      35.62579542      67.87046124      130.93137255     0.15770363       71.31136481      43.56960675      9.16044110       0.09927372       3.51501044       0.10346874       2.54564644       0.08019608       0.09298907      
    6675.500 0.95674068       29.21289245      21.64263390      21.64263390      21.64263390      69.93130520      131.80000000     0.16673209       80.84647058      51.04073844      9.15043548       0.09331105       3.50741679       0.16342310       2.55946726       0.11464096       0.10966769      
    6676.000 0.95674068       15.12099732      11.02706581      11.02706581      11.02706581      70.91265947      130.18207283     0.17183513       90.92434365      53.76829296      9.12893222       0.08269756       3.37746993       0.20229890       2.60162615       0.14333333       0.12787763      
    6676.500 0.95674068       8.52474953       11.02706581      11.02706581      11.02706581      72.28655545      127.54901961     0.17693817       92.52265902      54.51205732      9.14434540       0.05223102       3.33534132       0.20204643       2.65454075       0.13237171       0.11886735      
    6677.000 0.93958417       9.23011314       12.28775939      12.28775939      12.28775939      73.26790972      124.70196078     0.18557409       89.56195196      54.16904501      9.11618541       0.03240741       3.37893471       0.19957654       2.63044530       0.11572997       0.10726777      
    6677.500 0.92273532       22.35500867      23.67813387      23.67813387      23.67813387      73.07163886      121.71568627     0.18702977       84.89160754      48.59170055      9.09781035       0.04852881       3.50558223       0.20494958       2.59297360       0.09908824       0.09515428      
    6678.000 0.96543605       21.42731560      41.90671983      41.90671983      42.66965427      71.30520118      119.31372549     0.17026006       79.68204179      43.94485025      9.07932533       0.07378281       3.59823260       0.03103189       2.56275942       0.09117647       0.08986087      
    6678.500 1.03790522       36.60309026      42.66965427      42.66965427      41.53038344      69.33711269      121.66666667     0.15299313       75.81892263      42.58762057      9.07812883       0.09166149       3.64625909       -0.01375886      2.58101264       0.09117647       0.08925757      
    6679.000 1.05685704       27.92453315      39.34228449      39.34228449      37.26946926      68.55701599      124.53594771     0.15338567       75.06291115      42.67190231      9.11447088       0.07200923       3.67432267       -0.00814063      2.59925608       0.09117647       0.08840864      
    6679.500 1.11581419       23.31478242      34.67459414      34.67459414      37.26946926      68.75701345      126.50588235     0.15456330       76.17529935      42.66976526      9.67549663       0.05375161       3.68811885       -0.00094387      2.61483181       0.09196078       0.08801572      
    6680.000 1.12595531       24.61148015      35.30586383      35.62579542      37.60719447      68.75994576      126.76470588     0.15456330       78.72456491      42.65250231      10.05846879      0.05533630       3.67592927       0.00753160       2.61139728       0.09235294       0.08840864      
