#   WellGreen Tech Inc.   Digitizing Services
#   www.wellgreentech.com
#   email: sales@wellgreentech.com
#
~Version Information Block
 VERS.                2.00:     CWLS LOG ASCII STANDARD - VERSION 2.000000
 WRAP.                  NO:     One Line Per Depth Step
#
~Well Information Block
#MNEM.UNIT                     Data                         Information
#----------   ------------------------------------------   ----------------
 STRT.FT                                      400.0000:     START DEPTH
 STOP.FT                                    10100.0000:     STOP DEPTH
 STEP.FT                                        0.5000:     STEP
 NULL.                                       -999.2500:     NULL VALUE
 COMP.                       ENRON OIL AND GAS COMPANY:     COMPANY
 WELL.                                   TXL "1" NO. 1:     WELL
 FLD .                                         WILDCAT:     FIELD
 LOC .                                              63:     LOCATION
 CNTY.                                       CULBERSON:     COUNTY
 STAT.                                           TEXAS:     STATE
 CTRY.                                             USA:     COUNTRY
 SRVC.                                    SCHLUMBERGER:     SERVICE COMPANY
 DATE.                                      06/28/1989:     DATE
 API .               42109320330000:    API NUMBER
 UWI .               42109320330000:    UWI NUMBER
 TVD .                                              NO:     TVD flag
 MATRIX .G/CC                  :    Matrix Density
#
~Curve Information Block
#MNEM.UNIT       API CODE      Curve Description
#----------    -------------   -------------------
 DEPT.FT                   :   Depth in Feet
 GR  .API      35 310 01 01:   Gamma Ray
 CALI.INCHES   70 280 01 01:   Caliper
 DT  .US/FT    60 520 08 01:   Delta T
 SPHI.V/V      61 890 01 01:   Sonic Porosity
#
~Parameter Information Block
#MNEM.UNIT            Value               Description
#----------    --------------------    -------------------
 RUN .                         ONE:    Run Number
 PDAT.                          GL:    Permanent Datum
 EPD .FT                 3890.3000:    Elevation Of Perm. Datum
 LMF .               KELLY BUSHING:    Log Measured From
 EKB .FT                 3905.1000:    Elevation Of Kelly Bushing
 DF .FT                  3904.1000:    Elevation Of Derrick Floor
 GL .FT                  3890.3000:    Elevation Of Ground Level
 TD .FT                  10100.0000:    Total Depth
 BHT .DEGF               193.00 :  Bottom Hole Temperature
 BLI .FT               10100.0000:   Bottom Log Interval
 CSGSIZE.IN              9.6250:   Casing Size
 BITSIZE.IN               8.750 :  BitSize
 CSGD.FT                      405:    Casing Bottom (Driller) 1
 CSGL.FT                      405:    Casing Bottom (Logger) 1
 MUD .                      SW GEL:    Drilling Fluid Type
 MUDV .CP                  34.0000:    Drilling Fluid Viscosity
 MUDD .LB/USG               9.1000:    Drilling Fluid Density
 FL .ML/30MIN               8.0000:    Drilling Fluid Loss
 PH.                       10.0000:    Drilling Fluid Ph
 MUDS .                  CIRC TANK:    Mud Sample Source
 RM .OHMM                   0.1720:    Resistivity Of Mud Sample
 RMT .DEGF                 75.0000:    Mud Sample Temperature
 RMF .OHMM                  0.1720:    Mud Filtrate Resistivity
 RMFT.DEGF                 75.0000:    Mud Filtrate Sample Temperature
 RMB .OHMM                  0.0710:    Mud Resistivity At Bht
 TMAX .DEGF               193.0000:    Bottom Hole Temperature
#
~Other Information Block
<DescLogPlotStart>   NEURALOG PLOT DEFINITION
PLOTDEFVERSION: 3
LASFILE: D:\nds\projects\20MAY19H\las\42109320330000_BEG_RAS_RS0022815370.las
DEPTHSCALE: 240.000000
RESOLUTION: 400
DEPTHLABELFREQ: 100.000000
HEAVYGRIDFREQ: 100.000000
MEDIUMGRIDFREQ: 50.000000
LIGHTGRIDFREQ: 10.000000
#
#   TRACK 1
#
STARTTRACK: 
 LEFTX: 0.500000 inch
 RIGHTX: 3.000000 inch
 SCALETYPE: Linear
 NUMCHARTDIVISIONS: 10
CURVE: GR    0.000000   125.000000 (0,0,255)      Solid             2     Y    
BACKUP: 125.000000 250.000000 (0,0,255)      Solid             2    
ENDTRACK: 
#
#   TRACK 2
#
STARTTRACK: 
 LEFTX: 0.500000 inch
 RIGHTX: 3.000000 inch
 SCALETYPE: Linear
 NUMCHARTDIVISIONS: 10
CURVE: CALI  6.000000   16.000000  (0,131,131)    Solid             2     N    
ENDTRACK: 
#
#   TRACK 3
#
STARTTRACK: 
 LEFTX: 3.500000 inch
 RIGHTX: 8.500000 inch
 SCALETYPE: Linear
 NUMCHARTDIVISIONS: 10
CURVE: DT    100.000000 40.000000  (255,0,255)    Solid             2     Y    
BACKUP: 160.000000 100.000000 (255,0,255)    Solid             2    
CURVE: SPHI  0.300000   -0.100000  (255,0,0)      Dot               2     Y    
BACKUP: 0.700000   0.300000   (255,0,0)      Dot               2    
BACKUP: -0.100000  -0.500000  (255,0,0)      Dot               2    
ENDTRACK: 
<DescLogPlotEnd>
~A DEPTH     GR               CALI             DT               SPHI            
# ...
    2974.000 36.61            12.90            61.31            0.14            
    2974.500 33.04            12.89            60.60            0.13            
    2975.000 33.22            12.88            60.42            0.13            
    2975.500 34.11            12.88            60.21            0.13            
    2976.000 35.00            12.90            59.22            0.13            
    2976.500 36.99            12.92            58.23            0.11            
    2977.000 39.92            12.92            57.87            0.11            
    2977.500 42.63            12.88            59.68            0.12            
    2978.000 42.35            12.84            61.24            0.14            
    2978.500 41.52            12.84            62.81            0.15            
    2979.000 40.69            12.87            64.19            0.16            
    2979.500 39.86            12.93            64.83            0.17            
    2980.000 39.50            12.98            64.69            0.17            
    2980.500 40.66            12.98            64.43            0.16            
    2981.000 43.10            12.92            64.18            0.16            
    2981.500 46.86            12.86            64.38            0.16            
    2982.000 54.48            12.79            64.73            0.16            
    2982.500 67.20            12.75            65.05            0.17            
    2983.000 79.91            12.75            64.86            0.17            
    2983.500 92.59            12.78            64.56            0.17            
    2984.000 100.04           12.81            64.25            0.16            
    2984.500 99.60            12.83            68.05            0.17            
    2985.000 91.81            12.83            80.26            0.22            
    2985.500 82.37            12.82            92.42            0.27            
    2986.000 72.95            12.84            99.78            0.30            
    2986.500 65.87            12.85            99.80            0.52            
    2987.000 65.93            12.83            49.63            0.70            
    2987.500 75.91            12.82            40.10            0.70            
    2988.000 80.83            12.80            40.10            0.70            
    2988.500 71.57            12.79            40.10            0.70            
    2989.000 60.82            12.78            40.10            0.70            
    2989.500 50.06            12.76            40.10            0.70            
    2990.000 39.30            12.79            40.10            0.70            
    2990.500 35.14            12.82            40.10            0.70            
    2991.000 35.81            12.85            40.10            0.70            
    2991.500 38.36            12.88            40.10            0.70            
    2992.000 40.95            12.89            40.10            0.70            
    2992.500 41.40            12.87            40.10            0.30            
    2993.000 38.40            12.86            40.10            -0.14           
    2993.500 35.10            12.85            40.10            -0.50           
    2994.000 32.67            12.84            40.10            -0.26           
    2994.500 30.99            12.83            45.78            -0.01           
    2995.000 29.32            12.83            59.52            0.11            
    2995.500 27.64            12.83            61.38            0.14            
    2996.000 26.52            12.83            58.86            0.12            
    2996.500 27.38            12.83            56.36            0.10            
    2997.000 29.97            12.83            56.14            0.10            
    2997.500 33.71            12.82            57.14            0.10            
    2998.000 35.07            12.81            58.08            0.11            
    2998.500 36.47            12.80            59.01            0.12            
    2999.000 38.34            12.80            59.94            0.13            
    2999.500 40.48            12.80            61.07            0.14            
    3000.000 51.14            12.82            62.47            0.15            
    3000.500 66.77            12.83            63.86            0.15            
    3001.000 72.61            12.83            64.78            0.16            
    3001.500 69.17            12.81            64.95            0.17            
    3002.000 61.50            12.78            64.79            0.17            
    3002.500 53.81            12.75            64.47            0.16            
    3003.000 46.07            12.72            64.02            0.16            
    3003.500 41.17            12.74            63.75            0.16            
    3004.000 39.25            12.76            63.56            0.16            
    3004.500 40.33            12.78            63.36            0.16            
    3005.000 45.50            12.80            63.04            0.15            
    3005.500 57.88            12.82            62.32            0.15            
    3006.000 70.70            12.80            61.61            0.14            
    3006.500 83.53            12.78            61.34            0.14            
    3007.000 87.96            12.75            61.88            0.15            
    3007.500 89.06            12.73            62.53            0.15            
    3008.000 82.10            12.70            63.51            0.16            
    3008.500 70.82            12.70            64.12            0.16            
    3009.000 59.53            12.69            64.02            0.16            
    3009.500 51.55            12.73            63.91            0.16            
    3010.000 47.78            12.76            63.91            0.16            
    3010.500 44.56            12.79            63.91            0.16            
    3011.000 42.73            12.75            63.52            0.16            
    3011.500 42.62            12.72            63.12            0.15            
    3012.000 44.59            12.76            62.72            0.15            
    3012.500 48.56            12.81            62.52            0.15            
    3013.000 52.14            12.83            62.94            0.15            
    3013.500 54.91            12.81            63.37            0.16            
    3014.000 57.01            12.79            63.55            0.16            
    3014.500 59.12            12.78            63.39            0.16            
    3015.000 61.22            12.77            63.10            0.15            
    3015.500 62.45            12.76            62.82            0.15            
    3016.000 62.33            12.71            62.53            0.15            
    3016.500 62.57            12.67            62.24            0.15            
    3017.000 66.84            12.63            62.02            0.15            
    3017.500 75.08            12.63            62.24            0.15            
    3018.000 83.30            12.63            62.79            0.15            
    3018.500 89.90            12.62            63.35            0.15            
    3019.000 89.23            12.62            63.67            0.16            
    3019.500 87.70            12.62            63.34            0.16            
    3020.000 86.64            12.62            62.97            0.15            
    3020.500 94.73            12.61            62.80            0.15            
    3021.000 105.90           12.61            63.34            0.16            
    3021.500 127.53           12.61            64.38            0.16            
    3022.000 130.98           12.61            65.40            0.17            
    3022.500 133.44           12.62            66.36            0.18            
    3023.000 128.04           12.65            66.36            0.17            
