###############################################
##         ENVERUS                           ##
##         ESS - Open Hole                   ##
##         PERMIAN / DELAWARE                ##
##         Nov 03 2023  V4.0                 ##
##         42-109-32620-90-00                ##
###############################################
## Copyright 2017-2023  ENVERUS.  All Rights Reserved. 
## Confidential - Property of ENVERUS, use governed by terms and 
## conditions found within the existing Information Services Subscription Agreement 
## (as may be amended, the “ISSA”) between Customer and ENVERUS. 
## 
~VERSION INFORMATION
# MNEM.UNIT                               DATA : DESCRIPTION OF MNEMONIC
#-----.-----     ----------------------------- : -----------------------------
VERS.                                     2.00 : CWLS LOG ASCII STANDARD - VERSION 2.00
WRAP.                                       NO : MULTIPLE LINES PER DEPTH STEP
VEND.                                  ENVERUS : VENDOR
TYPE.                          ESS - OPEN HOLE : ENVERUS ESSENTIAL CURVES – ACCESSIBLE THROUGH ENVERUS PRISM(TM)
DOC.                                  51092952 : ENVERUS HEADER RAW DOCUMENT ID
#___________________________________________________________________________________________________ 
~WELL INFORMATION 
# LYPeWtxrle9FodilXqet+3VuPRh8A73lGXm1Q3+VPjdIM+tEhu367IfA47DlYFnVF+yDwY76OrXOyADpoj01xA== 
# MNEM.UNIT                                              DATA : DESCRIPTION OF MNEMONIC 
#-----.-----                    ----------------------------- : ----------------------------- 
CNTY.                                               CULBERSON : COUNTY 
STATE.                                                  TEXAS : STATE 
CNTRY.                                                    USA : COUNTRY 
API.                                             42-109-32620 : API (10 Digit) 
API_14.                                    42-109-32620-90-00 : API (14 Digits) 
API_14_std.                                 42-109-32620-9000 : API (14 Digits Standard) 
UWI.                                           42109326209000 : UNIQUE WELL ID 
WELL.                               42109326200000_PREV_API14 : WELL NAME
STRT.FT                                                2339.0 : START DEPTH
STOP.FT                                               10866.0 : STOP DEPTH
STEP.FT                                                   0.5 : STEP BETWEEN DEPTHS
NULL.                                                 -999.25 : NULL VALUE
PREV_APII.                                     42109326200000 : WELL IDENTIFIER
#___________________________________________________________________________________________________ 
~PARAMETER INFORMATION 
# MNEM.UNIT                                              DATA : DESCRIPTION OF MNEMONIC 
#-----.-----                    ----------------------------- : ----------------------------- 
EKB.FT                                                   3330 : ELEVATION ABOVE MSL
#___________________________________________________________________________________________________ 
~CURVE INFORMATION 
# MNEM.UNIT           : CURVE DESCRIPTION 
#-----.-----          : ----------------------------- 
 DEPT.FT               : MEASURED DEPTH 
 GR__A.API             : GAMMA RAY (GAMMA RAY) 
 DT__A.US/FT           : SONIC DELTA TRANSIT TIME (SONIC) 
 #___________________________________________________________________________________________________ 
~A         DEPT          GR__A          DT__A
# ...
         7385.0        283.783         77.074
         7385.5        246.757         94.574
         7386.0        206.454        105.657
         7386.5        189.020        107.190
         7387.0        176.374        112.529
         7387.5        164.000        118.149
         7388.0        146.997        120.762
         7388.5        141.063        121.516
         7389.0        137.799        121.439
         7389.5        160.143        111.425
         7390.0        210.922        103.942
         7390.5        222.355         95.135
         7391.0        224.307         89.735
         7391.5        210.447        107.692
         7392.0        186.517        115.978
         7392.5        151.365        118.502
         7393.0        143.423        123.113
         7393.5        157.367        107.248
         7394.0        173.320         95.011
         7394.5        196.903         92.537
         7395.0        218.512         86.675
         7395.5        221.161         89.573
         7396.0        206.956         98.414
         7396.5        192.917         95.286
         7397.0        191.499         94.732
         7397.5        207.455         84.106
         7398.0        223.479         73.368
         7398.5        230.339         72.217
         7399.0        220.290         73.283
         7399.5        203.411         88.039
         7400.0        180.601        139.426
         7400.5        159.018        154.397
         7401.0         89.587        158.685
         7401.5         69.053        157.748
         7402.0         59.509        160.519
         7402.5         62.664        146.993
         7403.0         96.841        109.494
         7403.5        155.173         97.479
         7404.0        226.188         93.425
         7404.5        256.761         77.062
         7405.0        269.327         96.835
         7405.5        240.821        101.835
         7406.0        193.925        102.508
         7406.5        175.891         91.249
         7407.0        194.167         80.679
         7407.5        218.477         80.310
         7408.0        222.798         89.380
         7408.5        207.266        107.868
         7409.0        169.390        116.584
         7409.5        142.221        110.638
         7410.0        144.162        108.295
         7410.5        154.454        102.890
         7411.0        180.398         84.405
         7411.5        208.061        109.397
         7412.0        218.900        124.385
         7412.5        180.621        128.570
         7413.0        114.192        144.653
         7413.5         75.844        142.110
         7414.0         78.466        126.234
         7414.5         97.049        120.335
         7415.0        167.889        108.371
         7415.5        165.346        111.716
         7416.0        146.382        116.513
         7416.5        141.444        116.524
         7417.0        138.124        111.578
         7417.5        148.643         98.938
         7418.0        171.337         93.272
         7418.5        186.933         88.589
         7419.0        216.258         85.532
         7419.5        225.150         88.815
         7420.0        226.924         96.767
         7420.5        197.581         98.300
         7421.0        172.008         96.357
         7421.5        171.315        101.075
         7422.0        171.862        102.508
         7422.5        170.532        102.106
         7423.0        194.722         99.570
         7423.5        225.531         89.049
         7424.0        220.613         91.015
         7424.5        204.682         91.828
         7425.0        203.992         97.402
         7425.5        187.555        120.822
         7426.0        144.884        128.572
         7426.5        119.526        129.685
         7427.0        110.518        125.955
         7427.5        137.490        102.994
         7428.0        186.805         91.328
         7428.5        209.840         87.576
         7429.0        235.697         80.774
         7429.5        255.735         77.633
         7430.0        273.252         79.889
         7430.5        269.881         87.097
         7431.0        243.096         97.275
         7431.5        200.551        122.316
         7432.0        141.427        142.887
         7432.5        115.100        148.576
         7433.0         66.584        154.614
         7433.5         43.305        165.862
         7434.0         34.040        160.899
         7434.5         45.862        146.840
         7435.0         76.137        132.914
         7435.5        133.596        121.978
         7436.0        168.305        123.579
         7436.5        175.538        125.506
         7437.0        168.708        125.731
         7437.5        188.318        112.006
         7438.0        213.754         95.031
         7438.5        225.948         95.583
         7439.0        224.501         97.643
         7439.5        235.302         96.968
         7440.0        240.298         94.484
         7440.5        244.420         94.856
         7441.0        220.030        102.821
         7441.5        153.671        135.852
         7442.0         91.134        158.294
         7442.5         62.909        162.688
         7443.0         51.113        161.922
         7443.5         51.149        157.834
         7444.0         59.186        153.301
         7444.5         75.025        143.871
         7445.0         90.026        134.797
         7445.5        133.176        117.338
         7446.0        188.086        103.679
         7446.5        217.715         89.617
         7447.0        212.375         87.683
         7447.5        223.507         84.003
         7448.0        255.541         80.101
         7448.5        282.284         78.636
         7449.0        292.011         80.789
         7449.5        294.155         82.155
         7450.0        293.254         85.696
         7450.5        261.646        106.192
         7451.0        206.463        133.814
         7451.5        151.344        142.523
         7452.0        108.255        148.406
         7452.5         60.734        163.686
         7453.0         37.107        161.545
         7453.5         43.887        154.983
         7454.0         68.959        146.970
         7454.5        115.944        127.374
         7455.0        161.409        106.386
         7455.5        182.817         98.975
         7456.0        203.087         97.599
         7456.5        187.770        117.370
         7457.0        140.071        127.859
         7457.5        116.793        126.429
         7458.0        126.237        115.266
         7458.5        151.513         94.932
         7459.0        160.839         93.380
         7459.5        164.471         96.185
         7460.0        160.652        100.127
         7460.5        150.825        113.307
         7461.0        142.657        118.048
         7461.5        118.547        130.274
         7462.0        100.411        134.752
         7462.5         95.002        127.306
         7463.0        108.963        121.638
         7463.5        125.331        117.261
         7464.0        133.795        114.497
         7464.5        138.523        113.383
         7465.0        135.301        113.688
         7465.5        131.866        111.272
         7466.0        133.959        106.444
         7466.5        144.753         97.703
         7467.0        160.651         90.174
         7467.5        161.640        104.606
         7468.0        144.976        114.284
         7468.5        100.475        129.302
         7469.0         73.236        141.334
         7469.5         66.667        141.403
         7470.0         72.186        132.356
         7470.5        113.274        121.196
         7471.0        136.011        115.839
         7471.5        132.632        120.039
