###############################################
##         ENVERUS                           ##
##         ESS - Open Hole                   ##
##         PERMIAN / DELAWARE                ##
##         Nov 03 2023  V4.0                 ##
##         42-109-33370-00-00                ##
###############################################
## Copyright 2017-2023  ENVERUS.  All Rights Reserved. 
## Confidential - Property of ENVERUS, use governed by terms and 
## conditions found within the existing Information Services Subscription Agreement 
## (as may be amended, the “ISSA”) between Customer and ENVERUS. 
## 
~VERSION INFORMATION
# MNEM.UNIT                               DATA : DESCRIPTION OF MNEMONIC
#-----.-----     ----------------------------- : -----------------------------
VERS.                                     2.00 : CWLS LOG ASCII STANDARD - VERSION 2.00
WRAP.                                       NO : MULTIPLE LINES PER DEPTH STEP
VEND.                                  ENVERUS : VENDOR
TYPE.                          ESS - OPEN HOLE : ENVERUS ESSENTIAL CURVES – ACCESSIBLE THROUGH ENVERUS PRISM(TM)
DOC.                                  52814434 : ENVERUS HEADER RAW DOCUMENT ID
#___________________________________________________________________________________________________ 
~WELL INFORMATION 
# 4wk/Fx8UuugU+iebl2dHJIcndKaYvWbTE+/Vf37HP7rynMiEVi3nAb6NYbehQO/VbM9PVY38flJCaeNisGRn4g== 
# MNEM.UNIT                                              DATA : DESCRIPTION OF MNEMONIC 
#-----.-----                    ----------------------------- : ----------------------------- 
CNTY.                                               CULBERSON : COUNTY 
STATE.                                                  TEXAS : STATE 
CNTRY.                                                    USA : COUNTRY 
API.                                             42-109-33370 : API (10 Digit) 
API_14.                                    42-109-33370-00-00 : API (14 Digits) 
API_14_std.                                 42-109-33370-0000 : API (14 Digits Standard) 
UWI.                                           42109333700000 : UNIQUE WELL ID 
WELL.                                       ROXANNE FEE 46 3H : WELL NAME
STRT.FT                                                8800.0 : START DEPTH
STOP.FT                                               14157.0 : STOP DEPTH
STEP.FT                                                   0.5 : STEP BETWEEN DEPTHS
NULL.                                                 -999.25 : NULL VALUE
LOC.                                        API  42-109-33370 : LOCATION 
FL1.                                        API  42-109-33370 : LOCATIONLINE1 
DMF.                                                       KB : DRILL MEAS FROM 
PDAT.                                                      GL : PERMANENT DATUM 
FLD.                                    FORD, WEST (WOLFCAMP) : FIELD NAME 
COMP.                                          CAPITAN ENERGY : COMPANY 
DATE.                                             29-APR-2019 : DATE 
SVCO.                                             HALLIBURTON : SERVICECONAME 
PROV.                                                   TEXAS : PROVINCE 
BASI.                                                 PERMIAN : BASIN 
RANG.                                                     N/A : RANGE 
TOWN.                                                     N/A : TOWNSHIP 
SECT.                                                     N/A : SECTION 
SON.                                                905631605 : JOB NUMBER 
SRVC.                                             HALLIBURTON : SERVICE COMPANY 
LMF.                                                       KB : LOG MEASURED FROM 
BAP.FT                                                 0.0000 : GL ELEV ONSHORE 
GVFD.G                                                 1.0000 : GRAVITY FIELD
#___________________________________________________________________________________________________ 
~CURVE INFORMATION 
# MNEM.UNIT           : CURVE DESCRIPTION 
#-----.-----          : ----------------------------- 
 DEPT.FT               : MEASURED DEPTH 
 GR.API                : GAMMA RAY (GR_CHI - GR_CHI) 
 GR__01.API            : GAMMA RAY (GR_OH - GR_OH) 
 DT.US/FT              : SONIC DELTA TRANSIT TIME (DTC_CHI - DTC_CHI) 
 DT__01.US/FT          : SONIC DELTA TRANSIT TIME (DTC_OH - DTC_OH) 
 PE.B/E                : PHOTOELECTRIC EFFECT/FACTOR (PE_CHI - PE_CHI) 
 PE__01.B/E            : PHOTOELECTRIC EFFECT/FACTOR (PE_OH - PE_OH) 
 RESS_10.OHMM          : 10 INCH SHALLOW INDUCTION RESISTIVITY (RT10_CHI - RT10_CHI) 
 RESS_10__01.OHMM      : 10 INCH SHALLOW INDUCTION RESISTIVITY (RT10_OH - RT10_OH) 
 RESM_30.OHMM          : 30 INCH MEDIUM INDUCTION RESISTIVITY (RT30_CHI - RT30_CHI) 
 RESM_30__01.OHMM      : 30 INCH MEDIUM INDUCTION RESISTIVITY (RT30_OH - RT30_OH) 
 RESD_90.OHMM          : 90 INCH DEEP INDUCTION RESISTIVITY (RT90_CHI - RT90_CHI) 
 RESD_90__01.OHMM      : 90 INCH DEEP INDUCTION RESISTIVITY (RT90_OH - RT90_OH) 
 NPHI.V/V              : NEUTRON POROSITY (NPHI_CHI - NPHI_CHI) 
 NPHI__01.V/V          : NEUTRON POROSITY (NPHI_OH - NPHI_OH) 
 SPHI.V/V              : SONIC POROSITY (SPHI_CHI - SPHI_CHI) 
 RHOB.G/CC             : BULK DENSITY (RHOB_CHI - RHOB_CHI) 
 RHOB__01.G/CC         : BULK DENSITY (RHOB_OH - RHOB_OH) 
 #___________________________________________________________________________________________________ 
~A         DEPT             GR         GR__01             DT         DT__01             PE         PE__01        RESS_10    RESS_10__01        RESM_30    RESM_30__01        RESD_90    RESD_90__01           NPHI       NPHI__01           SPHI           RHOB       RHOB__01
# ...
        12715.0        104.225       -999.250         74.260       -999.250         3.3763      -999.2500         32.353       -999.250         33.420       -999.250         35.553       -999.250        0.14550     -999.25000        0.18850         2.5709      -999.2500
        12715.5        105.735       -999.250         74.178       -999.250         3.3665      -999.2500         32.672       -999.250         33.750       -999.250         35.904       -999.250        0.14420     -999.25000        0.18820         2.5700      -999.2500
        12716.0        107.482       -999.250         74.127       -999.250         3.3501      -999.2500         32.635       -999.250         33.711       -999.250         35.863       -999.250        0.14360     -999.25000        0.18800         2.5689      -999.2500
        12716.5        108.936       -999.250         74.152       -999.250         3.3371      -999.2500         32.382       -999.250         33.450       -999.250         35.585       -999.250        0.14400     -999.25000        0.18820         2.5679      -999.2500
        12717.0        109.981       -999.250         74.249       -999.250         3.3313      -999.2500         32.098       -999.250         33.156       -999.250         35.272       -999.250        0.14540     -999.25000        0.18850         2.5671      -999.2500
        12717.5        110.063       -999.250         74.357       -999.250         3.3363      -999.2500         31.958       -999.250         33.012       -999.250         35.119       -999.250        0.14700     -999.25000        0.18890         2.5670      -999.2500
        12718.0        108.912       -999.250         74.425       -999.250         3.3491      -999.2500         32.019       -999.250         33.074       -999.250         35.185       -999.250        0.14830     -999.25000        0.18920         2.5679      -999.2500
        12718.5        105.840       -999.250         74.389       -999.250         3.3695      -999.2500         32.300       -999.250         33.365       -999.250         35.495       -999.250        0.14820     -999.25000        0.18900         2.5700      -999.2500
        12719.0        101.742       -999.250         74.289       -999.250         3.3945      -999.2500         32.785       -999.250         33.866       -999.250         36.027       -999.250        0.14690     -999.25000        0.18860         2.5728      -999.2500
        12719.5         97.286       -999.250         74.173       -999.250         3.4172      -999.2500         33.380       -999.250         34.480       -999.250         36.681       -999.250        0.14440     -999.25000        0.18810         2.5755      -999.2500
        12720.0         94.697       -999.250         74.104       -999.250         3.4306      -999.2500         34.034       -999.250         35.156       -999.250         37.399       -999.250        0.14180     -999.25000        0.18770         2.5767      -999.2500
        12720.5         94.817       -999.250         74.095       -999.250         3.4340      -999.2500         34.709       -999.250         35.853       -999.250         38.141       -999.250        0.14030     -999.25000        0.18760         2.5763      -999.2500
        12721.0         96.576       -999.250         74.116       -999.250         3.4335      -999.2500         35.402       -999.250         36.569       -999.250         38.903       -999.250        0.14000     -999.25000        0.18760         2.5752      -999.2500
        12721.5         98.457       -999.250         74.134       -999.250         3.4341      -999.2500         36.063       -999.250         37.251       -999.250         39.629       -999.250        0.14050     -999.25000        0.18760         2.5743      -999.2500
        12722.0         99.636       -999.250         74.142       -999.250         3.4391      -999.2500         36.611       -999.250         37.818       -999.250         40.232       -999.250        0.14150     -999.25000        0.18750         2.5741      -999.2500
        12722.5         99.583       -999.250         74.119       -999.250         3.4458      -999.2500         36.941       -999.250         38.159       -999.250         40.594       -999.250        0.14210     -999.25000        0.18740         2.5745      -999.2500
        12723.0         98.464       -999.250         74.056       -999.250         3.4507      -999.2500         36.995       -999.250         38.214       -999.250         40.654       -999.250        0.14210     -999.25000        0.18720         2.5755      -999.2500
        12723.5         97.365       -999.250         73.992       -999.250         3.4513      -999.2500         36.834       -999.250         38.049       -999.250         40.477       -999.250        0.14190     -999.25000        0.18700         2.5764      -999.2500
        12724.0         97.566       -999.250         73.991       -999.250         3.4464      -999.2500         36.591       -999.250         37.797       -999.250         40.210       -999.250        0.14240     -999.25000        0.18710         2.5764      -999.2500
        12724.5         99.214       -999.250         74.081       -999.250         3.4392      -999.2500         36.411       -999.250         37.611       -999.250         40.012       -999.250        0.14380     -999.25000        0.18750         2.5753      -999.2500
        12725.0        100.913       -999.250         74.221       -999.250         3.4371      -999.2500         36.411       -999.250         37.612       -999.250         40.012       -999.250        0.14510     -999.25000        0.18810         2.5740      -999.2500
        12725.5        101.381       -999.250         74.329       -999.250         3.4432      -999.2500         36.575       -999.250         37.781       -999.250         40.192       -999.250        0.14540     -999.25000        0.18850         2.5733      -999.2500
        12726.0        101.165       -999.250         74.330       -999.250         3.4459      -999.2500         36.691       -999.250         37.901       -999.250         40.320       -999.250        0.14450     -999.25000        0.18860         2.5732      -999.2500
        12726.5        101.458       -999.250         74.234       -999.250         3.4344      -999.2500         36.564       -999.250         37.770       -999.250         40.181       -999.250        0.14280     -999.25000        0.18850         2.5729      -999.2500
        12727.0        102.042       -999.250         74.181       -999.250         3.4199      -999.2500         36.220       -999.250         37.414       -999.250         39.802       -999.250        0.14190     -999.25000        0.18840         2.5723      -999.2500
        12727.5        102.589       -999.250         74.210       -999.250         3.4118      -999.2500         35.780       -999.250         36.959       -999.250         39.318       -999.250        0.14200     -999.25000        0.18860         2.5718      -999.2500
        12728.0        103.662       -999.250         74.312       -999.250         3.4079      -999.2500         35.302       -999.250         36.466       -999.250         38.793       -999.250        0.14330     -999.25000        0.18910         2.5709      -999.2500
        12728.5        104.466       -999.250         74.420       -999.250         3.4070      -999.2500         34.739       -999.250         35.884       -999.250         38.175       -999.250        0.14500     -999.25000        0.18970         2.5704      -999.2500
        12729.0        105.016       -999.250         74.508       -999.250         3.4043      -999.2500         33.993       -999.250         35.113       -999.250         37.355       -999.250        0.14680     -999.25000        0.19040         2.5701      -999.2500
        12729.5        105.494       -999.250         74.627       -999.250         3.3978      -999.2500         32.999       -999.250         34.086       -999.250         36.262       -999.250        0.14860     -999.25000        0.19120         2.5695      -999.2500
