~VERSION INFORMATION
VERS. 2.0 : CWLS Log ASCII Standard - Version 2.0
WRAP. NO : One line per depth step
#--------------------------------------------------#
#----------------DRILLING INFO, INC.---------------#
#---------------WWW.DRILLINGINFO.COM---------------#
#------------------COPYRIGHT 2015------------------#
#--------------------------------------------------#
#THIS FILE MAY BE USED ONLY IN ACCORDANCE WITH A CURRENT SUBSCRIPTION AGREEMENT BETWEEN
#THE USER AND DRILLING INFO, INC. NO PART OF THIS FILE MAY BE REPRODUCED, USED, COPIED,
#MODIFIED, PROPAGATED, OR DISTRIBUTED EXCEPT IN ACCORDANCE WITH THE SUBSCRIPTION
#AGREEMENT. UNAUTHORIZED USE OR DISTRIBUTION OF ALL OR ANY PART OF THIS FILE MAY VIOLATE
#COPYRIGHT, TRADEMARK, AND/OR OTHER LAWS AND IS SUBJECT TO CIVIL AS WELL AS CRIMINAL
#SANCTIONS.
#--------------------------------------------------#
#THIS FILE IS PROVIDED "AS-IS" AND ALL WARRANTIES ARE EXPRESSLY DISCLAIMED, WHETHER
#EXPRESS, ORAL, IMPLIED, STATUTORY OR OTHERWISE, INCLUDING ANY IMPLIED WARRANTY OF FITNESS
#FOR A PARTICULAR PURPOSE, MERCHANTABILITY, TITLE OR NON-INFRINGEMENT, AND ANY WARRANTIES
#ARISING BY VIRTUE OF CUSTOM OF TRADE OR COURSE OF DEALING.  FURTHER, DRILLING INFO,
#INC. AND ITS LICENSORS DO NOT REPRESENT OR WARRANT THAT THIS FILE WILL MEET USER'S
#REQUIREMENTS OR ARE SUITABLE FOR USER'S NEEDS OR THAT THE DATA OR RESULTS PROVIDED IN
#CONJUNCTION THEREWITH ARE CORRECT, ACCURATE, TIMELY OR RELIABLE. THESE DISCLAIMERS SHALL
#APPLY REGARDLESS OF ANY FAILURE OF ESSENTIAL PURPOSE OF ANY LIMITED REMEDY.  SOME
#JURISDICTIONS DO NOT ALLOW THE EXCLUSION OF CERTAIN WARRANTIES SO SOME OF THE ABOVE
#EXCLUSIONS MAY NOT APPLY. IN NO EVENT SHALL DRILLING INFO, INC. OR ANY OF ITS AFFILIATES
#BE LIABLE UNDER ANY LEGAL THEORY, WHETHER IN TORT (INCLUDING WITHOUT LIMITATION
#NEGLIGENCE), CONTRACT, STRICT LIABILITY, STATUTORY OR OTHERWISE, FOR ANY SPECIAL,
#INCIDENTAL, CONSEQUENTIAL, EXEMPLARY, PUNITIVE OR INDIRECT DAMAGE OF ANY KIND, INCLUDING
#WITHOUT LIMITATION LOSS OF REVENUE, PROFITS, GOODWILL, USE, AND/OR DATA OR THE COST OF
#PROCUREMENT OF SUBSTITUTE GOODS OR SERVICES, EVEN IF APPRISED OF THE POSSIBILITY OF SUCH
#DAMAGES IN ADVANCE.
#--------------------------------------------------#
~WELL INFORMATION
#MNEMONIC     .UNIT              VALUE :DESCRIPTION
#--------------------------------------------------#
STRT       .ft                51.00000 :START DEPTH
STOP       .ft                9476.00000 :STOP DEPTH
STEP       .ft                0.50000 :STEP
NULL       .                -999.25000 :NULL VALUE
COMP       .                 :COMPANY
WELL       .                 :WELL
FLD       .                 :FIELD
LOC       .                 :LOCATION
CNTY       .                 :COUNTY
STAT       .                 :STATE
CTRY       .                 :COUNTRY
SRVC       .                 :SERVICE COMPANY
DATE       .                 :DATE
API       .                42109100520000 :API NUMBER
~CURVE INFORMATION
#MNEMONIC     .UNIT      API CODE :CURVE DESCRIPTION
#--------------------------------------------------#
DEPTH       .ft                      :Measured Depth
CAL       .in        UNKNOWN   :CAL
DT       .us/ft        UNKNOWN   :DT
GR       .gAPI        UNKNOWN   :GR
~A    DEPTH    CAL    DT    GR
# ...
3883.00000    11.77213    63.03918    56.92834
3883.50000    11.73993    62.89831    56.85786
3884.00000    11.70772    62.75745    56.78738
3884.50000    11.67552    62.77332    56.71690
3885.00000    11.64331    62.80699    56.64642
3885.50000    11.61111    62.84067    56.57594
3886.00000    11.57891    62.87434    57.99878
3886.50000    11.54527    62.90802    59.82408
3887.00000    11.51009    62.45268    61.64938
3887.50000    11.47491    61.15927    63.47469
3888.00000    11.43974    59.86587    51.34986
3888.50000    11.40456    58.64088    56.62803
3889.00000    11.36938    58.69990    64.59606
3889.50000    11.33421    58.75892    74.23595
3890.00000    11.29903    58.81793    83.87584
3890.50000    11.26385    60.00819    85.62089
3891.00000    11.22867    60.79640    83.10474
3891.50000    11.19350    61.58460    80.58859
3892.00000    11.15832    61.18768    78.07243
3892.50000    11.12314    60.55372    75.55629
3893.00000    11.08797    59.91975    73.04014
3893.50000    11.05279    59.68094    71.18988
3894.00000    11.01761    59.71035    76.39300
3894.50000    10.98243    59.73978    81.59612
3895.00000    10.94726    60.11274    86.79924
3895.50000    10.91208    60.93209    88.02884
3896.00000    10.87690    61.75143    87.47108
3896.50000    10.84173    62.31780    86.91332
3897.00000    10.80655    62.43613    86.35556
3897.50000    10.77137    62.55445    85.79780
3898.00000    10.73619    62.67278    85.24004
3898.50000    10.70102    62.71287    84.68228
3899.00000    10.66584    62.64557    88.71549
3899.50000    10.63066    62.57827    90.87101
3900.00000    10.59549    62.51097    89.96126
3900.50000    10.56031    62.44368    89.05151
3901.00000    10.52065    62.37638    88.14175
3901.50000    10.47340    61.83179    87.23200
3902.00000    10.42614    61.21672    86.32225
3902.50000    10.37889    60.87484    84.84445
3903.00000    10.33163    60.87477    82.75315
3903.50000    10.28438    60.87471    80.66185
3904.00000    10.23713    60.87464    78.57055
3904.50000    10.18987    60.87458    77.74908
3905.00000    10.14261    60.87452    80.65399
3905.50000    10.09891    60.87445    83.55890
3906.00000    10.09397    60.87439    85.03544
3906.50000    10.08902    60.87432    84.10430
3907.00000    10.08408    60.87426    83.17316
3907.50000    10.07913    60.84913    82.24202
3908.00000    10.07419    60.69276    82.19658
3908.50000    10.06925    60.53638    88.39608
3909.00000    10.06430    61.15397    94.59558
3909.50000    10.05936    61.15391    101.50064
3910.00000    10.05441    61.15385    108.72862
3910.50000    10.04962    61.15379    115.95659
3911.00000    10.04565    61.15373    123.18457
3911.50000    10.04169    61.15366    125.90043
3912.00000    10.03772    61.15360    118.52868
3912.50000    10.03375    60.76317    100.05528
3913.00000    10.02979    60.52713    88.54300
3913.50000    10.02582    60.34297    77.03072
3914.00000    10.02559    60.15882    65.51845
3914.50000    10.00122    59.97466    59.32974
3915.00000    10.00118    59.79051    60.43898
3915.50000    10.00188    59.63967    61.54822
3916.00000    10.00511    59.56900    62.65746
3916.50000    10.00834    59.49834    63.76670
3917.00000    10.01157    59.42767    64.09069
3917.50000    10.01479    59.20139    60.89360
3918.00000    10.01802    58.65644    57.69651
3918.50000    10.02125    58.11150    54.49941
3919.00000    10.02448    57.56656    56.50757
3919.50000    10.03089    57.02162    59.04128
3920.00000    10.03821    56.47668    61.57499
3920.50000    10.04552    56.92003    64.10871
3921.00000    10.05284    57.83333    75.21858
3921.50000    10.06016    58.74663    92.17415
3922.00000    10.06747    59.65992    108.82260
3922.50000    10.07479    60.57322    115.47563
3923.00000    10.08211    61.48652    111.75073
3923.50000    10.08942    61.37376    99.93158
3924.00000    10.09674    60.41693    88.11244
3924.50000    10.13851    59.46010    84.03029
3925.00000    10.18664    58.50328    90.92304
3925.50000    10.23478    58.38614    97.81579
3926.00000    10.28291    59.28346    107.67239
3926.50000    10.33104    60.18079    120.76162
3927.00000    10.37918    61.07811    133.85085
3927.50000    10.42731    61.97543    146.94008
3928.00000    10.47544    62.87275    152.36416
3928.50000    10.50341    63.48902    147.53516
3929.00000    10.52475    63.50373    142.70616
3929.50000    10.54610    63.51845    137.87715
3930.00000    10.56745    63.53316    133.04815
3930.50000    10.58879    63.54787    128.21914
3931.00000    10.61014    63.56258    110.44311
3931.50000    10.63149    63.57729    104.39610
3932.00000    10.67337    62.50957    105.60781
3932.50000    10.71709    61.43207    111.24837
3933.00000    10.76080    60.35458    116.88893
3933.50000    10.80452    60.49623    122.52949
3934.00000    10.84824    61.15989    128.17005
3934.50000    10.89195    61.82355    129.77954
3935.00000    10.93567    62.48721    120.02293
3935.50000    10.97939    63.15086    95.47870
3936.00000    11.02310    63.81452    92.87283
3936.50000    11.06682    63.73867    90.26695
3937.00000    11.03846    62.96440    79.40159
3937.50000    10.87015    62.19014    65.34880
3938.00000    10.70185    61.33720    55.57750
3938.50000    10.53354    60.26043    50.31333
3939.00000    10.36523    59.18366    45.04917
3939.50000    10.28352    58.10690    39.78500
3940.00000    10.32263    57.03013    34.52083
3940.50000    10.36174    55.95336    36.98795
3941.00000    10.40085    54.87660    40.37652
3941.50000    10.43996    54.93142    43.70284
3942.00000    10.47907    55.66125    47.02915
3942.50000    10.86215    57.28229    50.86911
3943.00000    11.06409    58.90333    67.72279
3943.50000    11.05177    60.52437    84.57646
3944.00000    11.03946    62.14540    101.43014
3944.50000    11.02715    63.76644    109.63706
3945.00000    11.01484    65.09819    107.27983
3945.50000    11.00252    64.63427    105.18083
3946.00000    10.99021    64.17034    103.27254
3946.50000    10.97790    63.70642    101.36426
3947.00000    10.96559    63.24249    93.62969
3947.50000    10.95328    62.77857    92.59891
3948.00000    10.93640    62.31464    91.56812
3948.50000    10.91672    61.85072    90.53734
3949.00000    10.89703    61.38679    89.50656
3949.50000    10.87735    60.92287    89.05889
3950.00000    10.85767    60.45894    92.91276
3950.50000    10.83798    60.98867    96.76664
3951.00000    10.78626    61.98964    100.62051
3951.50000    10.68981    62.99061    100.41789
3952.00000    10.59337    63.99159    88.52345
3952.50000    10.49692    63.68969    87.30542
3953.00000    10.40048    63.16880    87.16479
3953.50000    10.30403    62.64791    87.02415
3954.00000    10.37730    62.12702    88.68277
3954.50000    10.47874    61.61359    91.58637
3955.00000    10.58019    61.49614    94.48998
3955.50000    10.60007    61.37869    98.54765
3956.00000    10.59079    61.26125    106.52684
3956.50000    10.58151    61.02671    114.50604
3957.00000    10.57222    60.76973    122.48523
3957.50000    10.56294    60.51274    130.46443
3958.00000    10.55366    60.25576    138.44362
3958.50000    10.54438    60.73555    146.42281
3959.00000    10.53509    61.35116    154.40201
3959.50000    10.52581    61.96677    135.48387
3960.00000    10.51652    62.58239    121.99124
3960.50000    10.51463    63.19800    117.26226
3961.00000    10.54506    63.81361    112.53328
3961.50000    10.57548    64.42922    111.61337
3962.00000    10.60590    64.20375    119.04142
3962.50000    10.63633    63.85436    126.46948
3963.00000    10.66675    63.50497    133.89753
3963.50000    10.67921    63.04142    125.90853
3964.00000    10.67917    62.52063    116.10326
3964.50000    10.67912    61.99985    113.62223
3965.00000    10.67907    61.47907    111.14121
3965.50000    10.67903    60.95829    108.66018
3966.00000    10.67899    60.43750    106.17916
3966.50000    10.67894    59.91672    103.69813
3967.00000    10.67192    59.39594    106.26984
