~Version Information
 VERS.                  2.0:   CWLS log ASCII Standard -VERSION 2.0
 WRAP.                   NO:   One line per depth step
~Well Information Block
#MNEM.UNIT     VALUE/NAME     DESCRIPTION
#---------     -----------    ---------------------------
 STRT.F              8564.0000: START DEPTH
 STOP.F             14132.0000: STOP DEPTH
 STEP.F                 0.5000: STEP DEPTH
 NULL.                 -999.25: NULL VALUE
 FL6 .       API  42-109-33219:  LOCATIONLINE6
 LOC .     253' FEL & 408' FNL:  LOCATION
 FL4 .           ABSTRACT 1760:  LOCATIONLINE4
 FL3 .        T&P RR CO SURVEY:  LOCATIONLINE3
 FL2 .     SECTION 32, BLOCK 58 T2:  LOCATIONLINE2
 FL1 .     253' FEL & 408' FNL:  LOCATIONLINE1
 DMF .                      KB:  DRILL MEAS FROM
 PDAT.                      GL:  PERMANENT DATUM
 CTRY.                     USA:  COUNTRY NAME
 PROV.                   TEXAS:  PROVINCE
 STAT.                   TEXAS:  STATE NAME
 CNTY.               CULBERSON:  COUNTY NAME
 FLD .     FORD, WEST (WOLFCAMP):  FIELD NAME
 WELL.        MOTHER FEE 28 2H:  WELL NAME
 COMP.     CAPITAN ENERGY INC.:  COMPANY
 DATE.             24-Jan-2018:  DATE
 SVCO.             Halliburton:  SERVICECONAME
 HIDE.                        :  WELLNAMEOPERAT
 BASI.                 PERMIAN:  BASIN
 UWI .            42-109-33219LAT:  UNIQUE WELL IDENTIFIER
 API .            42-109-33219LAT:  API NUMBER
 RANG.                     N/A:  RANGE
 TOWN.                     N/A:  TOWNSHIP
 SECT.                     N/A:  SECTION
 SON .               904563795:  JOB NUMBER
 SRVC.             Halliburton:  SERVICE COMPANY
 LMF .                      KB:  LOG MEASURED FROM
 EGL .ft             3142.0000:  GROUND ELEVATION
 BAP .ft                0.0000:  GL ELEV ONSHORE
 GVFD.g                 1.0000:  GRAVITY FIELD
 EKB .ft             3167.0000:  KB ELEVATION
 EDF .ft             3166.0000:  DF ELEVATION
~Curve Information Block
#MNEM.UNIT                 API CODE     Curve Description
#---------               -----------    ---------------------------
 DEPT.F                 00 000 000 000:  Depth
 CCL .V                 00 000 000 000:  Casing Collar Locator
 NPHI_OH.pu             00 000 000 000:  NPHI_OH
 NPHI_CHI.pu            00 000 000 000:  NPHI_CHI
 GR_OH.api              00 000 000 000:  GR_OH
 GR_CHI.api             00 000 000 000:  GR_CHI
 RHOB_OH.g/cc           00 000 000 000:  RHOB_OH
 RHOB_CHI.g/cc          00 000 000 000:  RHOB_CHI
 PE_OH.b/e              00 000 000 000:  PE_OH
 PE_CHI.b/e             00 000 000 000:  PE_CHI
 DTC_OH.uspf            00 000 000 000:  DTC_OH
 DTC_CHI.uspf           00 000 000 000:  DTC_CHI
 SPHI_CHI.pu            00 000 000 000:  SPHI_CHI
 RT10_OH.ohmm           00 000 000 000:  RT10_OH
 RT10_CHI.ohmm          00 000 000 000:  RT10_CHI
 RT30_OH.ohmm           00 000 000 000:  RT30_OH
 RT30_CHI.ohmm          00 000 000 000:  RT30_CHI
 RT90_OH.ohmm           00 000 000 000:  RT90_OH
 RT90_CHI.ohmm          00 000 000 000:  RT90_CHI
 SGF .cu                00 000 000 000:  Formation Sigma
 CRNF.NONE              00 000 000 000:  CaptMode Capt Ratio
 RIN .NONE              00 000 000 000:  CaptMode Gross Inel Ratio
#Other Information
#
#WARRANTY: Halliburton will use its best efforts to furnish customers with 
#accurate information and interpretations that are part of, and incident to, the services 
#provided.  However, Halliburton cannot and does not warrant the accuracy 
#or correctness of such information and interpretations.  Under no circumstances should any 
#such information or interpretation be relied upon as the sole basis for any drilling, 
#completion, production, or financial decision or any procedure involving any risk to the 
#safety of any drilling venture, drilling rig or its crew or any other third party.  The 
#Customer has full responsibility for all drilling, completion and production operation.  
#Halliburton makes no representations or warranties, either expressed or 
#implied, including, but not limited to, the implied warranties of merchantability or fitness 
#for a particular purpose, with respect to the services rendered.  In no event will 
#Halliburton be liable for failure to obtain any particular results or for 
#any damages, including, but not limited to, indirect, special or consequential damages, 
#resulting from the use of any information or interpretation provided by Halliburton.
#
~A    DEPT       CCL    NPHI_OH NPHI_CHI  GR_OH    GR_CHI  RHOB_OH RHOB_CHI  PE_OH   PE_CHI   DTC_OH  DTC_CHI SPHI_CHI RT10_OH  RT10_CHI RT30_OH  RT30_CHI RT90_OH  RT90_CHI   SGF    CRNF   RIN   
# ...
   11525.0000    0.0269 -999.25  10.3282  -999.25 101.9897 -999.25   2.6003 -999.25    3.2515 -999.25 69.3816  15.4000  -999.25  33.8420  -999.25  32.2503  -999.25  35.4681 25.5026 0.9567 1.0903
   11525.5000    0.0682 -999.25  10.1750  -999.25 100.0812 -999.25   2.6008 -999.25    3.2173 -999.25 69.0449  15.1700  -999.25  35.7928  -999.25  34.1300  -999.25  37.5708 25.9965 0.9614 1.0924
   11526.0000    0.1095 -999.25   9.8293  -999.25  93.1087 -999.25   2.6038 -999.25    3.1947 -999.25 68.6513  14.8900  -999.25  37.9396  -999.25  36.2660  -999.25  39.8779 26.2598 0.9662 1.0935
   11526.5000    0.1507 -999.25  10.0765  -999.25  96.9606 -999.25   2.6012 -999.25    3.1455 -999.25 68.8217  15.0100  -999.25  34.8723  -999.25  32.8910  -999.25  35.9181 26.4878 0.9677 1.0933
   11527.0000    0.1920 -999.25  10.0849  -999.25  95.3564 -999.25   2.6005 -999.25    3.1138 -999.25 68.9302  15.0800  -999.25  34.8258  -999.25  32.8154  -999.25  35.7638 26.6317 0.9701 1.0905
   11527.5000    0.2333 -999.25   9.9768  -999.25  91.4574 -999.25   2.6010 -999.25    3.0867 -999.25 68.8956  15.0600  -999.25  35.3784  -999.25  33.3640  -999.25  36.2935 26.6611 0.9756 1.0910
   11528.0000    0.2746 -999.25  10.2730  -999.25  96.5264 -999.25   2.5979 -999.25    3.0563 -999.25 69.2016  15.2800  -999.25  33.2083  -999.25  31.0459  -999.25  33.6535 26.6127 0.9871 1.0945
   11528.5000    0.3159 -999.25   9.9157  -999.25  89.6879 -999.25   2.6004 -999.25    3.0429 -999.25 68.7743  14.9700  -999.25  36.8709  -999.25  34.8116  -999.25  37.8825 26.6699 0.9955 1.0984
   11529.0000    0.3571 -999.25   9.9332  -999.25  88.3881 -999.25   2.5999 -999.25    3.0278 -999.25 68.9214  15.0800  -999.25  36.7024  -999.25  34.6601  -999.25  37.6702 26.9825 0.9938 1.1025
   11529.5000    0.3984 -999.25  10.1939  -999.25  90.6333 -999.25   2.5970 -999.25    3.0017 -999.25 69.4517  15.4500  -999.25  34.7011  -999.25  32.6197  -999.25  35.3311 27.4793 0.9810 1.1031
   11530.0000    0.4397 -999.25  10.3340  -999.25  87.1489 -999.25   2.5956 -999.25    2.9582 -999.25 69.9637  15.8200  -999.25  32.3466  -999.25  30.2412  -999.25  32.4881 28.0470 0.9721 1.1038
   11530.5000    0.4810 -999.25  10.7340  -999.25  94.8471 -999.25   2.5931 -999.25    2.9429 -999.25 70.1226  15.9300  -999.25  28.0497  -999.25  25.7256  -999.25  27.3778 28.4885 0.9745 1.1051
   11531.0000    0.5223 -999.25  10.6867  -999.25  96.9417 -999.25   2.5951 -999.25    2.9548 -999.25 69.4271  15.4400  -999.25  26.5937  -999.25  24.1256  -999.25  25.5561 28.7580 0.9841 1.1055
   11531.5000    0.5635 -999.25  10.6158  -999.25  97.8354 -999.25   2.5965 -999.25    2.9549 -999.25 68.8469  15.0300  -999.25  26.1816  -999.25  23.6021  -999.25  24.9460 28.8832 1.0001 1.1063
   11532.0000    0.6048 -999.25  10.6769  -999.25  98.0439 -999.25   2.5959 -999.25    2.9387 -999.25 68.8769  15.0500  -999.25  25.7739  -999.25  23.1736  -999.25  24.4430 29.0360 1.0072 1.1066
   11532.5000    0.6461 -999.25  10.5695  -999.25  95.0100 -999.25   2.5960 -999.25    2.9048 -999.25 68.7991  14.9900  -999.25  26.8182  -999.25  24.1616  -999.25  25.4912 29.1394 1.0147 1.1079
   11533.0000    0.6874 -999.25  11.0495  -999.25 100.3938 -999.25   2.5910 -999.25    2.8515 -999.25 69.6339  15.5800  -999.25  25.3651  -999.25  22.6920  -999.25  23.8350 29.2267 1.0250 1.1120
   11533.5000    0.7286 -999.25  11.2008  -999.25  99.9740 -999.25   2.5888 -999.25    2.8078 -999.25 70.0484  15.8800  -999.25  25.3947  -999.25  22.6999  -999.25  23.7943 29.3459 1.0390 1.1145
   11534.0000    0.7699 -999.25  10.8370  -999.25  90.8848 -999.25   2.5913 -999.25    2.7847 -999.25 69.7202  15.6400  -999.25  27.1915  -999.25  24.4974  -999.25  25.7099 29.5380 1.0451 1.1154
   11534.5000    0.8112 -999.25  11.4819  -999.25 100.3245 -999.25   2.5859 -999.25    2.7572 -999.25 70.6222  16.2800  -999.25  24.8337  -999.25  22.1193  -999.25  23.0803 29.7265 1.0405 1.1146
   11535.0000    0.8525 -999.25  12.2567  -999.25 109.8049 -999.25   2.5799 -999.25    2.7263 -999.25 71.7395  17.0700  -999.25  22.7863  -999.25  20.0874  -999.25  20.8041 29.7487 1.0268 1.1142
   11535.5000    0.8938 -999.25  12.6126  -999.25 114.5135 -999.25   2.5777 -999.25    2.7210 -999.25 72.0845  17.3200  -999.25  21.8438  -999.25  19.1552  -999.25  19.7576 29.5582 1.0118 1.1149
   11536.0000    0.9626 -999.25  12.4881  -999.25 112.8716 -999.25   2.5792 -999.25    2.7368 -999.25 71.7745  17.1000  -999.25  21.5572  -999.25  18.8983  -999.25  19.4838 29.3260 1.0058 1.1186
   11536.5000    0.0000 -999.25  12.1393  -999.25 109.5603 -999.25   2.5826 -999.25    2.7807 -999.25 71.1154  16.6300  -999.25  21.4177  -999.25  18.8207  -999.25  19.4463 29.3525 1.0048 1.1225
   11537.0000    0.0000 -999.25  12.0513  -999.25 112.5309 -999.25   2.5840 -999.25    2.8180 -999.25 70.6826  16.3200  -999.25  21.2881  -999.25  18.6945  -999.25  19.3675 29.4531 1.0064 1.1298
   11537.5000    0.0000 -999.25  12.4599  -999.25 121.1671 -999.25   2.5817 -999.25    2.8534 -999.25 70.9246  16.5000  -999.25  19.8862  -999.25  17.3829  -999.25  17.9761 29.6340 1.0077 1.1374
   11538.0000    0.0000 -999.25  11.9941  -999.25 111.8728 -999.25   2.5862 -999.25    2.8696 -999.25 70.1685  15.9600  -999.25  19.9806  -999.25  17.5049  -999.25  18.0864 29.7567 1.0071 1.1386
   11538.5000    0.0000 -999.25  12.2537  -999.25 115.2148 -999.25   2.5855 -999.25    2.8879 -999.25 70.1063  15.9200  -999.25  18.6897  -999.25  16.2965  -999.25  16.7653 29.6734 1.0085 1.1339
   11539.0000   44.0240 -999.25  11.3684  -999.25  96.5772 -999.25   2.5925 -999.25    2.8780 -999.25 68.9447  15.1000  -999.25  20.1146  -999.25  17.6882  -999.25  18.2053 29.6030 1.0113 1.1241
   11539.5000    0.0000 -999.25  11.5443  -999.25 101.6246 -999.25   2.5893 -999.25    2.8396 -999.25 69.6626  15.6000  -999.25  21.2030  -999.25  18.6601  -999.25  19.2817 29.2888 1.0096 1.1179
   11540.0000    0.0000 -999.25  11.9330  -999.25 112.1250 -999.25   2.5842 -999.25    2.7954 -999.25 70.5182  16.2100  -999.25  22.3688  -999.25  19.6665  -999.25  20.4300 28.9578 1.0114 1.1140
   11540.5000    0.0000 -999.25  12.2192  -999.25 118.3853 -999.25   2.5808 -999.25    2.7879 -999.25 71.1311  16.6400  -999.25  22.6233  -999.25  19.9105  -999.25  20.7433 28.6695 1.0085 1.1128
   11541.0000    0.0000 -999.25  11.7123  -999.25 109.1142 -999.25   2.5844 -999.25    2.8014 -999.25 70.8003  16.4100  -999.25  24.0695  -999.25  21.3915  -999.25  22.3879 28.4851 1.0082 1.1094
   11541.5000    0.0000 -999.25  11.8948  -999.25 111.9292 -999.25   2.5832 -999.25    2.8266 -999.25 71.1332  16.6400  -999.25  23.0745  -999.25  20.4937  -999.25  21.4296 28.4099 1.0072 1.1082
   11542.0000    0.0000 -999.25  11.6913  -999.25 108.6965 -999.25   2.5850 -999.25    2.8404 -999.25 70.9173  16.4900  -999.25  23.5488  -999.25  20.9887  -999.25  21.9857 28.4674 1.0052 1.1085
   11542.5000    0.0000 -999.25  11.0874  -999.25  97.1145 -999.25   2.5896 -999.25    2.8475 -999.25 70.3579  16.0900  -999.25  26.0357  -999.25  23.5057  -999.25  24.7474 28.6118 1.0036 1.1115
   11543.0000    0.0000 -999.25  11.5047  -999.25 105.3956 -999.25   2.5861 -999.25    2.8412 -999.25 70.8254  16.4300  -999.25  24.5759  -999.25  22.0217  -999.25  23.1351 29.0386 0.9933 1.1117
   11543.5000    0.0000 -999.25  11.1720  -999.25  99.3248 -999.25   2.5888 -999.25    2.8402 -999.25 70.3666  16.1000  -999.25  25.7481  -999.25  23.1767  -999.25  24.3835 29.4426 0.9865 1.1095
   11544.0000    0.0000 -999.25  10.6386  -999.25  88.4775 -999.25   2.5933 -999.25    2.8301 -999.25 69.5757  15.5400  -999.25  27.8375  -999.25  25.2507  -999.25  26.5945 29.7471 0.9868 1.1065
   11544.5000    0.0000 -999.25  10.4100  -999.25  84.6458 -999.25   2.5955 -999.25    2.7995 -999.25 68.8468  15.0300  -999.25  28.3877  -999.25  25.6698  -999.25  26.9647 29.9193 0.9932 1.1057
   11545.0000    0.0000 -999.25  11.2783  -999.25 107.4877 -999.25   2.5889 -999.25    2.7972 -999.25 69.3321  15.3700  -999.25  25.3320  -999.25  22.4167  -999.25  23.5047 29.7737 1.0046 1.1068
   11545.5000    0.0000 -999.25  11.1582  -999.25 105.0591 -999.25   2.5896 -999.25    2.7783 -999.25 69.1465  15.2400  -999.25  25.9858  -999.25  23.0168  -999.25  24.1399 29.6255 1.0143 1.1085
