~Version Information Block
 VERS.                2.00:     CWLS LOG ASCII STANDARD - VERSION 2.000000
 WRAP.                  NO:     One Line Per Depth Step
#
~Well Information Block
#MNEM.UNIT                     Data                         Information
#----------   ------------------------------------------   ----------------
 STRT.FT                                     4210.0000:     START DEPTH
 STOP.FT                                    10370.0000:     STOP DEPTH
 STEP.FT                                        0.5000:     STEP
 NULL.                                       -999.2500:     NULL VALUE
 COMP.                       CHESAPEAKE OPERATING INC.:     COMPANY
 WELL.                         UNIVERSITY_LANDS_4627-1:     WELL
 FLD .                                         WILDCAT:     FIELD
 LOC .   1200' FNL & 1995' FEL|Section: 27, Block: 46, Abstract: 2860|University Lands Survey:     LOCATION
 SEC .                                              27:     SECTION
 CNTY.                                       CULBERSON:     COUNTY
 STAT.                                           TEXAS:     STATE
 CTRY.                                             USA:     COUNTRY
 SRVC.                                    SCHLUMBERGER:     SERVICE COMPANY
 DATE.                                      11/15/2016:     DATE
 API .                                  42109322870000:     API NUMBER
 UWI .                                  42109322870000:     UWI NUMBER
 TVD .                                              NO:     TVD flag
 WSTA.                                             LOC:     Well status
#
~Curve Information Block
#MNEM.UNIT       API CODE      Curve Description
#----------    -------------   -------------------
 DEPT.FT                   :   Depth in Feet
 RM_HRLT.OHMM                 :   HRLTB Mud Resistivity
 RXOZ.OHMM                 :   Stan Res MicroCFL Resistivity
 RLA5.OHMM                 :   HRLTB Resistivity 5
 RLA4.OHMM                 :   HRLTB Resistivity 4
 RLA3.OHMM                 :   HRLTB Resistivity 3
 DTCO.US/F                 :   Delta-T Compressional
 DTSM.US/F                 :   Delta-T Shear Measurement
 SPHI.V/V                  :   Sonic Porosity [47.6]
 HSGR.GAPI                 :   HNGS Spectroscopy Gamma Ray
 HCGR.GAPI                 :   HNGS Computed Gamma Ray
 HCAL.IN                   :   HILT Caliper
 DPHI.V/V                  :   Density Porosity
 PEFZ.                     :   Std. Res. Formation PE
 HDRA.G/C3                 :   Density Correction
 RHOB.G/C3                 :   Std. Res. Formation Density
 APLC.V/V                  :   APS Near/Array Corrected Limestone Porosity
 PXND.V/V                  :   Crossplot Porosity For Neutron-Density
#
~Parameter Information Block
#MNEM.UNIT            Value               Description
#----------    --------------------    -------------------
 DATE.                 07-Jun-2007:    Date As Month-Day-Year
 RUN .                         ONE:    Run Number
 PDAT.                         UNK:    Permanent Datum
 EPD .FT                -9999.5000:    Elevation Of Perm. Datum
 LMF .                          KB:    Log Measured From
 FAPD.FT                   40.0000:    Feet Above Perm. Datum
 EKB .FT                 4323.0000:    Elevation Of Kelly Bushing
 TD  .FT                10370.0000:    Total Depth
 DFT .                   Fresh Mud:    Drilling Fluid Type
 DFD .LB/G                  8.6000:    Drilling Fluid Density
 RMS .OHMM                  0.4210:    Resistivity Of Mud Sample
 MST .DEGF                 97.0000:    Mud Sample Temperature
 RMF .OHMM                  0.4210:    Mud Filtrate Resistivity
 MFST.DEGF                 97.0000:    Mud Filtrate Sample Temperature
 MFSS.                        CALC:    Mud Filtrate Sample Source
 MCSS.                        CALC:    Mud Cake Sample Source
 RMB .OHMM                  0.2280:    Mud Resistivity At Bht
 BHT .DEGF                185.0000:    Bottom Hole Temperature
 MRT .DEGF                185.0000:    Maximum Recorded Temperature
 WSTA.                         LOC:    
 LATB.FT                    0.0000:    
 LONB.FT                    0.0000:    
#
~Other Information Block
<DescLogPlotStart>   NEURALOG PLOT DEFINITION
PLOTDEFVERSION: 3
LASFILE: E:\nds\projects\Texas Standard Oil LLC\pdf\42109322870000 D\42-109-322
DEPTHSCALE: 240.000000
RESOLUTION: 196
DEPTHLABELFREQ: 100.000000
HEAVYGRIDFREQ: 100.000000
MEDIUMGRIDFREQ: 50.000000
LIGHTGRIDFREQ: 10.000000
#
#   TRACK 1
#
STARTTRACK: 
 LEFTX: 0.500000 inch
 RIGHTX: 3.000000 inch
 SCALETYPE: Linear
 NUMCHARTDIVISIONS: 10
CURVE: RXOZ  0.200000   2000.000000 (0,0,255)      Solid             2     Y   
BACKUP: 2000.000000 20000000.000000 (0,0,255)      Solid             2    
CURVE: RLA5  0.200000   2000.000000 (0,131,131)    Dot               2     Y   
BACKUP: 2000.000000 20000000.000000 (0,131,131)    Dot               2    
CURVE: RLA4  0.200000   2000.000000 (255,0,255)    Short_Dash        2     Y   
BACKUP: 2000.000000 20000000.000000 (255,0,255)    Short_Dash        2    
CURVE: RLA3  0.200000   2000.000000 (255,0,0)      Medium_Dash       2     Y   
BACKUP: 2000.000000 20000000.000000 (255,0,0)      Medium_Dash       2    
CURVE: DTCO  240.000000 40.000000  (0,0,255)      Solid             2     N    
CURVE: DTSM  240.000000 40.000000  (0,131,131)    Dot               2     Y    
BACKUP: 440.000000 240.000000 (0,131,131)    Dot               2    
CURVE: SPHI  0.300000   -0.100000  (255,0,255)    Short_Dash        2     Y    
BACKUP: 0.700000   0.300000   (255,0,255)    Short_Dash        2    
CURVE: HSGR  0.000000   150.000000 (0,0,255)      Solid             2     Y    
BACKUP: 150.000000 300.000000 (0,0,255)      Solid             2    
CURVE: HCGR  0.000000   150.000000 (0,131,131)    Dot               2     N    
CURVE: HCAL  6.000000   16.000000  (255,0,255)    Short_Dash        2     Y    
BACKUP: -4.000000  6.000000   (255,0,255)    Short_Dash        2    
BACKUP: 16.000000  26.000000  (255,0,255)    Short_Dash        2    
ENDTRACK: 
#
#   TRACK 2
#
STARTTRACK: 
 LEFTX: 3.500000 inch
 RIGHTX: 8.500000 inch
 SCALETYPE: Linear
 NUMCHARTDIVISIONS: 10
CURVE: RM_HRLT 0.020000   200.000000 (255,131,0)    Solid             2     N  
CURVE: DPHI  0.300000   -0.100000  (255,0,0)      Solid             2     Y    
BACKUP: 0.700000   0.300000   (255,0,0)      Solid             2    
BACKUP: -0.100000  -0.500000  (255,0,0)      Solid             2    
CURVE: APLC  0.300000   -0.100000  (255,131,0)    Dot               2     Y    
BACKUP: 0.700000   0.300000   (255,131,0)    Dot               2    
BACKUP: 1.100000   0.700000   (255,131,0)    Dot               2    
CURVE: PXND  0.300000   -0.100000  (255,255,0)    Short_Dash        2     Y    
BACKUP: 0.700000   0.300000   (255,255,0)    Short_Dash        2    
ENDTRACK: 
#
#   TRACK 3
#
STARTTRACK: 
 LEFTX: 0.500000 inch
 RIGHTX: 5.500000 inch
 SCALETYPE: Linear
 NUMCHARTDIVISIONS: 10
ENDTRACK: 
#
#   TRACK 4
#
STARTTRACK: 
 LEFTX: 3.500000 inch
 RIGHTX: 6.000000 inch
 SCALETYPE: Linear
 NUMCHARTDIVISIONS: 10
CURVE: PEFZ  0.000000   10.000000  (0,0,255)      Solid             2     N    
ENDTRACK: 
#
#   TRACK 5
#
STARTTRACK: 
 LEFTX: 3.500000 inch
 RIGHTX: 4.750000 inch
 SCALETYPE: Linear
 NUMCHARTDIVISIONS: 10
CURVE: HDRA  -0.050000  0.200000   (0,131,131)    Solid             2     N    
ENDTRACK: 
#
#   TRACK 6
#
STARTTRACK: 
 LEFTX: 3.500000 inch
 RIGHTX: 8.500000 inch
 SCALETYPE: Linear
 NUMCHARTDIVISIONS: 10
CURVE: RHOB  2.000000   3.000000   (255,0,255)    Solid             2     Y    
BACKUP: 1.000000   2.000000   (255,0,255)    Solid             2    
ENDTRACK: 
<DescLogPlotEnd>
~A DEPTH     RM_HRLT             RXOZ             RLA5             RLA4             RLA3             DTCO             DTSM             SPHI             HSGR             HCGR             HCAL             DPHI             PEFZ             HDRA             RHOB             APLC             PXND            
# ...
    7490.500 0.89797776       76.69577241      247.78558009     247.78558009     247.78558009     67.77232581      155.95382725     0.14710500       83.47396883      53.23450482      9.82091001       0.05337904       3.21574411       0.05581251       2.59848039       0.06490196       0.06419777      
    7491.000 0.92274399       43.44647834      118.30912503     118.30912503     118.30912503     70.71638862      151.67481976     0.17698813       85.53168031      56.69986041      9.91790812       0.06278159       3.16139877       0.11067016       2.61256750       0.09300490       0.08426895      
    7491.500 0.94111129       24.39046081      41.53038344      45.45097646      49.29498825      75.03434740      142.82650361     0.20461593       93.46425509      67.58839004      10.35411879      0.11556406       2.93365929       0.13603079       2.52792198       0.11486275       0.11466992      
    7492.000 0.95281204       15.96198149      42.36429300      47.97882239      51.10621037      75.62315996      131.66666667     0.20834151       104.48276662     68.92754977      10.58724901      0.17443683       2.73896074       0.19039968       2.41665829       0.13627451       0.14499422      
    7492.500 0.96448378       13.69258456      45.60672763      49.74168526      53.94858332      74.44553484      126.96078431     0.19234544       112.05268019     72.13631838      10.76446389      0.16660137       2.67411419       0.19849530       2.44468176       0.13941176       0.15324165      
    7493.000 0.97466809       12.73924265      50.95832404      52.98398135      58.51127935      71.50147203      121.56862745     0.14592738       114.85781865     75.58502888      11.12770096      0.14015018       2.60918470       0.19933169       2.49400912       0.15000000       0.15442043      
    7493.500 0.93070770       12.28775939      74.91435827      73.97764719      70.08000892      64.43572130      116.40392157     0.16084396       112.21409617     72.25396464      11.16732253      0.10280509       2.74483732       0.19962612       2.54401192       0.14960784       0.13721946      
    7494.000 0.84881615       15.81863754      103.28956308     100.53175338     99.67654255      55.64661132      106.56862745     0.05642787       101.09343578     67.21711243      10.92340806      0.06671499       2.92875804       0.19969014       2.59428763       0.11275686       0.10165723      
    7494.500 0.78301541       27.17895397      280.35310370     175.87429748     175.12695078     50.74006528      103.03921569     0.02070658       75.14763780      40.85357164      10.40183546      0.03062488       3.45041733       0.20195068       2.64441795       0.05299608       0.06609500      
    7495.000 0.84168069       103.75649781     1266.28595897    852.71661720     3223.58576730    49.93517439      100.98039216     0.02345437       51.23031496      28.24447065      9.73389071       0.00558276       3.79480848       0.17061628       2.69455184       0.01894608       0.03053276      
    7495.500 0.83628175       119.32737413     2120.77807939    3514.69770684    3096.63460844    51.69473928      103.94117647     0.03699706       33.21850394      17.97820619      9.71175862       0.04906954       4.03057002       0.07076235       2.72182814       0.00843137       0.02003929      
    7496.000 0.86170290       92.69231049      3272.86068030    3182.67998615    3328.03919486    54.81363296      105.28104575     0.05564279       23.17913386      15.38771933      9.80931713       0.04172229       4.14462066       0.08687073       2.70994882       0.02019608       0.02003929      
    7496.500 0.88192323       83.18230969      2249.58249297    2218.62480590    2494.67700992    58.29843376      107.73638344     0.07252208       23.01632286      14.80914785      9.88035490       0.02606946       4.09220623       0.12903325       2.70083668       0.03684967       0.01728880      
    7497.000 0.90389587       89.40726232      1327.63895287    1201.37441726    1223.24608659    63.18691799      116.76470588     0.11084724       32.56292457      22.44531738      9.96115677       0.00754163       3.90021946       0.20302177       2.69169545       0.05254248       0.05093124      
    7497.500 0.92552234       97.84757662      683.62415261     548.07004749     548.07004749     68.72644059      120.68627451     0.15722386       52.48285568      31.11666182      10.20583420      0.01459354       3.48951149       0.20138100       2.62820302       0.08107089       0.08982318      
    7498.000 0.94806087       47.12095990      117.85641005     117.85641005     117.85641005     72.67909715      126.24976031     0.18086359       76.39847204      65.11898594      10.09691645      0.07153281       3.20818958       0.20148324       2.55578005       0.11772851       0.12871513      
    7498.500 0.97453244       18.44040462      76.69577241      73.47882772      78.09206032      74.44553484      129.63998482     0.19617272       95.12429590      63.16446086      10.85430019      0.14664055       2.92681034       0.20150972       2.48324788       0.15588235       0.14813360      
    7499.000 0.97386462       13.44776082      49.29498825      47.97882239      52.03662650      75.42688911      131.15980277     0.20363101       105.61348816     81.82214312      10.72246570      0.16503428       2.75984977       0.20147638       2.43310088       0.15392157       0.15284872      
    7499.500 1.03000639       9.71878060       43.84017783      47.97882239      54.93074638      76.01570167      131.49854217     0.20755643       103.53119295     85.96101504      10.61700168      0.13358799       2.62811111       0.20147905       2.46919207       0.15000000       0.15402750      
    7500.000 0.95440353       7.89776198       81.32735646      69.45066695      69.45066695      76.03532875      131.54188948     0.20681367       99.68067086      86.71301623      10.49531033      0.11449559       2.61165986       0.20149988       2.50322777       0.15000000       0.15029470      
    7500.500 0.89868854       7.75654980       111.01924309     117.19379782     130.59223692     75.23061825      132.06595365     0.20149966       96.99677603      84.75126176      10.39552943      0.16675897       2.64651236       0.20145018       2.45857459       0.15000934       0.14695481      
    7501.000 0.82627215       7.61786251       111.01924309     125.96400199     140.36511400     73.66045142      132.40000000     0.19081374       96.79791360      65.24468171      10.35854592      0.21472698       2.73342860       0.20257044       2.39617333       0.15038989       0.17956778      
    7501.500 0.78245936       7.96932922       111.01924309     128.25724460     140.36511400     72.87536801      131.86274510     0.18557462       95.64347471      61.70588324      10.32124330      0.25031950       2.86429889       0.20369748       2.33294571       0.14524927       0.19489194      
    7502.000 0.80690892       9.12405058       162.70833553     127.10545155     136.61739486     72.67909715      130.29411765     0.18429137       90.49073346      53.34766708      10.31505118      0.21783621       2.80962455       0.20370235       2.28462811       0.13736863       0.18506876      
    7502.500 0.81957461       15.53579992      286.09349276     261.56666509     261.56666509     72.09028459      128.52941176     0.18098929       83.46036693      49.80682370      10.31052726      0.16186996       2.91698946       0.11635748       2.40912534       0.13549020       0.14960707      
    7503.000 0.83566214       92.69231049      273.58124753     281.14102056     299.46654428     70.71638862      127.08823529     0.17141062       79.49891889      46.98197814      9.77985890       0.10590371       2.91928323       0.05086478       2.51747726       0.13823529       0.13752456      
    7503.500 0.83510434       87.80865833      210.48259372     234.73057502     254.58288992     69.53876349      124.41176471     0.15886538       79.84166702      47.43489743      9.74814255       0.08197845       2.96200775       0.02756229       2.56809736       0.13180392       0.12534381      
