~Version Information
 VERS.                  2.0:   CWLS log ASCII Standard -VERSION 2.0
 WRAP.                   NO:   One line per depth step
~Well Information Block
#MNEM.UNIT       Data Type    Information
#---------     -----------    ---------------------------
 STRT.F              3503.5000:
 STOP.F             12186.0000:
 STEP.F                 0.5000:
 NULL.               -999.2500:
 UWI .            42-109-32278:  API WELLHOLE NUMBER
 COMP.     SAMSON LONE STAR LP:  COMPANY NAME
 COUN.               CULBERSON:  COUNTY
 DAT2.                   02000:  LOGGING DATE 2
 DAT3.                   02000:  LOGGING DATE 3
 DAT4.                   02000:  LOGGING DATE 4
 DATE.                   02000:  LOGGING DATE
 DMF .           KELLY BUSHING:  DRILLING MEASURED
 LOC .    1521' FWL AND 2040' FSL:  FIELD LOCATION
 FL1 .    1521' FWL AND 2040' FSL:  FIELD LOCATION LINE 1
 FL2 .        SEC. 14, BLK. 46:  FIELD LOCATION LINE 2
 FLD .                 WILDCAT:  FIELD NAME
 HDAT.                   02000:  DATUM
 LMF .                    K.B.:  LOG MEASURED FROM
 OS1 .                    XRMI:  OTHER SERVICES LINE 1
 OS2 .               LSS / FWS:  OTHER SERVICES LINE 2
 OS3 .                 SDL/DSN:  OTHER SERVICES LINE 3
 OS4 .                DLL/MGRD:  OTHER SERVICES LINE 4
 PDAT.            GROUND LEVEL:  PERMANENT DATUM
 R1  .    TOOLSTRING: RWCH/D4TS/NGRT/LFS_D2/XRMI/CENT:  REMARKS LINE 1
 R2  .    LOGGING INTERVALS AS PER CUSTOMER REQUEST.:  REMARKS LINE 2
 RDT2.                   02000:  CASING DATE 2
 RDT3.                   02000:  CASING DATE 3
 RDT4.                   02000:  CASING DATE 4
 RDT5.                   02000:  CASING DATE 5
 SON .                 4992511:  SERVICE/TICKET ORDER NUMBER
 PROV.                   TEXAS:  STATE
 WELL.    UNIVERSITY LANDS 46-14 No. 2:  WELL NAME
~Parameter Information Block
#MNEM.UNIT       Value        Description
#---------     -----------    ---------------------------
~Curve Information Block
#MNEM.UNIT                 API CODE     Curve Description
#---------               -----------    ---------------------------
 DEPT.F                 00 000 000 000:  
 LLD .ohmm              00 000 000 000:  LLD                                    
 LLS .ohmm              00 000 000 000:  LLS                                    
 NPHI.decp              00 000 000 000:  Neutron Porosity                       
 GR  .api               00 000 000 000:  Gamma API                              
 MGRD.ohmm              00 000 000 000:  MCGRD                                  
 DRHO.g/cc              00 000 000 000:  DensityCorr                            
 DPHI.decp              00 000 000 000:  DensityPorosity                        
 PE  .b/e               00 000 000 000:  Pe                                     
 RHOB.g/cc              00 000 000 000:  Density                                
 XPHI.decp              00 000 000 000:  CrossplotPhi                           
 CALI.in                00 000 000 000:  Caliper                                
 DTC .                  00 000 000 000:  DELTA-T COMPRESSIONAL - FWS
 GR2 .GAPI              00 000 000 000:  NATURAL GAMMA - FWS
 SPHI.DECP              00 000 000 000:  SONIC POROSITY MTX=47.6 (DTC)
~A  DEPT        LLD        LLS        NPHI       GR         MGRD       DRHO       DPHI       PE         RHOB       XPHI       CALI       DTC        GR2        SPHI   
# ...
 4263.0000   133.2070    61.4675     0.0697    43.7877     2.7736     0.0534     0.0854     3.8280     2.5640     0.0790    11.0977    60.0071    45.9235     0.0877 
 4263.5000   124.6056    57.1375     0.0896    72.0016     4.1390     0.0539     0.1097     3.5681     2.5224     0.0885    11.1664    62.8799    63.2736     0.1081 
 4264.0000   119.2785    54.5754     0.1260   112.5359     6.9446     0.0521     0.1391     3.1872     2.4721     0.1357    11.2504    67.2184    84.9888     0.1387 
 4264.5000   117.3102    54.3629     0.1598   132.2696     8.3293     0.0563     0.1506     2.9730     2.4525     0.1599    11.2962    71.3554   103.6322     0.1680 
 4265.0000   112.7773    53.4248     0.1679   124.7495     6.7600     0.0644     0.1394     3.0541     2.4717     0.1594    11.3649    73.6653   112.8560     0.1843 
 4265.5000   105.1514    50.8874     0.1672   117.7626     4.6837     0.0844     0.1189     3.2882     2.5067     0.1504    11.4489    78.5817   113.6133     0.2191 
 4266.0000    97.0101    47.7634     0.1646   121.4961     3.8158     0.1159     0.1159     3.4358     2.5119     0.1524    11.5099    82.8234   115.8853     0.2491 
 4266.5000    89.3146    44.1364     0.1737   134.7764     2.9473     0.1236     0.1422     3.2588     2.4669     0.1638    11.5481    84.3799   129.2871     0.2601 
 4267.0000    85.3552    42.7657     0.2094   161.3903     2.1869     0.1064     0.1767     3.0175     2.4078     0.1983    11.5710    86.2840   149.1898     0.2736 
 4267.5000    83.8255    42.6599     0.2409   177.3907     1.8423     0.1091     0.2065     3.0944     2.3568     0.2417    11.6015    87.9381   162.4044     0.2853 
 4268.0000    81.8289    42.3981     0.2784   166.9371     1.7769     0.1499     0.2178     3.2339     2.3375     0.2520    11.6015    89.9180   154.9335     0.2993 
 4268.5000    76.8188    40.8867     0.2860   157.0169     1.6423     0.2036     0.2096     3.0889     2.3515     0.2467    11.6092    90.5733   140.2638     0.3039 
 4269.0000    67.7081    36.8072     0.2671   158.1902     1.8788     0.2528     0.2122     2.7823     2.3472     0.2467    11.5557    89.7454   130.6996     0.2981 
 4269.5000    58.2776    32.2345     0.2571   150.4567     2.7893     0.2822     0.2347     2.6739     2.3087     0.2505    11.5328    88.5375   128.9042     0.2895 
 4270.0000    51.0141    28.1743     0.2592   131.5229     3.8013     0.2749     0.2404     2.9031     2.2989     0.2545    11.4107    85.6724   125.0921     0.2693 
 4270.5000    47.6048    26.3251     0.2456   109.3358     4.3908     0.2608     0.2027     3.1228     2.3634     0.2456    11.2733    83.2611   113.4346     0.2522 
 4271.0000    47.5924    26.6226     0.2195    94.6688     6.0815     0.2590     0.1564     3.1170     2.4425     0.2098    11.2580    81.2071   102.7047     0.2377 
 4271.5000    50.4082    28.4893     0.2068    98.7222     9.6271     0.2386     0.1349     3.0733     2.4794     0.1784    11.2351    78.9373    98.5012     0.2216 
 4272.0000    55.1544    31.4996     0.2049   107.5224    11.8143     0.1857     0.1326     2.9950     2.4833     0.1774    11.2351    77.6985   103.0536     0.2129 
 4272.5000    59.0205    33.2706     0.2038   120.2694     9.4458     0.1307     0.1335     2.8291     2.4817     0.1759    11.1511    78.0154   113.0943     0.2151 
 4273.0000    61.5743    34.1953     0.2011   133.2297     7.1206     0.1018     0.1392     2.7640     2.4720     0.1772    11.1282    80.2951   124.5475     0.2312 
 4273.5000    61.9985    33.8267     0.2099   149.8167     4.6556     0.0956     0.1519     2.7920     2.4503     0.1997    11.0977    82.1590   139.0470     0.2444 
 4274.0000    61.2480    32.6736     0.2462   176.9640     3.1156     0.0977     0.1709     2.7534     2.4177     0.2143    11.0137    84.1415   153.2657     0.2584 
 4274.5000    61.2442    32.4441     0.2675   199.8445     2.3773     0.1079     0.2065     2.7241     2.3569     0.2413    10.9985    85.7691   166.7271     0.2699 
 4275.0000    61.2040    31.9762     0.2683   194.0844     2.3717     0.1320     0.2188     2.7021     2.3359     0.2477    10.9756    86.5499   169.8244     0.2755 
 4275.5000    62.5111    32.0508     0.2523   179.4174     4.4101     0.1435     0.1843     2.6603     2.3949     0.2234    10.9603    87.6502   165.3571     0.2832 
 4276.0000    65.6857    33.5921     0.2328   176.0040     8.5729     0.1171     0.1601     2.7018     2.4362     0.2025    10.9527    88.0603   156.0056     0.2861 
 4276.5000    68.9669    35.2112     0.2340   160.6436    11.1078     0.0833     0.1670     2.8027     2.4245     0.2064    10.9527    87.9403   146.0755     0.2853 
 4277.0000    72.4162    37.2544     0.2380   140.1098     8.3067     0.0872     0.1703     2.9164     2.4188     0.2057    10.9374    87.3117   136.6474     0.2808 
 4277.5000    73.4078    37.7080     0.2188   143.8432     5.2789     0.1217     0.1731     2.9497     2.4140     0.2015    10.8305    86.8947   131.2867     0.2779 
 4278.0000    71.7641    36.7803     0.2093   145.9766     2.6312     0.1457     0.1909     2.8559     2.3835     0.2062    10.8076    85.9008   125.9855     0.2709 
 4278.5000    70.2770    35.8856     0.2049   126.9895     1.4734     0.1565     0.1959     2.8370     2.3751     0.2004    10.7542    83.6162   121.0162     0.2547 
 4279.0000    69.6427    35.6248     0.2015   106.0290     1.5661     0.1741     0.1761     2.9953     2.4089     0.1884    10.7542    81.9378   115.2641     0.2428 
 4279.5000    70.4959    36.1250     0.1974    96.2155     1.8716     0.2012     0.1550     3.1103     2.4450     0.1884    10.7466    80.8383   110.6437     0.2351 
 4280.0000    72.0800    36.7594     0.1887    97.9755     1.9503     0.2337     0.1397     3.0474     2.4711     0.1708    10.7924    78.5475   106.1934     0.2189 
 4280.5000    72.9509    37.0062     0.1923    95.7888     1.8514     0.2695     0.1300     2.9458     2.4878     0.1672    10.7695    76.3768    98.7054     0.2035 
 4281.0000    72.8532    36.6755     0.1968    89.1220     1.7245     0.2955     0.1281     2.9558     2.4910     0.1691    10.7542    76.0186    93.9233     0.2010 
 4281.5000    73.9183    36.6516     0.1966    89.2287     1.6243     0.2778     0.1251     3.0758     2.4961     0.1689    10.7160    75.2410    89.2263     0.1955 
 4282.0000    77.2915    37.8808     0.1839    81.1752     1.3912     0.2070     0.1200     3.2170     2.5048     0.1658    10.7008    73.9984    82.7424     0.1867 
 4282.5000    83.8797    40.7636     0.1636    60.4814     1.4272     0.1487     0.1221     3.4233     2.5013     0.1551    10.6855    73.1625    68.2003     0.1808 
 4283.0000    94.9561    46.2795     0.1369    41.2809     1.5152     0.1770     0.1323     3.7436     2.4837     0.1390    10.6779    70.7847    52.0501     0.1640 
 4283.5000   107.6354    52.6287     0.1073    35.0408     1.3921     0.2803     0.1454     4.0066     2.4614     0.1221    10.6702    66.1949    41.4733     0.1315 
 4284.0000   113.2243    55.3341     0.0908    35.6808     1.0501     0.3735     0.1563     4.0767     2.4427     0.1230    10.6321    61.5517    40.6224     0.0987 
 4284.5000   108.4358    53.3851     0.0997    40.8543     1.0018     0.3965     0.1711     4.0299     2.4174     0.1465    10.5710    60.0217    47.6169     0.0878 
 4285.0000    96.9325    47.5785     0.1183    65.7081     1.7962     0.3824     0.1823     3.9407     2.3983     0.1519    10.5252    60.5738    62.0823     0.0918 
 4285.5000    86.6022    42.1047     0.1459    89.1753     3.9583     0.3765     0.1653     3.8064     2.4273     0.1591    10.3878    62.4974    76.8626     0.1054 
 4286.0000    81.3009    39.4636     0.1802    90.9709     6.3446     0.3599     0.1345     3.6902     2.4801     0.1682    10.2962    65.2995    83.2954     0.1252 
 4286.5000    79.6810    38.9764     0.2057    92.7052     6.7595     0.3234     0.1297     3.6745     2.4882     0.1756    10.2656    67.9044    81.4149     0.1436 
 4287.0000    80.3429    39.5745     0.2077    93.4524     7.0061     0.3085     0.1517     3.6696     2.4505     0.1861    10.1817    70.0921    77.9262     0.1591 
