~Version Information
 VERS.                  2.0:   CWLS log ASCII Standard -VERSION 2.0
 WRAP.                   NO:   One line per depth step
~Well Information Block
#MNEM.UNIT     VALUE/NAME     DESCRIPTION
#---------     -----------    ---------------------------
 STRT.F              8564.0000: START DEPTH
 STOP.F             14132.0000: STOP DEPTH
 STEP.F                 0.5000: STEP DEPTH
 NULL.                 -999.25: NULL VALUE
 FL6 .       API  42-109-33219:  LOCATIONLINE6
 LOC .     253' FEL & 408' FNL:  LOCATION
 FL4 .           ABSTRACT 1760:  LOCATIONLINE4
 FL3 .        T&P RR CO SURVEY:  LOCATIONLINE3
 FL2 .     SECTION 32, BLOCK 58 T2:  LOCATIONLINE2
 FL1 .     253' FEL & 408' FNL:  LOCATIONLINE1
 DMF .                      KB:  DRILL MEAS FROM
 PDAT.                      GL:  PERMANENT DATUM
 CTRY.                     USA:  COUNTRY NAME
 PROV.                   TEXAS:  PROVINCE
 STAT.                   TEXAS:  STATE NAME
 CNTY.               CULBERSON:  COUNTY NAME
 FLD .     FORD, WEST (WOLFCAMP):  FIELD NAME
 WELL.        MOTHER FEE 28 2H:  WELL NAME
 COMP.     CAPITAN ENERGY INC.:  COMPANY
 DATE.             24-Jan-2018:  DATE
 SVCO.             Halliburton:  SERVICECONAME
 HIDE.                        :  WELLNAMEOPERAT
 BASI.                 PERMIAN:  BASIN
 UWI .            42-109-33219LAT:  UNIQUE WELL IDENTIFIER
 API .            42-109-33219LAT:  API NUMBER
 RANG.                     N/A:  RANGE
 TOWN.                     N/A:  TOWNSHIP
 SECT.                     N/A:  SECTION
 SON .               904563795:  JOB NUMBER
 SRVC.             Halliburton:  SERVICE COMPANY
 LMF .                      KB:  LOG MEASURED FROM
 EGL .ft             3142.0000:  GROUND ELEVATION
 BAP .ft                0.0000:  GL ELEV ONSHORE
 GVFD.g                 1.0000:  GRAVITY FIELD
 EKB .ft             3167.0000:  KB ELEVATION
 EDF .ft             3166.0000:  DF ELEVATION
~Curve Information Block
#MNEM.UNIT                 API CODE     Curve Description
#---------               -----------    ---------------------------
 DEPT.F                 00 000 000 000:  Depth
 CCL .V                 00 000 000 000:  Casing Collar Locator
 NPHI_OH.pu             00 000 000 000:  NPHI_OH
 NPHI_CHI.pu            00 000 000 000:  NPHI_CHI
 GR_OH.api              00 000 000 000:  GR_OH
 GR_CHI.api             00 000 000 000:  GR_CHI
 RHOB_OH.g/cc           00 000 000 000:  RHOB_OH
 RHOB_CHI.g/cc          00 000 000 000:  RHOB_CHI
 PE_OH.b/e              00 000 000 000:  PE_OH
 PE_CHI.b/e             00 000 000 000:  PE_CHI
 DTC_OH.uspf            00 000 000 000:  DTC_OH
 DTC_CHI.uspf           00 000 000 000:  DTC_CHI
 SPHI_CHI.pu            00 000 000 000:  SPHI_CHI
 RT10_OH.ohmm           00 000 000 000:  RT10_OH
 RT10_CHI.ohmm          00 000 000 000:  RT10_CHI
 RT30_OH.ohmm           00 000 000 000:  RT30_OH
 RT30_CHI.ohmm          00 000 000 000:  RT30_CHI
 RT90_OH.ohmm           00 000 000 000:  RT90_OH
 RT90_CHI.ohmm          00 000 000 000:  RT90_CHI
 SGF .cu                00 000 000 000:  Formation Sigma
 CRNF.NONE              00 000 000 000:  CaptMode Capt Ratio
 RIN .NONE              00 000 000 000:  CaptMode Gross Inel Ratio
#Other Information
#
#WARRANTY: Halliburton will use its best efforts to furnish customers with 
#accurate information and interpretations that are part of, and incident to, the services 
#provided.  However, Halliburton cannot and does not warrant the accuracy 
#or correctness of such information and interpretations.  Under no circumstances should any 
#such information or interpretation be relied upon as the sole basis for any drilling, 
#completion, production, or financial decision or any procedure involving any risk to the 
#safety of any drilling venture, drilling rig or its crew or any other third party.  The 
#Customer has full responsibility for all drilling, completion and production operation.  
#Halliburton makes no representations or warranties, either expressed or 
#implied, including, but not limited to, the implied warranties of merchantability or fitness 
#for a particular purpose, with respect to the services rendered.  In no event will 
#Halliburton be liable for failure to obtain any particular results or for 
#any damages, including, but not limited to, indirect, special or consequential damages, 
#resulting from the use of any information or interpretation provided by Halliburton.
#
~A    DEPT       CCL    NPHI_OH NPHI_CHI  GR_OH    GR_CHI  RHOB_OH RHOB_CHI  PE_OH   PE_CHI   DTC_OH  DTC_CHI SPHI_CHI RT10_OH  RT10_CHI RT30_OH  RT30_CHI RT90_OH  RT90_CHI   SGF    CRNF   RIN   
    8564.0000   -1.6043  4.1600   5.7871  37.4873  42.6003  2.6282   2.6278  4.0462    4.0237 61.1200 61.3482   9.7200  92.7474  51.8128 101.7477  54.6113 106.6418  61.1896 20.4544 1.0807 0.9840
    8564.5000   -1.6043  4.1200   5.3953  45.2839  35.9346  2.6345   2.6301  3.8576    4.0194 62.0320 60.1895   8.9000  73.4204  49.1313  78.0731  52.3178  81.7391  58.5476 23.0611 1.1492 1.0010
    8565.0000   -1.6043  6.8800   6.6021  72.2291  57.0720  2.6036   2.6074  3.4227    3.6786 63.8161 62.6858  10.6700  60.7890  49.3895  62.4590  52.2379  65.4418  59.0955 25.8316 1.1703 1.0157
    8565.5000   -1.6043 12.8700   8.2282  93.5389  73.7279  2.5628   2.5826  3.0806    3.2584 66.1262 66.3625  13.2700  58.8897  44.4627  59.0918  46.0774  62.0638  51.6032 27.0504 1.1264 1.0214
    8566.0000   -1.6043 13.1900   9.6113 103.4042  76.1029  2.5425   2.5760  2.9533    3.0195 68.8297 69.3192  15.3600  54.8581  27.7093  54.6757  27.1395  57.5825  28.6505 26.4075 1.0767 1.0160
    8566.5000   -1.6043 11.5800  10.9937 104.2062  88.4780  2.5581   2.5720  3.2095    3.0947 70.3772 72.4854  17.6000  60.5873  25.1083  60.7836  23.5488  64.5705  24.1433 25.2424 1.0461 1.0052
    8567.0000   -1.6043 10.6100  10.2857  89.8211  84.3487  2.5883   2.5758  3.8408    3.1378 69.8284 71.3318  16.7800  74.5767  25.8464  74.7050  24.3840  80.0547  25.1691 24.6609 1.0511 0.9983
    8567.5000   -1.6043  8.2600   8.7983  70.4965  64.7161  2.6067   2.5853  4.2259    3.1744 67.9085 68.3946  14.7100  78.5625  30.0923  80.4730  29.5590  87.0321  31.2837 24.8013 1.0753 0.9979
    8568.0000   -1.6043  6.6500   7.9183  63.5606  54.1992  2.6092   2.5917  4.0661    3.1931 64.8894 66.2263  13.1700  72.9553  31.7114  76.1623  32.0648  83.2046  34.4187 25.2938 1.0891 1.0048
    8568.5000   -1.6043  6.9900   7.9389  66.2046  53.9017  2.6062   2.5907  3.8805    3.1644 62.4761 66.1496  13.1200  72.9950  31.2991  76.7784  31.7569  84.7215  34.1191 25.5916 1.0863 1.0088
    8569.0000   -1.6043  8.1500   8.1001  68.1582  52.8382  2.6086   2.5891  3.8367    3.1191 63.6262 66.5402  13.3900  66.7211  29.6405  70.0833  29.9956  78.1138  32.0561 25.0543 1.0478 1.0074
    8569.5000   -1.6043  8.6500   8.1231  75.6898  46.8940  2.6063   2.5900  3.6289    3.0938 67.3018 66.8270  13.6000  64.8779  27.6124  68.0253  27.8886  76.4981  29.5514 23.7828 1.0004 0.9995
    8570.0000   -1.6043  9.0300   8.8268  90.3580  61.2066  2.5874   2.5847  3.3671    3.1272 68.7331 68.3697  14.6900  62.8381  29.3293  66.1532  28.9504  74.9362  30.6074 22.3031 0.9495 0.9901
    8570.5000   -1.6043 10.4400   9.2483 100.6249  78.0398  2.5645   2.5809  3.3514    3.2376 67.9880 69.3840  15.4100  61.6600  31.6169  65.7275  30.7670  74.7916  32.6843 20.9663 0.9236 0.9830
    8571.0000   -1.6043 10.4600   8.4306  94.3951  74.7534  2.5640   2.5895  3.5681    3.4761 66.4764 67.8469  14.3200  69.9321  38.3716  75.8566  38.3461  86.3724  41.7699 20.1717 0.9294 0.9801
    8571.5000   -1.6043  6.3800   6.7891  74.1805  58.9698  2.5871   2.6138  3.8165    3.8425 64.3531 63.7463  11.4200  88.4339  48.1937  97.0254  49.7819 110.0105  55.5297 20.1564 0.9582 0.9821
    8572.0000   -1.6043  4.3300   5.9495  57.8259  46.8541  2.6107   2.6268  4.0293    4.0305 60.7684 61.7179   9.9800  76.7936  52.1541  83.9928  54.7476  94.5314  61.4081 20.9083 1.0058 0.9878
    8572.5000   -1.6043  4.1600   5.8719  48.1219  43.7681  2.6289   2.6258  4.2573    3.9791 59.5113 61.4399   9.7900  63.2312  51.1510  68.0184  53.8765  75.6761  60.3524 22.4750 1.0477 0.9970
    8573.0000   -1.6043  4.1400   6.1435  45.0188  41.3073  2.6401   2.6168  4.3196    3.7443 60.3867 62.1664  10.3000  56.5816  46.2198  58.8941  48.6462  64.5540  54.0660 24.4287 1.0753 1.0067
    8573.5000   -1.6043  4.4500   7.2590  52.2379  54.7382  2.6295   2.5992  4.0323    3.4905 62.1656 64.8428  12.1900  50.7346  44.5490  50.5066  46.1877  54.3477  51.2026 25.8671 1.0773 1.0142
    8574.0000   -1.6043  7.1700   7.7600  62.7090  58.0213  2.6156   2.5930  3.6912    3.2955 63.3817 65.7554  12.8400  48.2519  37.0537  45.8605  37.7656  48.2863  41.1508 26.0068 1.0611 1.0169
    8574.5000   -1.6043  9.4000   8.5268  71.0289  61.8283  2.6188   2.5871  3.6212    3.1558 66.5429 67.5976  14.1400  48.6910  29.7384  44.1669  29.4492  45.7748  31.2598 25.2961 1.0386 1.0142
    8575.0000   -1.6043  9.5700   8.8584  77.8792  63.7979  2.6195   2.5863  3.7160    3.1434 68.4153 68.4404  14.7400  49.0592  26.9558  43.9036  26.2145  44.9377  27.4266 24.6245 1.0280 1.0099
    8575.5000   -1.6043  9.4400   8.6509  85.6318  61.2167  2.6058   2.5885  3.7372    3.2003 68.9529 68.2987  14.6400  46.7546  28.6021  46.7967  27.9196  47.4223  29.3294 24.3009 1.0297 1.0072
    8576.0000   -1.6043  9.6100   8.1411  89.3225  55.1288  2.5931   2.5925  3.7042    3.2799 68.5278 67.4982  14.0700  51.3725  32.7333  51.0502  32.5655  51.2152  34.7049 24.5862 1.0440 1.0075
    8576.5000   -1.6043  9.0200   7.9176  81.4346  58.3233  2.5915   2.5942  3.7794    3.3133 68.5083 66.5990  13.4400  57.5514  34.1512  56.0063  34.1814  55.6292  36.7299 25.2706 1.0741 1.0116
    8577.0000   -1.6043  7.5400   7.9823  68.7200  60.1797  2.6000   2.5928  3.9771    3.2647 67.7293 66.4062  13.3000  62.0905  32.8255  57.6192  32.8410  56.7203  35.2556 26.4737 1.1048 1.0152
    8577.5000   -1.6043  7.1300   8.2073  59.1851  61.2021  2.6164   2.5901  4.1953    3.1800 66.1884 66.7109  13.5200  62.0073  29.7154  54.5774  29.5663  53.4167  31.4918 27.6742 1.1248 1.0183
    8578.0000   -1.6043  6.6600   8.7953  56.5366  65.8871  2.6330   2.5852  4.1690    3.0669 64.6719 67.7140  14.2200  55.7564  24.9677  47.5646  24.4374  46.4726  25.6001 28.3520 1.1222 1.0202
    8578.5000   -1.6043  7.0100   9.3619  62.2589  69.5387  2.6361   2.5820  3.7710    3.0294 65.5586 68.8677  15.0400  47.6336  23.1265  40.3221  22.3106  39.4330  23.0934 28.2970 1.1039 1.0230
    8579.0000   -1.6043  8.2400   9.3416  73.6774  64.4665  2.6214   2.5841  3.3530    2.9879 67.9924 68.7131  14.9300  43.1224  19.8115  36.8349  19.0556  36.0458  19.4834 27.6433 1.0860 1.0256
    8579.5000   -1.6043 10.8100  10.1428  87.7242  79.2869  2.5916   2.5795  3.1675    3.0243 70.4772 70.2743  16.0400  43.7870  20.8143  38.7479  19.5331  37.8771  19.8414 26.9847 1.0820 1.0278
    8580.0000   -1.6043 11.4000  10.1568  97.5286  83.8457  2.5591   2.5791  3.0746    3.0819 71.1470 70.5136  16.2000  44.1738  22.3329  41.1293  20.8336  40.2062  21.2246 26.3184 1.0906 1.0275
    8580.5000   -1.6043 11.0900   8.9801  94.1131  59.0310  2.5668   2.5887  3.1085    3.1291 71.5465 68.7657  14.9700  48.1267  23.1711  46.9013  22.1770  45.8652  22.7566 25.7599 1.0814 1.0256
    8581.0000   -1.6043  9.8000   8.4384  78.5548  49.3228  2.6139   2.5921  3.5123    3.1809 70.9379 68.1222  14.5100  49.7009  26.4964  49.1092  25.9140  48.2539  26.9619 24.7588 1.0441 1.0211
    8581.5000   -1.6043  8.2800   8.7674  68.6387  55.5355  2.6404   2.5889  3.9743    3.2126 69.0699 68.8991  15.0600  38.8007  28.2877  38.6514  27.5391  38.3987  28.7565 23.1809 0.9827 1.0147
    8582.0000   -1.6043  9.1400   8.9474  75.5679  63.7987  2.6356   2.5866  3.9165    3.2898 66.7625 69.5566  15.5300  29.4552  30.3027  29.5000  29.4640  29.5796  30.9840 21.2224 0.9312 1.0039
    8582.5000   -1.6043 10.1000   8.3348  88.3367  61.0449  2.6282   2.5926  3.5220    3.4548 65.6482 68.7355  14.9500  28.0044  34.8209  26.9485  34.5361  27.2495  36.9639 19.4903 0.8985 0.9915
    8583.0000   -1.6043  9.0600   7.3042  92.0861  57.7321  2.6246   2.6068  3.3357    3.7585 65.0561 66.2569  13.1900  38.8075  43.2287  33.6110  44.1533  34.4722  48.5519 18.2643 0.8806 0.9808
    8583.5000   -1.6043  7.3500   5.8997  80.0471  38.9795  2.6330   2.6290  3.5562    4.0740 64.4919 62.9866  10.8800  46.1311  51.0763  40.5471  53.4861  42.3570  59.4722 17.2674 0.8693 0.9726
    8584.0000   -1.6043  6.3200   5.6785  58.0684  42.9149  2.6508   2.6352  4.0214    4.2787 63.0077 61.9555  10.1500  50.2162  54.9820  46.1975  57.9903  49.1947  65.2067 16.5636 0.8584 0.9671
    8584.5000   -1.6043  5.4000   5.2401  43.8638  42.0911  2.6588   2.6448  4.4420    4.4958 61.9186 60.5532   9.1600  59.8835  58.5475  57.7468  62.1579  62.9964  70.3995 16.1601 0.8507 0.9602
