###############################################
##         ENVERUS                           ##
##         ESS - Open Hole                   ##
##         PERMIAN / DELAWARE                ##
##         Nov 02 2023  V4.0                 ##
##         42-109-30915-00-00                ##
###############################################
## Copyright 2017-2023  ENVERUS.  All Rights Reserved. 
## Confidential - Property of ENVERUS, use governed by terms and 
## conditions found within the existing Information Services Subscription Agreement 
## (as may be amended, the “ISSA”) between Customer and ENVERUS. 
## 
~VERSION INFORMATION
# MNEM.UNIT                               DATA : DESCRIPTION OF MNEMONIC
#-----.-----     ----------------------------- : -----------------------------
VERS.                                     2.00 : CWLS LOG ASCII STANDARD - VERSION 2.00
WRAP.                                       NO : MULTIPLE LINES PER DEPTH STEP
VEND.                                  ENVERUS : VENDOR
TYPE.                          ESS - OPEN HOLE : ENVERUS ESSENTIAL CURVES – ACCESSIBLE THROUGH ENVERUS PRISM(TM)
DOC.                                  32305988 : ENVERUS HEADER RAW DOCUMENT ID
#___________________________________________________________________________________________________ 
~WELL INFORMATION 
# YiEbrulvYUtXh1D3opxUtnvhUVpPAvxlEBgV2kjbCTHvWrxGcz1+vOa1jEIuqGtoxi0rQ+ZQV9RU/rHAPCAAKQ== 
# MNEM.UNIT                                              DATA : DESCRIPTION OF MNEMONIC 
#-----.-----                    ----------------------------- : ----------------------------- 
CNTY.                                               CULBERSON : COUNTY 
STATE.                                                  TEXAS : STATE 
CNTRY.                                                    USA : COUNTRY 
API.                                             42-109-30915 : API (10 Digit) 
API_14.                                    42-109-30915-00-00 : API (14 Digits) 
API_14_std.                                 42-109-30915-0000 : API (14 Digits Standard) 
UWI.                                           42109309150000 : UNIQUE WELL ID 
WELL.                             VELMA CASEY ROUNSAVILLE A 1 : WELL NAME
STRT.FT                                                  82.0 : START DEPTH
STOP.FT                                               11225.0 : STOP DEPTH
STEP.FT                                                   0.5 : STEP BETWEEN DEPTHS
NULL.                                                 -999.25 : NULL VALUE
#___________________________________________________________________________________________________ 
~CURVE INFORMATION 
# MNEM.UNIT           : CURVE DESCRIPTION 
#-----.-----          : ----------------------------- 
 DEPT.FT               : MEASURED DEPTH 
 CALI.IN               : CALIPER (CAL - CAL) 
 GR.API                : GAMMA RAY (GR) 
 DT.US/FT              : SONIC DELTA TRANSIT TIME (DT) 
 NPHI.V/V              : NEUTRON POROSITY (NPHI) 
 RHOB.G/CC             : BULK DENSITY (RHOB) 
 #___________________________________________________________________________________________________ 
~A         DEPT           CALI             GR             DT           NPHI           RHOB
# ...
         9014.0          7.466        105.588         60.652        0.11310         2.6115
         9014.5          7.466        104.037         60.193        0.11022         2.6044
         9015.0          7.466        102.485         59.565        0.10334         2.6004
         9015.5          7.467        100.933         58.937        0.08761         2.5964
         9016.0          7.467        100.199         58.310        0.07187         2.5924
         9016.5          7.467        106.799         57.682        0.06250         2.5980
         9017.0          7.467        113.193         58.571        0.07443         2.6176
         9017.5          7.467        119.177         63.268        0.08636         2.6371
         9018.0          7.467        125.161         67.964        0.11105         2.6562
         9018.5          7.467        158.625         67.455        0.17325         2.6362
         9019.0          7.467        151.552         66.300        0.18736         2.6163
         9019.5          7.467        144.479         65.145        0.16481         2.6259
         9020.0          7.467        137.405         63.990        0.14227         2.6417
         9020.5          7.468        130.332         62.835        0.11234         2.6574
         9021.0          7.468        123.560         61.680        0.07887         2.6731
         9021.5          7.468        117.371         60.525        0.05574         2.6747
         9022.0          7.468        111.182         60.300        0.04715         2.6563
         9022.5          7.468        104.994         60.268        0.03855         2.6378
         9023.0          7.468         98.805         60.022        0.04084         2.6194
         9023.5          7.468         92.616         59.776        0.05889         2.6009
         9024.0          7.468         86.428         59.797        0.06608         2.5825
         9024.5          7.468         80.424         60.574        0.07328         2.5641
         9025.0          7.468         84.346         61.351        0.08047         2.5629
         9025.5          7.468         88.268         62.061        0.08766         2.5637
         9026.0          7.469         89.454         62.388        0.09162         2.5645
         9026.5          7.469         88.892         62.715        0.09487         2.5653
         9027.0          7.469         88.330         63.041        0.09811         2.5662
         9027.5          7.469         87.768         63.368        0.10136         2.5756
         9028.0          7.469         87.206         63.695        0.10460         2.5876
         9028.5          7.469         89.779         63.786        0.10785         2.5995
         9029.0          7.469         94.658         63.318        0.11200         2.6155
         9029.5          7.469        101.252         62.851        0.11760         2.6406
         9030.0          7.469        115.209         62.837        0.12321         2.6657
         9030.5          7.469        129.166         63.226        0.12882         2.6908
         9031.0          7.470        125.853         63.615        0.13442         2.6916
         9031.5          7.470        122.161         64.005        0.14003         2.6845
         9032.0          7.470        118.469         64.190        0.14444         2.6775
         9032.5          7.470        119.913         64.159        0.14868         2.6704
         9033.0          7.470        123.166         64.128        0.15291         2.6633
         9033.5          7.470        126.419         64.097        0.15715         2.6562
         9034.0          7.470        129.671         64.066        0.16138         2.6491
         9034.5          7.471        132.924         64.018        0.16562         2.6420
         9035.0          7.471        136.177         63.291        0.16985         2.6349
         9035.5          7.471        138.847         62.565        0.17408         2.6625
         9036.0          7.471        132.378         61.839        0.17585         2.7190
         9036.5          7.472        126.219         61.112        0.16696         2.7214
         9037.0          7.472        124.507         60.386        0.15807         2.7089
         9037.5          7.472        122.795         60.688        0.14792         2.6963
         9038.0          7.472        121.083         61.087        0.13559         2.6838
         9038.5          7.473        119.371         61.486        0.12460         2.6713
         9039.0          7.473        117.658         61.885        0.12634         2.6588
         9039.5          7.473        115.946         62.284        0.12809         2.6462
         9040.0          7.473        114.234         62.683        0.12119         2.6337
         9040.5          7.474        112.522         63.082        0.10415         2.6212
         9041.0          7.474        105.388         62.808        0.08710         2.6090
         9041.5          7.474         96.854         62.281        0.07894         2.5983
         9042.0          7.474         89.047         61.753        0.08310         2.5875
         9042.5          7.474         91.627         62.035        0.08726         2.5769
         9043.0          7.475         94.206         62.356        0.09143         2.5821
         9043.5          7.475         96.786         62.677        0.09559         2.5873
         9044.0          7.475         99.365         62.544        0.09975         2.5925
         9044.5          7.475        101.945         62.298        0.10391         2.5977
         9045.0          7.476        104.524         62.052        0.10807         2.6029
         9045.5          7.476        100.456         61.807        0.10910         2.6081
         9046.0          7.476         96.121         61.561        0.10240         2.6063
         9046.5          7.476         91.787         61.315        0.09570         2.5951
         9047.0          7.477         87.452         61.070        0.08899         2.5840
         9047.5          7.477         86.172         61.123        0.08229         2.5729
         9048.0          7.477         89.732         61.197        0.07559         2.5618
         9048.5          7.477         93.291         61.588        0.06888         2.5546
         9049.0          7.478         96.850         62.138        0.07006         2.5755
         9049.5          7.478        102.471         62.688        0.07761         2.5965
         9050.0          7.478        108.744         63.154        0.08517         2.6174
         9050.5          7.478        111.400         62.738        0.09998         2.6306
         9051.0          7.478        108.647         62.322        0.11744         2.6219
         9051.5          7.479        105.893         62.654        0.13491         2.6131
         9052.0          7.479        103.140         63.188        0.15238         2.6044
         9052.5          7.479        100.387         63.722        0.14858         2.5956
         9053.0          7.479         99.931         63.990        0.14189         2.5869
         9053.5          7.480        106.118         63.240        0.13520         2.5979
         9054.0          7.480        112.305         62.490        0.12850         2.6321
         9054.5          7.480        115.522         61.740        0.12167         2.6596
         9055.0          7.480        111.977         60.990        0.11287         2.6411
         9055.5          7.481        108.431         61.405        0.10407         2.6227
         9056.0          7.481        104.886         62.742        0.09528         2.6043
         9056.5          7.481        101.340         63.471        0.08648         2.5859
         9057.0          7.481         97.795         63.172        0.07768         2.5674
         9057.5          7.481         94.249         62.872        0.08391         2.5490
