###############################################
##         ENVERUS                           ##
##         ESS - Open Hole                   ##
##         PERMIAN / DELAWARE                ##
##         Nov 03 2023  V4.0                 ##
##         42-109-32709-00-00                ##
###############################################
## Copyright 2017-2023  ENVERUS.  All Rights Reserved. 
## Confidential - Property of ENVERUS, use governed by terms and 
## conditions found within the existing Information Services Subscription Agreement 
## (as may be amended, the “ISSA”) between Customer and ENVERUS. 
## 
~VERSION INFORMATION
# MNEM.UNIT                               DATA : DESCRIPTION OF MNEMONIC
#-----.-----     ----------------------------- : -----------------------------
VERS.                                     2.00 : CWLS LOG ASCII STANDARD - VERSION 2.00
WRAP.                                       NO : MULTIPLE LINES PER DEPTH STEP
VEND.                                  ENVERUS : VENDOR
TYPE.                          ESS - OPEN HOLE : ENVERUS ESSENTIAL CURVES – ACCESSIBLE THROUGH ENVERUS PRISM(TM)
DOC.                                  32116645 : ENVERUS HEADER RAW DOCUMENT ID
#___________________________________________________________________________________________________ 
~WELL INFORMATION 
# 8SOIrMNgLSTosdYTMQVb7KPebVRgGb4NQOaGG3/cpRvPeoxWQd7So5pZ7XPWbXIrV4d26no2f3ffGwkTWQV8GA== 
# MNEM.UNIT                                              DATA : DESCRIPTION OF MNEMONIC 
#-----.-----                    ----------------------------- : ----------------------------- 
CNTY.                                               CULBERSON : COUNTY 
STATE.                                                  TEXAS : STATE 
CNTRY.                                                    USA : COUNTRY 
API.                                             42-109-32709 : API (10 Digit) 
API_14.                                    42-109-32709-00-00 : API (14 Digits) 
API_14_std.                                 42-109-32709-0000 : API (14 Digits Standard) 
UWI.                                           42109327090000 : UNIQUE WELL ID 
WELL.                                    42109327090000_API14 : WELL NAME
STRT.FT                                                  26.5 : START DEPTH
STOP.FT                                                5244.0 : STOP DEPTH
STEP.FT                                                   0.5 : STEP BETWEEN DEPTHS
NULL.                                                 -999.25 : NULL VALUE
#___________________________________________________________________________________________________ 
~PARAMETER INFORMATION 
# MNEM.UNIT                                              DATA : DESCRIPTION OF MNEMONIC 
#-----.-----                    ----------------------------- : ----------------------------- 
EKB.FT                                                   3124 : ELEVATION ABOVE MSL
#___________________________________________________________________________________________________ 
~CURVE INFORMATION 
# MNEM.UNIT           : CURVE DESCRIPTION 
#-----.-----          : ----------------------------- 
 DEPT.FT               : MEASURED DEPTH 
 CALI.IN               : CALIPER (CAL - CALIPER) 
 GR.API                : GAMMA RAY (GAMMA RAY) 
 DT.US/FT              : SONIC DELTA TRANSIT TIME (SONIC) 
 PE.B/E                : PHOTOELECTRIC EFFECT/FACTOR (PHOTOELECTRIC FACTOR) 
 RESS.OHMM             : SHALLOW INDUCTION RESISTIVITY (ILS - SHALLOW RESISTIVITY) 
 RESS_LL.OHMM          : SHALLOW LATEROLOG (LLS - SHALLOW RESISTIVITY) 
 RESD_LL.OHMM          : DEEP LATEROLOG (LLD - DEEP RESISTIVITY) 
 DPHI.V/V              : DENSITY POROSITY (DENSITY POROSITY) 
 NPHI.V/V              : NEUTRON POROSITY (NEUTRON POROSITY) 
 RHOB.G/CC             : BULK DENSITY (DENSITY) 
 #___________________________________________________________________________________________________ 
~A         DEPT           CALI             GR             DT             PE           RESS        RESS_LL        RESD_LL           DPHI           NPHI           RHOB
# ...
         4755.0          8.036        302.591        286.842         3.0375         82.996        98.6019       120.7822        0.16370        0.23951         2.4568
         4755.5          8.036        265.061        274.767         3.0606         46.778        71.4592        85.2673        0.14679        0.21832         2.4804
         4756.0          8.036        226.878        277.687         3.0721         32.353        51.7039        61.0941        0.13705        0.18874         2.4958
         4756.5          8.055        205.136        289.472         2.9562         23.872        40.7746        44.7560        0.12230        0.17750         2.5208
         4757.0          8.055        181.674        301.442         2.7736         19.876        38.5001        32.7482        0.11102        0.17544         2.5267
         4757.5          8.055        161.854        303.714         2.7022         15.218        25.6618        27.4851        0.11828        0.16734         2.5105
         4758.0          8.055        138.848        303.574         2.7022         13.145        23.3040        26.0962        0.13287        0.15843         2.4884
         4758.5          8.055        112.716        302.791         2.5921         12.471        21.6738        24.1698        0.14292        0.14154         2.4810
         4759.0          8.075         99.074        302.791         2.4266         12.446        21.1202        23.0824        0.14143        0.12269         2.4870
         4759.5          8.075         91.384        302.574         2.3274         11.995        20.8748        22.4481        0.13440        0.11851         2.4952
         4760.0          8.075         83.529        295.673         2.3274         11.455        19.7554        21.6339        0.13103        0.10243         2.5036
         4760.5          8.075         79.133        277.780         2.3471         11.963        18.9392        20.8491        0.12399        0.09656         2.5180
         4761.0          8.095         74.737        266.745         2.3866         12.527        18.6432        20.4612        0.11275        0.10222         2.5289
         4761.5          8.095         69.661        264.898         2.4061         12.867        17.5228        19.5407        0.11436        0.10986         2.5234
         4762.0          8.115         68.930        263.834         2.4458         12.585        16.7917        19.5737        0.12209        0.11817         2.5048
         4762.5          8.115         75.136        263.366         2.4458          9.671        16.9834        20.4957        0.13587        0.12174         2.4797
         4763.0          8.115         86.078        262.843         2.4458         10.928        17.9827        22.3394        0.15272        0.12570         2.4589
         4763.5          8.134         99.825        262.731         2.5421         16.232        20.6924        23.4357        0.15907        0.13655         2.4575
         4764.0          8.134        118.690        262.843         2.6297         18.904        26.2647        21.9017        0.15340        0.14088         2.4747
         4764.5          8.154        132.732        262.843         2.6824         16.797        25.3355        21.7104        0.13435        0.15231         2.5034
         4765.0          8.154        133.820        263.104         2.6536         12.282        19.5245        21.1267        0.11546        0.14427         2.5259
         4765.5          8.154        124.964        263.627         2.5537         10.494        17.4365        20.7963        0.11365        0.13909         2.5189
         4766.0          8.155        116.622        263.627         2.4655         11.451        16.3523        19.6099        0.12772        0.13172         2.4999
         4766.5          8.174         99.850        263.857         2.4786         11.788        15.9030        18.9392        0.13734        0.13103         2.4874
         4767.0          8.194         88.581        264.149         2.5785          9.276        14.9681        18.2131        0.14619        0.13868         2.4824
         4767.5          8.194         90.494        264.418         2.6233          5.899        14.1144        17.3937        0.14588        0.14300         2.4778
         4768.0          8.220         96.861        264.699         2.6430          4.902        13.7117        17.4525        0.14537        0.13556         2.4753
         4768.5          8.233        102.894        265.715         2.6627          4.874        13.9072        17.4525        0.14579        0.13585         2.4770
         4769.0          8.233        108.194        265.977         2.7022          6.504        14.2366        17.9346        0.14240        0.14615         2.4880
         4769.5          8.223        109.398        266.324         2.7008          8.434        13.9523        17.5092        0.13446        0.14179         2.4947
         4770.0          8.213        111.153        270.521         2.6206          9.558        13.2042        16.6677        0.13190        0.13507         2.4969
         4770.5          8.213        112.402        280.410         2.5206          9.006        12.2711        15.2756        0.13195        0.12725         2.4940
         4771.0          8.194        106.441        293.971         2.4458          7.964        11.0627        14.1918        0.13755        0.12682         2.4827
         4771.5          8.194         96.678        298.130         2.4260          6.929        10.4074        13.4213        0.14550        0.13630         2.4768
         4772.0          8.194         88.075        307.628         2.4063          6.486         9.6720        12.8175        0.14363        0.14142         2.4827
         4772.5          8.155         85.379        310.567         2.4260          6.368         9.3211        12.3583        0.14497        0.13962         2.4822
         4773.0          8.154         91.417        310.885         2.4260          6.426         9.1576        12.1358        0.14405        0.14056         2.4790
         4773.5          8.115        100.542        311.407         2.4458          6.426         8.8159        11.9173        0.14315        0.13249         2.4812
         4774.0          8.115        104.179        311.144         2.4260          6.426         8.3905        11.7824        0.13937        0.13157         2.4888
         4774.5          8.075        104.992        308.996         2.4260          6.368         7.4323        11.4921        0.13004        0.13570         2.5034
         4775.0          8.075        107.763        306.627         2.4260          6.368         7.5942        11.4921        0.12385        0.13045         2.5139
         4775.5          8.075        107.042        305.081         2.4434          6.368         8.2462        11.4921        0.12520        0.12717         2.5210
         4776.0          8.047        101.709        303.836         2.4458          6.426         8.2868        11.4921        0.11524        0.13167         2.5265
         4776.5          8.036         97.858        303.476         2.4454          6.485         8.2868        11.4921        0.11223        0.13967         2.5281
         4777.0          7.976         92.465        303.313         2.4063          6.485         8.2373        11.4921        0.11012        0.13811         2.5247
         4777.5          7.957         95.007        303.313         2.3866          6.442         8.2665        11.6741        0.11651        0.13148         2.5232
         4778.0          7.957        103.556        303.993         2.4107          6.935         8.5934        11.9173        0.11525        0.13077         2.5273
         4778.5          7.922        105.479        305.495         2.5049          7.175         8.2970        11.4093        0.11183        0.12307         2.5319
         4779.0          7.917         99.962        307.559         2.4852          6.355         7.4356        10.7908        0.11040        0.11706         2.5319
