###############################################
##         ENVERUS                           ##
##         ESS - Open Hole                   ##
##         PERMIAN / DELAWARE                ##
##         Nov 02 2023  V4.0                 ##
##         42-109-31550-00-00                ##
###############################################
## Copyright 2017-2023  ENVERUS.  All Rights Reserved. 
## Confidential - Property of ENVERUS, use governed by terms and 
## conditions found within the existing Information Services Subscription Agreement 
## (as may be amended, the “ISSA”) between Customer and ENVERUS. 
## 
~VERSION INFORMATION
# MNEM.UNIT                               DATA : DESCRIPTION OF MNEMONIC
#-----.-----     ----------------------------- : -----------------------------
VERS.                                     2.00 : CWLS LOG ASCII STANDARD - VERSION 2.00
WRAP.                                       NO : MULTIPLE LINES PER DEPTH STEP
VEND.                                  ENVERUS : VENDOR
TYPE.                          ESS - OPEN HOLE : ENVERUS ESSENTIAL CURVES – ACCESSIBLE THROUGH ENVERUS PRISM(TM)
DOC.                                  22584426 : ENVERUS HEADER RAW DOCUMENT ID
#___________________________________________________________________________________________________ 
~WELL INFORMATION 
# ASdzl/zqz3tyMoI2i40d5lqA861uk+/GXWRvioHJ4uiq1sQ7a4yIDDt4z64Puw3+ifUTTkKIB4eyCaXtXAsvCw== 
# MNEM.UNIT                                              DATA : DESCRIPTION OF MNEMONIC 
#-----.-----                    ----------------------------- : ----------------------------- 
CNTY.                                               CULBERSON : COUNTY 
STATE.                                                  TEXAS : STATE 
CNTRY.                                                    USA : COUNTRY 
API.                                             42-109-31550 : API (10 Digit) 
API_14.                                    42-109-31550-00-00 : API (14 Digits) 
API_14_std.                                 42-109-31550-0000 : API (14 Digits Standard) 
UWI.                                           42109315500000 : UNIQUE WELL ID 
WELL.                                       UNIVERSITY_6-46-1 : WELL NAME
STRT.FT                                                 249.5 : START DEPTH
STOP.FT                                               10300.0 : STOP DEPTH
STEP.FT                                                   0.5 : STEP BETWEEN DEPTHS
NULL.                                                 -999.25 : NULL VALUE
COMP.                                    MONSANTO OIL COMPANY : COMPANY 
FLD.                                                  WILDCAT : FIELD 
DATE.                                              10/31/2016 : DATE 
TVD.                                                       NO : TVD FLAG 
WSTA.                                                     LOC : WELL STATUS
#___________________________________________________________________________________________________ 
~PARAMETER INFORMATION 
# MNEM.UNIT                                              DATA : DESCRIPTION OF MNEMONIC 
#-----.-----                    ----------------------------- : ----------------------------- 
RUN.                                                      ONE : RUN NUMBER 
PDAT.                                                      GL : PERMANENT DATUM 
LMF.                                            KELLY BUSHING : LOG MEASURED FROM
#___________________________________________________________________________________________________ 
~CURVE INFORMATION 
# MNEM.UNIT           : CURVE DESCRIPTION 
#-----.-----          : ----------------------------- 
 DEPT.FT               : MEASURED DEPTH 
 DT.US/FT              : SONIC DELTA TRANSIT TIME (DELTA-T) 
 RESS_LL.OHMM          : SHALLOW LATEROLOG (LLS - LATERO-LOG SHALLOW (RESISTIVITY)) 
 RESD_LL.OHMM          : DEEP LATEROLOG (LLD - LATERO-LOG DEEP (RESISTIVITY)) 
 #___________________________________________________________________________________________________ 
~A         DEPT             DT        RESS_LL        RESD_LL
# ...
         2955.5         64.083       187.8860       279.7426
         2956.0         66.526       255.0102       372.7192
         2956.5         68.221       346.1154       725.8201
         2957.0         69.157       510.5816      1253.1842
         2957.5         69.819      1022.2867      1794.7122
         2958.0         68.891      1100.8636      2104.4594
         2958.5         68.193       967.0571      2085.0691
         2959.0         65.528       705.9415       539.7415
         2959.5         63.385       432.2185       452.6931
         2960.0         62.653       333.5343       408.8677
         2960.5         62.394       330.4612       394.0056
         2961.0         62.658       407.8952       444.3894
         2961.5         62.417       482.8132       501.2161
         2962.0         61.077       502.0899       501.2161
         2962.5         59.348       434.6257       390.3752
         2963.0         59.047       355.8617       349.3342
         2963.5         60.311       306.8737       309.7275
         2964.0         62.748       295.7190       298.4691
         2964.5         64.523       430.9401       958.1467
         2965.0         64.727       699.4370      9340.6420
         2965.5         62.559      1453.2373     15397.9235
         2966.0         59.298      2027.9636     29164.1344
         2966.5         57.603      2023.6131     33508.1614
         2967.0         57.302      2017.3041     33819.7739
         2967.5         57.964      2011.6137     15831.5143
         2968.0         58.024      1990.6437     11772.7858
         2968.5         56.881      1972.3483     11136.7543
         2969.0         55.677      2027.9636     10438.0155
         2969.5         53.390      2027.9636      9603.6656
         2970.0         53.486      2027.9636      8836.0085
         2970.5         55.196      1972.4220      7549.4344
         2971.0         59.287      1954.2483      6510.1772
         2971.5         65.848      1831.6355      6045.4969
         2972.0         72.287      1831.6355      5929.1996
         2972.5         71.505      1939.8300      5842.8732
         2973.0         67.773      1990.7648      5799.2511
         2973.5         63.380      2027.9636      6818.5701
         2974.0         60.655      2027.9636      7834.2030
         2974.5         57.543      2027.9636      9427.5063
         2975.0         55.797      2027.9655     10633.0569
         2975.5         55.075      2027.9634     13907.2433
         2976.0         54.895      2027.9706     19407.2799
         2976.5         54.112      2026.4359     20706.4369
         2977.0         53.631      2023.5670     22925.9045
         2977.5         53.691      2020.6974     23790.6813
         2978.0         53.754      2017.8293     22298.0136
         2978.5         53.504      2015.0108     18529.5199
         2979.0         53.135      2011.1330     14976.2077
         2979.5         52.653      2011.5679     11431.4354
         2980.0         52.487      1972.4220      8595.2498
         2980.5         52.849      1848.6689      7958.0990
         2981.0         53.089      1685.2259      8358.6381
         2981.5         52.849      1669.6984      9169.3073
         2982.0         52.126      1716.7155     11034.1412
         2982.5         51.765      1765.0566     11664.3124
         2983.0         51.765      1831.6355     11772.7858
         2983.5         52.006      1972.4220     11772.7858
         2984.0         52.367      2027.9636     12268.7945
         2984.5         52.427      2028.1237     12266.8682
         2985.0         52.006      2028.0273     16005.0604
         2985.5         51.284      2027.9636     17872.1523
         2986.0         50.863      2027.9636     19769.9181
         2986.5         50.509      2027.9636     21889.0027
         2987.0         50.080      2027.9636     22925.9045
         2987.5         49.779      2027.9636     21487.4943
         2988.0         49.595      2027.9636     19228.4629
         2988.5         49.483      2027.9636     17206.9288
         2989.0         49.647      2027.9636     15397.9235
         2989.5         50.187      2027.9636     12445.1417
         2990.0         50.794      2027.9636     12914.5788
         2990.5         51.057      2027.9636     13050.3107
         2991.0         50.990      2027.9636     13391.6782
         2991.5         50.562      2027.9636     13630.6117
         2992.0         49.840      2027.9636     13779.1031
         2992.5         49.719      2027.9636     14431.8316
         2993.0         51.103      2027.9636     14838.2182
         2993.5         52.668      2027.9636     15256.0483
         2994.0         52.969      2027.9636     18529.5199
         2994.5         52.187      2027.9636     25149.3916
         2995.0         50.983      2027.9636     26098.0396
         2995.5         50.012      2027.9636     26340.7409
         2996.0         50.021      2027.9636     26340.7409
         2996.5         50.267      2027.9636     27906.4746
         2997.0         50.388      2027.9636     27783.1361
         2997.5         50.441      2027.9636     30270.1625
         2998.0         50.381      2027.9636     33593.3624
         2998.5         49.659      2027.9636     35650.4782
         2999.0         49.659      2027.9636     34712.5705
         2999.5         49.659      2027.9636     34712.5705
         3000.0         49.659      2027.9636     34712.5705
         3000.5         47.538      -999.2500      -999.2500
         3001.0         47.838      -999.2500      -999.2500
         3001.5         49.099      -999.2500      -999.2500
         3002.0         49.700      -999.2500      -999.2500
         3002.5         50.781      -999.2500      -999.2500
         3003.0         51.321      -999.2500      -999.2500
         3003.5         52.402      -999.2500      -999.2500
         3004.0         53.063      -999.2500      -999.2500
         3004.5         53.423      -999.2500      -999.2500
         3005.0         53.544      -999.2500      -999.2500
         3005.5         53.303      -999.2500      -999.2500
         3006.0         52.611      -999.2500      -999.2500
         3006.5         52.138      -999.2500      -999.2500
         3007.0         52.269      -999.2500      -999.2500
         3007.5         52.455      -999.2500      -999.2500
         3008.0         52.637      -999.2500      -999.2500
         3008.5         52.638      -999.2500      -999.2500
         3009.0         52.636      -999.2500      -999.2500
         3009.5         52.813      -999.2500      -999.2500
         3010.0         53.052      -999.2500      -999.2500
         3010.5         53.297      -999.2500      -999.2500
         3011.0         53.304      -999.2500      -999.2500
         3011.5         52.703      -999.2500      -999.2500
         3012.0         51.862      -999.2500      -999.2500
         3012.5         51.141      -999.2500      -999.2500
         3013.0         50.961      -999.2500      -999.2500
         3013.5         50.901      -999.2500      -999.2500
         3014.0         50.661      -999.2500      -999.2500
         3014.5         49.940      -999.2500      -999.2500
         3015.0         49.580      -999.2500      -999.2500
         3015.5         49.880      -999.2500      -999.2500
         3016.0         50.541      -999.2500      -999.2500
         3016.5         51.558      -999.2500      -999.2500
         3017.0         52.643      -999.2500      -999.2500
         3017.5         53.003      -999.2500      -999.2500
         3018.0         53.243      -999.2500      -999.2500
         3018.5         53.664      -999.2500      -999.2500
         3019.0         54.204      -999.2500      -999.2500
         3019.5         54.322      -999.2500      -999.2500
         3020.0         54.330      -999.2500      -999.2500
         3020.5         54.385      -999.2500      -999.2500
         3021.0         54.390      -999.2500      -999.2500
