###############################################
##         ENVERUS                           ##
##         ESS - Open Hole                   ##
##         PERMIAN / DELAWARE                ##
##         Nov 02 2023  V4.0                 ##
##         42-109-31383-00-00                ##
###############################################
## Copyright 2017-2023  ENVERUS.  All Rights Reserved. 
## Confidential - Property of ENVERUS, use governed by terms and 
## conditions found within the existing Information Services Subscription Agreement 
## (as may be amended, the “ISSA”) between Customer and ENVERUS. 
## 
~VERSION INFORMATION
# MNEM.UNIT                               DATA : DESCRIPTION OF MNEMONIC
#-----.-----     ----------------------------- : -----------------------------
VERS.                                     2.00 : CWLS LOG ASCII STANDARD - VERSION 2.00
WRAP.                                       NO : MULTIPLE LINES PER DEPTH STEP
VEND.                                  ENVERUS : VENDOR
TYPE.                          ESS - OPEN HOLE : ENVERUS ESSENTIAL CURVES – ACCESSIBLE THROUGH ENVERUS PRISM(TM)
DOC.                                  31887493 : ENVERUS HEADER RAW DOCUMENT ID
#___________________________________________________________________________________________________ 
~WELL INFORMATION 
# e8MMFGpko9nixUfuEkfb9P8cKS4olzuguLrtdgPIjARTX3oRymgI2EYtnk6GmA/F0PbYW2Z7xnLx5OgyGayifw== 
# MNEM.UNIT                                              DATA : DESCRIPTION OF MNEMONIC 
#-----.-----                    ----------------------------- : ----------------------------- 
CNTY.                                               CULBERSON : COUNTY 
STATE.                                                  TEXAS : STATE 
CNTRY.                                                    USA : COUNTRY 
API.                                             42-109-31383 : API (10 Digit) 
API_14.                                    42-109-31383-00-00 : API (14 Digits) 
API_14_std.                                 42-109-31383-0000 : API (14 Digits Standard) 
UWI.                                           42109313830000 : UNIQUE WELL ID 
WELL.                                          KIRK  T. A.  1 : WELL NAME
STRT.FT                                                  43.0 : START DEPTH
STOP.FT                                               16492.0 : STOP DEPTH
STEP.FT                                                   0.5 : STEP BETWEEN DEPTHS
NULL.                                                 -999.25 : NULL VALUE
COMP.                                             EXXON CORP. : COMPANY 
DATE.                                             05-AUG-1981 : LOG DATE
#___________________________________________________________________________________________________ 
~CURVE INFORMATION 
# MNEM.UNIT           : CURVE DESCRIPTION 
#-----.-----          : ----------------------------- 
 DEPT.FT               : MEASURED DEPTH 
 CALI.IN               : CALIPER (CAL - CAL) 
 GR.API                : GAMMA RAY (GR) 
 SP.MV                 : SPONTANEOUS POTENTIAL (SP) 
 DT.US/FT              : SONIC DELTA TRANSIT TIME (DT) 
 RESS.OHMM             : SHALLOW INDUCTION RESISTIVITY (ILS - ILS) 
 RESD.OHMM             : DEEP INDUCTION RESISTIVITY (ILD - ILD) 
 NPHI.V/V              : NEUTRON POROSITY (NPHI) 
 #___________________________________________________________________________________________________ 
~A         DEPT           CALI             GR             SP             DT           RESS           RESD           NPHI
# ...
         5403.0         13.122         60.634       -999.250         61.365        137.686         78.975     -999.25000
         5403.5         13.119         67.232       -999.250         62.832        121.863         76.667     -999.25000
         5404.0         13.116         85.167       -999.250         63.870        114.697         74.295     -999.25000
         5404.5         13.113         92.028       -999.250         63.799        113.164         70.948     -999.25000
         5405.0         13.110         93.710       -999.250         63.728        111.630         67.602     -999.25000
         5405.5         13.107         95.393       -999.250         63.657        104.456         64.256     -999.25000
         5406.0         13.104         97.075       -999.250         63.587         94.380         60.910     -999.25000
         5406.5         13.101        102.532       -999.250         64.294         83.002         57.564     -999.25000
         5407.0         13.103        125.567       -999.250         65.554         51.004         56.296     -999.25000
         5407.5         13.108        138.004       -999.250         66.814         38.631         56.158     -999.25000
         5408.0         13.114        150.441       -999.250         68.074         44.521         56.019     -999.25000
         5408.5         13.120        153.907       -999.250         65.219         50.410         55.072     -999.25000
         5409.0         13.125        153.908       -999.250         59.578         53.711         52.750     -999.25000
         5409.5         13.131        153.910       -999.250         60.149         51.101         50.427     -999.25000
         5410.0         13.136         41.070       -999.250         60.720         48.492         48.104     -999.25000
         5410.5         13.142         44.657       -999.250         61.291         45.882         45.782     -999.25000
         5411.0         13.147         48.244       -999.250         61.474         43.272         43.908     -999.25000
         5411.5         13.153         51.832       -999.250         60.672         40.662         42.770     -999.25000
         5412.0         13.158         55.419       -999.250         59.870         43.445         41.632     -999.25000
         5412.5         13.164         52.193       -999.250         59.068         47.982         40.493     -999.25000
         5413.0         13.169         48.611       -999.250         58.266         52.518         39.355     -999.25000
         5413.5         13.175         45.029       -999.250         57.979         57.054         38.217     -999.25000
         5414.0         13.180         41.446       -999.250         58.767         54.319         37.078     -999.25000
         5414.5         13.186         37.864       -999.250         59.555         48.310         37.775     -999.25000
         5415.0         13.191         42.682       -999.250         60.343         42.301         39.031     -999.25000
         5415.5         13.197         52.882       -999.250         61.132         36.291         40.288     -999.25000
         5416.0         13.203         63.082       -999.250         61.920         30.282         41.544     -999.25000
         5416.5         13.208         73.282       -999.250         62.708         34.528         42.800     -999.25000
         5417.0         13.209         81.797       -999.250         63.409         40.598         43.699     -999.25000
         5417.5         13.210         76.962       -999.250         63.282         46.667         41.115     -999.25000
         5418.0         13.211         72.127       -999.250         63.154         49.560         38.532     -999.25000
         5418.5         13.212         67.291       -999.250         63.026         50.850         35.948     -999.25000
         5419.0         13.214         62.456       -999.250         61.563         52.140         33.365     -999.25000
         5419.5         13.215         57.621       -999.250         60.070         53.430         30.781     -999.25000
         5420.0         13.216         52.786       -999.250         58.903         54.721         29.427     -999.25000
         5420.5         13.217         47.950       -999.250         59.778         53.644         28.768     -999.25000
         5421.0         13.218         43.115       -999.250         60.654         45.890         28.011     -999.25000
         5421.5         13.220         38.280       -999.250         61.502         38.136         27.181     -999.25000
         5422.0         13.221         35.789       -999.250         62.295         30.382         26.352     -999.25000
         5422.5         13.222         41.654       -999.250         63.088         22.627         25.522     -999.25000
         5423.0         13.223         47.518       -999.250         63.881         21.244         24.693     -999.25000
         5423.5         13.225         53.383       -999.250         63.962         22.188         23.842     -999.25000
         5424.0         13.226         59.247       -999.250         64.040         23.132         22.902     -999.25000
         5424.5         13.227         60.856       -999.250         64.118         24.035         21.962     -999.25000
         5425.0         13.228         55.486       -999.250         64.197         22.074         21.022     -999.25000
         5425.5         13.229         50.116       -999.250         64.086         20.112         20.485     -999.25000
         5426.0         13.231         48.304       -999.250         63.922         18.150         20.009     -999.25000
         5426.5         13.232         50.177       -999.250         63.757         17.257         19.534     -999.25000
         5427.0         13.233         52.051       -999.250         63.593         17.255         19.059     -999.25000
         5427.5         13.234         53.924       -999.250         63.428         17.253         18.583     -999.25000
         5428.0         13.235         60.312       -999.250         63.264         20.192         18.108     -999.25000
         5428.5         13.237         69.555       -999.250         63.099         25.015         16.844     -999.25000
         5429.0         13.238         78.798       -999.250         63.228         56.562         13.313     -999.25000
         5429.5         13.239         88.041       -999.250         63.626         84.478          9.782     -999.25000
         5430.0         13.240         97.284       -999.250         64.024         82.703          6.251     -999.25000
         5430.5         13.242         95.072       -999.250         64.423         68.557          7.591     -999.25000
         5431.0         13.243         78.011       -999.250         64.821         54.412         12.579     -999.25000
         5431.5         13.244         60.949       -999.250         65.219         37.660         13.222     -999.25000
         5432.0         13.245         49.810       -999.250         65.558         20.466         13.865     -999.25000
         5432.5         13.246         44.690       -999.250         64.269         13.772         14.508     -999.25000
         5433.0         13.248         39.570       -999.250         62.979         16.602         16.575     -999.25000
         5433.5         13.249         34.595       -999.250         61.690         19.433         18.650     -999.25000
         5434.0         13.250         38.334       -999.250         60.400         22.263         20.145     -999.25000
         5434.5         13.251         42.073       -999.250         60.429         25.094         19.829     -999.25000
         5435.0         13.252         45.813       -999.250         60.975         27.924         19.512     -999.25000
         5435.5         13.254         49.552       -999.250         61.521         28.791         19.196     -999.25000
         5436.0         13.255         53.291       -999.250         62.067         28.788         18.880     -999.25000
