# Exported from Transform Software 5.2.0 on 25-May-2018 by user brian.umlang
# DI Transform - A Product of Drillinginfo, Inc. - www.drillinginfo.com
#
~VERSION INFORMATION
 VERS.        2.0 : LAS ASCII STANDARD - VERSION 2.0
 WRAP.         NO : ONE LINE PER DEPTH STEP

~WELL INFORMATION
#MNEM.UNIT       DATA TYPE       INFORMATION
#---------       ---------       -----------
# Enverus has updated the API/UWI.  The previous names are renamed to  PREV_API / PREV_UWI
API.         42-109-32508-00-00 : API (14 Digits with Dashes)
UWI.             42109325080000 : UNIQUE WELL ID

 STRT.ft                1970 : Start Depth
 STOP.ft                8730 : Stop Depth
 STEP.ft                 0.5 : Step Length
 NULL.               -999.25 : Null Value
 COMP.                       : Company
 WELL.  42109325080000_API14 : Well Name
 FLD.                        : Field Name
 LOC.                        : Well Location
 CNTY.                       : County
 STAT.                       : State or Province
 CTRY.                       : Country
 SRVC.                       : Service Company
 DATE.                       : Date
PREV_APII.         42109325080000 : Well Identifier

~CURVE INFORMATION
#MNEM.UNIT       API CODE       CURVE DESCRIPTION
#---------       --------       -----------------
 DEPT.ft        : <Measured Depth>
 CAL.in         : Caliper
 DT.us/ft       : Pressure Wave Sonic
 GR.gAPI        : Gamma Ray

~PARAMETER INFORMATION
#MNEM.UNIT       VALUE       DESCRIPTION
#---------       -----       -----------
 EKB.ft      3552 : Elevation above MSL

~A      DEPT         CAL          DT          GR
# ...
        2872      9.3398     71.2028     59.9143
      2872.5      9.2855     73.1782     68.1215
        2873      9.2812     73.2749     75.5283
      2873.5      9.2812     72.9927     75.8328
        2874      9.2812     72.3664     76.9228
      2874.5      9.2812     71.3101     75.5216
        2875      9.2639      70.267     71.1159
      2875.5      9.2245     69.1921     68.3594
        2876      9.1836     69.0058     69.1267
      2876.5       9.125     69.0614     74.3747
        2877       9.125     69.2398     78.1049
      2877.5       9.125     70.8732     85.8207
        2878      9.0857     71.6374     95.5102
      2878.5      9.0664     69.0448    121.6114
        2879      9.0458     66.1226    123.8175
      2879.5      9.0078      59.653     83.7031
        2880      9.0078     54.7391     58.7139
      2880.5      9.0078     52.6695     45.5897
        2881      9.0051     51.6455     39.2375
      2881.5      8.9688     51.5697     33.3519
        2882      8.9688     52.4923     33.6289
      2882.5      8.9688     58.2003     47.8191
        2883      8.9688     69.5032     97.9943
      2883.5      8.9688     70.6272    141.6068
        2884      8.9688     72.9479    127.4876
      2884.5      8.9883     69.2008    102.6788
        2885      8.9823     69.4199    101.3682
      2885.5      8.9428     73.6018    136.5066
        2886      8.8711     75.9163    195.2507
      2886.5      8.8516     75.4479    193.7143
        2887      8.8516     72.0661    171.3856
      2887.5      8.8516     70.0075    155.1191
        2888      8.8516     68.3374    126.6129
      2888.5      8.8516     68.4154     116.318
        2889       8.832     70.6646    116.9928
      2889.5       8.832     72.1327    141.6803
        2890       8.832     76.1438    158.7319
      2890.5       8.832     75.9983    191.9329
        2891       8.832      75.107    193.2838
      2891.5       8.832     74.5276    178.9029
        2892       8.832     75.0629    159.8056
      2892.5      8.8516     74.0071    151.6368
        2893      8.8641     72.0186    142.9173
      2893.5      8.8906     68.2305    127.3042
        2894      8.9297     65.7523    110.6929
      2894.5      8.9492     65.6899     97.9002
        2895      8.9492     64.6582     88.9346
      2895.5      8.9492     64.7942     86.7685
        2896      8.9492      65.731     89.0168
      2896.5      8.9492     65.3926     94.3087
        2897      8.9492     64.8515     90.9106
      2897.5      8.9492     62.8471     82.1791
        2898      8.9492     63.4736     75.2247
      2898.5      8.9688     64.4954     73.0639
        2899      8.9883     64.6784     78.4415
      2899.5      8.9883      64.076     81.1646
        2900      8.9883     63.4503     76.9661
      2900.5      8.9883     63.3945     75.2131
        2901      8.9883     62.4049     75.1953
      2901.5      8.9492     59.8841     71.8783
        2902      8.9102     56.8371     58.5904
      2902.5      8.9102      57.276     53.1602
        2903      8.9102     58.7273     56.5202
      2903.5      8.9492     59.4994     68.5703
        2904      8.9492     58.8127     67.3631
      2904.5      8.9883     57.2016     56.6625
        2905      9.0273     57.6775     50.8093
      2905.5      9.1055     60.4179     57.2001
        2906       9.125     62.3824     77.1845
      2906.5      9.1485     64.0023     85.7823
        2907      9.1685     65.9009     86.3281
      2907.5      9.1836     66.4912     85.6939
        2908      9.2031     66.2102     84.1273
      2908.5      9.2478     65.0201     82.0442
        2909      9.2812      63.652     79.2769
      2909.5      9.3008     61.8919     72.3354
        2910      9.2548      60.117     63.7984
      2910.5      9.2154      59.883     63.5494
        2911      9.1641     60.1046     69.8631
      2911.5      9.1722     60.8088     65.9679
        2912      9.2116      61.396     61.0477
      2912.5      9.2706     61.7277     60.4307
        2913      9.3594     61.2054     62.2114
      2913.5      9.3594      59.445     60.8891
        2914      9.3594     58.6831     59.4688
      2914.5      9.3594     58.0772     57.9313
        2915      9.3484     58.8448     56.8051
      2915.5      9.2894     59.8194     63.4581
        2916      9.2812     62.7495     72.9588
      2916.5      9.2812     64.1297     75.4758
        2917      9.2938     65.2047     75.3906
      2917.5      9.3529     65.2632     74.8049
        2918      9.3984     65.3801     69.6178
      2918.5      9.4318     66.1062     67.1512
        2919      9.4375     67.0869     67.8364
      2919.5      9.5303     67.5584     68.9453
        2920      9.5502     66.9859     68.9453
      2920.5      9.5897     65.2802     68.5954
        2921      9.6328     63.2821     65.2465
      2921.5      9.6686     62.5146     63.3138
        2922      9.7305       62.79     63.6719
      2922.5      9.8062     63.7866     64.6119
        2923      9.8652     64.3738     65.9954
      2923.5      9.9242     65.1902     66.5854
        2924      9.9636     66.0125     69.0984
      2924.5     10.0617     66.8934     71.0818
        2925     10.1598     67.8912     65.3476
      2925.5     10.1992     69.0061     61.3278
        2926     10.2973     70.8264     59.3793
      2926.5     10.3758     72.3492      59.375
        2927     10.4544     73.4067     59.2233
      2927.5     10.5117     74.7517     62.5496
        2928     10.5919     75.3278     64.4325
      2928.5       10.69     75.6873     62.4617
        2929     10.7685     76.7012     61.1904
      2929.5     10.8666     77.8855     64.7142
        2930     10.9646     79.0501     65.0021
      2930.5     11.0863     79.8492     63.6979
        2931     11.1998     80.3059     59.5472
      2931.5     11.3004     80.9072     56.0054
        2932     11.4315     83.6525      53.116
      2932.5      11.656     86.3949     51.9531
        2933      11.846     87.5623     51.6963
      2933.5     11.9441      88.051     46.6439
        2934     12.1077     88.2456     44.1406
      2934.5     12.2624     88.2677     44.3359
        2935     12.5117     88.4444     44.0232
      2935.5     12.5512     88.4795     46.8784
        2936     12.6211     88.3626     49.8283
      2936.5     12.7082     88.3041     44.2685
        2937     12.7868     88.3041     41.1167
      2937.5     12.8653      88.509     43.1156
        2938     12.9438     88.6271     43.1641
      2938.5     13.0028     88.7135     43.7677
        2939     13.0703     88.6803     46.2854
      2939.5     13.1094     88.4452      46.979
        2940     13.1484     88.2719     42.6508
      2940.5     13.1803     88.2243      40.929
        2941     13.1875     88.1767     42.6561
      2941.5     13.1875     87.8739     47.6587
        2942     13.1512     87.4432     49.9852
      2942.5     13.0564     87.2453     47.9919
        2943     12.9583     87.1457     44.6417
      2943.5     12.8993     87.1457     43.5547
        2944     12.8359     86.6738     46.5481
      2944.5     12.8515     87.0641      48.358
        2945     12.8555     87.6288     53.3466
      2945.5        12.8     88.2852     53.7741
        2946     12.7215     88.3626     51.3947
      2946.5      12.682     87.8573      50.414
        2947     12.6406     86.5786     49.2381
      2947.5     12.6211     83.5635     48.8281
        2948     12.5234     79.6341     51.1607
      2948.5     12.4858     76.7836     52.7132
        2949     12.3675     78.1126     54.9715
      2949.5     12.2498     84.8575     57.8136
        2950     12.1133      88.775     55.2682
      2950.5     12.1133     89.5794     50.3954
        2951     12.1146     90.3469     47.8047
      2951.5     12.1133     88.9954     46.8035
        2952     12.1133     88.1549     47.6562
      2952.5     12.0937     87.4192     44.8578
        2953     12.0937     86.8014     43.5844
      2953.5     12.0937      87.076     45.6562
