###############################################
##         ENVERUS                           ##
##         ESS - Open Hole                   ##
##         PERMIAN / DELAWARE                ##
##         Nov 03 2023  V4.0                 ##
##         42-109-32709-00-00                ##
###############################################
## Copyright 2017-2023  ENVERUS.  All Rights Reserved. 
## Confidential - Property of ENVERUS, use governed by terms and 
## conditions found within the existing Information Services Subscription Agreement 
## (as may be amended, the “ISSA”) between Customer and ENVERUS. 
## 
~VERSION INFORMATION
# MNEM.UNIT                               DATA : DESCRIPTION OF MNEMONIC
#-----.-----     ----------------------------- : -----------------------------
VERS.                                     2.00 : CWLS LOG ASCII STANDARD - VERSION 2.00
WRAP.                                       NO : MULTIPLE LINES PER DEPTH STEP
VEND.                                  ENVERUS : VENDOR
TYPE.                          ESS - OPEN HOLE : ENVERUS ESSENTIAL CURVES – ACCESSIBLE THROUGH ENVERUS PRISM(TM)
DOC.                                  32116645 : ENVERUS HEADER RAW DOCUMENT ID
#___________________________________________________________________________________________________ 
~WELL INFORMATION 
# 8SOIrMNgLSTosdYTMQVb7KPebVRgGb4NQOaGG3/cpRvPeoxWQd7So5pZ7XPWbXIrV4d26no2f3ffGwkTWQV8GA== 
# MNEM.UNIT                                              DATA : DESCRIPTION OF MNEMONIC 
#-----.-----                    ----------------------------- : ----------------------------- 
CNTY.                                               CULBERSON : COUNTY 
STATE.                                                  TEXAS : STATE 
CNTRY.                                                    USA : COUNTRY 
API.                                             42-109-32709 : API (10 Digit) 
API_14.                                    42-109-32709-00-00 : API (14 Digits) 
API_14_std.                                 42-109-32709-0000 : API (14 Digits Standard) 
UWI.                                           42109327090000 : UNIQUE WELL ID 
WELL.                                    42109327090000_API14 : WELL NAME
STRT.FT                                                  26.5 : START DEPTH
STOP.FT                                                5244.0 : STOP DEPTH
STEP.FT                                                   0.5 : STEP BETWEEN DEPTHS
NULL.                                                 -999.25 : NULL VALUE
#___________________________________________________________________________________________________ 
~PARAMETER INFORMATION 
# MNEM.UNIT                                              DATA : DESCRIPTION OF MNEMONIC 
#-----.-----                    ----------------------------- : ----------------------------- 
EKB.FT                                                   3124 : ELEVATION ABOVE MSL
#___________________________________________________________________________________________________ 
~CURVE INFORMATION 
# MNEM.UNIT           : CURVE DESCRIPTION 
#-----.-----          : ----------------------------- 
 DEPT.FT               : MEASURED DEPTH 
 CALI.IN               : CALIPER (CAL - CALIPER) 
 GR.API                : GAMMA RAY (GAMMA RAY) 
 DT.US/FT              : SONIC DELTA TRANSIT TIME (SONIC) 
 PE.B/E                : PHOTOELECTRIC EFFECT/FACTOR (PHOTOELECTRIC FACTOR) 
 RESS.OHMM             : SHALLOW INDUCTION RESISTIVITY (ILS - SHALLOW RESISTIVITY) 
 RESS_LL.OHMM          : SHALLOW LATEROLOG (LLS - SHALLOW RESISTIVITY) 
 RESD_LL.OHMM          : DEEP LATEROLOG (LLD - DEEP RESISTIVITY) 
 DPHI.V/V              : DENSITY POROSITY (DENSITY POROSITY) 
 NPHI.V/V              : NEUTRON POROSITY (NEUTRON POROSITY) 
 RHOB.G/CC             : BULK DENSITY (DENSITY) 
 #___________________________________________________________________________________________________ 
~A         DEPT           CALI             GR             DT             PE           RESS        RESS_LL        RESD_LL           DPHI           NPHI           RHOB
# ...
         2844.0          7.838         73.260        343.000         2.5049          7.636        12.5848        15.3685        0.12249        0.13421         2.5130
         2844.5          7.838         63.319        343.000         2.4852          7.499        12.2959        15.0156        0.12191        0.13848         2.5161
         2845.0          7.838         58.747        343.000         2.5349          7.431        12.1358        14.9554        0.11840        0.14201         2.5175
         2845.5          7.838         63.000        343.000         2.6348          7.615        12.1022        15.2295        0.12014        0.14292         2.5147
         2846.0          7.851         69.826        343.000         2.6627          8.103        12.2465        15.2295        0.12688        0.14089         2.5060
         2846.5          7.858         66.543        343.000         2.6288          8.212        12.0447        15.2295        0.12710        0.13889         2.5075
         2847.0          7.858         59.797        343.000         2.5288          7.934        11.8095        15.6357        0.12525        0.12874         2.5181
         2847.5          7.858         60.526        343.000         2.4458          7.401        11.8133        15.5137        0.12240        0.12877         2.5084
         2848.0          7.858         67.272        343.000         2.4458          6.751        11.1275        14.8157        0.12877        0.13626         2.4972
         2848.5          7.858         70.365        343.000         2.5736          5.922         9.9747        13.6941        0.13353        0.12211         2.4942
         2849.0          7.878         70.888        343.000         2.6824          4.920         9.3890        12.6707        0.13459        0.12895         2.4902
         2849.5          7.878         68.365        343.000         2.6183          4.139         8.5659        11.2883        0.14552        0.13756         2.4690
         2850.0          7.897         66.971        343.000         2.4756          3.639         7.8863        10.3707        0.15732        0.14623         2.4596
         2850.5          7.897         67.755        343.000         2.3669          3.244         7.4060         9.9042        0.15355        0.15157         2.4615
         2851.0          7.937         65.375        343.000         2.4128          3.039         6.9991         9.4586        0.15207        0.14807         2.4669
         2851.5          7.937         62.272        343.000         2.4733          3.122         6.7556         9.2411        0.15676        0.14997         2.4584
         2852.0          7.937         62.345        343.000         2.4852          3.627         6.9965         9.3744        0.15497        0.16172         2.4635
         2852.5          7.957         65.714        343.000         2.4852          4.307         7.3639         9.5830        0.14730        0.15270         2.4733
         2853.0          7.957         69.845        343.000         2.4734          4.399         7.3639         9.3500        0.14687        0.15294         2.4723
         2853.5          7.996         69.551        343.000         2.3866          3.847         6.9667         8.6459        0.15655        0.15562         2.4564
         2854.0          7.996         71.451        343.000         2.3669          3.384         6.2379         7.8693        0.17221        0.15631         2.4222
         2854.5          8.016         82.271        343.000         2.3669          3.081         5.5446         7.1446        0.19946        0.15814         2.3857
         2855.0          8.036         93.926        343.000         2.3471          2.890         5.1213         6.6647        0.21200        0.16614         2.3679
         2855.5          8.036         98.861        343.000         2.3077          3.079         5.0283         6.4259        0.21807        0.19390         2.3569
         2856.0          8.036         96.986        343.000         2.2485          3.027         5.0742         6.4259        0.22347        0.19585         2.3522
         2856.5          8.036         92.928        343.000         2.2682          2.869         5.1205         6.5548        0.22144        0.17650         2.3538
         2857.0          8.055         89.320        343.000         2.2654          2.837         5.1792         6.7400        0.22034        0.17974         2.3570
         2857.5          8.055         82.231        343.000         2.2049          2.863         5.7088         7.1869        0.22335        0.18754         2.3521
         2858.0          8.055         76.762        343.000         2.1302          2.916         6.4602         7.7334        0.21423        0.19177         2.3664
         2858.5          8.055         77.217        343.000         2.1499          2.851         6.8141         8.0640        0.19043        0.18850         2.4050
         2859.0          8.075         79.112        343.000         2.2172          2.761         7.2002         8.6761        0.17938        0.18567         2.4201
         2859.5          8.075         78.599        343.000         2.3077          2.801         7.8184         9.0748        0.18147        0.17948         2.4212
         2860.0          8.075         75.917        343.000         2.3077          2.837         7.8473         9.2411        0.17825        0.18310         2.4244
         2860.5          8.075         73.057        343.000         2.3199          2.664         8.1176         9.3254        0.17031        0.19428         2.4364
         2861.0          8.075         72.454        343.000         2.4001          2.394         7.7773         9.0916        0.16276        0.17427         2.4485
         2861.5          8.095         74.021        343.000         2.4458          2.302         7.1099         8.5316        0.15774        0.17076         2.4569
         2862.0          8.059         73.361        343.000         2.4458          2.375         7.0967         8.4387        0.15562        0.16778         2.4596
         2862.5          8.055         72.063        343.000         2.4830          2.724         7.4988         9.1160        0.15527        0.17331         2.4609
         2863.0          8.055         71.279        343.000         2.5247          3.496         8.3560        10.6198        0.15290        0.17570         2.4656
         2863.5          8.075         69.356        343.000         2.5247          5.477         9.7375        12.3966        0.14434        0.17272         2.4791
         2864.0          8.095         67.755        343.000         2.5659          8.038        11.4093        13.8457        0.13452        0.16749         2.4957
         2864.5          8.095         69.345        343.000         2.6658          9.158        12.7208        15.6567        0.12653        0.17504         2.5065
         2865.0          8.095         73.396        343.000         2.7022          8.884        13.3699        16.3774        0.12843        0.20964         2.5023
         2865.5          8.095         80.534        343.000         2.6372          8.798        12.6530        17.0464        0.13444        0.22042         2.4937
         2866.0          8.036         83.812        343.000         2.5838          8.147        12.1940        14.3599        0.13029        0.16928         2.4998
         2866.5          8.036         78.549        343.000         2.5838          7.178        11.7517        13.6803        0.12950        0.16021         2.4999
         2867.0          8.036         68.079        343.000         2.6036          6.748        10.9213        12.8611        0.13649        0.16048         2.4903
         2867.5          8.036         66.395        343.000         2.6233          6.725        10.5251        12.1894        0.13748        0.15941         2.4887
         2868.0          8.049         75.429        343.000         2.6233          6.603        10.3053        11.8095        0.14123        0.16179         2.4828
