# Exported from Transform Software 5.2.0 on 21-Oct-2019 by user kathryn.gehrke
# DI Transform - A Product of Drillinginfo, Inc. - www.drillinginfo.com
#
~VERSION INFORMATION
 VERS.        2.0 : LAS ASCII STANDARD - VERSION 2.0
 WRAP.         NO : ONE LINE PER DEPTH STEP

~WELL INFORMATION
#MNEM.UNIT       DATA TYPE       INFORMATION
#---------       ---------       -----------
 STRT.ft                  30 : Start Depth
 STOP.ft                9000 : Stop Depth
 STEP.ft                 0.5 : Step Length
 NULL.               -999.25 : Null Value
 COMP.                       : Company
 WELL.  42109330470000_API14 : Well Name
 FLD.                        : Field Name
 LOC.                        : Well Location
 CNTY.                       : County
 STAT.                       : State or Province
 CTRY.                       : Country
 SRVC.                       : Service Company
 DATE.                       : Date
 API.         42109330470000 : Well Identifier

~CURVE INFORMATION
#MNEM.UNIT       API CODE       CURVE DESCRIPTION
#---------       --------       -----------------
 DEPT.ft        : <Measured Depth>
 DT.us/ft       : Sonic
 GR.gAPI        : Gamma Ray

~PARAMETER INFORMATION
#MNEM.UNIT       VALUE       DESCRIPTION
#---------       -----       -----------
 EKB.ft      3201 : Elevation above MSL

~A      DEPT          DT          GR
# ...
        4153    333.0175     57.0394
      4153.5    333.0175     59.0562
        4154    333.0175     64.7048
      4154.5    333.0175     64.1145
        4155    333.0175     60.8631
      4155.5    333.0175      56.512
        4156    333.0175     54.2628
      4156.5    333.0175     50.9945
        4157    333.0175      50.407
      4157.5    333.0175     60.8543
        4158    333.0175     75.2739
      4158.5    333.0175     86.8934
        4159    333.0175     88.0035
      4159.5    333.0175     75.5093
        4160    333.0175     56.6503
      4160.5    333.0175     44.9772
        4161    333.0175     42.1767
      4161.5    333.0175     41.7688
        4162    333.0175     42.5569
      4162.5    333.0175     41.7952
        4163    333.0175     39.9299
      4163.5    333.0175     43.8321
        4164    333.0175     48.8616
      4164.5    333.0175     41.5803
        4165    333.0175     35.2014
      4165.5    333.0175     43.0226
        4166    333.0175     52.5159
      4166.5    333.0175     54.3667
        4167    333.0175     57.3653
      4167.5    333.0175      66.144
        4168    333.0175     74.3214
      4168.5    333.0175     73.0726
        4169    333.0175     65.8371
      4169.5    333.0175     66.9568
        4170    333.0175     72.4842
      4170.5    333.0175     71.2008
        4171    333.0175     74.0224
      4171.5    333.0175     86.8958
        4172    333.0175     92.2438
      4172.5    333.0175     78.8908
        4173    333.0175     62.3124
      4173.5    333.0175     56.9879
        4174    333.0175     68.2335
      4174.5    333.0175     75.6733
        4175    333.0175     67.4221
      4175.5    333.0175     63.0394
        4176    333.0175     66.1844
      4176.5    333.0175     66.4698
        4177    333.0175     59.5226
      4177.5    333.0175     55.9545
        4178    333.0175     59.0932
      4178.5    333.0175     60.1775
        4179    333.0175     48.6503
      4179.5    333.0175     40.4616
        4180    333.0175     43.0583
      4180.5    333.0175     45.9836
        4181    333.0175     39.8154
      4181.5    333.0175     36.7776
        4182    333.0175     42.3893
      4182.5    333.0175     54.6111
        4183    333.0175      65.402
      4183.5    333.0175     62.5356
        4184    333.0175     56.6243
      4184.5    333.0175     50.1876
        4185    333.0175     45.4466
      4185.5    333.0175     53.3088
        4186    333.0175     65.9157
      4186.5    333.0175     71.1842
        4187    333.0175     83.6283
      4187.5    333.0175    106.8796
        4188    333.0175     120.433
      4188.5    333.0175    124.2582
        4189    333.0175    116.9141
      4189.5    333.0175    110.3327
        4190    333.0175    111.3835
      4190.5    333.0175     96.4319
        4191    333.0175     65.9638
      4191.5    333.0175     45.4543
        4192    333.0175     40.0624
      4192.5    333.0175       38.88
        4193    333.0175     36.7776
      4193.5    333.0175      41.767
        4194    333.0175     49.5176
      4194.5    333.0175     50.4378
        4195    333.0175      49.387
      4195.5    333.0175     49.9124
        4196    333.0175     51.4897
      4196.5    333.0175     57.0075
        4197    333.0175     59.6303
      4197.5    333.0175     57.0053
        4198    333.0175     60.2931
      4198.5    333.0175     59.8886
        4199    333.0175     50.3011
      4199.5    333.0175      49.391
        4200    333.0175     53.5946
      4200.5    333.0175     55.9569
        4201    333.0175     57.3967
      4201.5    333.0175     50.9492
        4202    333.0175     39.7835
      4202.5    333.0175     35.9895
        4203    333.0175     41.5198
      4203.5    333.0175     47.2927
        4204    333.0175     47.6757
      4204.5    333.0175     47.5522
        4205    333.0175     52.5564
      4205.5    333.0175     59.6456
        4206    333.0175     58.1641
      4206.5    333.0175     49.9027
        4207    333.0175     49.5336
      4207.5    333.0175     57.0263
        4208    333.0175     61.7338
      4208.5    333.0175     61.4711
        4209    333.0175     63.0591
      4209.5    333.0175     66.7372
        4210    333.0175     61.8211
      4210.5    333.0175     48.2972
        4211    333.0175     41.5061
      4211.5    333.0175     48.3846
        4212    333.0175     60.2003
      4212.5    333.0175     66.4697
        4213    333.0175     64.3307
      4213.5    333.0175     55.6608
        4214    333.0175     49.8966
      4214.5    332.6673     50.1833
        4215    332.6673     54.6744
      4215.5    332.6673     63.3527
        4216    332.6673     71.7338
      4216.5    332.6673     70.9103
        4217    332.6673     66.9694
      4217.5    332.6673     63.8166
        4218    332.6673     57.6141
      4218.5    332.6673     49.6302
        4219    332.6673     47.2855
      4219.5    332.6673     48.6091
        4220    332.6673     55.5122
      4220.5    332.6673     74.4387
        4221    332.6673     98.6627
      4221.5    332.6673     120.655
        4222    332.6673    130.8007
      4222.5    332.6673    113.0625
        4223    332.6673     84.6884
      4223.5    332.6673     72.4807
        4224    332.6673     67.7277
      4224.5    332.6673     57.9581
        4225    332.6673     45.5157
      4225.5    332.6673     40.1926
        4226    332.6673     40.7438
      4226.5    332.6673     48.4277
        4227    332.6673     63.7969
      4227.5    332.6673     73.8448
        4228    332.6673      77.668
      4228.5    332.6673     83.5654
        4229    332.6673     77.9083
      4229.5    332.6673     62.9758
        4230    332.6673     57.6475
      4230.5    332.6673      57.808
        4231    332.6673     65.0054
      4231.5    332.6673     84.2595
        4232    332.8424    114.1089
      4232.5    332.8424    131.1169
        4233    332.8424    119.7167
      4233.5    332.8424     94.4116
        4234    332.8424     73.4261
      4234.5    332.8424     67.8085
        4235    332.8424     83.7693
      4235.5    332.8424    104.3745
        4236    332.8424    109.8878
      4236.5    332.8424     98.3741
        4237    332.8424     86.3579
      4237.5    332.8424      85.149
        4238    332.8424     93.5132
      4238.5    332.8424    107.8317
        4239    332.8424    128.7539
      4239.5    332.8424    132.8511
        4240    332.8424    123.3932
      4240.5    332.8424    119.2456
        4241    332.8424    116.8622
      4241.5    332.8424    110.5186
        4242    332.8424    104.2519
      4242.5    332.8424    104.0476
        4243    332.8424    104.0999
      4243.5    332.8424     99.2594
        4244    332.8424    101.3304
      4244.5    332.8424    104.8161
        4245    332.8424    105.4935
      4245.5    332.8424    110.3953
        4246    332.8424    113.3327
      4246.5    332.8424    106.5487
        4247    332.8424     90.5686
      4247.5    332.8424     78.7658
        4248    332.8424     89.0104
      4248.5    332.8424    119.3551
        4249    332.8424    142.4956
      4249.5    332.8424    148.6415
        4250    332.8424     144.438
      4250.5    332.8424    139.1378
        4251    332.8424    130.5142
      4251.5    332.8424    131.9672
        4252    332.8424    140.8526
      4252.5    332.8424     136.794
        4253    332.8424    131.7665
      4253.5    332.8424    134.5009
        4254    332.8424    117.2502
      4254.5    332.8424     85.5829
        4255    332.8424     61.3797
      4255.5    332.8424     54.0906
        4256    332.8424     52.3829
      4256.5    332.8424     52.0647
        4257    332.8424     63.6714
      4257.5    332.8424     74.3948
        4258    332.8424     65.6772
      4258.5    332.8424     51.6466
        4259    332.8424     48.8616
      4259.5    332.8424     50.2283
        4260    332.8424     56.3244
      4260.5    332.8424     62.8386
        4261    332.8424     65.8328
