###############################################
##         ENVERUS                           ##
##         ESS - Open Hole                   ##
##         PERMIAN / DELAWARE                ##
##         Nov 02 2023  V4.0                 ##
##         42-109-31391-00-00                ##
###############################################
## Copyright 2017-2023  ENVERUS.  All Rights Reserved. 
## Confidential - Property of ENVERUS, use governed by terms and 
## conditions found within the existing Information Services Subscription Agreement 
## (as may be amended, the “ISSA”) between Customer and ENVERUS. 
## 
~VERSION INFORMATION
# MNEM.UNIT                               DATA : DESCRIPTION OF MNEMONIC
#-----.-----     ----------------------------- : -----------------------------
VERS.                                     2.00 : CWLS LOG ASCII STANDARD - VERSION 2.00
WRAP.                                       NO : MULTIPLE LINES PER DEPTH STEP
VEND.                                  ENVERUS : VENDOR
TYPE.                          ESS - OPEN HOLE : ENVERUS ESSENTIAL CURVES – ACCESSIBLE THROUGH ENVERUS PRISM(TM)
DOC.                                  31999167 : ENVERUS HEADER RAW DOCUMENT ID
#___________________________________________________________________________________________________ 
~WELL INFORMATION 
# BOC9FSWoKCUsCFcWObZ1iTDYvHtSUwfaSl9bEava01AYiR20s/sWwY1hBaxvFz+VJj0aOQNxXrzxY9t5EPBGbg== 
# MNEM.UNIT                                              DATA : DESCRIPTION OF MNEMONIC 
#-----.-----                    ----------------------------- : ----------------------------- 
CNTY.                                               CULBERSON : COUNTY 
STATE.                                                  TEXAS : STATE 
CNTRY.                                                    USA : COUNTRY 
API.                                             42-109-31391 : API (10 Digit) 
API_14.                                    42-109-31391-00-00 : API (14 Digits) 
API_14_std.                                 42-109-31391-0000 : API (14 Digits Standard) 
UWI.                                           42109313910000 : UNIQUE WELL ID 
WELL.                                            TRES ALAS  1 : WELL NAME
STRT.FT                                                     0 : START DEPTH
STOP.FT                                               15494.0 : STOP DEPTH
STEP.FT                                                   0.5 : STEP BETWEEN DEPTHS
NULL.                                                 -999.25 : NULL VALUE
COMP.                           AMERICAN QUASAR PETROLEUM CO. : COMPANY
#___________________________________________________________________________________________________ 
~CURVE INFORMATION 
# MNEM.UNIT           : CURVE DESCRIPTION 
#-----.-----          : ----------------------------- 
 DEPT.FT               : MEASURED DEPTH 
 CALI.IN               : CALIPER (CAL - CAL) 
 GR.API                : GAMMA RAY (GR) 
 DT.US/FT              : SONIC DELTA TRANSIT TIME (DT) 
 #___________________________________________________________________________________________________ 
~A         DEPT           CALI             GR             DT
# ...
        13728.0          7.756         53.511         60.937
        13728.5          7.759         50.261         60.717
        13729.0          7.763         48.303         60.496
        13729.5          7.766         51.370         60.229
        13730.0          7.770         54.438         59.713
        13730.5          7.773         54.732         59.520
        13731.0          7.777         53.393         59.974
        13731.5          7.780         52.054         62.504
        13732.0          7.784         50.715         62.962
        13732.5          7.788         50.563         63.743
        13733.0          7.791         51.872         65.118
        13733.5          7.795         56.119         66.493
        13734.0          7.798         60.367         65.955
        13734.5          7.802         64.615         63.695
        13735.0          7.805         65.874         62.017
        13735.5          7.809         63.804         62.277
        13736.0          7.815         58.832         65.665
        13736.5          7.860         53.860         69.052
        13737.0          7.905         48.887         72.439
        13737.5          7.949         51.065         75.812
        13738.0          7.994         53.694         79.170
        13738.5          8.039         59.732         79.688
        13739.0          8.084         65.993         79.521
        13739.5          8.389         72.254         79.354
        13740.0          8.454         77.270         80.317
        13740.5          8.392         77.446         81.531
        13741.0          8.262         76.826         81.684
        13741.5          8.004         73.659         81.393
        13742.0          7.869         77.165         81.101
        13742.5          7.968         80.672         82.562
        13743.0          8.066         80.767         84.979
        13743.5          7.885         77.358         85.247
        13744.0          7.884         73.950         80.920
        13744.5          7.883         73.987         76.982
        13745.0          7.882         74.269         78.223
        13745.5          8.096         72.801         79.715
        13746.0          8.314         68.298         78.397
        13746.5          8.531         64.256         76.679
        13747.0          8.749         64.710         76.539
        13747.5          8.902         65.164         76.399
        13748.0          8.572         65.618         79.534
        13748.5          8.242         66.072         82.788
        13749.0          7.912         68.000         84.273
        13749.5          7.790         71.918         85.270
        13750.0          7.799         71.502         85.463
        13750.5          7.807         71.085         82.644
        13751.0          7.816         70.668         79.824
        13751.5          7.825         70.252         76.100
        13752.0          7.833         69.835         70.608
        13752.5          7.842         69.419         70.009
        13753.0          7.866         67.035         71.862
        13753.5          7.935         64.221         73.715
        13754.0          8.005         62.980         75.328
        13754.5          8.038         66.268         76.747
        13755.0          7.952         69.556         78.148
        13755.5          7.866         72.844         79.526
        13756.0          7.780         78.380         81.395
        13756.5          7.773         84.400         80.437
        13757.0          7.775         90.421         74.221
        13757.5          7.777         92.815         68.005
        13758.0          7.779         89.258         62.234
        13758.5          7.781         85.700         63.392
        13759.0          7.783         76.448         64.848
        13759.5          7.785         67.630         66.702
        13760.0          7.787         70.391         67.715
        13760.5          7.789         73.153         67.687
        13761.0          7.791         74.824         64.426
        13761.5          7.793         73.485         55.384
        13762.0          7.794         72.146         54.331
        13762.5          7.794         70.807         53.278
        13763.0          7.794         61.600         52.225
        13763.5          7.794         46.276         54.424
        13764.0          7.794         35.622         59.269
        13764.5          7.793         35.021         63.922
        13765.0          7.793         34.419         65.603
        13765.5          7.793         41.837         65.466
        13766.0          7.793         51.902         62.655
        13766.5          7.793         61.967         61.720
        13767.0          7.793         71.988         61.843
        13767.5          7.792         66.784         63.851
        13768.0          7.792         61.581         66.352
        13768.5          7.792         57.409         66.712
        13769.0          7.792         58.499         55.729
        13769.5          7.792         70.693         47.368
        13770.0          7.792         70.603         47.959
        13770.5          7.791         66.432         48.550
        13771.0          7.791         59.732         49.141
        13771.5          7.791         51.288         52.876
        13772.0          7.791         42.844         56.868
        13772.5          7.791         34.400         61.168
        13773.0          7.791         33.870         65.817
        13773.5          7.790         34.046         70.466
        13774.0          7.790         47.647         75.115
        13774.5          7.790         61.412         78.451
        13775.0          7.790         70.724         77.067
        13775.5          7.790         80.035         77.934
        13776.0          7.790         82.437         79.878
        13776.5          7.789         79.990         80.708
        13777.0          7.789         77.543         78.989
        13777.5          7.789         76.889         71.090
        13778.0          7.789         84.755         54.806
        13778.5          7.789         86.810         53.377
        13779.0          7.789         81.692         52.606
        13779.5          7.788         72.946         51.727
        13780.0          7.788         62.963         49.304
        13780.5          7.788         54.459         47.747
        13781.0          7.788         51.623         48.325
        13781.5          7.788         48.787         48.902
        13782.0          7.788         37.869         49.479
        13782.5          7.787         26.366         49.970
        13783.0          7.787         22.794         50.289
        13783.5          7.787         19.553         50.324
        13784.0          7.793         19.126         49.525
        13784.5          7.798         18.783         48.727
        13785.0          7.804         16.987         49.503
        13785.5          7.810         14.539         49.785
        13786.0          7.815         14.676         49.074
        13786.5          7.821         14.853         48.362
        13787.0          7.826         20.688         47.645
        13787.5          7.832         22.185         46.920
        13788.0          7.837         22.272         46.195
        13788.5          7.843         18.473         53.121
        13789.0          7.849         14.674         61.099
        13789.5          7.854         10.875         67.339
        13790.0          7.860          9.961         69.591
        13790.5          7.865         12.778         69.779
        13791.0          7.871         29.619         69.967
        13791.5          7.877         58.459         72.986
        13792.0          7.878         67.405         71.513
        13792.5          7.877         76.351         70.040
        13793.0          7.877         85.298         69.562
        13793.5          7.876         88.361         67.601
