# Exported from Transform Software 5.2.0 on 27-Jun-2019 by user brian.umlang
# DI Transform - A Product of Drillinginfo, Inc. - www.drillinginfo.com
#
~VERSION INFORMATION
 VERS.        2.0 : LAS ASCII STANDARD - VERSION 2.0
 WRAP.         NO : ONE LINE PER DEPTH STEP

~WELL INFORMATION
#MNEM.UNIT       DATA TYPE       INFORMATION
#---------       ---------       -----------
 STRT.ft                   0 : Start Depth
 STOP.ft               12430 : Stop Depth
 STEP.ft                 0.5 : Step Length
 NULL.               -999.25 : Null Value
 COMP.                       : Company
 WELL.  42109313590000_API14 : Well Name
 FLD.                        : Field Name
 LOC.                        : Well Location
 CNTY.                       : County
 STAT.                       : State or Province
 CTRY.                       : Country
 SRVC.                       : Service Company
 DATE.                       : Date
 API.         42109313590000 : Well Identifier

~CURVE INFORMATION
#MNEM.UNIT       API CODE       CURVE DESCRIPTION
#---------       --------       -----------------
 DEPT.ft          : <Measured Depth>
 CAL.in           : Caliper
 DPHI.%           : Density Porosity
 DT.us/ft         : Sonic
 GR.gAPI          : Gamma Ray
 ILD.ohmm         : Deep Resistivity
 ILM.ohmm         : Medium Resistivity
 ILS.ohmm         : Shallow Resistivity
 NPHI.%           : Neutron Porosity
 RHOB.g/cm3       : Density
 SP.mV            : Spontaneous Potential

~PARAMETER INFORMATION
#MNEM.UNIT       VALUE       DESCRIPTION
#---------       -----       -----------
 EKB.ft      3771 : Elevation above MSL

~A      DEPT         CAL        DPHI          DT          GR         ILD         ILM         ILS        NPHI        RHOB          SP
# ...
      7960.5     14.1256     16.3355      53.487     16.4275     23.8237     17.9545     32.0714     29.8235      2.6625    -73.4877
        7961     14.1232     18.3947     55.4991     16.5834     24.3415     17.9545     29.1971      29.827      2.6393    -73.1361
      7961.5     14.1208     21.7543     59.1219     22.2306     24.8705     17.9545     24.6876      29.827      2.6187    -73.1361
        7962     14.1184     22.7507     64.7064     27.2815      25.411     17.9545     20.8743      29.827       2.601    -73.1361
      7962.5      14.116     25.4306     67.2921     32.3324     25.8919     17.3692     19.1473      29.827      2.5815    -73.1361
        7963     14.1136      26.487     69.6161     37.3833     22.9903      16.421     18.9468      29.827      2.5707    -73.1361
      7963.5     14.1124     27.3288     71.9551     42.4342     17.1713     15.2834     18.7484      29.827      2.5524    -73.1361
        7964     14.1124     27.9412     72.2637     47.4851     16.4485     14.0814     17.8196      29.827      2.5414    -73.1361
      7964.5     14.1124     28.7136     71.4052      52.536     14.9326     13.2812     17.1657      29.827      2.5355    -73.3693
        7965     14.1264     28.2563     71.1958     57.5869     14.3624     13.2812     16.7007      29.827      2.5396     -74.423
      7965.5     14.1516     27.8492     71.0595     62.6378      14.195     13.0201     16.2483      29.827      2.5555    -75.4766
        7966     14.1767     27.7569     71.8893     67.6887     14.0295     12.9516     15.8081      29.827      2.5468    -76.5303
      7966.5     14.1841      27.035     72.9473     72.7396     13.8659     12.6281     15.3219      29.827      2.5485    -77.5839
        7967     14.1804     26.4585     71.0595     77.8013     14.2731     13.1408     14.7288      29.827      2.5688    -77.8698
      7967.5     14.1766     24.3046     68.6481       76.75     15.4627      13.602     24.2516      29.827      2.5751    -77.8698
        7968     14.1729      23.638     66.2159     61.4289     17.2172     14.0794     47.5791      29.827      2.5764    -77.8698
      7968.5     14.1692     25.0126     65.9714     47.2853     19.1715      16.179     68.3818      29.827      2.5929    -77.8698
        7969     14.1654     27.0878     67.5298     43.2446     21.3478     19.2662     61.4246      29.827       2.565    -77.8698
      7969.5     14.1617     28.9405     67.2452     37.1437     23.7709     21.0792     52.0943      29.827      2.5564    -77.8698
        7970      14.158     29.2016     67.2452     30.2867     24.7844     22.1361     44.1806      29.827      2.5473    -77.8306
      7970.5     14.1542     27.4538     68.1548     32.7804     25.0316     22.6441     37.4686      29.827      2.5605    -77.3818
        7971     14.1505     27.2875     69.1401      38.486     25.4231     23.4726      32.968      29.827      2.5333    -76.9331
      7971.5     14.1468      28.004     69.6065     42.3332     26.7693     26.3109     31.2774      29.827      2.5295    -76.4843
        7972      14.143     28.2614     68.6157     43.1189     28.1868     20.7147     29.6734      29.827      2.5249    -76.0355
      7972.5     14.1393     29.0419     70.0774     43.9046     27.8642     20.0122     29.2339      29.827      2.5435    -75.5867
        7973     14.1356     29.0419     73.2209     44.6903     21.6955     15.7874     28.8172      29.827      2.5435    -75.2436
      7973.5     14.1318     29.3837     74.3997     45.7472     21.4029     15.3853     28.4349      29.827      2.5401    -74.9247
        7974     14.1281     29.6312     74.1178     46.9258     21.1142     14.9934     28.0632      29.827      2.5095    -74.6059
      7974.5     14.1243     29.1318     73.7841     45.9065     20.8294     14.6115     25.2978      29.827      2.5131    -74.3195
        7975     14.1206     23.2255     75.0022     40.5638     21.2159     14.2393     23.8921      29.827      2.5632    -74.3195
      7975.5     14.1169      22.033      77.114      35.221     21.9225     19.5229     52.0484      29.827      2.5927    -74.3195
        7976     14.1131     22.0172     76.4912     33.3994     22.2223     19.6871     81.7589      29.827       2.607    -81.2812
      7976.5     14.1124       24.11     76.5282     36.9669     22.5261     19.6871     90.0126      29.827      2.5908    -80.4734
        7977     14.1124     26.1124     77.0777     40.5344      22.787     19.8527     40.9178      29.827      2.5771    -79.6656
      7977.5     14.1124     27.2305     73.5229     44.1019     21.1354     19.4647     25.5589      29.827      2.5665    -79.0533
        7978     14.1124      27.525     66.0903     47.6694     19.6033     17.7516     24.1326      29.827      2.5431    -78.3555
      7978.5     14.1124     28.9168     65.9348     51.2369     18.1823     16.7729      22.731      29.827      2.5335    -76.6939
        7979     14.1124     27.3745     65.9738     54.8043     16.8643     15.1356     21.2834      29.827      2.5482     -75.503
      7979.5     14.1124     26.2709     68.5145      58.204     15.6201     14.6853      19.928      29.827      2.5647     -75.503
        7980     14.1124     26.1522      74.102     60.5611     14.4279     14.6853     16.3945      29.827      2.5604     -75.503
      7980.5     14.1124     29.1445     75.4952     63.2844     13.3266     14.6853     15.7598      29.827      2.5499     -75.503
        7981     14.1124     29.0416     75.4308     66.2843     13.4151     14.6853     15.6418      29.827       2.513     -75.503
      7981.5     14.1124     28.6345     74.4175     66.3895     13.8204     14.9578     15.8581      29.827      2.5095    -75.5239
        7982     14.1124      28.483     71.3732     62.3686      14.636     14.9333     16.0773      29.827      2.5185    -76.0747
      7982.5     14.1124     27.9002     68.8984     58.3477     15.4998     14.8793     16.2996      29.827      2.5373    -76.6254
        7983     14.1124     26.6947     65.8372     54.3267     16.4144     15.0028     16.8591      29.827      2.5573    -77.1762
      7983.5     14.1124     25.6272     64.1451     50.3058      17.183     15.1856     24.6088      29.827      2.5734     -77.727
        7984     14.1124     27.2847     66.5977     46.2849     17.7983     15.1856     51.7786      29.827      2.5634    -78.9917
      7984.5     14.1124     29.0382     70.9825      42.264     18.4356     15.1856      30.588      29.827       2.507    -79.1611
        7985     14.1124     29.6642     74.7833     38.7295     19.0957      17.363     17.1368      29.827       2.411    -79.7669
      7985.5     14.1124     29.9202     75.8426     36.0873      20.108      17.363     16.2574      29.827      2.4066    -80.3728
        7986     14.1124     29.7611     72.5641     34.6731     22.4098      17.363     28.2661      29.827      2.4892    -80.9787
      7986.5     14.1124     28.3161     66.6779     33.2588     24.9748     18.6867     51.8665      29.827      2.5479    -81.5845
        7987     14.1124     23.5928     60.9506     31.8446     27.8333     19.3601     95.1522      29.827       2.565    -82.1904
      7987.5     14.1124     19.6369     59.1322     30.4303     31.0188     19.3601     135.946      29.827      2.6177    -82.6035
        7988     14.1124     18.9022     58.3952     29.0161     34.5585     25.0463     50.5205      29.827      2.6233    -82.6035
      7988.5     14.1124     18.7748     59.3215     30.3602      37.785     27.4845      51.796      29.827       2.635    -82.6035
        7989     14.1124     20.0569     60.4191     34.6029      37.785      30.943     53.1036      29.827      2.6252    -82.6035
      7989.5     14.1124     21.5158     63.1995     38.8457      29.387     30.9448     54.4444      29.827      2.6125    -82.6035
        7990     14.1124     21.9986     64.3054     43.0884     22.8398     30.9448     24.9176      29.827      2.5974    -82.6035
      7990.5     14.1124     25.0678     67.3672     47.3312     17.7507     24.4581     17.9108      29.827      2.5766    -82.4975
