# Exported from Transform Software 5.2.0 on 30-Oct-2019 by user kathryn.gehrke
# DI Transform - A Product of Drillinginfo, Inc. - www.drillinginfo.com
#
~VERSION INFORMATION
 VERS.        2.0 : LAS ASCII STANDARD - VERSION 2.0
 WRAP.         NO : ONE LINE PER DEPTH STEP

~WELL INFORMATION
#MNEM.UNIT       DATA TYPE       INFORMATION
#---------       ---------       -----------
 STRT.ft                  40 : Start Depth
 STOP.ft                9358 : Stop Depth
 STEP.ft                 0.5 : Step Length
 NULL.               -999.25 : Null Value
 COMP.                       : Company
 WELL.  42109330610000_API14 : Well Name
 FLD.                        : Field Name
 LOC.                        : Well Location
 CNTY.                       : County
 STAT.                       : State or Province
 CTRY.                       : Country
 SRVC.                       : Service Company
 DATE.                       : Date
 API.         42109330610000 : Well Identifier

~CURVE INFORMATION
#MNEM.UNIT       API CODE       CURVE DESCRIPTION
#---------       --------       -----------------
 DEPT.ft        : <Measured Depth>
 DT.us/ft       : Sonic
 GR.gAPI        : Gamma Ray

~PARAMETER INFORMATION
#MNEM.UNIT       VALUE       DESCRIPTION
#---------       -----       -----------
 EKB.ft      3200.5 : Elevation above MSL

~A      DEPT          DT          GR
# ...
        3078    278.4997     35.8317
      3078.5    281.9639     38.9628
        3079    283.3092     42.0056
      3079.5    287.5884     42.5651
        3080    281.4203     40.9603
      3080.5     276.468     39.7532
        3081    262.5691     37.1127
      3081.5    246.6662     37.4364
        3082    236.5307     39.8412
      3082.5    233.0661     42.0055
        3083    233.8677      45.215
      3083.5    233.8677     54.5196
        3084    235.2126     64.2174
      3084.5    236.2725     66.6088
        3085    237.6173     55.6033
      3085.5    238.6774     43.0242
        3086     239.479     34.8654
      3086.5    237.8758     32.8672
        3087    237.0741     34.0696
      3087.5    236.2725     35.4337
        3088    236.2725     39.6835
      3088.5    236.2725     42.8885
        3089    236.2725     40.9564
      3089.5    236.2725     37.6726
        3090    235.4709     38.1577
      3090.5    236.8152     38.8003
        3091    244.4427     37.1918
      3091.5    261.0173     34.5465
        3092    275.8468     34.5504
      3092.5     283.308     35.3507
        3093    280.3486     36.2337
      3093.5    269.1142     37.2745
        3094    251.5968     37.7555
      3094.5    238.9247     38.8827
        3095    235.4709     45.1424
      3095.5    234.6693      55.806
        3096    234.6693     64.3771
      3096.5    234.6693     67.1732
        3097    236.2725     59.8693
      3097.5    237.0741     48.0893
        3098    237.0741     41.5998
      3098.5    237.8758     34.5435
        3099    237.0741     26.6901
      3099.5    236.5323     22.7633
        3100    234.6693     22.8457
      3100.5    233.8677     24.0513
        3101    233.0661     27.2566
      3101.5    233.0661     30.5442
        3102    233.8677     31.2625
      3102.5    233.3261     31.1012
        3103    233.0661     29.7375
      3103.5    238.8288      29.981
        3104    253.1382     30.2214
      3104.5     269.831     30.3798
        3105    280.1005     30.2214
      3105.5    281.9639     32.4678
        3106    281.9639     34.7905
      3106.5    281.9639     35.1895
        3107    278.0758      34.468
      3107.5    269.7893     34.3888
        3108    257.7552      36.635
      3108.5    245.7414     36.8729
        3109    238.1363     33.1838
      3109.5    233.3267     31.5848
        3110    233.8677     34.8722
      3110.5    236.0119     35.1078
        3111    238.6774     29.7355
      3111.5    240.8214     26.7728
        3112    241.8838     27.5783
      3112.5    241.8838     31.2648
        3113    241.8838     33.9895
      3113.5    240.2806     36.3148
        3114    238.1367     38.7196
      3114.5     235.732     39.9198
        3115    233.0661     37.5129
      3115.5    234.6785     32.9438
        3116    245.6488     28.8557
      3116.5    259.6677     28.2992
        3117    260.3117     32.7888
      3117.5     247.207     38.3179
        3118     234.521     39.0375
      3118.5    231.4629     36.8731
        3119    231.4629     37.0341
      3119.5    232.0031     39.6811
        3120    232.8046     43.3679
      3120.5    233.8677     43.2053
        3121    235.2094     37.5118
      3121.5    236.2725     31.8215
        3122    236.5342     32.1448
      3122.5    236.2725     32.9459
        3123    235.4709     33.1067
      3123.5    234.6693     33.8281
        3124    234.1296      35.752
      3124.5     233.328      37.515
        3125    233.0661     35.5899
      3125.5    233.0661      31.903
        3126    233.6057     29.1779
      3126.5    237.6137     28.4565
        3127    248.0422     28.3768
      3127.5    262.7482     29.9005
        3128    275.0267     30.3006
      3128.5    280.0985     31.5839
        3129    281.1623     32.0638
      3129.5    281.1623     30.6209
        3130    281.1623     30.9422
      3130.5    281.1623      32.866
        3131    281.1623     32.9459
      3131.5    281.1623     34.8706
        3132    281.1623     39.0386
      3132.5    281.1623     43.5293
        3133    281.1623     55.3926
      3133.5    278.2186     65.8132
        3134    274.2106     68.1354
      3134.5    269.9332     57.2327
        3135     254.164     46.7322
      3135.5    240.5368     41.9237
        3136    236.2725     42.0042
      3136.5    236.2725      39.278
        3137    238.4144     33.1056
      3137.5    247.7769     33.2671
        3138    262.6126     37.5957
      3138.5    276.8974     38.3165
        3139    281.7008     35.8317
      3139.5    281.4255     35.3507
        3140    281.1623     37.5152
      3140.5    281.1623     41.5232
        3141    281.1623     44.8898
      3141.5    281.7006     45.9319
        3142    281.9639     45.9319
      3142.5    281.4258     49.6191
        3143    275.1391     58.8374
      3143.5    260.9739     67.1742
        3144    243.7396       69.98
      3144.5    233.3297     71.3426
        3145    231.4629     68.6175
      3145.5    232.2645     57.0748
        3146    233.0661     43.2872
      3146.5    233.8677     35.6718
        3147    235.2071     37.0337
      3147.5    236.2725     41.2021
        3148    236.8102     39.7601
      3148.5    237.0741     34.7904
        3149    237.0741     32.7858
      3149.5    239.7525      33.587
        3150    250.1732     34.3084
      3150.5    266.4786     37.7549
        3151    278.8987      42.324
      3151.5    283.5671     42.7259
        3152    283.5671     40.5616
      3152.5    280.3564     41.2019
        3153    267.5222     42.0842
      3153.5    250.4201     40.4017
        3154    239.7434     38.9579
      3154.5    237.6113      37.675
        3155    240.2806      37.996
      3155.5    241.8838     36.5542
        3156    241.8838     32.7065
      3156.5    241.8838      30.861
        3157    241.8838      34.948
      3157.5    240.2806     41.6008
        3158    238.6774     47.6946
      3158.5    236.5374     47.4553
        3159    236.2725     45.5315
      3159.5    235.4709     46.0917
        3160    234.6693     46.9744
      3160.5    233.8677     45.9319
        3161    233.0661     48.7355
      3161.5    233.0661     58.3532
        3162    237.3455     71.4197
      3162.5    250.4454     79.6767
        3163    269.4154     77.9175
      3163.5    279.2939     69.5847
        3164    283.3018     59.4881
      3164.5    283.5671     51.7859
        3165    283.5671     44.5715
      3165.5    282.7655     39.1195
        3166    282.7655     37.0341
      3166.5    278.0861     36.3934
        3167    266.7285     35.1102
      3167.5    248.6902     36.0702
        3168    235.7342     38.3961
      3168.5    233.0661     38.3982
        3169    235.4709     35.5124
      3169.5    236.8084      34.708
        3170    237.0741     37.0319
      3170.5    236.2725       40.72
        3171    236.2725     43.4461
      3171.5    235.7369     43.3675
        3172    235.4709     39.1198
      3172.5    234.6693     37.2745
        3173    235.4709     37.4341
      3173.5    237.0741      39.196
        3174    238.6774     41.0413
      3174.5    238.6774     43.6865
        3175    238.6774     44.0106
      3175.5    238.6774     40.4034
        3176    238.6774     38.7174
      3176.5    237.3405     45.2834
        3177    237.0741     60.4336
      3177.5    237.6093     74.3004
        3178    237.8758     83.6846
      3178.5    237.8758     84.4088
        3179    237.0741     80.3235
      3179.5    235.4709     71.9183
        3180    235.4709     55.5629
      3180.5    235.4709     44.9759
        3181    235.4709     40.9629
      3181.5    235.4709     40.4008
        3182    235.4709      40.963
      3182.5    234.1346     40.6413
        3183    233.0661     39.9198
      3183.5     235.204     41.9217
        3184    245.4918     42.2467
      3184.5    260.5885     39.7606
        3185    275.2841     40.3162
      3185.5    281.6968      42.643
        3186    283.5671     43.8488
