~Version Information
 VERS.                  2.0:   CWLS log ASCII Standard -VERSION 2.0
 WRAP.                   NO:   One line per depth step
~Well Information Block
#MNEM.UNIT     VALUE/NAME     DESCRIPTION
#---------     -----------    ---------------------------
 STRT.F              8400.0000: START DEPTH
 STOP.F             14130.0000: STOP DEPTH
 STEP.F                 0.5000: STEP DEPTH
 NULL.                 -999.25: NULL VALUE
 LOC .            42-109-33596:  LOCATION
 FL1 .            42-109-33596:  LOCATIONLINE1
 PROV.                      TX:  PROVINCE
 STAT.                      TX:  STATE NAME
 CNTY.               CULBERSON:  COUNTY NAME
 FLD .              WOLFCAMP B:  FIELD NAME
 WELL.           DALE STATE 5H:  WELL NAME
 COMP.     CAPITAN ENERGY INC.:  COMPANY
 DMF .             Drill Floor:  DRILL MEAS FROM
 PDAT.                      GL:  PERMANENT DATUM
 DATE.             11-Feb-2020:  DATE
 SVCO.             Halliburton:  SERVICECONAME
 HIDE.                        :  WELLNAMEOPERAT
 BASI.                 PERMIAN:  BASIN
 UWI .            42-109-33596:  UNIQUE WELL IDENTIFIER
 API .            42-109-33596:  API NUMBER
 RANG.                     N/A:  RANGE
 TOWN.                     N/A:  TOWNSHIP
 SECT.                     N/A:  SECTION
 SON .               906289953:  JOB NUMBER
 CTRY.                        :  COUNTRY
 SRVC.             Halliburton:  SERVICE COMPANY
 LMF .             Drill Floor:  LOG MEASURED FROM
 TVDS.ft             3291.0000:  TVDSS CORRECTN
 EGL .ft             3266.0000:  GROUND ELEVATION
 APD .ft               25.0000:  DEPTH ABOVE PD
 EPD .ft             3266.0000:  ELEVATION
 BAP .ft                0.0000:  GL ELEV ONSHORE
 GVFD.g                 1.0000:  GRAVITY FIELD
 EKB .ft             3291.0000:  KB ELEVATION
 EDF .ft             3291.0000:  DF ELEVATION
~Curve Information Block
#MNEM.UNIT                 API CODE     Curve Description
#---------               -----------    ---------------------------
 DEPT.F                 00 000 000 000:  Depth
 CCL .V                 00 000 000 000:  Casing Collar Locator
 NPHI_OH.pu             00 000 000 000:  NPHI_OH
 NPHI_CHI.decp          00 000 000 000:  NPHI_CHI
 GR_OH.api              00 000 000 000:  GR_OH
 GR_CHI.api             00 000 000 000:  GR_CHI
 RHOB_OH.g/cc           00 000 000 000:  RHOB_OH
 RHOB_CHI.g/cc          00 000 000 000:  RHOB_CHI
 PE_OH.NONE             00 000 000 000:  PE_OH
 PE_CHI.NONE            00 000 000 000:  PE_CHI
 LLS_CHI.ohmm           00 000 000 000:  LLS_CHI
 LLS_OH.ohmm            00 000 000 000:  LLS_OH
 LLD_OH.ohmm            00 000 000 000:  LLD_OH
 LLD_CHI.ohmm           00 000 000 000:  LLD_CHI
 DTC_OH.uspf            00 000 000 000:  DTC_OH
 DTC_CHI.uspf           00 000 000 000:  DTC_CHI
 SPHW_CHI.decp          00 000 000 000:  SPHW_CHI
#Other Information
#
#WARRANTY: Halliburton will use its best efforts to furnish customers with 
#accurate information and interpretations that are part of, and incident to, the services 
#provided.  However, Halliburton cannot and does not warrant the accuracy 
#or correctness of such information and interpretations.  Under no circumstances should any 
#such information or interpretation be relied upon as the sole basis for any drilling, 
#completion, production, or financial decision or any procedure involving any risk to the 
#safety of any drilling venture, drilling rig or its crew or any other third party.  The 
#Customer has full responsibility for all drilling, completion and production operation.  
#Halliburton makes no representations or warranties, either expressed or 
#implied, including, but not limited to, the implied warranties of merchantability or fitness 
#for a particular purpose, with respect to the services rendered.  In no event will 
#Halliburton be liable for failure to obtain any particular results or for 
#any damages, including, but not limited to, indirect, special or consequential damages, 
#resulting from the use of any information or interpretation provided by Halliburton.
#
~A    DEPT      CCL   NPHI_OH NPHI_CHI  GR_OH    GR_CHI  RHOB_OH RHOB_CHI  PE_OH  PE_CHI LLS_CHI   LLS_OH    LLD_OH    LLD_CHI  DTC_OH  DTC_CHI SPHW_CHI 
# ...
   10679.0000  0.0033 -999.25   0.1362  -999.25 118.0339 -999.25   2.5686 -999.25 3.0575  28.3296   -999.25   -999.25   31.8165 -999.25 73.9311 0.1862
   10679.5000  0.0052 -999.25   0.1376  -999.25 121.0268 -999.25   2.5667 -999.25 3.0646  29.3300   -999.25   -999.25   32.6493 -999.25 74.2898 0.1888
   10680.0000  0.0206 -999.25   0.1350  -999.25 114.5054 -999.25   2.5681 -999.25 3.0391  26.9261   -999.25   -999.25   30.8321 -999.25 73.9046 0.1860
   10680.5000 -0.0105 -999.25   0.1362  -999.25 114.9004 -999.25   2.5671 -999.25 3.0394  26.8181   -999.25   -999.25   31.0888 -999.25 74.1277 0.1876
   10681.0000 -0.0122 -999.25   0.1361  -999.25 113.2402 -999.25   2.5683 -999.25 3.0424  26.4273   -999.25   -999.25   31.0006 -999.25 74.0015 0.1867
   10681.5000  0.0000 -999.25   0.1406  -999.25 121.8453 -999.25   2.5656 -999.25 3.0659  28.6669   -999.25   -999.25   32.9123 -999.25 74.6707 0.1914
   10682.0000 -0.0075 -999.25   0.1383  -999.25 115.6451 -999.25   2.5676 -999.25 3.0583  27.3473   -999.25   -999.25   32.2174 -999.25 74.2669 0.1886
   10682.5000 -0.0668 -999.25   0.1362  -999.25 111.0074 -999.25   2.5692 -999.25 3.0634  27.3524   -999.25   -999.25   32.8440 -999.25 73.9272 0.1862
   10683.0000 -0.0089 -999.25   0.1383  -999.25 114.7404 -999.25   2.5678 -999.25 3.0956  30.8780   -999.25   -999.25   36.6323 -999.25 74.1574 0.1878
   10683.5000  0.0022 -999.25   0.1415  -999.25 122.3031 -999.25   2.5661 -999.25 3.1327  35.7155   -999.25   -999.25   41.0446 -999.25 74.5504 0.1906
   10684.0000  0.0870 -999.25   0.1335  -999.25 106.5516 -999.25   2.5736 -999.25 3.0994  29.8457   -999.25   -999.25   35.7441 -999.25 73.1699 0.1808
   10684.5000  0.0169 -999.25   0.1355  -999.25 112.8818 -999.25   2.5723 -999.25 3.0917  30.1837   -999.25   -999.25   34.7841 -999.25 73.4006 0.1825
   10685.0000 -0.0045 -999.25   0.1358  -999.25 115.7617 -999.25   2.5713 -999.25 3.0800  29.3746   -999.25   -999.25   33.0785 -999.25 73.6265 0.1841
   10685.5000 -0.0341 -999.25   0.1283  -999.25 100.6847 -999.25   2.5751 -999.25 3.0147  23.0170   -999.25   -999.25   27.3143 -999.25 72.8905 0.1789
   10686.0000  0.0002 -999.25   0.1333  -999.25 110.1262 -999.25   2.5692 -999.25 3.0172  24.4663   -999.25   -999.25   28.3142 -999.25 73.8518 0.1857
   10686.5000 -0.0024 -999.25   0.1348  -999.25 111.9377 -999.25   2.5679 -999.25 3.0290  25.4203   -999.25   -999.25   29.4502 -999.25 74.1202 0.1876
   10687.0000 -0.0343 -999.25   0.1383  -999.25 118.6829 -999.25   2.5670 -999.25 3.0672  28.7282   -999.25   -999.25   32.5753 -999.25 74.4294 0.1897
   10687.5000 -0.0051 -999.25   0.1371  -999.25 116.0622 -999.25   2.5701 -999.25 3.0927  30.4610   -999.25   -999.25   34.6341 -999.25 73.9188 0.1861
   10688.0000 -0.0095 -999.25   0.1349  -999.25 112.1270 -999.25   2.5739 -999.25 3.1030  30.8469   -999.25   -999.25   35.1526 -999.25 73.2416 0.1813
   10688.5000 -0.0004 -999.25   0.1334  -999.25 110.2442 -999.25   2.5756 -999.25 3.0913  29.5416   -999.25   -999.25   33.6337 -999.25 72.9171 0.1790
   10689.0000  0.0251 -999.25   0.1361  -999.25 117.5144 -999.25   2.5737 -999.25 3.1048  31.2613   -999.25   -999.25   34.6833 -999.25 73.3755 0.1823
   10689.5000  0.0078 -999.25   0.1379  -999.25 120.4345 -999.25   2.5712 -999.25 3.0978  30.8665   -999.25   -999.25   34.2813 -999.25 73.8550 0.1857
   10690.0000 -0.0201 -999.25   0.1345  -999.25 110.4959 -999.25   2.5716 -999.25 3.0565  26.8355   -999.25   -999.25   31.3420 -999.25 73.5131 0.1833
   10690.5000  0.0138 -999.25   0.1320  -999.25 103.4963 -999.25   2.5725 -999.25 3.0438  24.6006   -999.25   -999.25   30.0407 -999.25 73.4608 0.1829
   10691.0000 -0.0035 -999.25   0.1315  -999.25 101.4071 -999.25   2.5722 -999.25 3.0481  23.8491   -999.25   -999.25   29.8169 -999.25 73.7230 0.1847
   10691.5000 -0.0085 -999.25   0.1300  -999.25  98.0020 -999.25   2.5738 -999.25 3.0558  22.7348   -999.25   -999.25   29.1181 -999.25 73.7741 0.1851
   10692.0000 -0.0011 -999.25   0.1331  -999.25 102.3247 -999.25   2.5705 -999.25 3.0595  23.7169   -999.25   -999.25   30.1620 -999.25 74.2645 0.1886
   10692.5000  0.0052 -999.25   0.1329  -999.25 101.7839 -999.25   2.5712 -999.25 3.0745  24.5187   -999.25   -999.25   31.1334 -999.25 74.2235 0.1883
   10693.0000 -0.0474 -999.25   0.1342  -999.25 103.8191 -999.25   2.5706 -999.25 3.0817  25.9321   -999.25   -999.25   32.3047 -999.25 74.2243 0.1883
   10693.5000  0.0070 -999.25   0.1313  -999.25  99.5365 -999.25   2.5741 -999.25 3.0953  26.2656   -999.25   -999.25   32.6198 -999.25 73.7483 0.1849
   10694.0000  0.0070 -999.25   0.1309  -999.25  99.2591 -999.25   2.5750 -999.25 3.0909  26.2999   -999.25   -999.25   32.2999 -999.25 73.5303 0.1834
   10694.5000 -0.0146 -999.25   0.1382  -999.25 113.8713 -999.25   2.5681 -999.25 3.1033  30.8074   -999.25   -999.25   35.8610 -999.25 74.4387 0.1898
   10695.0000  0.0266 -999.25   0.1337  -999.25 105.5464 -999.25   2.5720 -999.25 3.0827  27.6389   -999.25   -999.25   32.9737 -999.25 73.7562 0.1850
   10695.5000  0.0121 -999.25   0.1338  -999.25 106.7487 -999.25   2.5722 -999.25 3.0804  27.8142   -999.25   -999.25   32.6510 -999.25 73.7024 0.1846
   10696.0000  0.0265 -999.25   0.1327  -999.25 106.1235 -999.25   2.5733 -999.25 3.0872  28.4907   -999.25   -999.25   32.9496 -999.25 73.5107 0.1832
   10696.5000  0.0458 -999.25   0.1285  -999.25  98.1696 -999.25   2.5774 -999.25 3.0858  26.9432   -999.25   -999.25   31.7654 -999.25 72.9531 0.1793
   10697.0000  0.0145 -999.25   0.1331  -999.25 106.2372 -999.25   2.5735 -999.25 3.1078  30.2278   -999.25   -999.25   34.8628 -999.25 73.5218 0.1833
   10697.5000 -0.0026 -999.25   0.1376  -999.25 113.1136 -999.25   2.5706 -999.25 3.1200  31.8417   -999.25   -999.25   36.4017 -999.25 74.1862 0.1880
   10698.0000 -0.0449 -999.25   0.1377  -999.25 110.6091 -999.25   2.5713 -999.25 3.1032  28.9879   -999.25   -999.25   33.7949 -999.25 74.2536 0.1885
   10698.5000  0.0012 -999.25   0.1437  -999.25 121.8562 -999.25   2.5672 -999.25 3.1213  30.6381   -999.25   -999.25   34.5437 -999.25 75.4421 0.1969
   10699.0000 -0.0199 -999.25   0.1441  -999.25 121.6065 -999.25   2.5672 -999.25 3.1160  29.3045   -999.25   -999.25   32.8847 -999.25 75.6835 0.1986
   10699.5000 -0.0853 -999.25   0.1393  -999.25 110.3004 -999.25   2.5710 -999.25 3.0890  25.9454   -999.25   -999.25   29.8082 -999.25 74.9889 0.1937
   10700.0000 -0.0537 -999.25   0.1380  -999.25 107.0938 -999.25   2.5732 -999.25 3.1065  27.0872   -999.25   -999.25   31.1038 -999.25 74.6969 0.1916
   10700.5000 -0.0904 -999.25   0.1295  -999.25  90.4407 -999.25   2.5825 -999.25 3.1060  24.2418   -999.25   -999.25   29.1709 -999.25 73.4606 0.1829
   10701.0000  0.1161 -999.25   0.1315  -999.25  94.0738 -999.25   2.5816 -999.25 3.1264  27.0239   -999.25   -999.25   32.1289 -999.25 73.4062 0.1825
   10701.5000  0.0016 -999.25   0.1344  -999.25 101.4731 -999.25   2.5790 -999.25 3.1401  30.4849   -999.25   -999.25   35.3242 -999.25 73.4828 0.1830
   10702.0000 -0.0197 -999.25   0.1379  -999.25 112.6904 -999.25   2.5749 -999.25 3.1622  35.2563   -999.25   -999.25   39.1623 -999.25 73.9392 0.1863
   10702.5000 -0.0239 -999.25   0.1349  -999.25 108.9601 -999.25   2.5757 -999.25 3.1498  34.2064   -999.25   -999.25   38.3253 -999.25 73.4700 0.1830
   10703.0000 -0.0005 -999.25   0.1312  -999.25 103.0226 -999.25   2.5766 -999.25 3.1308  31.8094   -999.25   -999.25   36.4391 -999.25 73.0872 0.1802
   10703.5000  0.0123 -999.25   0.1313  -999.25 103.0753 -999.25   2.5753 -999.25 3.1276  31.6159   -999.25   -999.25   36.5920 -999.25 73.2395 0.1813
   10704.0000 -0.0237 -999.25   0.1329  -999.25 105.7665 -999.25   2.5730 -999.25 3.1203  31.5027   -999.25   -999.25   36.5229 -999.25 73.5684 0.1837
   10704.5000  0.0024 -999.25   0.1324  -999.25 103.9476 -999.25   2.5736 -999.25 3.1203  30.8703   -999.25   -999.25   36.2811 -999.25 73.5364 0.1834
   10705.0000 -0.0282 -999.25   0.1323  -999.25 102.9595 -999.25   2.5745 -999.25 3.1237  30.7267   -999.25   -999.25   36.4739 -999.25 73.4062 0.1825
