###############################################
##         ENVERUS                           ##
##         ESS - Open Hole                   ##
##         PERMIAN / DELAWARE                ##
##         Nov 03 2023  V4.0                 ##
##         42-109-32572-90-00                ##
###############################################
## Copyright 2017-2023  ENVERUS.  All Rights Reserved. 
## Confidential - Property of ENVERUS, use governed by terms and 
## conditions found within the existing Information Services Subscription Agreement 
## (as may be amended, the “ISSA”) between Customer and ENVERUS. 
## 
~VERSION INFORMATION
# MNEM.UNIT                               DATA : DESCRIPTION OF MNEMONIC
#-----.-----     ----------------------------- : -----------------------------
VERS.                                     2.00 : CWLS LOG ASCII STANDARD - VERSION 2.00
WRAP.                                       NO : MULTIPLE LINES PER DEPTH STEP
VEND.                                  ENVERUS : VENDOR
TYPE.                          ESS - OPEN HOLE : ENVERUS ESSENTIAL CURVES – ACCESSIBLE THROUGH ENVERUS PRISM(TM)
DOC.                                  51093467 : ENVERUS HEADER RAW DOCUMENT ID
#___________________________________________________________________________________________________ 
~WELL INFORMATION 
# 8gl1O6v4swiPFL4GH+dnL3Th7drW/gNnufiOMC39xBbatiyIUGjWQRxOO2UkOAKZqu0QrDKM70MxnzzovQmAYg== 
# MNEM.UNIT                                              DATA : DESCRIPTION OF MNEMONIC 
#-----.-----                    ----------------------------- : ----------------------------- 
CNTY.                                               CULBERSON : COUNTY 
STATE.                                                  TEXAS : STATE 
CNTRY.                                                    USA : COUNTRY 
API.                                             42-109-32572 : API (10 Digit) 
API_14.                                    42-109-32572-90-00 : API (14 Digits) 
API_14_std.                                 42-109-32572-9000 : API (14 Digits Standard) 
UWI.                                           42109325729000 : UNIQUE WELL ID 
WELL.                               42109325720000_PREV_API14 : WELL NAME
STRT.FT                                                2248.5 : START DEPTH
STOP.FT                                               10757.5 : STOP DEPTH
STEP.FT                                                   0.5 : STEP BETWEEN DEPTHS
NULL.                                                 -999.25 : NULL VALUE
PREV_APII.                                     42109325720000 : WELL IDENTIFIER
#___________________________________________________________________________________________________ 
~PARAMETER INFORMATION 
# MNEM.UNIT                                              DATA : DESCRIPTION OF MNEMONIC 
#-----.-----                    ----------------------------- : ----------------------------- 
EKB.FT                                                   3340 : ELEVATION ABOVE MSL
#___________________________________________________________________________________________________ 
~CURVE INFORMATION 
# MNEM.UNIT           : CURVE DESCRIPTION 
#-----.-----          : ----------------------------- 
 DEPT.FT               : MEASURED DEPTH 
 CALI.IN               : CALIPER (CAL - CALIPER) 
 GR.API                : GAMMA RAY (GAMMA RAY) 
 DT.US/FT              : SONIC DELTA TRANSIT TIME (SONIC) 
 #___________________________________________________________________________________________________ 
~A         DEPT           CALI             GR             DT
# ...
         3370.5         10.481         67.119         87.108
         3371.0         10.481         66.342         86.480
         3371.5         10.481         68.591         88.018
         3372.0         10.481         71.034         84.948
         3372.5         10.481         73.478         80.258
         3373.0         10.481         69.701         78.228
         3373.5         10.481         63.992         85.287
         3374.0         10.481         65.722         86.098
         3374.5         10.501         78.430         83.369
         3375.0         10.501         81.496         82.691
         3375.5         10.501         82.771         79.484
         3376.0         10.501         83.934         79.954
         3376.5         10.483         88.639         80.944
         3377.0         10.463         98.003         78.505
         3377.5         10.365        102.213         76.985
         3378.0         10.305        104.083         75.723
         3378.5         10.286        103.371         75.562
         3379.0         10.286        100.141         76.361
         3379.5         10.304         92.731         78.053
         3380.0         10.305         90.037         78.832
         3380.5         10.305         83.022         79.492
         3381.0         10.325         83.776         79.235
         3381.5         10.325         88.262         78.795
         3382.0         10.325         90.215         78.503
         3382.5         10.325         93.985         78.789
         3383.0         10.325         96.418         78.731
         3383.5         10.325         98.801         77.702
         3384.0         10.344        105.055         77.441
         3384.5         10.344        108.961         76.708
         3385.0         10.364        107.675         76.422
         3385.5         10.403        102.603         76.755
         3386.0         10.439         98.985         77.500
         3386.5         10.481         97.292         77.334
         3387.0         10.481        102.825         76.631
         3387.5         10.501        111.295         75.500
         3388.0         10.537        110.222         76.452
         3388.5         10.615         84.557         83.488
         3389.0         10.693         73.422         86.902
         3389.5         10.791         73.231         86.634
         3390.0         10.810         74.325         85.632
         3390.5         10.892         73.602         80.852
         3391.0         10.951         63.596         80.736
         3391.5         10.971         62.231         83.638
         3392.0         10.986         62.953         84.549
         3392.5         11.025         67.459         86.012
         3393.0         11.088         71.785         84.873
         3393.5         11.127         78.123         84.176
         3394.0         11.147         79.405         83.246
         3394.5         11.186         81.514         81.477
         3395.0         11.225         92.048         79.859
         3395.5         11.225         96.011         81.486
         3396.0         11.225         88.838         83.942
         3396.5         11.225         73.373         85.943
         3397.0         11.225         71.678         86.188
         3397.5         11.225         67.128         83.594
         3398.0         11.211         65.809         83.442
         3398.5         11.152         64.161         87.486
         3399.0         11.067         62.680         86.599
         3399.5         10.940         63.817         85.585
         3400.0         10.840         65.694         84.752
         3400.5         10.683         74.301         83.671
         3401.0         10.638         78.803         82.992
         3401.5         10.599         84.188         81.796
         3402.0         10.566         85.000         80.950
         3402.5         10.521         82.642         78.046
         3403.0         10.468         85.223         77.168
         3403.5         10.410         90.726         76.388
         3404.0         10.390         93.275         75.705
         3404.5         10.344        103.709         74.879
         3405.0         10.344        115.564         73.478
         3405.5         10.344        116.678         72.266
         3406.0         10.344        115.125         72.227
         3406.5         10.344        114.090         72.556
         3407.0         10.384        114.677         73.962
         3407.5         10.423        115.069         74.280
         3408.0         10.435        113.971         74.683
         3408.5         10.493        108.297         76.868
         3409.0         10.521        108.141         77.523
         3409.5         10.532        105.242         77.992
         3410.0         10.560        101.450         78.452
         3410.5         10.618         90.386         79.458
         3411.0         10.649         81.894         79.757
         3411.5         10.669         83.270         80.229
         3412.0         10.677         87.248         80.547
         3412.5         10.677         89.349         79.635
         3413.0         10.677         85.801         78.731
         3413.5         10.677         90.576         78.256
         3414.0         10.677         93.170         77.843
         3414.5         10.677         91.194         77.293
         3415.0         10.677         94.087         77.144
         3415.5         10.677         99.089         77.090
         3416.0         10.677         97.395         77.090
         3416.5         10.677         92.266         77.826
         3417.0         10.677         92.374         78.786
         3417.5         10.677        104.350         76.503
         3418.0         10.677        109.644         75.652
         3418.5         10.677        121.135         74.248
         3419.0         10.697        115.080         75.110
         3419.5         10.765        105.313         78.296
         3420.0         10.824        101.938         79.264
         3420.5         11.004         83.127         86.423
         3421.0         11.146         73.840         87.532
         3421.5         11.254         72.088         89.223
         3422.0         11.371         69.638         89.575
         3422.5         11.449         65.077         88.745
         3423.0         11.488         64.110         87.310
         3423.5         11.558         63.231         84.733
         3424.0         11.566         64.794         82.188
         3424.5         11.597         61.950         81.076
         3425.0         11.616         61.141         81.736
         3425.5         11.683         61.994         84.667
         3426.0         11.723         61.057         85.669
         3426.5         11.801         62.918         86.383
         3427.0         11.812         67.986         85.902
         3427.5         11.812         69.979         85.586
         3428.0         11.812         68.065         86.515
         3428.5         11.812         71.582         88.363
         3429.0         11.812         72.289         88.281
         3429.5         11.812         67.440         88.983
         3430.0         11.773         68.175         88.457
         3430.5         11.661         71.744         85.734
         3431.0         11.472         74.561         81.603
         3431.5         11.296         83.545         78.955
         3432.0         11.119         87.787         75.898
         3432.5         10.983         96.355         77.853
         3433.0         10.892         97.160         78.292
         3433.5         10.912         91.970         81.604
         3434.0         10.918         87.673         82.890
         3434.5         10.997         77.497         86.767
         3435.0         11.055         74.835         87.699
         3435.5         11.133         63.392         88.809
         3436.0         11.192         60.856         89.107
