###############################################
##         ENVERUS                           ##
##         ESS - Open Hole                   ##
##         PERMIAN / DELAWARE                ##
##         Nov 03 2023  V4.0                 ##
##         42-109-32538-90-00                ##
###############################################
## Copyright 2017-2023  ENVERUS.  All Rights Reserved. 
## Confidential - Property of ENVERUS, use governed by terms and 
## conditions found within the existing Information Services Subscription Agreement 
## (as may be amended, the “ISSA”) between Customer and ENVERUS. 
## 
~VERSION INFORMATION
# MNEM.UNIT                               DATA : DESCRIPTION OF MNEMONIC
#-----.-----     ----------------------------- : -----------------------------
VERS.                                     2.00 : CWLS LOG ASCII STANDARD - VERSION 2.00
WRAP.                                       NO : MULTIPLE LINES PER DEPTH STEP
VEND.                                  ENVERUS : VENDOR
TYPE.                          ESS - OPEN HOLE : ENVERUS ESSENTIAL CURVES – ACCESSIBLE THROUGH ENVERUS PRISM(TM)
DOC.                                  51093252 : ENVERUS HEADER RAW DOCUMENT ID
#___________________________________________________________________________________________________ 
~WELL INFORMATION 
# oCCetX3e+0pvkDd8h//i1tmWwvIHyfHqsQII3M49Y6eU5HggNAlLoqtwY+vCuZvzOG9Fr+Tv1xe2vto6NUMufQ== 
# MNEM.UNIT                                              DATA : DESCRIPTION OF MNEMONIC 
#-----.-----                    ----------------------------- : ----------------------------- 
CNTY.                                               CULBERSON : COUNTY 
STATE.                                                  TEXAS : STATE 
CNTRY.                                                    USA : COUNTRY 
API.                                             42-109-32538 : API (10 Digit) 
API_14.                                    42-109-32538-90-00 : API (14 Digits) 
API_14_std.                                 42-109-32538-9000 : API (14 Digits Standard) 
UWI.                                           42109325389000 : UNIQUE WELL ID 
WELL.                                                  DRD_55 : WELL NAME
STRT.FT                                                2546.5 : START DEPTH
STOP.FT                                               11260.0 : STOP DEPTH
STEP.FT                                                   0.5 : STEP BETWEEN DEPTHS
NULL.                                                 -999.25 : NULL VALUE
PREV_APII.                                     42109325380000 : WELL IDENTIFIER
#___________________________________________________________________________________________________ 
~PARAMETER INFORMATION 
# MNEM.UNIT                                              DATA : DESCRIPTION OF MNEMONIC 
#-----.-----                    ----------------------------- : ----------------------------- 
EKB.FT                                                   3182 : ELEVATION ABOVE MSL
#___________________________________________________________________________________________________ 
~CURVE INFORMATION 
# MNEM.UNIT           : CURVE DESCRIPTION 
#-----.-----          : ----------------------------- 
 DEPT.FT               : MEASURED DEPTH 
 CALI.IN               : CALIPER (CAL - CALIPER) 
 GR.API                : GAMMA RAY (GAMMA RAY) 
 DT.US/FT              : SONIC DELTA TRANSIT TIME (SONIC) 
 RESS.OHMM             : SHALLOW INDUCTION RESISTIVITY (ILS - SHALLOW RESISTIVITY) 
 RESD.OHMM             : DEEP INDUCTION RESISTIVITY (ILD - DEEP RESISTIVITY) 
 DPHI.V/V              : DENSITY POROSITY (DENSITY POROSITY) 
 NPHI.V/V              : NEUTRON POROSITY (NEUTRON POROSITY) 
 RHOB.G/CC             : BULK DENSITY (DENSITY) 
 #___________________________________________________________________________________________________ 
~A         DEPT           CALI             GR             DT           RESS           RESD           DPHI           NPHI           RHOB
# ...
        10128.0          6.141         89.517         72.720         24.391         28.091        0.11037        0.16946         2.5450
        10128.5          6.138         94.351         72.008         24.461         28.976        0.10007        0.16155         2.5511
        10129.0          6.136         96.689         71.423         27.493         30.962        0.09693        0.15276         2.5539
        10129.5          6.133         94.522         71.084         29.897         32.467        0.09693        0.15193         2.5559
        10130.0          6.131         93.853         71.493         26.281         31.783        0.09693        0.16046         2.5583
        10130.5          6.128         98.613         71.822         15.132         19.339        0.09598        0.16416         2.5654
        10131.0          6.125        106.787         72.442          8.684          9.015        0.09086        0.20986         2.5854
        10131.5          6.123        110.387         72.720          5.701          5.609        0.07028        0.27379         2.6100
        10132.0          6.120         99.562         72.311          4.679          4.716        0.05770        0.28577         2.6312
        10132.5          6.117         42.653         71.546          5.723          5.725        0.05053        0.30551         2.6703
        10133.0          6.115         31.766         70.675          9.558          9.033        0.00110        0.18830         2.7265
        10133.5          6.112         32.401         70.266         15.945         15.714        0.00020        0.11903         2.7620
        10134.0          6.117         45.590         70.847         17.737         20.611        0.00020        0.10731         2.7596
        10134.5          6.128         69.419         72.067         10.445         11.853        0.00020        0.11993         2.7269
        10135.0          6.147         93.247         74.113          5.631          6.588        0.00020        0.22014         2.6713
        10135.5          6.147        102.582         76.376          4.432          4.606        0.03429        0.31844         2.6163
        10136.0          6.143        104.405         78.539          3.569          3.681        0.06155        0.25001         2.5986
        10136.5          6.132        101.758         79.674          3.550          3.581        0.07134        0.25023         2.6066
        10137.0          6.123         99.021         80.491          3.760          3.755        0.06533        0.25039         2.6136
        10137.5          6.115         94.022         80.491          3.970          3.937        0.06022        0.24299         2.6077
        10138.0          6.111         99.026         80.491          4.061          4.097        0.05821        0.23569         2.5932
        10138.5          6.111        103.739         80.082          4.040          4.097        0.07465        0.23310         2.5894
        10139.0          6.111        103.044         79.673          4.006          4.021        0.07582        0.24150         2.5865
        10139.5          6.111        100.665         79.632          3.993          4.021        0.07068        0.23858         2.5775
        10140.0          6.111         96.881         79.264          4.017          4.056        0.08024        0.23355         2.5698
        10140.5          6.111         95.050         79.264          4.106          4.097        0.08660        0.23659         2.5755
        10141.0          6.111        103.959         78.855          4.188          4.214        0.08384        0.24374         2.5788
        10141.5          6.111        107.135         78.303          4.285          4.336        0.07976        0.21827         2.5804
        10142.0          6.111        101.803         77.625          4.359          4.503        0.07904        0.20678         2.5811
        10142.5          6.111        106.998         76.577          4.472          4.676        0.07988        0.22391         2.5829
        10143.0          6.111         96.324         75.363          4.741          4.864        0.08023        0.21654         2.5865
        10143.5          6.112         94.227         74.261          5.084          5.242        0.07715        0.21490         2.5962
        10144.0          6.129         89.376         73.232          5.496          5.609        0.06948        0.22436         2.6090
        10144.5          6.129         91.094         72.203          5.814          5.976        0.05914        0.22806         2.6157
        10145.0          6.129         90.583         71.174          5.736          5.800        0.05853        0.21696         2.6193
        10145.5          6.129         88.517         70.553          5.797          5.988        0.05795        0.20313         2.6272
        10146.0          6.129         90.343         70.266          6.269          6.376        0.05144        0.18929         2.6358
        10146.5          6.118         94.032         70.266          6.706          6.929        0.04637        0.19063         2.6358
        10147.0          6.102         90.958         70.675          7.232          7.267        0.04540        0.18148         2.6291
        10147.5          6.103         90.188         71.232          7.313          7.378        0.04691        0.16869         2.6191
        10148.0          6.103         92.479         72.261          6.978          7.217        0.05780        0.17299         2.6055
        10148.5          6.104         93.508         73.291          6.397          6.534        0.06624        0.17932         2.5935
        10149.0          6.104         98.973         74.320          5.887          5.894        0.07565        0.19049         2.5855
        10149.5          6.104        104.935         75.349          5.417          5.509        0.07583        0.20430         2.5686
        10150.0          6.105        104.814         75.969          4.951          5.048        0.08335        0.21522         2.5457
        10150.5          6.105        107.522         75.992          4.645          4.744        0.09579        0.20579         2.5412
        10151.0          6.106        107.822         75.592          4.337          4.655        0.10779        0.20376         2.5490
        10151.5          6.106        104.355         75.381          4.783          5.198        0.10162        0.20958         2.5598
        10152.0          6.107        107.399         74.356          6.949          6.687        0.09379        0.19906         2.5709
        10152.5          6.107         98.494         73.947         10.106         10.012        0.08522        0.19812         2.5780
        10153.0          6.108         85.100         73.538         14.679         15.520        0.08028        0.21576         2.5838
        10153.5          6.108         84.486         73.538         19.834         21.364        0.08004        0.20792         2.5899
        10154.0          6.109         85.632         74.387         21.747         23.468        0.07530        0.18395         2.5715
        10154.5          6.109         90.104         75.416         14.261         15.464        0.08450        0.18683         2.5449
        10155.0          6.110        100.165         76.467          6.700          7.504        0.10635        0.19726         2.5342
        10155.5          6.110        109.411         77.883          4.421          4.519        0.10565        0.18854         2.5507
        10156.0          6.110        107.861         78.913          3.943          3.621        0.09646        0.22312         2.5615
        10156.5          6.111        105.475         79.942          3.877          3.606        0.09267        0.25544         2.5674
        10157.0          6.102        105.535         79.602          3.870          3.723        0.09203        0.27352         2.5803
