~Version Information
 VERS.                  2.0:   CWLS log ASCII Standard -VERSION 2.0
 WRAP.                   NO:   One line per depth step
~Well Information Block
#MNEM.UNIT     VALUE/NAME     DESCRIPTION
#---------     -----------    ---------------------------
 STRT.F              8400.0000: START DEPTH
 STOP.F             14661.0000: STOP DEPTH
 STEP.F                 0.5000: STEP DEPTH
 NULL.                 -999.25: NULL VALUE
 LOC .            42-109-33545:  LOCATION
 FL1 .            42-109-33545:  LOCATIONLINE1
 DMF .             Drill Floor:  DRILL MEAS FROM
 PDAT.                      GL:  PERMANENT DATUM
 CNTY.               CULBERSON:  COUNTY NAME
 FLD .              WOLFCAMP B:  FIELD NAME
 WELL.           DALE STATE 3H:  WELL NAME
 COMP.     CAPITAN ENERGY INC.:  COMPANY
 DATE.             12-Feb-2020:  DATE
 SVCO.             Halliburton:  SERVICECONAME
 PROV.                      TX:  PROVINCE
 STAT.                      TX:  STATE NAME
 HIDE.                        :  WELLNAMEOPERAT
 BASI.                 PERMIAN:  BASIN
 UWI .            42-109-33545:  UNIQUE WELL IDENTIFIER
 API .            42-109-33545:  API NUMBER
 RANG.                     N/A:  RANGE
 TOWN.                     N/A:  TOWNSHIP
 SECT.                     N/A:  SECTION
 SON .               906290460:  JOB NUMBER
 CTRY.                        :  COUNTRY
 SRVC.             Halliburton:  SERVICE COMPANY
 LMF .             Drill Floor:  LOG MEASURED FROM
 TVDS.ft             3291.0000:  TVDSS CORRECTN
 EGL .ft             3266.0000:  GROUND ELEVATION
 APD .ft               25.0000:  DEPTH ABOVE PD
 EPD .ft             3266.0000:  ELEVATION
 BAP .ft                0.0000:  GL ELEV ONSHORE
 GVFD.g                 1.0000:  GRAVITY FIELD
 EKB .ft             3291.0000:  KB ELEVATION
 EDF .ft             3291.0000:  DF ELEVATION
~Curve Information Block
#MNEM.UNIT                 API CODE     Curve Description
#---------               -----------    ---------------------------
 DEPT.F                 00 000 000 000:  Depth
 CCL .V                 00 000 000 000:  Casing Collar Locator
 NPHI_OH.pu             00 000 000 000:  NPHI_OH
 NPHI_CHI.decp          00 000 000 000:  NPHI_CHI
 GR_OH.api              00 000 000 000:  GR_OH
 GR_CHI.api             00 000 000 000:  GR_CHI
 RHOB_OH.g/cc           00 000 000 000:  RHOB_OH
 RHOB_CHI.g/cc          00 000 000 000:  RHOB_CHI
 PE_OH.NONE             00 000 000 000:  PE_OH
 PE_CHI.NONE            00 000 000 000:  PE_CHI
 LLS_CHI.ohmm           00 000 000 000:  LLS_CHI
 LLS_OH.ohmm            00 000 000 000:  LLS_OH
 LLD_OH.ohmm            00 000 000 000:  LLD_OH
 LLD_CHI.ohmm           00 000 000 000:  LLD_CHI
 DTC_OH.uspf            00 000 000 000:  DTC_OH
 DTC_CHI.uspf           00 000 000 000:  DTC_CHI
 SPHW_CHI.decp          00 000 000 000:  SPHW_CHI
#Other Information
#
#WARRANTY: Halliburton will use its best efforts to furnish customers with 
#accurate information and interpretations that are part of, and incident to, the services 
#provided.  However, Halliburton cannot and does not warrant the accuracy 
#or correctness of such information and interpretations.  Under no circumstances should any 
#such information or interpretation be relied upon as the sole basis for any drilling, 
#completion, production, or financial decision or any procedure involving any risk to the 
#safety of any drilling venture, drilling rig or its crew or any other third party.  The 
#Customer has full responsibility for all drilling, completion and production operation.  
#Halliburton makes no representations or warranties, either expressed or 
#implied, including, but not limited to, the implied warranties of merchantability or fitness 
#for a particular purpose, with respect to the services rendered.  In no event will 
#Halliburton be liable for failure to obtain any particular results or for 
#any damages, including, but not limited to, indirect, special or consequential damages, 
#resulting from the use of any information or interpretation provided by Halliburton.
#
~A    DEPT      CCL   NPHI_OH NPHI_CHI  GR_OH    GR_CHI  RHOB_OH RHOB_CHI  PE_OH  PE_CHI  LLS_CHI   LLS_OH    LLD_OH    LLD_CHI  DTC_OH  DTC_CHI SPHW_CHI 
# ...
    8824.0000 -0.0124 11.8600   0.1430  77.9784  76.6028  2.6067   2.5745  2.7504 2.6141    8.9252    8.8644    9.5890   11.0865 -999.25 72.3464 0.1750
    8824.5000  0.0228 13.2900   0.1423  82.4378  92.0922  2.6058   2.5732  2.7130 2.6049    9.0376    8.5671    9.1133   11.2665 -999.25 72.1833 0.1739
    8825.0000 -0.0197 14.0200   0.1373  86.3592  84.0098  2.5992   2.5798  2.6518 2.5840    8.4897    8.5637    9.1104   10.6035 -999.25 71.6389 0.1700
    8825.5000  0.0126 13.5100   0.1357  88.0856  80.8493  2.5914   2.5840  2.6472 2.5858    7.9847    8.5200    9.0804   10.0305 -999.25 72.0285 0.1728
    8826.0000 -0.0178 12.8200   0.1360  90.3747  79.8183  2.5862   2.5853  2.6381 2.5949    7.7847    8.6910    9.4179    9.8124 -999.25 72.3831 0.1753
    8826.5000  0.0186 12.5200   0.1368  91.1246  85.5912  2.5869   2.5841  2.6028 2.6194    8.0534    7.9230    8.8945   10.1574 -999.25 72.6970 0.1775
    8827.0000  0.0773 12.6800   0.1333  89.1518  87.9169  2.5907   2.5872  2.6017 2.6303    8.2532    7.9090    8.8395   10.4033 -999.25 72.6129 0.1769
    8827.5000 -0.0244 14.7900   0.1256  88.8300  81.0838  2.5923   2.5973  2.6317 2.6307    7.8734    6.8283    8.5086    9.9534 -999.25 72.2600 0.1744
    8828.0000  0.0461 15.8600   0.1223  91.5230  81.5776  2.6053   2.6032  2.7518 2.6445    7.5036    7.2416    9.3878    9.5375 -999.25 72.3706 0.1752
    8828.5000 -0.0429 14.6300   0.1259  91.2297  92.4262  2.6328   2.6005  3.0854 2.6817    7.5564    7.3172    9.6199    9.6385 -999.25 73.0172 0.1798
    8829.0000  0.0000 12.3200   0.1247  80.4268  79.3152  2.6514   2.6046  3.4670 2.6909    7.3399   11.5076   14.2807    9.3645 -999.25 72.8036 0.1782
    8829.5000  0.0217 10.2700   0.1220  68.2468  58.9040  2.6507   2.6096  3.5534 2.6981    7.3802   12.1347   14.5768    9.3857 -999.25 72.5292 0.1763
    8830.0000  0.0000 10.2700   0.1254  68.2468  59.3608  2.6507   2.6053  3.5534 2.7194    7.7669   12.1347   14.5768    9.8231 -999.25 73.0184 0.1798
    8830.5000  0.0105 10.2100   0.1324  65.5023  75.0396  2.6288   2.5941  3.2677 2.7522    8.7676   12.1321   14.5699   11.0063 -999.25 73.7759 0.1851
    8831.0000 -0.0243 11.2100   0.1446  72.3597 109.1305  2.6018   2.5757  2.8454 2.7959   10.8032   10.4865   12.4357   13.5360 -999.25 75.3684 0.1964
    8831.5000  0.0000 15.0200   0.1411  88.8026  89.1234  2.5885   2.5810  2.6222 2.7651    9.9166    8.7863   10.3347   12.3537 -999.25 74.4891 0.1902
    8832.0000  0.0000 15.7800   0.1414 101.4818  80.3890  2.5795   2.5818  2.6771 2.7521    9.5416    8.8799   10.4010   11.8837 -999.25 74.2398 0.1884
    8832.5000  0.0000 16.5200   0.1515 104.6839  97.2928  2.5739   2.5684  2.7968 2.7770   10.5690    8.9868   10.3770   13.2182 -999.25 74.4928 0.1902
    8833.0000 -0.0126 16.3800   0.1600 105.4842 116.7010  2.5699   2.5555  2.8505 2.7953   12.4805    9.3340   10.5693   15.7014 -999.25 75.1207 0.1946
    8833.5000 -0.0181 15.8700   0.1534 103.1787  92.8804  2.5632   2.5616  2.7885 2.7434   12.3326    9.3457   10.7006   15.4372 -999.25 72.4925 0.1760
    8834.0000  0.0000 11.6900   0.1410  93.5453  75.0159  2.5587   2.5729  2.6133 2.7447   13.5244   10.0303   11.8469   16.9219 -999.25 71.0553 0.1659
    8834.5000  0.0133  8.7100   0.1225  73.4947  62.0904  2.5625   2.5914  2.4828 2.8186   14.3329   14.0516   15.6146   18.0683 -999.25 70.1565 0.1595
    8835.0000  0.0000  8.9900   0.1080  57.3271  57.2487  2.5787   2.6058  2.4512 2.9312   15.1326   14.1997   15.8812   19.1918 -999.25 68.9097 0.1507
    8835.5000 -0.0179  8.3800   0.0990  54.5517  62.2896  2.5938   2.6155  2.4386 3.0180   15.1567   14.1905   15.9216   19.2747 -999.25 68.4277 0.1473
    8836.0000  0.0000  9.7900   0.0976  62.9491  63.4447  2.5965   2.6173  2.4466 3.0191   14.6655    9.7981   12.8612   18.5547 -999.25 68.6511 0.1489
    8836.5000 -0.0330 11.7300   0.1054  72.2735  83.9787  2.6091   2.6094  2.5339 2.9815   14.8658    8.8317   10.9472   18.6697 -999.25 70.9762 0.1653
    8837.0000  0.0000 11.6000   0.1118  71.0586  93.2778  2.6436   2.6066  2.8675 2.9621   13.8894    8.1757   10.4703   17.5149 -999.25 72.0159 0.1727
    8837.5000  0.0000 11.9000   0.1098  67.6373  71.2000  2.6665   2.6151  3.4440 2.9454   11.4449    8.1542   10.4483   14.5275 -999.25 71.0976 0.1662
    8838.0000 -0.0177 11.8900   0.1163  70.3714  71.0790  2.6504   2.6106  3.6932 2.9192   10.8542    7.6083   10.6789   13.8505 -999.25 71.1587 0.1666
    8838.5000 -0.0334 11.1000   0.1264  78.0414  77.9777  2.6294   2.5962  3.4671 2.8569   11.6452    9.9264   12.7059   14.7884 -999.25 71.1367 0.1665
    8839.0000 -0.0184 11.6800   0.1307  81.7287  62.0548  2.6387   2.5845  3.4703 2.7773   13.4344   12.2101   15.1026   16.8108 -999.25 71.0547 0.1659
    8839.5000 -0.0411 10.2000   0.1274  71.9073  60.1528  2.6496   2.5793  3.7025 2.7665   16.2907   12.3929   15.2959   20.1150 -999.25 70.3454 0.1609
    8840.0000  0.0152 10.1100   0.1151  61.5156  59.2442  2.6182   2.5866  3.4584 2.8963   19.7653   14.4057   18.9366   24.3514 -999.25 68.7720 0.1497
    8840.5000  0.0000  8.6000   0.1005  60.5429  58.6900  2.5601   2.6020  2.8343 3.0331   19.4694   15.3361   17.4176   24.2249 -999.25 68.2396 0.1460
    8841.0000  0.0000  7.2400   0.0931  60.9865  55.2719  2.5399   2.6115  2.3869 3.1018   18.5327   14.6902   16.7270   23.1877 -999.25 67.8424 0.1432
    8841.5000  0.0509  7.7700   0.0977  62.3155  78.4088  2.5598   2.6068  2.2412 3.0432   18.1460   14.6945   16.6888   22.4922 -999.25 70.3449 0.1609
    8842.0000 -0.0258  7.5500   0.1007  69.4215  76.5963  2.5751   2.6078  2.2878 2.9567   15.3974    8.5243    9.5780   19.1910 -999.25 70.1289 0.1593
    8842.5000  0.0307  9.8700   0.1083  74.3779  85.7708  2.5741   2.6053  2.3752 2.8339   12.3650    6.0511    7.4901   15.5679 -999.25 71.1351 0.1664
    8843.0000 -0.0342 12.7300   0.1143  76.6987  84.8141  2.5688   2.6053  2.4434 2.7647   10.0581    6.0338    7.4742   12.7935 -999.25 71.3937 0.1683
    8843.5000  0.0000 12.6100   0.1203  84.7784  88.5270  2.5680   2.6018  2.5326 2.7364    9.1963    6.0070    7.4774   11.7270 -999.25 71.9219 0.1720
    8844.0000  0.0468 12.8200   0.1255  93.6983 101.0651  2.5722   2.5955  2.6372 2.7279    9.2729    6.6823    8.4196   11.7934 -999.25 72.8685 0.1787
    8844.5000 -0.0393 13.4200   0.1257  96.1067  93.2212  2.5798   2.5945  2.7499 2.7273    9.6203    6.9417    8.6860   12.1541 -999.25 72.7678 0.1780
    8845.0000  0.0102 13.2400   0.1259  96.8730  81.2923  2.5814   2.5933  2.8042 2.7087    9.8232    6.9375    8.7267   12.3169 -999.25 72.3786 0.1752
    8845.5000 -0.0656 13.0800   0.1339  99.6449  93.9086  2.5817   2.5832  2.7836 2.7294   10.8011    8.8720   12.1953   13.5215 -999.25 73.1814 0.1809
    8846.0000  0.0132 13.7300   0.1368  96.2315  98.6973  2.6179   2.5799  2.8985 2.7334   11.0058   13.4016   16.2891   13.7833 -999.25 73.5179 0.1833
    8846.5000 -0.0232 14.1900   0.1316  80.4717  84.9786  2.6879   2.5882  3.3415 2.7152    9.8350   13.4175   16.2870   12.3681 -999.25 72.7770 0.1781
    8847.0000  0.0000 12.9000   0.1181  62.7786  47.7653  2.7367   2.6066  3.8788 2.6876    8.8118   12.8809   15.9570   11.1564 -999.25 71.2127 0.1670
    8847.5000  0.0000 11.1300   0.1201  63.5351  50.3494  2.7225   2.6030  4.0046 2.6977    9.2833   11.1483   15.4432   11.7333 -999.25 71.2867 0.1675
    8848.0000 -0.0375 10.9700   0.1268  76.6686  72.9834  2.6598   2.5907  3.6877 2.7063   10.4867   11.0906   15.2022   13.1452 -999.25 71.8862 0.1718
    8848.5000  0.0274 10.8600   0.1263  81.2095  75.0980  2.6225   2.5884  3.4440 2.6966   11.0499   11.1185   15.0955   13.7617 -999.25 71.5819 0.1696
    8849.0000 -0.0310  9.9800   0.1231  75.2903  74.7337  2.6335   2.5906  3.4799 2.7053   11.2889   11.0870   12.7100   14.0074 -999.25 71.1789 0.1668
    8849.5000 -0.0164  9.2100   0.1194  71.9098  70.8056  2.6373   2.5957  3.4552 2.7142   10.8804    9.6604   11.7442   13.5149 -999.25 70.9387 0.1651
    8850.0000  0.0124  9.6000   0.1194  75.4283  72.0845  2.6128   2.5999  3.2193 2.7050    9.6808    8.6369   10.4618   12.1136 -999.25 71.5540 0.1694
