###############################################
##         ENVERUS                           ##
##         ESS - Open Hole                   ##
##         PERMIAN / DELAWARE                ##
##         Nov 03 2023  V4.0                 ##
##         42-109-33370-00-00                ##
###############################################
## Copyright 2017-2023  ENVERUS.  All Rights Reserved. 
## Confidential - Property of ENVERUS, use governed by terms and 
## conditions found within the existing Information Services Subscription Agreement 
## (as may be amended, the “ISSA”) between Customer and ENVERUS. 
## 
~VERSION INFORMATION
# MNEM.UNIT                               DATA : DESCRIPTION OF MNEMONIC
#-----.-----     ----------------------------- : -----------------------------
VERS.                                     2.00 : CWLS LOG ASCII STANDARD - VERSION 2.00
WRAP.                                       NO : MULTIPLE LINES PER DEPTH STEP
VEND.                                  ENVERUS : VENDOR
TYPE.                          ESS - OPEN HOLE : ENVERUS ESSENTIAL CURVES – ACCESSIBLE THROUGH ENVERUS PRISM(TM)
DOC.                                  52814434 : ENVERUS HEADER RAW DOCUMENT ID
#___________________________________________________________________________________________________ 
~WELL INFORMATION 
# 4wk/Fx8UuugU+iebl2dHJIcndKaYvWbTE+/Vf37HP7rynMiEVi3nAb6NYbehQO/VbM9PVY38flJCaeNisGRn4g== 
# MNEM.UNIT                                              DATA : DESCRIPTION OF MNEMONIC 
#-----.-----                    ----------------------------- : ----------------------------- 
CNTY.                                               CULBERSON : COUNTY 
STATE.                                                  TEXAS : STATE 
CNTRY.                                                    USA : COUNTRY 
API.                                             42-109-33370 : API (10 Digit) 
API_14.                                    42-109-33370-00-00 : API (14 Digits) 
API_14_std.                                 42-109-33370-0000 : API (14 Digits Standard) 
UWI.                                           42109333700000 : UNIQUE WELL ID 
WELL.                                       ROXANNE FEE 46 3H : WELL NAME
STRT.FT                                                8800.0 : START DEPTH
STOP.FT                                               14157.0 : STOP DEPTH
STEP.FT                                                   0.5 : STEP BETWEEN DEPTHS
NULL.                                                 -999.25 : NULL VALUE
LOC.                                        API  42-109-33370 : LOCATION 
FL1.                                        API  42-109-33370 : LOCATIONLINE1 
DMF.                                                       KB : DRILL MEAS FROM 
PDAT.                                                      GL : PERMANENT DATUM 
FLD.                                    FORD, WEST (WOLFCAMP) : FIELD NAME 
COMP.                                          CAPITAN ENERGY : COMPANY 
DATE.                                             29-APR-2019 : DATE 
SVCO.                                             HALLIBURTON : SERVICECONAME 
PROV.                                                   TEXAS : PROVINCE 
BASI.                                                 PERMIAN : BASIN 
RANG.                                                     N/A : RANGE 
TOWN.                                                     N/A : TOWNSHIP 
SECT.                                                     N/A : SECTION 
SON.                                                905631605 : JOB NUMBER 
SRVC.                                             HALLIBURTON : SERVICE COMPANY 
LMF.                                                       KB : LOG MEASURED FROM 
BAP.FT                                                 0.0000 : GL ELEV ONSHORE 
GVFD.G                                                 1.0000 : GRAVITY FIELD
#___________________________________________________________________________________________________ 
~CURVE INFORMATION 
# MNEM.UNIT           : CURVE DESCRIPTION 
#-----.-----          : ----------------------------- 
 DEPT.FT               : MEASURED DEPTH 
 GR.API                : GAMMA RAY (GR_CHI - GR_CHI) 
 GR__01.API            : GAMMA RAY (GR_OH - GR_OH) 
 DT.US/FT              : SONIC DELTA TRANSIT TIME (DTC_CHI - DTC_CHI) 
 DT__01.US/FT          : SONIC DELTA TRANSIT TIME (DTC_OH - DTC_OH) 
 PE.B/E                : PHOTOELECTRIC EFFECT/FACTOR (PE_CHI - PE_CHI) 
 PE__01.B/E            : PHOTOELECTRIC EFFECT/FACTOR (PE_OH - PE_OH) 
 RESS_10.OHMM          : 10 INCH SHALLOW INDUCTION RESISTIVITY (RT10_CHI - RT10_CHI) 
 RESS_10__01.OHMM      : 10 INCH SHALLOW INDUCTION RESISTIVITY (RT10_OH - RT10_OH) 
 RESM_30.OHMM          : 30 INCH MEDIUM INDUCTION RESISTIVITY (RT30_CHI - RT30_CHI) 
 RESM_30__01.OHMM      : 30 INCH MEDIUM INDUCTION RESISTIVITY (RT30_OH - RT30_OH) 
 RESD_90.OHMM          : 90 INCH DEEP INDUCTION RESISTIVITY (RT90_CHI - RT90_CHI) 
 RESD_90__01.OHMM      : 90 INCH DEEP INDUCTION RESISTIVITY (RT90_OH - RT90_OH) 
 NPHI.V/V              : NEUTRON POROSITY (NPHI_CHI - NPHI_CHI) 
 NPHI__01.V/V          : NEUTRON POROSITY (NPHI_OH - NPHI_OH) 
 SPHI.V/V              : SONIC POROSITY (SPHI_CHI - SPHI_CHI) 
 RHOB.G/CC             : BULK DENSITY (RHOB_CHI - RHOB_CHI) 
 RHOB__01.G/CC         : BULK DENSITY (RHOB_OH - RHOB_OH) 
 #___________________________________________________________________________________________________ 
~A         DEPT             GR         GR__01             DT         DT__01             PE         PE__01        RESS_10    RESS_10__01        RESM_30    RESM_30__01        RESD_90    RESD_90__01           NPHI       NPHI__01           SPHI           RHOB       RHOB__01
# ...
        13435.0        118.867       -999.250         75.079       -999.250         3.2535      -999.2500         25.315       -999.250         26.150       -999.250         27.819       -999.250        0.16010     -999.25000        0.19370         2.5608      -999.2500
        13435.5        121.513       -999.250         75.054       -999.250         3.2424      -999.2500         25.445       -999.250         26.284       -999.250         27.962       -999.250        0.16070     -999.25000        0.19350         2.5595      -999.2500
        13436.0        123.080       -999.250         74.919       -999.250         3.2259      -999.2500         25.364       -999.250         26.200       -999.250         27.872       -999.250        0.16010     -999.25000        0.19280         2.5590      -999.2500
        13436.5        122.347       -999.250         74.720       -999.250         3.2131      -999.2500         25.072       -999.250         25.898       -999.250         27.551       -999.250        0.15820     -999.25000        0.19170         2.5596      -999.2500
        13437.0        119.433       -999.250         74.509       -999.250         3.2055      -999.2500         24.584       -999.250         25.394       -999.250         27.015       -999.250        0.15540     -999.25000        0.19060         2.5613      -999.2500
        13437.5        116.209       -999.250         74.332       -999.250         3.1960      -999.2500         23.931       -999.250         24.720       -999.250         26.298       -999.250        0.15280     -999.25000        0.18980         2.5629      -999.2500
        13438.0        115.199       -999.250         74.286       -999.250         3.1816      -999.2500         23.216       -999.250         23.981       -999.250         25.512       -999.250        0.15230     -999.25000        0.18950         2.5632      -999.2500
        13438.5        116.166       -999.250         74.351       -999.250         3.1644      -999.2500         22.579       -999.250         23.324       -999.250         24.812       -999.250        0.15360     -999.25000        0.18980         2.5624      -999.2500
        13439.0        117.739       -999.250         74.509       -999.250         3.1604      -999.2500         22.200       -999.250         22.932       -999.250         24.396       -999.250        0.15580     -999.25000        0.19050         2.5613      -999.2500
        13439.5        119.351       -999.250         74.676       -999.250         3.1639      -999.2500         22.056       -999.250         22.783       -999.250         24.238       -999.250        0.15770     -999.25000        0.19150         2.5602      -999.2500
        13440.0        120.458       -999.250         74.849       -999.250         3.1717      -999.2500         22.029       -999.250         22.755       -999.250         24.208       -999.250        0.15900     -999.25000        0.19250         2.5592      -999.2500
        13440.5        120.241       -999.250         74.974       -999.250         3.1818      -999.2500         22.007       -999.250         22.733       -999.250         24.184       -999.250        0.15970     -999.25000        0.19330         2.5590      -999.2500
        13441.0        118.561       -999.250         75.051       -999.250         3.1957      -999.2500         21.944       -999.250         22.667       -999.250         24.114       -999.250        0.15970     -999.25000        0.19380         2.5597      -999.2500
        13441.5        116.751       -999.250         75.097       -999.250         3.2071      -999.2500         21.816       -999.250         22.535       -999.250         23.974       -999.250        0.16000     -999.25000        0.19420         2.5607      -999.2500
        13442.0        116.072       -999.250         75.095       -999.250         3.2066      -999.2500         21.609       -999.250         22.321       -999.250         23.746       -999.250        0.16070     -999.25000        0.19420         2.5612      -999.2500
        13442.5        117.709       -999.250         75.103       -999.250         3.1940      -999.2500         21.327       -999.250         22.030       -999.250         23.436       -999.250        0.16220     -999.25000        0.19410         2.5606      -999.2500
        13443.0        120.419       -999.250         75.036       -999.250         3.1665      -999.2500         20.947       -999.250         21.637       -999.250         23.018       -999.250        0.16330     -999.25000        0.19380         2.5595      -999.2500
        13443.5        122.551       -999.250         74.916       -999.250         3.1375      -999.2500         20.553       -999.250         21.230       -999.250         22.585       -999.250        0.16280     -999.25000        0.19330         2.5583      -999.2500
        13444.0        123.781       -999.250         74.805       -999.250         3.1143      -999.2500         20.230       -999.250         20.897       -999.250         22.231       -999.250        0.16170     -999.25000        0.19290         2.5574      -999.2500
        13444.5        124.447       -999.250         74.785       -999.250         3.1061      -999.2500         20.060       -999.250         20.721       -999.250         22.044       -999.250        0.16080     -999.25000        0.19290         2.5567      -999.2500
        13445.0        124.560       -999.250         74.885       -999.250         3.1117      -999.2500         20.020       -999.250         20.680       -999.250         22.000       -999.250        0.16110     -999.25000        0.19320         2.5563      -999.2500
        13445.5        124.148       -999.250         75.017       -999.250         3.1246      -999.2500         20.107       -999.250         20.770       -999.250         22.095       -999.250        0.16190     -999.25000        0.19360         2.5563      -999.2500
        13446.0        122.712       -999.250         75.094       -999.250         3.1415      -999.2500         20.323       -999.250         20.992       -999.250         22.332       -999.250        0.16220     -999.25000        0.19390         2.5570      -999.2500
        13446.5        120.460       -999.250         75.068       -999.250         3.1576      -999.2500         20.677       -999.250         21.358       -999.250         22.722       -999.250        0.16160     -999.25000        0.19390         2.5585      -999.2500
        13447.0        117.684       -999.250         74.983       -999.250         3.1769      -999.2500         21.186       -999.250         21.884       -999.250         23.281       -999.250        0.16030     -999.25000        0.19360         2.5603      -999.2500
        13447.5        115.532       -999.250         74.872       -999.250         3.1948      -999.2500         21.812       -999.250         22.531       -999.250         23.970       -999.250        0.15870     -999.25000        0.19320         2.5620      -999.2500
        13448.0        115.385       -999.250         74.809       -999.250         3.2046      -999.2500         22.451       -999.250         23.191       -999.250         24.671       -999.250        0.15780     -999.25000        0.19310         2.5623      -999.2500
        13448.5        116.997       -999.250         74.858       -999.250         3.2106      -999.2500         23.015       -999.250         23.774       -999.250         25.292       -999.250        0.15810     -999.25000        0.19340         2.5614      -999.2500
        13449.0        119.375       -999.250         75.001       -999.250         3.2155      -999.2500         23.439       -999.250         24.212       -999.250         25.758       -999.250        0.15910     -999.25000        0.19420         2.5598      -999.2500
        13449.5        122.607       -999.250         75.237       -999.250         3.2180      -999.2500         23.678       -999.250         24.458       -999.250         26.020       -999.250        0.16130     -999.25000        0.19520         2.5575      -999.2500
