~Version Information
 VERS.                  2.0:   CWLS log ASCII Standard -VERSION 2.0
 WRAP.                   NO:   One line per depth step
~Well Information Block
#MNEM.UNIT     VALUE/NAME     DESCRIPTION
#---------     -----------    ---------------------------
 STRT.F              8400.0000: START DEPTH
 STOP.F             14130.0000: STOP DEPTH
 STEP.F                 0.5000: STEP DEPTH
 NULL.                 -999.25: NULL VALUE
 LOC .            42-109-33596:  LOCATION
 FL1 .            42-109-33596:  LOCATIONLINE1
 PROV.                      TX:  PROVINCE
 STAT.                      TX:  STATE NAME
 CNTY.               CULBERSON:  COUNTY NAME
 FLD .              WOLFCAMP B:  FIELD NAME
 WELL.           DALE STATE 5H:  WELL NAME
 COMP.     CAPITAN ENERGY INC.:  COMPANY
 DMF .             Drill Floor:  DRILL MEAS FROM
 PDAT.                      GL:  PERMANENT DATUM
 DATE.             11-Feb-2020:  DATE
 SVCO.             Halliburton:  SERVICECONAME
 HIDE.                        :  WELLNAMEOPERAT
 BASI.                 PERMIAN:  BASIN
 UWI .            42-109-33596:  UNIQUE WELL IDENTIFIER
 API .            42-109-33596:  API NUMBER
 RANG.                     N/A:  RANGE
 TOWN.                     N/A:  TOWNSHIP
 SECT.                     N/A:  SECTION
 SON .               906289953:  JOB NUMBER
 CTRY.                        :  COUNTRY
 SRVC.             Halliburton:  SERVICE COMPANY
 LMF .             Drill Floor:  LOG MEASURED FROM
 TVDS.ft             3291.0000:  TVDSS CORRECTN
 EGL .ft             3266.0000:  GROUND ELEVATION
 APD .ft               25.0000:  DEPTH ABOVE PD
 EPD .ft             3266.0000:  ELEVATION
 BAP .ft                0.0000:  GL ELEV ONSHORE
 GVFD.g                 1.0000:  GRAVITY FIELD
 EKB .ft             3291.0000:  KB ELEVATION
 EDF .ft             3291.0000:  DF ELEVATION
~Curve Information Block
#MNEM.UNIT                 API CODE     Curve Description
#---------               -----------    ---------------------------
 DEPT.F                 00 000 000 000:  Depth
 CCL .V                 00 000 000 000:  Casing Collar Locator
 NPHI_OH.pu             00 000 000 000:  NPHI_OH
 NPHI_CHI.decp          00 000 000 000:  NPHI_CHI
 GR_OH.api              00 000 000 000:  GR_OH
 GR_CHI.api             00 000 000 000:  GR_CHI
 RHOB_OH.g/cc           00 000 000 000:  RHOB_OH
 RHOB_CHI.g/cc          00 000 000 000:  RHOB_CHI
 PE_OH.NONE             00 000 000 000:  PE_OH
 PE_CHI.NONE            00 000 000 000:  PE_CHI
 LLS_CHI.ohmm           00 000 000 000:  LLS_CHI
 LLS_OH.ohmm            00 000 000 000:  LLS_OH
 LLD_OH.ohmm            00 000 000 000:  LLD_OH
 LLD_CHI.ohmm           00 000 000 000:  LLD_CHI
 DTC_OH.uspf            00 000 000 000:  DTC_OH
 DTC_CHI.uspf           00 000 000 000:  DTC_CHI
 SPHW_CHI.decp          00 000 000 000:  SPHW_CHI
#Other Information
#
#WARRANTY: Halliburton will use its best efforts to furnish customers with 
#accurate information and interpretations that are part of, and incident to, the services 
#provided.  However, Halliburton cannot and does not warrant the accuracy 
#or correctness of such information and interpretations.  Under no circumstances should any 
#such information or interpretation be relied upon as the sole basis for any drilling, 
#completion, production, or financial decision or any procedure involving any risk to the 
#safety of any drilling venture, drilling rig or its crew or any other third party.  The 
#Customer has full responsibility for all drilling, completion and production operation.  
#Halliburton makes no representations or warranties, either expressed or 
#implied, including, but not limited to, the implied warranties of merchantability or fitness 
#for a particular purpose, with respect to the services rendered.  In no event will 
#Halliburton be liable for failure to obtain any particular results or for 
#any damages, including, but not limited to, indirect, special or consequential damages, 
#resulting from the use of any information or interpretation provided by Halliburton.
#
~A    DEPT      CCL   NPHI_OH NPHI_CHI  GR_OH    GR_CHI  RHOB_OH RHOB_CHI  PE_OH  PE_CHI LLS_CHI   LLS_OH    LLD_OH    LLD_CHI  DTC_OH  DTC_CHI SPHW_CHI 
# ...
   11818.5000  0.0107 -999.25   0.1054  -999.25 105.0714 -999.25   2.5699 -999.25 3.3553  61.9443   -999.25   -999.25   59.7158 -999.25 69.0210 0.1515
   11819.0000  0.0140 -999.25   0.1002  -999.25  94.8924 -999.25   2.5718 -999.25 3.3674  63.6796   -999.25   -999.25   63.9001 -999.25 68.6463 0.1488
   11819.5000 -0.0031 -999.25   0.0942  -999.25  84.5600 -999.25   2.5755 -999.25 3.3918  64.4972   -999.25   -999.25   67.6542 -999.25 68.3296 0.1466
   11820.0000  0.0233 -999.25   0.0986  -999.25  92.6928 -999.25   2.5701 -999.25 3.3857  68.7242   -999.25   -999.25   70.0970 -999.25 68.5455 0.1481
   11820.5000  0.0191 -999.25   0.1043  -999.25 103.1463 -999.25   2.5649 -999.25 3.3687  69.7131   -999.25   -999.25   68.5326 -999.25 69.0996 0.1520
   11821.0000  0.0047 -999.25   0.1044  -999.25 101.0927 -999.25   2.5650 -999.25 3.3403  65.2216   -999.25   -999.25   65.1617 -999.25 69.3700 0.1540
   11821.5000  0.0009 -999.25   0.1029  -999.25  96.2755 -999.25   2.5677 -999.25 3.3393  62.8250   -999.25   -999.25   63.9745 -999.25 69.3959 0.1541
   11822.0000  0.0112 -999.25   0.1068  -999.25 102.8529 -999.25   2.5665 -999.25 3.3657  66.6979   -999.25   -999.25   65.2668 -999.25 69.7881 0.1569
   11822.5000  0.0011 -999.25   0.1049  -999.25  98.6336 -999.25   2.5698 -999.25 3.3972  68.4892   -999.25   -999.25   66.9844 -999.25 69.6870 0.1562
   11823.0000 -0.0029 -999.25   0.0997  -999.25  88.4264 -999.25   2.5754 -999.25 3.4182  66.5530   -999.25   -999.25   66.7780 -999.25 69.5057 0.1549
   11823.5000  0.0036 -999.25   0.1011  -999.25  89.6016 -999.25   2.5752 -999.25 3.4111  65.7997   -999.25   -999.25   66.0188 -999.25 69.6585 0.1560
   11824.0000  0.0000 -999.25   0.1100  -999.25 104.9685 -999.25   2.5693 -999.25 3.3855  67.3806   -999.25   -999.25   65.0706 -999.25 70.1790 0.1597
   11824.5000  0.0009 -999.25   0.1184  -999.25 119.0277 -999.25   2.5643 -999.25 3.3514  66.2042   -999.25   -999.25   62.7599 -999.25 71.1789 0.1668
   11825.0000  0.0344 -999.25   0.1150  -999.25 108.3247 -999.25   2.5671 -999.25 3.2632  53.5553   -999.25   -999.25   54.0404 -999.25 70.7888 0.1640
   11825.5000  0.0103 -999.25   0.1094  -999.25  96.0856 -999.25   2.5723 -999.25 3.2196  45.5801   -999.25   -999.25   48.8685 -999.25 70.2624 0.1603
   11826.0000 -0.0125 -999.25   0.1111  -999.25  98.8876 -999.25   2.5714 -999.25 3.2394  48.6913   -999.25   -999.25   51.6438 -999.25 70.3392 0.1608
   11826.5000 -0.0087 -999.25   0.1113  -999.25  98.6605 -999.25   2.5713 -999.25 3.2676  52.4204   -999.25   -999.25   55.7981 -999.25 70.3710 0.1610
   11827.0000  0.0115 -999.25   0.1174  -999.25 110.3062 -999.25   2.5660 -999.25 3.3188  63.5700   -999.25   -999.25   64.5449 -999.25 70.9530 0.1652
   11827.5000  0.0198 -999.25   0.1165  -999.25 110.2695 -999.25   2.5663 -999.25 3.3465  67.2174   -999.25   -999.25   67.3883 -999.25 70.8052 0.1641
   11828.0000 -0.0086 -999.25   0.1196  -999.25 121.5960 -999.25   2.5647 -999.25 3.4030  75.7159   -999.25   -999.25   71.2896 -999.25 71.0752 0.1660
   11828.5000  0.0155 -999.25   0.1193  -999.25 126.4348 -999.25   2.5659 -999.25 3.4345  77.7055   -999.25   -999.25   70.5203 -999.25 70.9817 0.1654
   11829.0000  0.0302 -999.25   0.1094  -999.25 104.0915 -999.25   2.5718 -999.25 3.3536  61.2905   -999.25   -999.25   59.8233 -999.25 69.8807 0.1576
   11829.5000 -0.0268 -999.25   0.1059  -999.25  95.1000 -999.25   2.5746 -999.25 3.3078  53.3262   -999.25   -999.25   54.4263 -999.25 69.7272 0.1565
   11830.0000  0.0052 -999.25   0.1118  -999.25 103.8532 -999.25   2.5712 -999.25 3.2747  51.9937   -999.25   -999.25   52.3988 -999.25 70.2391 0.1601
   11830.5000 -0.0109 -999.25   0.1131  -999.25 103.0630 -999.25   2.5709 -999.25 3.2314  47.4539   -999.25   -999.25   48.8851 -999.25 70.5461 0.1623
   11831.0000  0.0218 -999.25   0.1135  -999.25 100.4028 -999.25   2.5707 -999.25 3.1888  43.0437   -999.25   -999.25   45.7491 -999.25 70.8291 0.1643
   11831.5000  0.0250 -999.25   0.1177  -999.25 106.0911 -999.25   2.5674 -999.25 3.1648  42.5142   -999.25   -999.25   45.0317 -999.25 71.4660 0.1688
   11832.0000  0.0194 -999.25   0.1227  -999.25 114.2334 -999.25   2.5639 -999.25 3.1643  44.2966   -999.25   -999.25   46.0040 -999.25 72.1865 0.1739
   11832.5000  0.0285 -999.25   0.1225  -999.25 111.3741 -999.25   2.5647 -999.25 3.1437  41.8425   -999.25   -999.25   44.4582 -999.25 72.2144 0.1741
   11833.0000  0.0041 -999.25   0.1292  -999.25 123.7325 -999.25   2.5613 -999.25 3.1639  45.0865   -999.25   -999.25   46.0351 -999.25 73.1923 0.1810
   11833.5000  0.0191 -999.25   0.1232  -999.25 108.4853 -999.25   2.5664 -999.25 3.1170  37.7577   -999.25   -999.25   40.9925 -999.25 72.4740 0.1759
   11834.0000 -0.0294 -999.25   0.1212  -999.25 102.3724 -999.25   2.5692 -999.25 3.1084  35.0292   -999.25   -999.25   39.0771 -999.25 72.3683 0.1752
   11834.5000  0.0053 -999.25   0.1257  -999.25 109.1296 -999.25   2.5679 -999.25 3.1313  37.7466   -999.25   -999.25   40.8542 -999.25 72.7800 0.1781
   11835.0000  0.0179 -999.25   0.1302  -999.25 117.8646 -999.25   2.5672 -999.25 3.1882  44.2911   -999.25   -999.25   46.0887 -999.25 73.1589 0.1808
   11835.5000  0.0252 -999.25   0.1255  -999.25 107.8629 -999.25   2.5727 -999.25 3.1939  42.4194   -999.25   -999.25   45.1344 -999.25 72.3087 0.1747
   11836.0000 -0.0007 -999.25   0.1283  -999.25 115.3543 -999.25   2.5721 -999.25 3.2323  47.7775   -999.25   -999.25   48.9862 -999.25 72.5154 0.1762
   11836.5000 -0.0099 -999.25   0.1305  -999.25 122.2965 -999.25   2.5709 -999.25 3.2477  50.1871   -999.25   -999.25   50.1255 -999.25 72.8576 0.1786
   11837.0000 -0.0055 -999.25   0.1281  -999.25 116.9387 -999.25   2.5727 -999.25 3.2291  47.0806   -999.25   -999.25   47.8195 -999.25 72.4161 0.1755
   11837.5000 -0.0071 -999.25   0.1255  -999.25 110.8642 -999.25   2.5744 -999.25 3.1995  42.7920   -999.25   -999.25   44.5554 -999.25 72.0233 0.1727
   11838.0000 -0.0192 -999.25   0.1264  -999.25 112.9292 -999.25   2.5743 -999.25 3.1858  41.1214   -999.25   -999.25   42.5915 -999.25 72.1347 0.1735
   11838.5000  0.0006 -999.25   0.1221  -999.25 102.2581 -999.25   2.5773 -999.25 3.1248  33.2312   -999.25   -999.25   35.8674 -999.25 71.7761 0.1710
   11839.0000 -0.0327 -999.25   0.1250  -999.25 108.0758 -999.25   2.5757 -999.25 3.0993  31.0491   -999.25   -999.25   32.8612 -999.25 72.2315 0.1742
   11839.5000 -0.0217 -999.25   0.1320  -999.25 123.9339 -999.25   2.5725 -999.25 3.1430  35.3451   -999.25   -999.25   35.5581 -999.25 73.4033 0.1825
   11840.0000 -0.0116 -999.25   0.1269  -999.25 108.6616 -999.25   2.5766 -999.25 3.0906  29.5757   -999.25   -999.25   31.3823 -999.25 72.5250 0.1763
   11840.5000 -0.0000 -999.25   0.1256  -999.25 103.5846 -999.25   2.5787 -999.25 3.0942  29.4139   -999.25   -999.25   31.8827 -999.25 72.2636 0.1744
   11841.0000  0.0238 -999.25   0.1285  -999.25 109.6377 -999.25   2.5772 -999.25 3.1313  33.5333   -999.25   -999.25   35.6925 -999.25 72.5133 0.1762
   11841.5000 -0.0028 -999.25   0.1254  -999.25 101.9400 -999.25   2.5793 -999.25 3.1220  32.0350   -999.25   -999.25   35.2024 -999.25 72.0935 0.1732
   11842.0000 -0.0215 -999.25   0.1216  -999.25  93.8948 -999.25   2.5819 -999.25 3.1154  30.1659   -999.25   -999.25   34.3782 -999.25 71.7569 0.1708
   11842.5000  0.0255 -999.25   0.1267  -999.25 104.6034 -999.25   2.5768 -999.25 3.1336  34.2664   -999.25   -999.25   37.8810 -999.25 72.1936 0.1739
   11843.0000 -0.0185 -999.25   0.1284  -999.25 107.9609 -999.25   2.5747 -999.25 3.1312  34.8905   -999.25   -999.25   38.4676 -999.25 72.4232 0.1756
   11843.5000 -0.0030 -999.25   0.1281  -999.25 106.9284 -999.25   2.5743 -999.25 3.1237  34.1960   -999.25   -999.25   38.0455 -999.25 72.4609 0.1758
   11844.0000  0.0048 -999.25   0.1297  -999.25 110.1804 -999.25   2.5727 -999.25 3.1336  35.7064   -999.25   -999.25   39.2530 -999.25 72.7639 0.1780
   11844.5000  0.0283 -999.25   0.1366  -999.25 125.6721 -999.25   2.5681 -999.25 3.1817  42.4708   -999.25   -999.25   44.3365 -999.25 73.9223 0.1862
