~Version Information
 VERS.                  2.0:   CWLS log ASCII Standard -VERSION 2.0
 WRAP.                   NO:   One line per depth step
~Well Information Block
#MNEM.UNIT     VALUE/NAME     DESCRIPTION
#---------     -----------    ---------------------------
 STRT.F              8564.0000: START DEPTH
 STOP.F             14132.0000: STOP DEPTH
 STEP.F                 0.5000: STEP DEPTH
 NULL.                 -999.25: NULL VALUE
 FL6 .       API  42-109-33219:  LOCATIONLINE6
 LOC .     253' FEL & 408' FNL:  LOCATION
 FL4 .           ABSTRACT 1760:  LOCATIONLINE4
 FL3 .        T&P RR CO SURVEY:  LOCATIONLINE3
 FL2 .     SECTION 32, BLOCK 58 T2:  LOCATIONLINE2
 FL1 .     253' FEL & 408' FNL:  LOCATIONLINE1
 DMF .                      KB:  DRILL MEAS FROM
 PDAT.                      GL:  PERMANENT DATUM
 CTRY.                     USA:  COUNTRY NAME
 PROV.                   TEXAS:  PROVINCE
 STAT.                   TEXAS:  STATE NAME
 CNTY.               CULBERSON:  COUNTY NAME
 FLD .     FORD, WEST (WOLFCAMP):  FIELD NAME
 WELL.        MOTHER FEE 28 2H:  WELL NAME
 COMP.     CAPITAN ENERGY INC.:  COMPANY
 DATE.             24-Jan-2018:  DATE
 SVCO.             Halliburton:  SERVICECONAME
 HIDE.                        :  WELLNAMEOPERAT
 BASI.                 PERMIAN:  BASIN
 UWI .            42-109-33219LAT:  UNIQUE WELL IDENTIFIER
 API .            42-109-33219LAT:  API NUMBER
 RANG.                     N/A:  RANGE
 TOWN.                     N/A:  TOWNSHIP
 SECT.                     N/A:  SECTION
 SON .               904563795:  JOB NUMBER
 SRVC.             Halliburton:  SERVICE COMPANY
 LMF .                      KB:  LOG MEASURED FROM
 EGL .ft             3142.0000:  GROUND ELEVATION
 BAP .ft                0.0000:  GL ELEV ONSHORE
 GVFD.g                 1.0000:  GRAVITY FIELD
 EKB .ft             3167.0000:  KB ELEVATION
 EDF .ft             3166.0000:  DF ELEVATION
~Curve Information Block
#MNEM.UNIT                 API CODE     Curve Description
#---------               -----------    ---------------------------
 DEPT.F                 00 000 000 000:  Depth
 CCL .V                 00 000 000 000:  Casing Collar Locator
 NPHI_OH.pu             00 000 000 000:  NPHI_OH
 NPHI_CHI.pu            00 000 000 000:  NPHI_CHI
 GR_OH.api              00 000 000 000:  GR_OH
 GR_CHI.api             00 000 000 000:  GR_CHI
 RHOB_OH.g/cc           00 000 000 000:  RHOB_OH
 RHOB_CHI.g/cc          00 000 000 000:  RHOB_CHI
 PE_OH.b/e              00 000 000 000:  PE_OH
 PE_CHI.b/e             00 000 000 000:  PE_CHI
 DTC_OH.uspf            00 000 000 000:  DTC_OH
 DTC_CHI.uspf           00 000 000 000:  DTC_CHI
 SPHI_CHI.pu            00 000 000 000:  SPHI_CHI
 RT10_OH.ohmm           00 000 000 000:  RT10_OH
 RT10_CHI.ohmm          00 000 000 000:  RT10_CHI
 RT30_OH.ohmm           00 000 000 000:  RT30_OH
 RT30_CHI.ohmm          00 000 000 000:  RT30_CHI
 RT90_OH.ohmm           00 000 000 000:  RT90_OH
 RT90_CHI.ohmm          00 000 000 000:  RT90_CHI
 SGF .cu                00 000 000 000:  Formation Sigma
 CRNF.NONE              00 000 000 000:  CaptMode Capt Ratio
 RIN .NONE              00 000 000 000:  CaptMode Gross Inel Ratio
#Other Information
#
#WARRANTY: Halliburton will use its best efforts to furnish customers with 
#accurate information and interpretations that are part of, and incident to, the services 
#provided.  However, Halliburton cannot and does not warrant the accuracy 
#or correctness of such information and interpretations.  Under no circumstances should any 
#such information or interpretation be relied upon as the sole basis for any drilling, 
#completion, production, or financial decision or any procedure involving any risk to the 
#safety of any drilling venture, drilling rig or its crew or any other third party.  The 
#Customer has full responsibility for all drilling, completion and production operation.  
#Halliburton makes no representations or warranties, either expressed or 
#implied, including, but not limited to, the implied warranties of merchantability or fitness 
#for a particular purpose, with respect to the services rendered.  In no event will 
#Halliburton be liable for failure to obtain any particular results or for 
#any damages, including, but not limited to, indirect, special or consequential damages, 
#resulting from the use of any information or interpretation provided by Halliburton.
#
~A    DEPT       CCL    NPHI_OH NPHI_CHI  GR_OH    GR_CHI  RHOB_OH RHOB_CHI  PE_OH   PE_CHI   DTC_OH  DTC_CHI SPHI_CHI RT10_OH  RT10_CHI RT30_OH  RT30_CHI RT90_OH  RT90_CHI   SGF    CRNF   RIN   
# ...
   13730.0000   -0.4069 -999.25   6.0306  -999.25  70.4439 -999.25   2.6548 -999.25    4.3442 -999.25 61.9066  10.1200  -999.25  94.7503  -999.25 102.1100  -999.25 121.7890 17.4817 0.9256 1.0153
   13730.5000   -0.3849 -999.25   6.1787  -999.25  62.0296 -999.25   2.6501 -999.25    4.2129 -999.25 62.3285  10.4200  -999.25  88.3686  -999.25  95.1574  -999.25 112.3102 17.8012 0.9236 1.0219
   13731.0000   -0.3629 -999.25   6.6801  -999.25  59.9619 -999.25   2.6420 -999.25    4.0687 -999.25 63.3273  11.1200  -999.25  79.8393  -999.25  85.8644  -999.25 100.6949 18.0628 0.9245 1.0276
   13731.5000   -0.3409 -999.25   7.5548  -999.25  71.1660 -999.25   2.6313 -999.25    3.9551 -999.25 64.2031  11.7400  -999.25  73.3381  -999.25  78.6535  -999.25  92.5503 18.3404 0.9437 1.0344
   13732.0000   -0.3189 -999.25   7.8891  -999.25  76.4405 -999.25   2.6287 -999.25    3.9346 -999.25 64.5463  11.9800  -999.25  70.4877  -999.25  75.3662  -999.25  88.7344 18.7924 0.9838 1.0415
   13732.5000   -0.2969 -999.25   7.7936  -999.25  75.4063 -999.25   2.6308 -999.25    3.9543 -999.25 64.5949  12.0200  -999.25  70.6845  -999.25  75.4899  -999.25  88.7815 19.2676 1.0202 1.0498
   13733.0000   -0.2749 -999.25   7.6465  -999.25  68.8703 -999.25   2.6287 -999.25    3.8458 -999.25 64.6721  12.0700  -999.25  73.0350  -999.25  77.9676  -999.25  91.2399 19.8296 1.0253 1.0544
   13733.5000   -0.2529 -999.25   8.0734  -999.25  68.2332 -999.25   2.6186 -999.25    3.6355 -999.25 65.4770  12.6400  -999.25  71.1723  -999.25  75.7486  -999.25  88.2370 20.2909 1.0105 1.0619
   13734.0000   -0.2309 -999.25   9.6547  -999.25  85.6357 -999.25   2.5968 -999.25    3.3312 -999.25 67.0038  13.7200  -999.25  62.3525  -999.25  65.4269  -999.25  75.9350 20.7807 0.9944 1.0700
   13734.5000   -0.2089 -999.25  10.7517  -999.25  98.0685 -999.25   2.5863 -999.25    3.2348 -999.25 68.2356  14.5900  -999.25  51.1104  -999.25  52.6862  -999.25  60.4984 21.3068 0.9828 1.0760
   13735.0000   -0.1870 -999.25  10.7573  -999.25 100.2528 -999.25   2.5899 -999.25    3.2970 -999.25 68.9167  15.0800  -999.25  45.6591  -999.25  46.4990  -999.25  53.0147 21.9533 0.9764 1.0786
   13735.5000   -0.1650 -999.25  10.5585  -999.25  99.2654 -999.25   2.5949 -999.25    3.3546 -999.25 69.3987  15.4200  -999.25  42.6444  -999.25  43.0310  -999.25  48.7915 22.4727 0.9804 1.0792
   13736.0000   -0.1430 -999.25  10.6594  -999.25 103.9068 -999.25   2.5958 -999.25    3.3614 -999.25 69.5742  15.5400  -999.25  38.7107  -999.25  38.4414  -999.25  43.2667 23.1039 0.9964 1.0818
   13736.5000   -0.1210 -999.25  10.7288  -999.25 107.3501 -999.25   2.5957 -999.25    3.3614 -999.25 69.4661  15.4600  -999.25  37.2380  -999.25  36.6832  -999.25  41.1743 23.9687 1.0257 1.0867
   13737.0000   -0.0990 -999.25  10.8865  -999.25 110.2359 -999.25   2.5935 -999.25    3.3059 -999.25 69.5909  15.5500  -999.25  35.4918  -999.25  34.5759  -999.25  38.5865 24.7201 1.0422 1.0906
   13737.5000   -0.0770 -999.25  10.8274  -999.25 105.8107 -999.25   2.5919 -999.25    3.2013 -999.25 69.9605  15.8100  -999.25  36.0980  -999.25  34.9851  -999.25  38.8261 25.2114 1.0259 1.0906
   13738.0000   -0.0550 -999.25  11.0232  -999.25 100.6665 -999.25   2.5874 -999.25    3.0518 -999.25 70.9644  16.5200  -999.25  34.8218  -999.25  33.4582  -999.25  36.7307 25.4446 1.0034 1.0910
   13738.5000   -0.0330 -999.25  11.3001  -999.25  96.1867 -999.25   2.5836 -999.25    2.9440 -999.25 72.0465  17.2900  -999.25  32.6941  -999.25  31.1521  -999.25  33.8241 25.7631 1.0029 1.0934
   13739.0000   -0.0073 -999.25  11.7478  -999.25 103.1839 -999.25   2.5815 -999.25    2.9457 -999.25 72.5506  17.6500  -999.25  27.1184  -999.25  25.2994  -999.25  27.1105 26.5925 1.0354 1.0977
   13739.5000    0.0000 -999.25  11.3699  -999.25 107.0343 -999.25   2.5867 -999.25    3.0143 -999.25 71.3204  16.7800  -999.25  27.4049  -999.25  25.4201  -999.25  27.3275 27.5803 1.1047 1.0999
   13740.0000    0.0000 -999.25  11.1180  -999.25 102.9100 -999.25   2.5874 -999.25    2.9308 -999.25 70.8405  16.4400  -999.25  29.8198  -999.25  27.6010  -999.25  29.6563 28.5435 1.1726 1.0991
   13740.5000   98.9022 -999.25  11.5903  -999.25 104.2909 -999.25   2.5792 -999.25    2.7218 -999.25 71.4285  16.8500  -999.25  31.9319  -999.25  29.3530  -999.25  31.3966 29.2060 1.2130 1.0946
   13741.0000    0.0000 -999.25  12.8373  -999.25 109.5117 -999.25   2.5672 -999.25    2.5144 -999.25 73.2144  18.1100  -999.25  32.6571  -999.25  29.7116  -999.25  31.4361 29.7129 1.2242 1.0934
   13741.5000    0.0000 -999.25  14.4345  -999.25 121.7763 -999.25   2.5575 -999.25    2.4400 -999.25 74.8809  19.2900  -999.25  32.4691  -999.25  29.2008  -999.25  30.5344 30.0536 1.1987 1.0955
   13742.0000    0.0000 -999.25  14.6211  -999.25 112.6180 -999.25   2.5588 -999.25    2.4358 -999.25 75.4265  19.6800  -999.25  33.7048  -999.25  30.4298  -999.25  31.7119 30.3759 1.1631 1.0966
   13742.5000   -0.9369 -999.25  14.8139  -999.25 111.9803 -999.25   2.5598 -999.25    2.4494 -999.25 75.8497  19.9800  -999.25  32.2949  -999.25  28.9662  -999.25  29.9854 30.5636 1.1303 1.0986
   13743.0000   -0.8984 -999.25  14.5367  -999.25 106.7408 -999.25   2.5635 -999.25    2.4869 -999.25 75.9486  20.0500  -999.25  29.6336  -999.25  26.4145  -999.25  27.1497 30.6693 1.1072 1.0969
   13743.5000   -0.8599 -999.25  13.5608  -999.25  95.2988 -999.25   2.5707 -999.25    2.5040 -999.25 74.8495  19.2700  -999.25  27.9054  -999.25  24.8296  -999.25  25.4737 30.9223 1.0988 1.0928
   13744.0000   -0.8214 -999.25  13.4270  -999.25 101.0525 -999.25   2.5721 -999.25    2.5478 -999.25 74.3434  18.9100  -999.25  25.0380  -999.25  22.0508  -999.25  22.5174 30.9615 1.0918 1.0903
   13744.5000   -0.7829 -999.25  12.9244  -999.25 103.5629 -999.25   2.5743 -999.25    2.5357 -999.25 73.1885  18.1000  -999.25  25.5426  -999.25  22.4586  -999.25  23.0567 30.8680 1.0850 1.0882
   13745.0000   -0.7444 -999.25  12.3323  -999.25  94.3288 -999.25   2.5781 -999.25    2.5209 -999.25 72.3102  17.4800  -999.25  26.8090  -999.25  23.7290  -999.25  24.4517 30.5401 1.0778 1.0876
   13745.5000   -0.7059 -999.25  12.4821  -999.25 100.0750 -999.25   2.5765 -999.25    2.5252 -999.25 72.4891  17.6000  -999.25  26.7037  -999.25  23.5881  -999.25  24.3433 30.3133 1.0718 1.0863
   13746.0000   -0.6674 -999.25  12.2571  -999.25  97.8798 -999.25   2.5776 -999.25    2.5408 -999.25 72.2794  17.4500  -999.25  27.1627  -999.25  24.1069  -999.25  24.9620 30.1435 1.0643 1.0819
   13746.5000   -0.6289 -999.25  12.1119  -999.25  97.6328 -999.25   2.5781 -999.25    2.5498 -999.25 72.1082  17.3300  -999.25  27.7271  -999.25  24.6913  -999.25  25.6532 30.1865 1.0631 1.0787
   13747.0000   -0.5904 -999.25  11.9962  -999.25  97.5933 -999.25   2.5785 -999.25    2.5520 -999.25 71.9204  17.2000  -999.25  28.3102  -999.25  25.2697  -999.25  26.3254 30.1103 1.0668 1.0781
   13747.5000   -0.5519 -999.25  12.1507  -999.25 102.1906 -999.25   2.5768 -999.25    2.5500 -999.25 72.0970  17.3200  -999.25  28.3954  -999.25  25.3175  -999.25  26.4174 29.8813 1.0689 1.0805
   13748.0000   -0.5134 -999.25  11.5962  -999.25  93.0234 -999.25   2.5807 -999.25    2.5410 -999.25 71.2700  16.7400  -999.25  30.2762  -999.25  27.2297  -999.25  28.5248 29.0292 1.0621 1.0789
   13748.5000   -0.4749 -999.25  12.1553  -999.25 104.3262 -999.25   2.5766 -999.25    2.5568 -999.25 72.0143  17.2700  -999.25  28.3882  -999.25  25.2960  -999.25  26.4271 27.8995 1.0302 1.0709
   13749.0000   -0.4364 -999.25  12.5150  -999.25 109.5772 -999.25   2.5740 -999.25    2.5946 -999.25 72.7408  17.7800  -999.25  26.9821  -999.25  24.0245  -999.25  25.0676 26.6108 0.9904 1.0581
   13749.5000   -0.3979 -999.25  11.6634  -999.25  93.2524 -999.25   2.5790 -999.25    2.6715 -999.25 72.3542  17.5100  -999.25  31.3217  -999.25  28.8448  -999.25  30.5957 25.8509 0.9717 1.0479
   13750.0000   -0.3594 -999.25  11.0288  -999.25  94.9932 -999.25   2.5837 -999.25    2.7971 -999.25 70.9924  16.5400  -999.25  36.3726  -999.25  34.2654  -999.25  37.1104 25.3651 0.9716 1.0431
   13750.5000   -0.3209 -999.25  10.0574  -999.25  90.6749 -999.25   2.5932 -999.25    2.9291 -999.25 68.7452  14.9500  -999.25  46.6619  -999.25  45.1460  -999.25  49.9957 24.8522 0.9701 1.0403
