###############################################
##         ENVERUS                           ##
##         ESS - Open Hole                   ##
##         PERMIAN / DELAWARE                ##
##         Nov 02 2023  V4.0                 ##
##         42-109-10429-00-00                ##
###############################################
## Copyright 2017-2023  ENVERUS.  All Rights Reserved. 
## Confidential - Property of ENVERUS, use governed by terms and 
## conditions found within the existing Information Services Subscription Agreement 
## (as may be amended, the “ISSA”) between Customer and ENVERUS. 
## 
~VERSION INFORMATION
# MNEM.UNIT                               DATA : DESCRIPTION OF MNEMONIC
#-----.-----     ----------------------------- : -----------------------------
VERS.                                     2.00 : CWLS LOG ASCII STANDARD - VERSION 2.00
WRAP.                                       NO : MULTIPLE LINES PER DEPTH STEP
VEND.                                  ENVERUS : VENDOR
TYPE.                          ESS - OPEN HOLE : ENVERUS ESSENTIAL CURVES – ACCESSIBLE THROUGH ENVERUS PRISM(TM)
DOC.                                  32032754 : ENVERUS HEADER RAW DOCUMENT ID
#___________________________________________________________________________________________________ 
~WELL INFORMATION 
# hXqYWT5FmhW7UEcPXxReyvN++rqgSwBrBdup88XCyeQNQmx1Fo1vv7xYmZNr9HC+TZh0ltY2ePdKOSE9Z1hlZw== 
# MNEM.UNIT                                              DATA : DESCRIPTION OF MNEMONIC 
#-----.-----                    ----------------------------- : ----------------------------- 
CNTY.                                               CULBERSON : COUNTY 
STATE.                                                  TEXAS : STATE 
CNTRY.                                                    USA : COUNTRY 
API.                                             42-109-10429 : API (10 Digit) 
API_14.                                    42-109-10429-00-00 : API (14 Digits) 
API_14_std.                                 42-109-10429-0000 : API (14 Digits Standard) 
UWI.                                           42109104290000 : UNIQUE WELL ID 
WELL.                                          ROUNSAVILLE  1 : WELL NAME
STRT.FT                                                     0 : START DEPTH
STOP.FT                                                8409.0 : STOP DEPTH
STEP.FT                                                   0.5 : STEP BETWEEN DEPTHS
NULL.                                                 -999.25 : NULL VALUE
COMP.                                     EOG RESOURCES  INC. : COMPANY
#___________________________________________________________________________________________________ 
~CURVE INFORMATION 
# MNEM.UNIT           : CURVE DESCRIPTION 
#-----.-----          : ----------------------------- 
 DEPT.FT               : MEASURED DEPTH 
 CALI.IN               : CALIPER (CAL - CAL) 
 GR.API                : GAMMA RAY (GR) 
 SP.MV                 : SPONTANEOUS POTENTIAL (SP) 
 DT.US/FT              : SONIC DELTA TRANSIT TIME (DT) 
 RESD.OHMM             : DEEP INDUCTION RESISTIVITY (ILD - ILD) 
 #___________________________________________________________________________________________________ 
~A         DEPT           CALI             GR             SP             DT           RESD
# ...
         4092.0         13.288         39.995        -37.746         62.018        597.127
         4092.5         13.240         42.813        -37.936         65.279        608.053
         4093.0         13.189         45.632        -38.126         69.147        618.979
         4093.5         13.108         47.739        -38.256         69.041        638.012
         4094.0         13.027         45.629        -38.292         68.745        665.323
         4094.5         12.952         43.518        -38.328         68.449        692.633
         4095.0         13.033         41.407        -38.365         64.408        739.169
         4095.5         13.113         39.296        -38.401         62.308        823.311
         4096.0         13.194         40.611        -38.613         62.630        907.454
         4096.5         13.275         41.966        -38.866         63.694        991.596
         4097.0         13.020         43.322        -39.118         65.150       1031.063
         4097.5         13.003         44.391        -39.370         66.638       1022.800
         4098.0         13.061         44.924        -39.604         67.230       1014.538
         4098.5         12.991         45.458        -39.603         64.736       1006.275
         4099.0         13.005         45.991        -39.602         65.574        998.012
         4099.5         13.182         46.525        -39.588         66.969        989.750
         4100.0         13.358         48.560        -39.491         68.525        981.487
         4100.5         13.201         51.097        -39.395         69.565        972.716
         4101.0         13.038         51.313        -39.298         68.053        963.156
         4101.5         12.938         49.566        -39.201         66.542        953.596
         4102.0         12.930         47.818        -39.104         65.140        944.036
         4102.5         12.921         48.051        -39.007         65.952        934.477
         4103.0         12.946         50.192        -38.911         68.212        924.917
         4103.5         13.033         52.334        -38.814         70.471        915.357
         4104.0         13.119         53.487        -38.717         71.404        905.798
         4104.5         13.139         53.690        -38.620         71.072        896.238
         4105.0         13.099         52.151        -38.523         70.471        886.678
         4105.5         13.059         49.634        -38.427         67.648        877.118
         4106.0         13.019         46.660        -38.535         64.824        869.271
         4106.5         13.157         43.686        -38.806         63.831        871.801
         4107.0         13.174         43.954        -39.077         64.834        874.330
         4107.5         12.931         44.504        -39.348         67.094        876.859
         4108.0         12.907         46.860        -39.668         69.355        879.389
         4108.5         12.898         50.743        -40.283         70.344        812.189
         4109.0         13.071         51.065        -40.899         70.543        744.432
         4109.5         13.244         51.279        -41.210         70.668        676.674
         4110.0         13.152         51.493        -40.977         70.698        611.328
         4110.5         13.047         51.707        -40.744         70.468        613.642
         4111.0         12.994         51.921        -40.511         70.051        615.957
         4111.5         13.028         52.135        -40.278         69.634        618.271
         4112.0         13.062         46.394        -40.045         66.536        696.368
         4112.5         13.097         40.267        -39.811         62.961        786.791
         4113.0         13.260         35.953        -39.578         60.369        877.215
         4113.5         13.252         33.708        -39.345         61.326        936.367
         4114.0         13.147         35.459        -39.112         64.244        984.413
         4114.5         13.041         37.211        -39.126         67.162       1032.458
         4115.0         12.992         38.962        -39.233         67.061       1080.504
         4115.5         12.952         39.505        -39.339         65.458       1065.700
         4116.0         12.913         39.649        -39.446         63.457       1040.412
         4116.5         12.890         38.948        -39.552         62.490       1015.124
         4117.0         13.029         37.494        -39.659         62.282        989.835
         4117.5         13.167         40.210        -39.727         62.902        964.547
         4118.0         13.240         43.220        -39.726         65.281        933.889
         4118.5         13.135         46.230        -39.724         67.659        884.313
         4119.0         13.109         49.240        -39.723         69.879        834.738
         4119.5         13.131         52.250        -39.615         69.912        785.163
         4120.0         13.152         46.919        -39.473         68.483        735.588
         4120.5         13.174         40.629        -39.331         65.893        689.588
         4121.0         13.173         39.432        -39.189         63.303        715.095
         4121.5         13.057         38.913        -39.048         62.932        740.601
         4122.0         12.942         40.100        -39.142         62.754        766.107
         4122.5         13.153         41.288        -39.275         63.105        791.614
         4123.0         13.161         42.475        -39.407         63.578        817.120
         4123.5         13.127         43.662        -39.540         64.052        840.667
         4124.0         13.094         44.795        -39.673         64.525        861.888
         4124.5         13.060         45.913        -39.805         64.651        883.110
         4125.0         13.024         46.086        -39.938         64.289        904.332
         4125.5         12.985         45.873        -39.988         63.926        925.553
         4126.0         12.946         45.661        -39.662         63.564        946.775
         4126.5         12.907         47.501        -39.335         65.628        967.996
         4127.0         12.868         51.150        -39.008         68.943        989.218
         4127.5         12.889         54.798        -38.681         71.766       1010.440
         4128.0         12.912         56.965        -38.354         71.923       1024.687
         4128.5         12.936         54.253        -38.028         71.655       1012.109
         4129.0         12.997         50.645        -37.832         70.568        999.531
         4129.5         13.063         46.991        -37.911         69.482        986.953
         4130.0         13.177         43.338        -37.990         68.045        974.375
         4130.5         13.399         41.825        -38.070         66.592        961.797
         4131.0         13.319         41.066        -38.149         65.363        949.219
         4131.5         13.086         40.308        -38.228         65.533        936.641
         4132.0         13.264         40.450        -38.307         65.983        924.064
         4132.5         13.311         43.512        -38.386         67.768        911.486
         4133.0         13.130         46.574        -38.466         69.552        898.908
         4133.5         13.098         49.635        -38.366         71.336        886.330
         4134.0         13.120         52.055        -38.229         71.604        910.193
         4134.5         13.155         50.198        -38.092         71.006        949.159
         4135.0         13.198         46.303        -37.955         69.809        988.125
         4135.5         13.241         42.409        -37.818         68.612       1027.091
