###############################################
##         ENVERUS                           ##
##         ESS - Open Hole                   ##
##         PERMIAN / DELAWARE                ##
##         Nov 03 2023  V4.0                 ##
##         42-109-32572-90-00                ##
###############################################
## Copyright 2017-2023  ENVERUS.  All Rights Reserved. 
## Confidential - Property of ENVERUS, use governed by terms and 
## conditions found within the existing Information Services Subscription Agreement 
## (as may be amended, the “ISSA”) between Customer and ENVERUS. 
## 
~VERSION INFORMATION
# MNEM.UNIT                               DATA : DESCRIPTION OF MNEMONIC
#-----.-----     ----------------------------- : -----------------------------
VERS.                                     2.00 : CWLS LOG ASCII STANDARD - VERSION 2.00
WRAP.                                       NO : MULTIPLE LINES PER DEPTH STEP
VEND.                                  ENVERUS : VENDOR
TYPE.                          ESS - OPEN HOLE : ENVERUS ESSENTIAL CURVES – ACCESSIBLE THROUGH ENVERUS PRISM(TM)
DOC.                                  51093467 : ENVERUS HEADER RAW DOCUMENT ID
#___________________________________________________________________________________________________ 
~WELL INFORMATION 
# 8gl1O6v4swiPFL4GH+dnL3Th7drW/gNnufiOMC39xBbatiyIUGjWQRxOO2UkOAKZqu0QrDKM70MxnzzovQmAYg== 
# MNEM.UNIT                                              DATA : DESCRIPTION OF MNEMONIC 
#-----.-----                    ----------------------------- : ----------------------------- 
CNTY.                                               CULBERSON : COUNTY 
STATE.                                                  TEXAS : STATE 
CNTRY.                                                    USA : COUNTRY 
API.                                             42-109-32572 : API (10 Digit) 
API_14.                                    42-109-32572-90-00 : API (14 Digits) 
API_14_std.                                 42-109-32572-9000 : API (14 Digits Standard) 
UWI.                                           42109325729000 : UNIQUE WELL ID 
WELL.                               42109325720000_PREV_API14 : WELL NAME
STRT.FT                                                2248.5 : START DEPTH
STOP.FT                                               10757.5 : STOP DEPTH
STEP.FT                                                   0.5 : STEP BETWEEN DEPTHS
NULL.                                                 -999.25 : NULL VALUE
PREV_APII.                                     42109325720000 : WELL IDENTIFIER
#___________________________________________________________________________________________________ 
~PARAMETER INFORMATION 
# MNEM.UNIT                                              DATA : DESCRIPTION OF MNEMONIC 
#-----.-----                    ----------------------------- : ----------------------------- 
EKB.FT                                                   3340 : ELEVATION ABOVE MSL
#___________________________________________________________________________________________________ 
~CURVE INFORMATION 
# MNEM.UNIT           : CURVE DESCRIPTION 
#-----.-----          : ----------------------------- 
 DEPT.FT               : MEASURED DEPTH 
 CALI.IN               : CALIPER (CAL - CALIPER) 
 GR.API                : GAMMA RAY (GAMMA RAY) 
 DT.US/FT              : SONIC DELTA TRANSIT TIME (SONIC) 
 #___________________________________________________________________________________________________ 
~A         DEPT           CALI             GR             DT
# ...
        10630.5          8.765         94.029         72.627
        10631.0          8.765         85.741         64.631
        10631.5          8.764         71.719         58.821
        10632.0          8.764         66.858         59.927
        10632.5          8.764         78.561         62.979
        10633.0          8.763         95.615         65.287
        10633.5          8.763         98.129         73.046
        10634.0          8.762         98.519         76.646
        10634.5          8.762         99.217         76.420
        10635.0          8.762         94.218         73.491
        10635.5          8.761         75.970         70.423
        10636.0          8.761         67.826         68.084
        10636.5          8.760         59.683         65.582
        10637.0          8.760         64.010         65.570
        10637.5          8.759         72.893         67.994
        10638.0          8.759         78.652         69.406
        10638.5          8.759         88.288         71.361
        10639.0          8.758         98.117         72.483
        10639.5          8.758        102.863         75.408
        10640.0          8.757        102.081         78.078
        10640.5          8.757        104.268         76.462
        10641.0          8.757        104.487         73.553
        10641.5          8.762         98.784         73.128
        10642.0          8.782         95.970         73.770
        10642.5          8.793         98.972         74.769
        10643.0          8.801        105.351         77.344
        10643.5          8.801        107.892         78.014
        10644.0          8.801        107.114         77.190
        10644.5          8.798        101.895         74.357
        10645.0          8.778         98.569         73.898
        10645.5          8.778         99.038         73.362
        10646.0          8.777        104.967         72.800
        10646.5          8.776        102.771         72.209
        10647.0          8.775         98.434         72.478
        10647.5          8.774         96.742         72.829
        10648.0          8.773         94.749         72.888
        10648.5          8.772         91.977         72.871
        10649.0          8.771         92.172         72.642
        10649.5          8.771         91.781         70.592
        10650.0          8.770         92.564         69.926
        10650.5          8.769         93.935         54.777
        10651.0          8.768         96.086         55.784
        10651.5          8.767         97.700         57.182
        10652.0          8.766         97.456         57.482
        10652.5          8.765         96.311         62.749
        10653.0          8.765         94.191         73.125
        10653.5          8.764         92.564         75.668
        10654.0          8.763         92.759         75.746
        10654.5          8.762         92.564         74.395
        10655.0          8.761         93.292         74.265
        10655.5          8.760         97.692         73.691
        10656.0          8.759         99.060         73.829
        10656.5          8.759         98.826         73.910
        10657.0          8.758         98.239         73.329
        10657.5          8.757         98.665         73.350
        10658.0          8.756         98.826         73.467
        10658.5          8.755         99.025         73.447
        10659.0          8.754        102.381         73.281
        10659.5          8.753        102.935         72.991
        10660.0          8.752        103.327         72.430
        10660.5          8.752        103.327         71.231
        10661.0          8.751        103.718         71.297
        10661.5          8.750        103.691         71.356
        10662.0          8.749        102.740         71.672
        10662.5          8.748        104.257         73.799
        10663.0          8.747        105.480         76.394
        10663.5          8.746        105.502         78.327
        10664.0          8.746        106.067         78.197
        10664.5          8.745        105.850         77.960
        10665.0          8.744        104.638         76.293
        10665.5          8.743        101.733         61.268
        10666.0          8.742         98.843         57.556
        10666.5          8.741        102.789         65.217
        10667.0          8.740        105.909         69.162
        10667.5          8.740        107.759         69.594
        10668.0          8.739        108.597         70.213
        10668.5          8.738        107.314         71.926
        10669.0          8.737        104.087         72.981
        10669.5          8.736       -999.250         75.156
        10670.0          8.735       -999.250         75.393
        10670.5          8.734       -999.250         75.687
        10671.0          8.734       -999.250         76.152
        10671.5          8.734       -999.250         76.211
        10672.0          8.734       -999.250         75.855
        10672.5          8.734       -999.250         66.913
        10673.0          8.734       -999.250         65.925
        10673.5          8.734       -999.250         69.297
        10674.0          8.736       -999.250         69.590
        10674.5          8.737       -999.250         70.029
        10675.0          8.739       -999.250         72.461
        10675.5          8.740       -999.250         74.306
        10676.0          8.741       -999.250         74.687
        10676.5          8.743       -999.250         76.320
        10677.0          8.744       -999.250         77.205
        10677.5          8.745       -999.250         77.383
        10678.0          8.747       -999.250         77.151
        10678.5          8.748       -999.250         75.972
        10679.0          8.749       -999.250         71.978
        10679.5          8.751       -999.250         67.897
        10680.0          8.752       -999.250         73.102
        10680.5          8.753       -999.250         76.965
        10681.0          8.755       -999.250         77.262
        10681.5          8.756       -999.250         77.523
        10682.0          8.757       -999.250         77.617
        10682.5          8.759       -999.250         76.654
        10683.0          8.760       -999.250         60.272
        10683.5          8.762       -999.250         59.928
        10684.0          8.763       -999.250         63.569
        10684.5          8.764       -999.250         64.434
        10685.0          8.766       -999.250         64.710
        10685.5          8.767       -999.250         72.226
        10686.0          8.768       -999.250         76.921
        10686.5          8.770       -999.250         73.733
        10687.0          8.771       -999.250         70.612
        10687.5          8.772       -999.250         68.665
        10688.0          8.774       -999.250         68.368
        10688.5          8.775       -999.250         67.548
        10689.0          8.776       -999.250         66.669
        10689.5          8.778       -999.250         68.639
        10690.0          8.779       -999.250         70.269
        10690.5          8.780       -999.250         70.927
        10691.0          8.782       -999.250         71.692
        10691.5          8.783       -999.250         72.504
        10692.0          8.784       -999.250         72.783
        10692.5          8.786       -999.250         72.194
        10693.0          8.787       -999.250         74.770
        10693.5          8.789       -999.250         75.226
        10694.0          8.790       -999.250         73.176
        10694.5          8.791       -999.250         72.871
        10695.0          8.793       -999.250         72.871
        10695.5          8.794       -999.250         72.871
        10696.0          8.795       -999.250         72.826
