###############################################
##         ENVERUS                           ##
##         ESS - Open Hole                   ##
##         PERMIAN / DELAWARE                ##
##         Nov 03 2023  V4.0                 ##
##         42-109-32538-90-00                ##
###############################################
## Copyright 2017-2023  ENVERUS.  All Rights Reserved. 
## Confidential - Property of ENVERUS, use governed by terms and 
## conditions found within the existing Information Services Subscription Agreement 
## (as may be amended, the “ISSA”) between Customer and ENVERUS. 
## 
~VERSION INFORMATION
# MNEM.UNIT                               DATA : DESCRIPTION OF MNEMONIC
#-----.-----     ----------------------------- : -----------------------------
VERS.                                     2.00 : CWLS LOG ASCII STANDARD - VERSION 2.00
WRAP.                                       NO : MULTIPLE LINES PER DEPTH STEP
VEND.                                  ENVERUS : VENDOR
TYPE.                          ESS - OPEN HOLE : ENVERUS ESSENTIAL CURVES – ACCESSIBLE THROUGH ENVERUS PRISM(TM)
DOC.                                  51093252 : ENVERUS HEADER RAW DOCUMENT ID
#___________________________________________________________________________________________________ 
~WELL INFORMATION 
# oCCetX3e+0pvkDd8h//i1tmWwvIHyfHqsQII3M49Y6eU5HggNAlLoqtwY+vCuZvzOG9Fr+Tv1xe2vto6NUMufQ== 
# MNEM.UNIT                                              DATA : DESCRIPTION OF MNEMONIC 
#-----.-----                    ----------------------------- : ----------------------------- 
CNTY.                                               CULBERSON : COUNTY 
STATE.                                                  TEXAS : STATE 
CNTRY.                                                    USA : COUNTRY 
API.                                             42-109-32538 : API (10 Digit) 
API_14.                                    42-109-32538-90-00 : API (14 Digits) 
API_14_std.                                 42-109-32538-9000 : API (14 Digits Standard) 
UWI.                                           42109325389000 : UNIQUE WELL ID 
WELL.                                                  DRD_55 : WELL NAME
STRT.FT                                                2546.5 : START DEPTH
STOP.FT                                               11260.0 : STOP DEPTH
STEP.FT                                                   0.5 : STEP BETWEEN DEPTHS
NULL.                                                 -999.25 : NULL VALUE
PREV_APII.                                     42109325380000 : WELL IDENTIFIER
#___________________________________________________________________________________________________ 
~PARAMETER INFORMATION 
# MNEM.UNIT                                              DATA : DESCRIPTION OF MNEMONIC 
#-----.-----                    ----------------------------- : ----------------------------- 
EKB.FT                                                   3182 : ELEVATION ABOVE MSL
#___________________________________________________________________________________________________ 
~CURVE INFORMATION 
# MNEM.UNIT           : CURVE DESCRIPTION 
#-----.-----          : ----------------------------- 
 DEPT.FT               : MEASURED DEPTH 
 CALI.IN               : CALIPER (CAL - CALIPER) 
 GR.API                : GAMMA RAY (GAMMA RAY) 
 DT.US/FT              : SONIC DELTA TRANSIT TIME (SONIC) 
 RESS.OHMM             : SHALLOW INDUCTION RESISTIVITY (ILS - SHALLOW RESISTIVITY) 
 RESD.OHMM             : DEEP INDUCTION RESISTIVITY (ILD - DEEP RESISTIVITY) 
 DPHI.V/V              : DENSITY POROSITY (DENSITY POROSITY) 
 NPHI.V/V              : NEUTRON POROSITY (NEUTRON POROSITY) 
 RHOB.G/CC             : BULK DENSITY (DENSITY) 
 #___________________________________________________________________________________________________ 
~A         DEPT           CALI             GR             DT           RESS           RESD           DPHI           NPHI           RHOB
# ...
        10718.0          6.210        113.432         84.172         27.548         37.016        0.09170        0.16291         2.5570
        10718.5          6.210        115.798         83.731         31.238         37.194        0.09849        0.18384         2.5593
        10719.0          6.210        104.071         82.701         31.377         35.407        0.09649        0.20255         2.5623
        10719.5          6.201        103.007         81.672         28.335         32.915        0.09094        0.20673         2.5664
        10720.0          6.201         96.052         81.309         27.833         31.527        0.08770        0.21446         2.5715
        10720.5          6.201         93.967         81.309         29.028         34.375        0.08758        0.20386         2.5805
        10721.0          6.199        101.848         81.579         26.535         34.379        0.08441        0.16989         2.5878
        10721.5          6.196        110.888         81.309         24.343         30.913        0.07878        0.17374         2.5560
        10722.0          6.194        166.497         81.309         23.520         28.111        0.08780        0.17374         2.5291
        10722.5          6.192        170.849         80.405         21.851         25.639        0.10415        0.17803         2.5145
        10723.0          6.192        147.653         79.785         21.470         25.084        0.11940        0.19602         2.5420
        10723.5          6.192        117.062         79.264         23.533         25.499        0.12103        0.18980         2.5550
        10724.0          6.192        124.288         78.855         25.340         26.355        0.10335        0.17543         2.5202
        10724.5          6.192        140.373         79.785         23.059         24.482        0.10122        0.18059         2.4983
        10725.0          6.192        141.997         81.343         20.082         21.405        0.12328        0.17089         2.5085
        10725.5          6.192        148.374         83.873         18.194         18.281        0.13055        0.20550         2.5168
        10726.0          6.190        162.726         86.278         16.095         16.118        0.12522        0.20566         2.5236
        10726.5          6.176        170.644         87.992         15.915         15.371        0.11710        0.20139         2.5017
        10727.0          6.165        170.702         88.671         16.219         15.356        0.12416        0.21698         2.4950
        10727.5          6.165        168.832         88.109         16.040         14.794        0.13307        0.22814         2.5119
        10728.0          6.165        131.963         86.511         15.238         14.736        0.12588        0.23230         2.5204
        10728.5          6.165        101.540         84.370         15.266         15.650        0.11905        0.23661         2.5330
        10729.0          6.165         90.161         81.839         16.332         16.574        0.11379        0.19625         2.5616
        10729.5          6.165         90.015         80.982         19.540         19.151        0.10271        0.15915         2.5971
        10730.0          6.165         96.760         81.229         23.426         28.400        0.06983        0.15060         2.6150
        10730.5          6.165        114.844         81.795         34.107         38.035        0.05699        0.14268         2.6148
        10731.0          6.165        127.829         82.361         33.366         36.356        0.05738        0.15191         2.5836
        10731.5          6.165        130.373         83.056         30.726         31.409        0.06423        0.14744         2.5906
        10732.0          6.164        134.135         83.345         29.993         30.640        0.07983        0.14182         2.6025
        10732.5          6.163        133.463         82.725         29.136         32.128        0.07069        0.16500         2.6085
        10733.0          6.162        130.086         82.514         28.153         33.690        0.06415        0.19133         2.6041
        10733.5          6.162        134.135         81.894         26.927         34.610        0.06063        0.21511         2.5561
        10734.0          6.161        150.910         81.718         25.285         31.985        0.08743        0.21900         2.5166
        10734.5          6.160        153.102         81.718         23.859         26.292        0.11471        0.23189         2.5216
        10735.0          6.159        149.552         82.176         23.247         23.462        0.12085        0.21336         2.5283
        10735.5          6.159        140.037         83.205         22.969         21.593        0.11775        0.18505         2.5378
        10736.0          6.158        132.920         84.234         22.752         21.268        0.11185        0.16829         2.5475
        10736.5          6.157        146.900         85.605         22.451         21.670        0.10601        0.17126         2.5510
        10737.0          6.156        152.300         87.110         22.176         22.895        0.09797        0.17789         2.5410
        10737.5          6.156        164.308         88.140         21.778         23.204        0.10086        0.19823         2.5356
        10738.0          6.155        168.511         89.080         21.447         22.936        0.10625        0.20645         2.5299
        10738.5          6.154        165.638         88.780         20.958         22.936        0.10940        0.19192         2.5262
        10739.0          6.153        141.417         88.159         20.272         22.567        0.11364        0.19019         2.5314
        10739.5          6.153        126.030         87.130         19.857         21.742        0.11125        0.19233         2.5543
        10740.0          6.152        123.438         86.101         19.469         19.756        0.10318        0.18968         2.5579
        10740.5          6.151        122.069         85.072         18.995         17.632        0.09295        0.18197         2.5599
        10741.0          6.150        115.872         84.043         18.601         16.711        0.09497        0.17757         2.5615
        10741.5          6.150        117.561         83.013         18.641         16.474        0.09286        0.17966         2.5609
        10742.0          6.149        121.755         82.536         19.108         16.654        0.09146        0.17939         2.5588
        10742.5          6.148        128.532         82.536         19.851         17.537        0.09206        0.18766         2.5544
        10743.0          6.147        153.371         83.101         21.757         18.546        0.09407        0.20714         2.5423
        10743.5          6.156        149.652         83.763         22.512         19.457        0.09405        0.19754         2.5280
        10744.0          6.156        134.602         84.750         23.848         20.745        0.10762        0.20312         2.5206
        10744.5          6.156        130.790         85.371         25.775         23.392        0.11612        0.23301         2.5175
        10745.0          6.155        137.997         86.400         26.547         27.508        0.11736        0.25803         2.5105
        10745.5          6.154        137.046         87.020         26.797         32.160        0.11722        0.24602         2.4954
        10746.0          6.153        139.416         87.444         27.359         38.419        0.12202        0.21777         2.4851
        10746.5          6.152        147.436         87.853         29.530         42.151        0.12845        0.21998         2.4937
        10747.0          6.151        143.293         87.444         36.110         49.520        0.14018        0.21053         2.5223
