~Version Information
 VERS.                  2.0:   CWLS log ASCII Standard -VERSION 2.0
 WRAP.                   NO:   One line per depth step
~Well Information Block
#MNEM.UNIT     VALUE/NAME     DESCRIPTION
#---------     -----------    ---------------------------
 STRT.F              8580.0000: START DEPTH
 STOP.F             14491.0000: STOP DEPTH
 STEP.F                 0.5000: STEP DEPTH
 NULL.               -999.2500: NULL VALUE
 LOC .     1072' FWL & 424' FNL:  LOCATION
 FL2 .     A2085 SEC 12 BLK 113:  LOCATIONLINE2
 FL1 .     1072' FWL & 424' FNL:  LOCATIONLINE1
 CNTY.               CULBERSON:  COUNTY NAME
 FLD .              WOLFCAMP B:  FIELD NAME
 WELL.           DALE STATE 2H:  WELL NAME
 COMP.     CAPITAN ENERGY INC.:  COMPANY
 DMF .                      KB:  DRILL MEAS FROM
 PDAT.                      GL:  PERMANENT DATUM
 DATE.             11-Feb-2020:  DATE
 SVCO.             Halliburton:  SERVICECONAME
 PROV.                      TX:  PROVINCE
 STAT.                      TX:  STATE NAME
 CTRY.                     USA:  COUNTRY NAME
 HIDE.                        :  WELLNAMEOPERAT
 UWI .            42-109-33544:  UNIQUE WELL IDENTIFIER
 API .            42-109-33544:  API NUMBER
 RANG.                     N/A:  RANGE
 TOWN.                     N/A:  TOWNSHIP
 SECT.                     N/A:  SECTION
 SON .               906290231:  JOB NUMBER
 SRVC.             Halliburton:  SERVICE COMPANY
 LMF .                      KB:  LOG MEASURED FROM
 TVDS.ft           3291.000000:  TVDSS CORRECTN
 EGL .ft           3266.000000:  GROUND ELEVATION
 APD .ft             25.000000:  DEPTH ABOVE PD
 EPD .ft           3266.000000:  ELEVATION
 BAP .ft              0.000000:  GL ELEV ONSHORE
 GVFD.g               1.000000:  GRAVITY FIELD
 EKB .ft           3291.000000:  KB ELEVATION
 EDF .ft           3291.000000:  DF ELEVATION
~Parameter Information Block
#MNEM.UNIT       Value        Description
#---------     -----------    ---------------------------
 BARI.                     OFF:  BARITE CORR 
 BRMP.                      No:  BromidePresent 
 CSF5.        Conductor Casing:  Casing Func5 
 CSF6.        Conductor Casing:  Casing Func6 
 DATE.               07-Feb-20:  Run Date 
 DCS .               07-Feb-20:  DateCircEndT 
 DLAB.               07-Feb-20:  LogStartDateT 
 ENGI.                John Doe:  Engineer Name 
 LSRV.             OH WIRELINE:  NameOfService 
 LSTM.ucts  09.26.51 07-Feb-20:  Log Start Time 
 LTYP.                     RAW:  LogDataType 
 LUL .                  ODESSA:  LoggingUnitLoc 
 LUN .                12100315:  LoggingUnitNum 
 SCT1.               07-Feb-20:  StartDateRun1 
 TCS .                   09 26:  Time Ciculation Ended 
 TDCE.ucts  09.26.51 07-Feb-20:  Time Circ End 
 TLAB.                   09 26:  LogStartTimeT 
~Curve Information Block
#MNEM.UNIT                 API CODE     Curve Description
#---------               -----------    ---------------------------
 DEPT.F                 00 000 000 000:  Depth
 CCL .V                 00 000 000 000:  Casing Collar Locator
 NPHI_OH.pu             00 000 000 000:  NPHI_OH
 NPHI_CHI.decp          00 000 000 000:  NPHI_CHI
 GR  .api               00 000 000 000:  Gamma API
 GR_CHI.api             00 000 000 000:  GR_CHI
 RHOB_OH.g/cc           00 000 000 000:  RHOB_OH
 RHOB_CHI.g/cc          00 000 000 000:  RHOB_CHI
 PE_OH.b/e              00 000 000 000:  PE_OH
 PE_CHI.b/e             00 000 000 000:  PE_CHI
 LLS_CHI.ohmm           00 000 000 000:  LLS_CHI
 LLS_OH.ohmm            00 000 000 000:  LLS_OH
 LLD_OH.ohmm            00 000 000 000:  LLD_OH
 LLD_CHI.ohmm           00 000 000 000:  LLD_CHI
 DTC_OH.uspf            00 000 000 000:  DTC_OH
 DTC_CHI.uspf           00 000 000 000:  DTC_CHI
 SPHW_CHI.decp          00 000 000 000:  SPHW_CHI
#Other Information
#
#WARRANTY: Halliburton will use its best efforts to furnish customers with 
#accurate information and interpretations that are part of, and incident to, the services 
#provided.  However, Halliburton cannot and does not warrant the accuracy 
#or correctness of such information and interpretations.  Under no circumstances should any 
#such information or interpretation be relied upon as the sole basis for any drilling, 
#completion, production, or financial decision or any procedure involving any risk to the 
#safety of any drilling venture, drilling rig or its crew or any other third party.  The 
#Customer has full responsibility for all drilling, completion and production operation.  
#Halliburton makes no representations or warranties, either expressed or 
#implied, including, but not limited to, the implied warranties of merchantability or fitness 
#for a particular purpose, with respect to the services rendered.  In no event will 
#Halliburton be liable for failure to obtain any particular results or for 
#any damages, including, but not limited to, indirect, special or consequential damages, 
#resulting from the use of any information or interpretation provided by Halliburton.
#
~A    DEPT       CCL     NPHI_OH  NPHI_CHI    GR      GR_CHI   RHOB_OH  RHOB_CHI   PE_OH   PE_CHI LLS_CHI   LLS_OH     LLD_OH   LLD_CHI   DTC_OH   DTC_CHI SPHW_CHI 
# ...
    8980.0000   31.6538    9.8900   0.1150   78.2680  59.9818    2.5694   2.5924    2.5479 3.3692  22.9882   11.2304    12.8342  27.9341   71.9711 71.6527 0.1701
    8980.5000    0.0000   10.4100   0.1109   82.7591  50.0344    2.5695   2.6005    2.5368 3.2816  16.2671   11.7539    13.2841  19.7681   71.8229 70.9887 0.1654
    8981.0000    0.0000   12.1500   0.1133   82.6705  53.5909    2.5743   2.5980    2.5625 3.2245  14.8800   11.9829    13.6345  17.8625   71.4658 71.5970 0.1697
    8981.5000   56.8693   13.2300   0.1254   80.7826  75.0694    2.5956   2.5815    2.6122 3.2022  18.4237   13.7853    15.2830  21.5553   71.0253 74.0587 0.1871
    8982.0000   30.8611   13.5100   0.1176   75.9132  55.4706    2.6233   2.5975    2.6888 3.1612  13.0812   13.9914    15.5317  15.2507   71.1796 73.1473 0.1807
    8982.5000    0.0000   13.4600   0.1239   77.8903  66.7156    2.6275   2.5889    2.7284 3.2090  18.0262   18.1818    19.9088  20.7509   72.2399 74.6850 0.1915
    8983.0000   72.0544   14.4100   0.1304   92.7152  74.0924    2.6060   2.5804    2.7028 3.2422  22.9102   18.6177    21.4958  26.3405   73.9165 75.5873 0.1979
    8983.5000  -25.5528   13.2400   0.1447  115.9356  91.8513    2.5762   2.5599    2.7090 3.2651  30.5288   19.2636    22.0586  35.3711   77.4967 76.6552 0.2055
    8984.0000    0.0000   15.0800   0.1588  135.6408 131.7471    2.5472   2.5355    2.7528 3.2505  47.3185   31.9304    35.9239  55.7696   77.9543 78.4188 0.2180
    8984.5000   26.2826   19.1200   0.1588  137.9956 147.1872    2.5261   2.5292    2.8152 3.1533  57.6425   41.9833    45.7505  70.6183   75.4538 78.0304 0.2152
    8985.0000   20.2368   19.1200   0.1504  137.9956 125.2447    2.5261   2.5366    2.8152 3.2323  70.8539   41.9833    45.7505  89.7695   73.9746 75.3750 0.1964
    8985.5000    0.0000   18.5400   0.1242  131.9822  70.6623    2.5186   2.5748    2.9923 3.4557  56.1833   49.0375    57.6240  75.3719   71.2993 70.2218 0.1600
    8986.0000  -11.6795   18.6900   0.0947  105.8268  41.0455    2.5482   2.6161    3.3308 3.8258  54.8301  141.0876   135.3810  76.5259   68.2309 67.6045 0.1415
    8986.5000  -51.7089   12.3900   0.0840   61.3390  38.0248    2.6495   2.6295    3.8355 4.0420  65.9675  176.5809   152.6404  91.0063   66.8979 67.6012 0.1415
    8987.0000  -26.9146    7.0700   0.0856   44.0937  40.5154    2.7563   2.6286    4.3686 4.0480  65.7068  170.3223   145.8284  86.8129   67.8543 68.4913 0.1477
    8987.5000  -29.9965    6.9400   0.1003   65.9747  58.6767    2.7908   2.6090    4.5509 3.8668  68.3516   58.6754    60.3061  84.7875   70.5760 70.9144 0.1649
    8988.0000   76.7206    8.6900   0.1116   95.0924  64.6751    2.7517   2.5972    4.2813 3.5619  44.5773   43.5274    47.4923  53.3401   72.9680 72.3129 0.1748
    8988.5000    0.0000   14.3800   0.1263  107.4344  77.5856    2.6459   2.5791    3.7841 3.3298  31.6779   39.5088    42.7867  37.3562   76.8593 73.9168 0.1861
    8989.0000    0.0000   15.9800   0.1320  116.5169  77.0288    2.5548   2.5728    3.2652 3.1420  19.5740   39.5483    42.6849  23.5326   78.8274 73.7167 0.1847
    8989.5000   33.9795   15.0800   0.1345  124.0607  80.4691    2.5278   2.5661    2.9084 3.0296  17.2758   47.5295    51.6861  21.1848   77.8873 73.2894 0.1817
    8990.0000  -35.4601   15.0800   0.1431  124.0607 101.5455    2.5278   2.5472    2.9084 3.0430  26.1602   47.5295    51.6861  31.7944   77.0601 74.3149 0.1889
    8990.5000   19.7120   15.5100   0.1320  115.6006  83.8302    2.5347   2.5606    2.8710 3.0596  22.1594   63.7293    66.3332  27.2252   73.5295 72.2007 0.1740
    8991.0000   15.7800   15.5800   0.1223   90.1267  82.5772    2.5783   2.5705    3.3320 3.2371  30.6736   87.2305    90.9974  37.8566   68.2260 71.7130 0.1705
    8991.5000  -14.0372   12.9800   0.1001   66.1321  53.9358    2.6243   2.6042    4.2042 3.3777  24.4202  154.0164   156.2876  31.1114   63.2720 69.2227 0.1529
    8992.0000  -19.9381    9.3100   0.0934   52.1734  45.7259    2.6297   2.6157    4.8582 3.4933  25.8413  227.5252   221.4116  33.1121   59.7935 68.8233 0.1501
    8992.5000  -34.6506    8.7100   0.0944   48.7630  38.8952    2.6094   2.6190    4.7908 3.5322  24.1628  252.6995   237.5292  30.6435   59.3073 68.9341 0.1509
    8993.0000   22.7253    7.9100   0.1105   51.9380  54.0968    2.5939   2.5996    4.3590 3.4325  25.9266  110.6532   110.9746  31.7489   60.8695 71.0647 0.1659
    8993.5000  -13.0405    7.6400   0.1210   62.3793  65.3771    2.5956   2.5871    4.0662 3.3870  28.5291   83.8089    85.7226  34.0346   65.9580 72.7717 0.1780
    8994.0000  -14.4639    7.9800   0.1194   78.5294  58.4033    2.5871   2.5922    3.7071 3.3494  24.7179   81.1541    83.5729  29.4196   71.2438 72.6008 0.1768
    8994.5000  -46.8889   10.0100   0.1260   92.9019  69.2681    2.5663   2.5826    3.1635 3.3228  27.8420   73.8705    73.5397  32.9248   72.8905 73.5838 0.1838
    8995.0000    0.0000   13.2000   0.1371  108.7916  89.2758    2.5586   2.5653    2.8253 3.3048  34.2875   76.1278    75.3309  40.2748   74.3239 75.1998 0.1952
    8995.5000    0.0000   13.7600   0.1368  120.3362  85.0772    2.5543   2.5658    2.8120 3.2534  29.0673   77.6284    76.1328  34.5947   75.3848 74.5876 0.1909
    8996.0000   10.6895   14.7400   0.1480  126.1993 113.7612    2.5470   2.5460    2.8690 3.2081  36.8455   88.1782    80.3431  43.8174   75.4519 76.5102 0.2045
    8996.5000    0.0000   15.6000   0.1404  128.8507  97.3237    2.5431   2.5557    2.8709 3.1510  29.4078   64.5380    59.2287  35.6965   75.5647 74.6791 0.1915
    8997.0000  -56.0782   15.4100   0.1265  122.7301  73.1049    2.5419   2.5751    2.8918 3.1291  21.5258   59.1262    55.8082  26.7832   74.9830 72.0889 0.1732
    8997.5000   10.9656   14.6600   0.1254  110.3757  82.1573    2.5435   2.5725    2.9556 3.2470  32.4759   55.0227    55.0205  40.3390   73.7646 72.4621 0.1758
    8998.0000    0.0000   11.9200   0.1146  103.8465  70.7603    2.5481   2.5870    3.0167 3.3893  35.8031   60.1083    61.2572  45.0441   72.8916 71.2805 0.1675
    8998.5000   32.1131   11.9400   0.1147   99.8988  77.8216    2.5575   2.5840    3.0980 3.4555  44.8254   70.0098    67.3965  56.1752   72.4360 71.6834 0.1703
    8999.0000    0.0000   12.5000   0.1115   95.1187  72.8642    2.5787   2.5865    3.2835 3.4300  39.6357   78.6115    76.0672  50.1638   71.7491 70.7891 0.1640
    8999.5000    0.0000   11.4200   0.1183  103.2914  84.2346    2.5989   2.5720    3.4623 3.3643  43.8792   74.3208    78.9131  54.6545   70.7145 71.1547 0.1666
    9000.0000    0.0000   11.5900   0.1145  111.4989  90.0764    2.5964   2.5724    3.3982 3.5158  64.7389   76.4440    86.6707  80.5989   69.1697 71.1007 0.1662
    9000.5000  -23.0102   10.2800   0.0908   97.1103  71.2350    2.5894   2.6057    3.2284 3.8313  78.1757  115.7838   115.5378 101.4763   67.7327 69.3770 0.1540
    9001.0000  -21.5517    5.6200   0.0688   73.7109  49.6707    2.6052   2.6396    3.3600 4.3349 108.6329  120.7146   118.5684 146.8235   66.1266 67.9485 0.1439
    9001.5000   18.9420    4.9600   0.0693   56.3643  43.7032    2.6339   2.6437    3.8116 4.6231 148.4306  122.7420   110.3120 198.9126   66.4733 68.2361 0.1459
    9002.0000    0.0000    6.4100   0.0890   49.3221  57.3367    2.6407   2.6211    4.0759 4.3755 143.5679   64.5508    72.2496 182.6240   68.8655 70.5068 0.1620
    9002.5000    0.0000   13.7400   0.0926   61.5106  35.1916    2.6184   2.6261    3.8350 3.9130  48.9416   62.6179    70.4425  61.6740   71.0908 69.6413 0.1559
    9003.0000    0.0000   17.1800   0.1290   98.3709  80.7876    2.5857   2.5751    3.3757 3.4228  43.1763   58.3210    63.8127  51.3914   72.9225 74.0261 0.1869
    9003.5000   28.2865   14.9600   0.1421  139.0983 101.4177    2.5505   2.5565    3.0977 3.2605  38.4805   78.8197    81.1054  45.5711   75.9484 75.7802 0.1993
    9004.0000    0.0000   15.9300   0.1497  158.1335 126.3327    2.5321   2.5434    3.1045 3.2335  45.6939   81.8831    83.8915  53.6616   78.6684 77.5965 0.2121
    9004.5000    0.0000   15.4700   0.1419  152.5889 106.4907    2.5424   2.5556    3.2323 3.2438  38.6377   83.2771    85.2415  45.5139   79.5491 76.1487 0.2019
