~VERSION INFORMATION
VERS. 2.0 : CWLS Log ASCII Standard - version 2.0
WRAP.  NO : One line per depth step
#--------------------------------------------------#
#----------------DRILLING INFO, INC.---------------#
#---------------WWW.DRILLINGINFO.COM---------------#
#------------------COPYRIGHT 2015------------------#
#--------------------------------------------------#
#THIS FILE MAY BE USED ONLY IN ACCORDANCE WITH A CURRENT SUBSCRIPTION AGREEMENT BETWEEN
#THE USER AND DRILLING INFO, INC. NO PART OF THIS FILE MAY BE REPRODUCED, USED, COPIED,
#MODIFIED, PROPAGATED, OR DISTRIBUTED EXCEPT IN ACCORDANCE WITH THE SUBSCRIPTION
#AGREEMENT. UNAUTHORIZED USE OR DISTRIBUTION OF ALL OR ANY PART OF THIS FILE MAY VIOLATE
#COPYRIGHT, TRADEMARK, AND/OR OTHER LAWS AND IS SUBJECT TO CIVIL AS WELL AS CRIMINAL
#SANCTIONS.
#--------------------------------------------------#
#THIS FILE IS PROVIDED "AS-IS" AND ALL WARRANTIES ARE EXPRESSLY DISCLAIMED, WHETHER
#EXPRESS, ORAL, IMPLIED, STATUTORY OR OTHERWISE, INCLUDING ANY IMPLIED WARRANTY OF FITNESS
#FOR A PARTICULAR PURPOSE, MERCHANTABILITY, TITLE OR NON-INFRINGEMENT, AND ANY WARRANTIES
#ARISING BY VIRTUE OF CUSTOM OF TRADE OR COURSE OF DEALING.  FURTHER, DRILLING INFO,
#INC. AND ITS LICENSORS DO NOT REPRESENT OR WARRANT THAT THIS FILE WILL MEET USER'S
#REQUIREMENTS OR ARE SUITABLE FOR USER'S NEEDS OR THAT THE DATA OR RESULTS PROVIDED IN
#CONJUNCTION THEREWITH ARE CORRECT, ACCURATE, TIMELY OR RELIABLE. THESE DISCLAIMERS SHALL
#APPLY REGARDLESS OF ANY FAILURE OF ESSENTIAL PURPOSE OF ANY LIMITED REMEDY.  SOME
#JURISDICTIONS DO NOT ALLOW THE EXCLUSION OF CERTAIN WARRANTIES SO SOME OF THE ABOVE
#EXCLUSIONS MAY NOT APPLY. IN NO EVENT SHALL DRILLING INFO, INC. OR ANY OF ITS AFFILIATES
#BE LIABLE UNDER ANY LEGAL THEORY, WHETHER IN TORT (INCLUDING WITHOUT LIMITATION
#NEGLIGENCE), CONTRACT, STRICT LIABILITY, STATUTORY OR OTHERWISE, FOR ANY SPECIAL,
#INCIDENTAL, CONSEQUENTIAL, EXEMPLARY, PUNITIVE OR INDIRECT DAMAGE OF ANY KIND, INCLUDING
#WITHOUT LIMITATION LOSS OF REVENUE, PROFITS, GOODWILL, USE, AND/OR DATA OR THE COST OF
#PROCUREMENT OF SUBSTITUTE GOODS OR SERVICES, EVEN IF APPRISED OF THE POSSIBILITY OF SUCH
#DAMAGES IN ADVANCE.
#--------------------------------------------------#
~WELL INFORMATION
#MNEMONIC     .UNIT              VALUE :DESCRIPTION
#--------------------------------------------------#
STRT       .FT                4 :START DEPTH
STOP       .FT                10042 :STOP DEPTH
STEP       .FT                   0.500 :STEP
NULL       .                  -999.250 :NULL
API        .                421093139500 :API NUMBER
COMP       .         MOBIL OIL CORPORATION :COMPANY
WELL       .        MADERA-BROMAN  1 :WELL
DATE       .                27-Jun-1979 :LOG DATE
~CURVE INFORMATION
#MNEMONIC     .UNIT      API CODE :CURVE DESCRIPTION
#--------------------------------------------------#
DEPTH       .FT                      :Measured Depth
DT.US/FT        UNKNOWN   :DT
GR.API        UNKNOWN   :GR
CAL.INCH        UNKNOWN   :CAL
~A    DEPTH    DT    GR    CAL
# ...
 660.5     -999.250   48.757   13.378
 661     -999.250   50.611   13.377
 661.5     -999.250   53.784   13.377
 662     -999.250   56.956   13.365
 662.5     -999.250   55.59   13.349
 663     -999.250   53.346   13.332
 663.5     -999.250   51.103   13.316
 664     -999.250   49.813   13.3
 664.5     -999.250   51.478   13.283
 665     -999.250   53.143   13.267
 665.5     -999.250   54.347   13.25
 666     -999.250   53.746   13.234
 666.5     -999.250   53.146   13.218
 667     -999.250   52.545   13.201
 667.5     -999.250   54.542   13.185
 668     -999.250   56.939   13.169
 668.5     -999.250   59.336   13.152
 669     -999.250   56.785   13.136
 669.5     -999.250   53.756   13.12
 670     -999.250   50.727   13.103
 670.5     -999.250   47.699   13.087
 671     -999.250   44.67   13.07
 671.5     -999.250   43.996   13.054
 672     -999.250   44.35   13.038
 672.5     -999.250   44.705   13.021
 673     -999.250   45.06   13.005
 673.5     -999.250   45.414   12.989
 674     -999.250   45.769   12.972
 674.5     -999.250   51.614   12.956
 675     -999.250   57.89   12.94
 675.5     -999.250   63.636   12.923
 676     -999.250   68.404   12.907
 676.5     -999.250   67.891   12.89
 677     -999.250   65.382   12.882
 677.5     -999.250   62.874   12.876
 678     -999.250   60.366   12.87
 678.5     -999.250   57.857   12.864
 679     -999.250   55.904   12.858
 679.5     -999.250   54.269   12.852
 680     -999.250   52.633   12.846
 680.5     -999.250   51.373   12.84
 681     -999.250   52.299   12.834
 681.5     -999.250   53.224   12.828
 682     -999.250   54.15   12.822
 682.5     -999.250   55.076   12.816
 683     -999.250   57.813   12.81
 683.5     -999.250   61.115   12.804
 684     -999.250   64.417   12.798
 684.5     -999.250   62.351   12.792
 685     -999.250   59.721   12.786
 685.5     -999.250   57.091   12.78
 686     -999.250   54.461   12.774
 686.5     -999.250   51.831   12.768
 687     -999.250   52.51   12.762
 687.5     -999.250   54.044   12.756
 688     -999.250   55.577   12.75
 688.5     -999.250   57.111   12.744
 689     -999.250   58.644   12.738
 689.5     -999.250   58.924   12.732
 690     -999.250   56.177   12.726
 690.5     -999.250   53.73   12.72
 691     -999.250   54.263   12.715
 691.5     -999.250   54.796   12.714
 692     -999.250   55.33   12.713
 692.5     -999.250   52.089   12.712
 693     -999.250   48.478   12.71
 693.5     -999.250   44.866   12.709
 694     -999.250   41.585   12.708
 694.5     -999.250   41.461   12.707
 695     -999.250   41.336   12.707
 695.5     -999.250   42.884   12.71
 696     -999.250   46.224   12.712
 696.5     -999.250   49.563   12.715
 697     -999.250   52.616   12.718
 697.5     -999.250   50.45   12.72
 698     -999.250   48.284   12.723
 698.5     -999.250   46.118   12.726
 699     -999.250   45.928   12.728
 699.5     -999.250   47.83   12.731
 700     -999.250   49.732   12.734
 700.5     -999.250   50.781   12.737
 701     -999.250   50.872   12.739
 701.5     -999.250   50.962   12.742
 702     -999.250   51.053   12.745
 702.5     -999.250   52.42   12.747
 703     -999.250   54.687   12.75
 703.5     -999.250   58.135   12.753
 704     -999.250   61.873   12.755
 704.5     -999.250   65.611   12.758
 705     -999.250   69.349   12.761
 705.5     -999.250   70.512   12.764
 706     -999.250   63.26   12.766
 706.5     -999.250   53.495   12.769
 707     -999.250   43.73   12.772
 707.5     -999.250   36.114   12.774
 708     -999.250   35.22   12.777
 708.5     -999.250   34.325   12.78
 709     -999.250   33.43   12.782
 709.5     -999.250   36.575   12.785
 710     -999.250   40.301   12.788
 710.5     -999.250   40.045   12.791
 711     -999.250   37.285   12.793
 711.5     -999.250   34.524   12.796
 712     -999.250   34.609   12.799
 712.5     -999.250   35.953   12.801
 713     -999.250   37.298   12.804
 713.5     -999.250   38.643   12.807
 714     -999.250   39.987   12.809
 714.5     -999.250   41.332   12.812
 715     -999.250   42.676   12.815
 715.5     -999.250   51.257   12.818
 716     -999.250   66.097   12.82
 716.5     -999.250   86.602   12.823
 717     -999.250   106.237   12.826
 717.5     -999.250   102.226   12.828
 718     -999.250   98.214   12.831
 718.5     -999.250   87.387   12.834
 719     -999.250   73.505   12.836
 719.5     -999.250   59.622   12.839
 720     -999.250   54.128   12.842
 720.5     -999.250   52.901   12.845
 721     -999.250   51.675   12.847
 721.5     -999.250   62.859   12.85
 722     -999.250   74.986   12.853
 722.5     -999.250   81.134   12.855
 723     -999.250   74.658   12.858
 723.5     -999.250   68.182   12.861
 724     -999.250   61.706   12.863
 724.5     -999.250   55.23   12.866
 725     -999.250   57.429   12.869
 725.5     -999.250   60.489   12.872
 726     -999.250   63.549   12.874
 726.5     -999.250   66.609   12.877
 727     -999.250   67.21   12.88
 727.5     -999.250   61.709   12.882
 728     -999.250   56.208   12.885
 728.5     -999.250   44.853   12.882
 729     -999.250   37.528   12.871
 729.5     -999.250   37.532   12.861
 730     -999.250   37.536   12.85
 730.5     -999.250   37.541   12.839
 731     -999.250   37.545   12.829
 731.5     -999.250   36.586   12.818
 732     -999.250   35.377   12.808
 732.5     -999.250   37.169   12.797
 733     -999.250   38.962   12.786
 733.5     -999.250   40.754   12.776
 734     -999.250   42.547   12.765
 734.5     -999.250   44.408   12.754
 735     -999.250   49.458   12.744
 735.5     -999.250   54.507   12.733
 736     -999.250   59.557   12.722
 736.5     -999.250   64.606   12.712
 737     -999.250   69.655   12.701
 737.5     -999.250   67.3   12.691
 738     -999.250   60.443   12.68
 738.5     -999.250   53.586   12.669
 739     -999.250   47.271   12.659
 739.5     -999.250   52.741   12.648
 740     -999.250   56.408   12.637
 740.5     -999.250   57.819   12.627
 741     -999.250   59.23   12.616
 741.5     -999.250   60.642   12.606
 742     -999.250   63.867   12.595
 742.5     -999.250   77.947   12.584
 743     -999.250   92.026   12.574
 743.5     -999.250   101.406   12.563
 744     -999.250   96.903   12.552
 744.5     -999.250   92.401   12.542
 745     -999.250   87.898   12.531
 745.5     -999.250   83.395   12.52
 746     -999.250   79.565   12.51
 746.5     -999.250   76.47   12.499
 747     -999.250   73.375   12.489
 747.5     -999.250   70.279   12.478
 748     -999.250   67.368   12.467
 748.5     -999.250   70.264   12.46
 749     -999.250   96.57   12.452
 749.5     -999.250   116.483   12.445
 750     -999.250   121.747   12.437
 750.5     -999.250   120.089   12.43
 751     -999.250   116.774   12.422
 751.5     -999.250   113.46   12.415
 752     -999.250   110.146   12.407
 752.5     -999.250   106.831   12.4
 753     -999.250   105.838   12.392
 753.5     -999.250   106.83   12.385
 754     -999.250   107.822   12.377
 754.5     -999.250   108.813   12.37
 755     -999.250   106.193   12.362
 755.5     -999.250   102.654   12.355
 756     -999.250   99.114   12.347
 756.5     -999.250   95.574   12.34
 757     -999.250   93.108   12.332
 757.5     -999.250   93.969   12.324
 758     -999.250   94.831   12.317
 758.5     -999.250   96.807   12.309
 759     -999.250   107.857   12.305
 759.5     -999.250   118.907   12.304
 760     -999.250   128.716   12.304
 760.5     -999.250   138.397   12.303
 761     -999.250   133.464   12.303
 761.5     -999.250   128.531   12.302
 762     -999.250   123.598   12.302
 762.5     -999.250   118.664   12.302
 763     -999.250   114.799   12.301
 763.5     -999.250   117.172   12.301
 764     -999.250   119.544   12.3
 764.5     -999.250   121.916   12.3
 765     -999.250   118.407   12.3
 765.5     -999.250   110.972   12.299
 766     -999.250   103.536   12.299
 766.5     -999.250   98.074   12.298
 767     -999.250   94.512   12.298
 767.5     -999.250   97.539   12.298
 768     -999.250   100.565   12.297
 768.5     -999.250   112.872   12.297
