# Exported from Transform Software 5.2.0 on 25-May-2018 by user brian.umlang
# DI Transform - A Product of Drillinginfo, Inc. - www.drillinginfo.com
#
~VERSION INFORMATION
 VERS.        2.0 : LAS ASCII STANDARD - VERSION 2.0
 WRAP.         NO : ONE LINE PER DEPTH STEP

~WELL INFORMATION
#MNEM.UNIT       DATA TYPE       INFORMATION
#---------       ---------       -----------
# Enverus has updated the API/UWI.  The previous names are renamed to  PREV_API / PREV_UWI
API.         42-109-32508-00-00 : API (14 Digits with Dashes)
UWI.             42109325080000 : UNIQUE WELL ID

 STRT.ft                1970 : Start Depth
 STOP.ft                8730 : Stop Depth
 STEP.ft                 0.5 : Step Length
 NULL.               -999.25 : Null Value
 COMP.                       : Company
 WELL.  42109325080000_API14 : Well Name
 FLD.                        : Field Name
 LOC.                        : Well Location
 CNTY.                       : County
 STAT.                       : State or Province
 CTRY.                       : Country
 SRVC.                       : Service Company
 DATE.                       : Date
PREV_APII.         42109325080000 : Well Identifier

~CURVE INFORMATION
#MNEM.UNIT       API CODE       CURVE DESCRIPTION
#---------       --------       -----------------
 DEPT.ft        : <Measured Depth>
 CAL.in         : Caliper
 DT.us/ft       : Pressure Wave Sonic
 GR.gAPI        : Gamma Ray

~PARAMETER INFORMATION
#MNEM.UNIT       VALUE       DESCRIPTION
#---------       -----       -----------
 EKB.ft      3552 : Elevation above MSL

~A      DEPT         CAL          DT          GR
# ...
        4594     10.1797     74.7953     62.7792
      4594.5     10.1797     73.5897     56.4753
        4595     10.1992     72.8655     55.2451
      4595.5     10.2188      73.303     61.5839
        4596     10.2761     74.4291     62.8906
      4596.5      10.296     75.4893      62.704
        4597     10.3359     76.0791      61.142
      4597.5      10.414     77.3089     55.8675
        4598     10.4336     79.4238      49.208
      4598.5     10.4531     81.4735     45.9061
        4599     10.4922     82.0433     52.4378
      4599.5     10.4922     81.0779     59.0161
        4600     10.4727     77.7061     60.7621
      4600.5     10.4507     73.7508     61.7428
        4601     10.2647     68.4875     63.4218
      4601.5     10.0284     67.2123     68.9453
        4602      9.9258     68.6927     67.8962
      4602.5      9.9062     70.7965     60.4192
        4603      9.9258     71.1696     48.9964
      4603.5      9.9258     70.9651     47.4113
        4604      9.9258     69.9481     50.6386
      4604.5      9.9258     70.1604     50.9198
        4605      9.9258     71.1073     49.2796
      4605.5      9.9453     72.2024     51.9525
        4606      9.9648     73.4608      53.056
      4606.5     10.0234     75.0583     51.6116
        4607     10.0234     75.6956     50.3135
      4607.5      10.043     75.3754     49.8047
        4608      10.082     73.5673     50.5859
      4608.5      10.091     72.4878     50.0329
        4609     10.1016     72.7436     45.0319
      4609.5     10.1016     74.7367     42.7733
        4610     10.1703     77.4767     43.6564
      4610.5     10.2293     79.3031     45.5241
        4611     10.2578     79.8172     49.4874
      4611.5     10.2578     77.8507     55.4853
        4612     10.1874      72.931     61.2552
      4612.5     10.1675     69.6489     66.8706
        4613     10.1602     68.5587     77.0555
      4613.5     10.1797     67.8363     79.1659
        4614     10.1797     69.1341     72.3496
      4614.5     10.1602     70.6582     64.3217
        4615     10.1744      72.755     58.9844
      4615.5     10.1797     73.3333     55.9567
        4616     10.1797     72.8788     53.5773
      4616.5     10.1406     72.1174     54.4517
        4617     10.1016     71.9298     54.7239
      4617.5     10.0657     72.1444     52.7667
        4618      10.043     71.1702     52.3438
      4618.5      10.043     69.7733     52.5391
        4619      9.9093     61.0676     50.0601
      4619.5      9.8102     55.5726      44.595
        4620      9.7885     55.5526     47.4136
      4620.5      9.7891      57.843     50.9378
        4621      9.8477     64.7226     58.7891
      4621.5      9.8867     67.8378     61.1345
        4622      9.9062     69.5906     62.5045
      4622.5      9.9062     68.9345     63.7152
        4623      9.9258     67.8909     63.2691
      4623.5      9.9258     67.8413      58.709
        4624      9.9258     68.6277     53.4739
      4624.5      9.9453     70.0809     53.3203
        4625     10.0243     71.6635     52.0534
      4625.5      10.043     72.2321     47.4278
        4626     10.0625     72.3977     47.8888
      4626.5     10.0625     72.7609     48.4375
        4627     10.0775      73.302     48.2422
      4627.5     10.0625     74.2986     46.1406
        4628     10.0625     74.5029     43.6618
      4628.5     10.0625     73.6736     47.1056
        4629      10.043       72.81     57.7508
      4629.5      9.9973      71.715     53.7306
        4630      9.9648     71.4411     50.5859
      4630.5      9.9379     71.0668     50.6599
        4631      9.8398     70.5146      52.461
      4631.5      9.7613      69.883     43.4416
        4632      9.7891     70.3509      45.376
      4632.5      9.7891     70.7559     48.5279
        4633      9.7796     69.9152     48.4439
      4633.5      9.7109     68.4484      46.092
        4634      9.6523     67.1068     44.9219
      4634.5      9.6523     68.0014      44.638
        4635      9.6328     70.4661     47.0384
      4635.5      9.6133     71.5308     53.7799
        4636      9.6014     71.2382     56.5643
      4636.5      9.5938     70.0865     53.7832
        4637      9.5547      68.757     52.2756
      4637.5      9.5352     67.6791     62.2014
        4638      9.4164     67.2694     74.2649
      4638.5      9.3789     67.2515     77.0367
        4639      9.5274     67.3959     73.4494
      4639.5      9.5938     69.6518     70.4079
        4640      9.6133     71.7214     67.9043
      4640.5      9.6133     72.7249     66.9922
        4641      9.6328     73.7269     67.9688
      4641.5      9.6719     75.4104     59.9082
        4642      9.6719     75.6643     48.9328
      4642.5      9.5961     74.9024     50.5859
        4643      9.5175     71.8643      64.829
      4643.5      9.4961     67.8182     70.7031
        4644      9.4961     67.4573     68.9453
      4644.5      9.5156     67.5439     66.0293
        4645      9.5156     68.7102     66.4062
      4645.5      9.5156      68.947     63.8551
        4646      9.5352     69.0075     55.7888
      4646.5      9.5352     69.3596     47.5991
        4647      9.5352     69.4152     43.7092
      4647.5      9.5352     69.4737     43.4302
        4648      9.5352     69.3241     49.1113
      4648.5      9.5352     68.3548     55.1816
        4649      9.5352     68.1871     57.4818
      4649.5      9.5352     68.4034      60.649
        4650      9.5352     69.2512     59.1797
      4650.5      9.5352     69.2856     56.6197
        4651      9.5352     69.1813     43.2667
      4651.5      9.5352     69.0794     42.1875
        4652      9.5352     69.5226     42.1875
      4652.5      9.5352     70.3099     41.7383
        4653      9.5156     70.5638     40.3117
      4653.5      9.5156     71.0141     41.0824
        4654      9.5156     71.1111     43.1641
      4654.5      9.4495     71.4348     42.4577
        4655      9.4375     72.1637     45.6703
      4655.5       9.457     71.9137     51.3672
        4656      9.4092     70.6297     50.8894
      4656.5      9.3112     68.0619     48.2804
        4657      9.2617     64.8579     44.0544
      4657.5      9.1932     64.4157     41.6016
        4658      9.1342      66.096      44.682
      4658.5       9.125     66.7836     50.1276
        4659      9.0664     66.8171     56.6969
      4659.5      9.0548     65.3692      59.216
        4660      9.0469     65.2991     62.9042
      4660.5      9.0469     65.7254     68.1794
        4661      9.0469     65.9266     76.2936
      4661.5      9.0273     64.7729     75.1894
        4662      9.0078     63.5564     67.8734
      4662.5      8.9688     63.0574     65.3443
        4663      8.9688     63.1427     69.8546
      4663.5      8.9492     63.9206     77.5554
        4664      8.9492      64.757     84.7474
      4664.5      8.9297     65.3216     88.3199
        4665      8.9297      65.332     87.0176
      4665.5      8.9132     65.2138     91.2236
        4666      8.8711     65.1968     99.5148
      4666.5      8.8711     65.4904    107.7629
        4667      8.8516     66.5919    114.3441
      4667.5       8.832     68.1871    121.5811
        4668       8.832     66.5122    127.1484
      4668.5       8.832     64.9831     121.721
        4669      8.8125     62.2845     94.9801
      4669.5       8.832      60.935     80.2576
        4670      8.8516     60.8187     74.1743
      4670.5      8.8711     61.0067     63.7836
        4671      8.9311      62.491     47.4964
      4671.5      8.9688     63.8179     40.7458
        4672      9.0273     62.7662     41.1655
      4672.5      9.0273     59.4967     40.9352
        4673      9.0273     58.3133     35.7113
      4673.5      9.0469     59.8769     35.1562
        4674      9.0469     62.5497     37.6172
      4674.5      9.0859     65.3665     43.2049
        4675      9.0859     66.4327     58.9844
      4675.5      9.1106     66.3312     70.0959
