~Version Information Block
 VERS.                2.00:     CWLS LOG ASCII STANDARD - VERSION 2.000000
 WRAP.                  NO:     One Line Per Depth Step
#
~Well Information Block
#MNEM.UNIT                     Data                         Information
#----------   ------------------------------------------   ----------------
 STRT.FT                                     4210.0000:     START DEPTH
 STOP.FT                                    10370.0000:     STOP DEPTH
 STEP.FT                                        0.5000:     STEP
 NULL.                                       -999.2500:     NULL VALUE
 COMP.                       CHESAPEAKE OPERATING INC.:     COMPANY
 WELL.                         UNIVERSITY_LANDS_4627-1:     WELL
 FLD .                                         WILDCAT:     FIELD
 LOC .   1200' FNL & 1995' FEL|Section: 27, Block: 46, Abstract: 2860|University Lands Survey:     LOCATION
 SEC .                                              27:     SECTION
 CNTY.                                       CULBERSON:     COUNTY
 STAT.                                           TEXAS:     STATE
 CTRY.                                             USA:     COUNTRY
 SRVC.                                    SCHLUMBERGER:     SERVICE COMPANY
 DATE.                                      11/15/2016:     DATE
 API .                                  42109322870000:     API NUMBER
 UWI .                                  42109322870000:     UWI NUMBER
 TVD .                                              NO:     TVD flag
 WSTA.                                             LOC:     Well status
#
~Curve Information Block
#MNEM.UNIT       API CODE      Curve Description
#----------    -------------   -------------------
 DEPT.FT                   :   Depth in Feet
 RM_HRLT.OHMM                 :   HRLTB Mud Resistivity
 RXOZ.OHMM                 :   Stan Res MicroCFL Resistivity
 RLA5.OHMM                 :   HRLTB Resistivity 5
 RLA4.OHMM                 :   HRLTB Resistivity 4
 RLA3.OHMM                 :   HRLTB Resistivity 3
 DTCO.US/F                 :   Delta-T Compressional
 DTSM.US/F                 :   Delta-T Shear Measurement
 SPHI.V/V                  :   Sonic Porosity [47.6]
 HSGR.GAPI                 :   HNGS Spectroscopy Gamma Ray
 HCGR.GAPI                 :   HNGS Computed Gamma Ray
 HCAL.IN                   :   HILT Caliper
 DPHI.V/V                  :   Density Porosity
 PEFZ.                     :   Std. Res. Formation PE
 HDRA.G/C3                 :   Density Correction
 RHOB.G/C3                 :   Std. Res. Formation Density
 APLC.V/V                  :   APS Near/Array Corrected Limestone Porosity
 PXND.V/V                  :   Crossplot Porosity For Neutron-Density
#
~Parameter Information Block
#MNEM.UNIT            Value               Description
#----------    --------------------    -------------------
 DATE.                 07-Jun-2007:    Date As Month-Day-Year
 RUN .                         ONE:    Run Number
 PDAT.                         UNK:    Permanent Datum
 EPD .FT                -9999.5000:    Elevation Of Perm. Datum
 LMF .                          KB:    Log Measured From
 FAPD.FT                   40.0000:    Feet Above Perm. Datum
 EKB .FT                 4323.0000:    Elevation Of Kelly Bushing
 TD  .FT                10370.0000:    Total Depth
 DFT .                   Fresh Mud:    Drilling Fluid Type
 DFD .LB/G                  8.6000:    Drilling Fluid Density
 RMS .OHMM                  0.4210:    Resistivity Of Mud Sample
 MST .DEGF                 97.0000:    Mud Sample Temperature
 RMF .OHMM                  0.4210:    Mud Filtrate Resistivity
 MFST.DEGF                 97.0000:    Mud Filtrate Sample Temperature
 MFSS.                        CALC:    Mud Filtrate Sample Source
 MCSS.                        CALC:    Mud Cake Sample Source
 RMB .OHMM                  0.2280:    Mud Resistivity At Bht
 BHT .DEGF                185.0000:    Bottom Hole Temperature
 MRT .DEGF                185.0000:    Maximum Recorded Temperature
 WSTA.                         LOC:    
 LATB.FT                    0.0000:    
 LONB.FT                    0.0000:    
#
~Other Information Block
<DescLogPlotStart>   NEURALOG PLOT DEFINITION
PLOTDEFVERSION: 3
LASFILE: E:\nds\projects\Texas Standard Oil LLC\pdf\42109322870000 D\42-109-322
DEPTHSCALE: 240.000000
RESOLUTION: 196
DEPTHLABELFREQ: 100.000000
HEAVYGRIDFREQ: 100.000000
MEDIUMGRIDFREQ: 50.000000
LIGHTGRIDFREQ: 10.000000
#
#   TRACK 1
#
STARTTRACK: 
 LEFTX: 0.500000 inch
 RIGHTX: 3.000000 inch
 SCALETYPE: Linear
 NUMCHARTDIVISIONS: 10
CURVE: RXOZ  0.200000   2000.000000 (0,0,255)      Solid             2     Y   
BACKUP: 2000.000000 20000000.000000 (0,0,255)      Solid             2    
CURVE: RLA5  0.200000   2000.000000 (0,131,131)    Dot               2     Y   
BACKUP: 2000.000000 20000000.000000 (0,131,131)    Dot               2    
CURVE: RLA4  0.200000   2000.000000 (255,0,255)    Short_Dash        2     Y   
BACKUP: 2000.000000 20000000.000000 (255,0,255)    Short_Dash        2    
CURVE: RLA3  0.200000   2000.000000 (255,0,0)      Medium_Dash       2     Y   
BACKUP: 2000.000000 20000000.000000 (255,0,0)      Medium_Dash       2    
CURVE: DTCO  240.000000 40.000000  (0,0,255)      Solid             2     N    
CURVE: DTSM  240.000000 40.000000  (0,131,131)    Dot               2     Y    
BACKUP: 440.000000 240.000000 (0,131,131)    Dot               2    
CURVE: SPHI  0.300000   -0.100000  (255,0,255)    Short_Dash        2     Y    
BACKUP: 0.700000   0.300000   (255,0,255)    Short_Dash        2    
CURVE: HSGR  0.000000   150.000000 (0,0,255)      Solid             2     Y    
BACKUP: 150.000000 300.000000 (0,0,255)      Solid             2    
CURVE: HCGR  0.000000   150.000000 (0,131,131)    Dot               2     N    
CURVE: HCAL  6.000000   16.000000  (255,0,255)    Short_Dash        2     Y    
BACKUP: -4.000000  6.000000   (255,0,255)    Short_Dash        2    
BACKUP: 16.000000  26.000000  (255,0,255)    Short_Dash        2    
ENDTRACK: 
#
#   TRACK 2
#
STARTTRACK: 
 LEFTX: 3.500000 inch
 RIGHTX: 8.500000 inch
 SCALETYPE: Linear
 NUMCHARTDIVISIONS: 10
CURVE: RM_HRLT 0.020000   200.000000 (255,131,0)    Solid             2     N  
CURVE: DPHI  0.300000   -0.100000  (255,0,0)      Solid             2     Y    
BACKUP: 0.700000   0.300000   (255,0,0)      Solid             2    
BACKUP: -0.100000  -0.500000  (255,0,0)      Solid             2    
CURVE: APLC  0.300000   -0.100000  (255,131,0)    Dot               2     Y    
BACKUP: 0.700000   0.300000   (255,131,0)    Dot               2    
BACKUP: 1.100000   0.700000   (255,131,0)    Dot               2    
CURVE: PXND  0.300000   -0.100000  (255,255,0)    Short_Dash        2     Y    
BACKUP: 0.700000   0.300000   (255,255,0)    Short_Dash        2    
ENDTRACK: 
#
#   TRACK 3
#
STARTTRACK: 
 LEFTX: 0.500000 inch
 RIGHTX: 5.500000 inch
 SCALETYPE: Linear
 NUMCHARTDIVISIONS: 10
ENDTRACK: 
#
#   TRACK 4
#
STARTTRACK: 
 LEFTX: 3.500000 inch
 RIGHTX: 6.000000 inch
 SCALETYPE: Linear
 NUMCHARTDIVISIONS: 10
CURVE: PEFZ  0.000000   10.000000  (0,0,255)      Solid             2     N    
ENDTRACK: 
#
#   TRACK 5
#
STARTTRACK: 
 LEFTX: 3.500000 inch
 RIGHTX: 4.750000 inch
 SCALETYPE: Linear
 NUMCHARTDIVISIONS: 10
CURVE: HDRA  -0.050000  0.200000   (0,131,131)    Solid             2     N    
ENDTRACK: 
#
#   TRACK 6
#
STARTTRACK: 
 LEFTX: 3.500000 inch
 RIGHTX: 8.500000 inch
 SCALETYPE: Linear
 NUMCHARTDIVISIONS: 10
CURVE: RHOB  2.000000   3.000000   (255,0,255)    Solid             2     Y    
BACKUP: 1.000000   2.000000   (255,0,255)    Solid             2    
ENDTRACK: 
<DescLogPlotEnd>
~A DEPTH     RM_HRLT             RXOZ             RLA5             RLA4             RLA3             DTCO             DTSM             SPHI             HSGR             HCGR             HCAL             DPHI             PEFZ             HDRA             RHOB             APLC             PXND            
# ...
    5438.500 1.49048847       61.94453707      292.25614689     292.22305632     314.22653676     53.60741585      107.15686275     0.05157556       19.95274135      6.69174052       11.93534612      0.02125367       4.40005269       0.19741921       2.65334577       0.01980392       0.02161100      
    5439.000 1.47706412       89.66000875      615.17204245     644.69628415     718.40260702     57.11323052      106.56862745     0.06830086       25.09964331      7.48013248       11.93498168      0.02515834       4.20707108       0.18335055       2.66775172       0.03016060       0.03115914      
    5439.500 1.47512158       96.20769585      466.18581765     509.91084215     616.26361684     60.06236981      106.56862745     0.10013764       35.98782869      11.03751576      11.93498837      0.04045054       3.95003266       0.16322463       2.65235267       0.04095798       0.04848723      
    5440.000 1.46918845       89.13529184      493.57866202     290.15914578     290.15914578     61.85883187      106.56862745     0.10733887       49.56723975      16.24047185      11.93529023      0.07671750       3.69019321       0.14905639       2.59515187       0.05175537       0.06110020      
    5440.500 1.46376067       60.11637394      171.17849058     167.34309764     158.81342701     62.86555447      106.56815433     0.11216879       61.75025428      21.22486319      11.93600015      0.11175318       3.45721776       0.13982119       2.52832416       0.06607843       0.08487230      
    5441.000 1.45753067       64.03492000      124.83280303     126.59362600     132.79020568     61.88420020      106.95793020     0.10088322       66.47041353      23.08062610      11.92898286      0.10174121       3.42535967       0.11306938       2.52906320       0.06059259       0.08290766      
    5441.500 1.44795461       73.31330312      252.60029191     260.77113553     265.40350977     59.92149166      106.95433140     0.08704612       62.39942242      21.82740399      11.85893448      0.08041136       3.48195695       0.05416921       2.53426245       0.05141176       0.06836935      
    5442.000 1.43751216       150.59975189     389.01147732     365.20635054     404.46860277     58.94013739      107.14951123     0.08429833       53.66154740      19.69173635      11.85647831      0.06953967       3.75446164       0.02364644       2.60522896       0.04568627       0.05893910      
    5442.500 1.45042661       145.04665176     299.46654428     310.46969993     352.26330869     59.83737558      107.39647699     0.08861629       48.75072893      19.18357156      11.86429885      0.06471906       3.98242677       -0.00345597      2.57973548       0.04775910       0.05933202      
    5443.000 1.41116257       163.89122087     281.14102056     278.61627996     304.91849426     61.29538763      107.91616919     0.09988224       51.08511388      22.73811039      11.87243256      0.07629457       4.03611377       -0.00454860      2.59518120       0.05592157       0.07048555      
    5443.500 1.41291066       136.07479749     233.31040114     233.31040114     273.63461420     63.45436703      108.91303952     0.11554465       59.80563931      27.43599746      11.87627321      0.11373390       3.81089138       0.03677250       2.55870440       0.07962092       0.09056413      
    5444.000 1.41336170       26.74157824      109.60798953     109.60798953     96.09805961      65.41707556      110.48088985     0.12878203       70.53292281      34.13444476      11.89652567      0.15666961       3.59876181       0.05705233       2.50184489       0.10332026       0.13516699      
    5444.500 1.41173435       13.81666282      48.41359268      48.41359268      48.41359268      66.98724239      111.59548071     0.13979803       79.53706928      39.17301636      11.93325868      0.20342801       3.18175901       0.06811648       2.42804483       0.11000000       0.15481336      
    5445.000 1.36155720       13.69258456      37.60719447      37.60719447      37.60719447      67.57605496      112.78396511     0.14564111       82.73685252      41.88562646      11.93536455      0.16486288       2.80639747       0.04778401       2.37719560       0.09840336       0.14715128      
    5445.500 1.36155720       19.82039330      29.47761128      29.47761128      29.47761128      67.18351325      113.81265932     0.14400335       82.16794715      42.20831990      11.93821544      0.12286974       2.79540408       0.01144169       2.50346464       0.08577591       0.12298625      
    5446.000 1.36155720       36.27438224      25.05954542      25.05954542      26.69299362      66.79097154      114.21573071     0.14121688       81.00680211      42.33362760      11.95054084      0.08087659       2.81186738       -0.00376767      2.55263443       0.07274510       0.08801572      
    5446.500 1.36155720       30.83762523      23.31478242      23.31478242      25.05954542      66.98724239      114.21696095     0.13999215       80.66064691      43.02772477      11.96262805      0.06709109       2.84014147       -0.00517038      2.58141228       0.07349223       0.07662083      
    5447.000 1.36155720       31.68356991      22.28654406      22.28654406      25.05954542      66.59470069      113.01971505     0.13886163       81.08545261      44.98508450      11.97460179      0.07022527       2.86969959       -0.00523402      2.58364275       0.07352183       0.07426326      
    5447.500 1.36155720       28.95055088      23.31478242      23.31478242      25.05954542      66.00588813      111.86955348     0.13434740       81.25522352      45.48606623      11.98647907      0.07834056       2.86318391       -0.00646965      2.57945823       0.07273078       0.07426326      
    5448.000 1.36134657       25.51576796      21.47632676      21.49670108      25.12006781      65.42860338      111.59558824     0.13101342       80.37012003      45.90381825      11.99533769      0.08041136       2.83739675       -0.00952826      2.57738688       0.06996612       0.07465619      
    5448.500 1.37368756       23.95435878      21.48854530      21.11233955      23.47149208      65.42002968      111.47058824     0.13102005       79.24125733      45.56992656      12.03204372      0.07773924       2.82291995       -0.01230137      2.57697739       0.06686275       0.06876228      
    5449.000 1.36138674       25.74698451      22.09348820      21.88806012      23.48278629      65.41048373      110.94362745     0.13101682       78.77495912      45.04245850      12.04207730      0.07230712       2.84123724       -0.01280746      2.58157954       0.06764706       0.06601179      
    5449.500 1.36144908       27.17895397      22.08304155      22.48849831      23.53016359      65.60333334      110.29411765     0.13074643       78.92315836      44.74420601      12.05100559      0.06680422       2.83675585       -0.01240412      2.58825381       0.07352941       0.07190570      
    5450.000 1.36155720       27.67376148      21.49670108      21.59387988      22.10444508      65.24043180      109.59031486     0.12991729       79.47577752      45.48781665      12.06038817      0.06300413       2.81909154       -0.00823730      2.59812375       0.07627451       0.07603143      
    5450.500 1.36155720       24.61148015      21.11233955      21.11233955      20.94023775      64.63199215      108.81931484     0.12909295       80.16972715      46.45621422      12.07310263      0.05964740       2.79910874       -0.00516314      2.60375582       0.07703756       0.07701375      
    5451.000 1.36564388       24.83450230      20.92274366      20.36411079      20.16757946      65.41707556      108.72441773     0.13071639       80.25419458      45.92118774      12.09190357      0.06513222       2.78450364       -0.00538071      2.60734849       0.07826225       0.07937132      
    5451.500 1.36943304       23.73924061      21.11233955      20.36411079      20.37135795      66.00588813      108.72471409     0.13457507       79.51581189      44.75178214      12.09290809      0.07140059       2.80039209       -0.00779177      2.59908051       0.07895136       0.07897839      
