~VERSION INFORMATION
VERS. 2.0 : CWLS Log ASCII Standard - Version 2.0
WRAP. NO : One line per depth step
#--------------------------------------------------#
#----------------DRILLING INFO, INC.---------------#
#---------------WWW.DRILLINGINFO.COM---------------#
#------------------COPYRIGHT 2015------------------#
#--------------------------------------------------#
#THIS FILE MAY BE USED ONLY IN ACCORDANCE WITH A CURRENT SUBSCRIPTION AGREEMENT BETWEEN
#THE USER AND DRILLING INFO, INC. NO PART OF THIS FILE MAY BE REPRODUCED, USED, COPIED,
#MODIFIED, PROPAGATED, OR DISTRIBUTED EXCEPT IN ACCORDANCE WITH THE SUBSCRIPTION
#AGREEMENT. UNAUTHORIZED USE OR DISTRIBUTION OF ALL OR ANY PART OF THIS FILE MAY VIOLATE
#COPYRIGHT, TRADEMARK, AND/OR OTHER LAWS AND IS SUBJECT TO CIVIL AS WELL AS CRIMINAL
#SANCTIONS.
#--------------------------------------------------#
#THIS FILE IS PROVIDED "AS-IS" AND ALL WARRANTIES ARE EXPRESSLY DISCLAIMED, WHETHER
#EXPRESS, ORAL, IMPLIED, STATUTORY OR OTHERWISE, INCLUDING ANY IMPLIED WARRANTY OF FITNESS
#FOR A PARTICULAR PURPOSE, MERCHANTABILITY, TITLE OR NON-INFRINGEMENT, AND ANY WARRANTIES
#ARISING BY VIRTUE OF CUSTOM OF TRADE OR COURSE OF DEALING.  FURTHER, DRILLING INFO,
#INC. AND ITS LICENSORS DO NOT REPRESENT OR WARRANT THAT THIS FILE WILL MEET USER'S
#REQUIREMENTS OR ARE SUITABLE FOR USER'S NEEDS OR THAT THE DATA OR RESULTS PROVIDED IN
#CONJUNCTION THEREWITH ARE CORRECT, ACCURATE, TIMELY OR RELIABLE. THESE DISCLAIMERS SHALL
#APPLY REGARDLESS OF ANY FAILURE OF ESSENTIAL PURPOSE OF ANY LIMITED REMEDY.  SOME
#JURISDICTIONS DO NOT ALLOW THE EXCLUSION OF CERTAIN WARRANTIES SO SOME OF THE ABOVE
#EXCLUSIONS MAY NOT APPLY. IN NO EVENT SHALL DRILLING INFO, INC. OR ANY OF ITS AFFILIATES
#BE LIABLE UNDER ANY LEGAL THEORY, WHETHER IN TORT (INCLUDING WITHOUT LIMITATION
#NEGLIGENCE), CONTRACT, STRICT LIABILITY, STATUTORY OR OTHERWISE, FOR ANY SPECIAL,
#INCIDENTAL, CONSEQUENTIAL, EXEMPLARY, PUNITIVE OR INDIRECT DAMAGE OF ANY KIND, INCLUDING
#WITHOUT LIMITATION LOSS OF REVENUE, PROFITS, GOODWILL, USE, AND/OR DATA OR THE COST OF
#PROCUREMENT OF SUBSTITUTE GOODS OR SERVICES, EVEN IF APPRISED OF THE POSSIBILITY OF SUCH
#DAMAGES IN ADVANCE.
#--------------------------------------------------#
~WELL INFORMATION
#MNEMONIC     .UNIT              VALUE :DESCRIPTION
#--------------------------------------------------#
STRT       .ft                51.00000 :START DEPTH
STOP       .ft                9476.00000 :STOP DEPTH
STEP       .ft                0.50000 :STEP
NULL       .                -999.25000 :NULL VALUE
COMP       .                 :COMPANY
WELL       .                 :WELL
FLD       .                 :FIELD
LOC       .                 :LOCATION
CNTY       .                 :COUNTY
STAT       .                 :STATE
CTRY       .                 :COUNTRY
SRVC       .                 :SERVICE COMPANY
DATE       .                 :DATE
API       .                42109100520000 :API NUMBER
~CURVE INFORMATION
#MNEMONIC     .UNIT      API CODE :CURVE DESCRIPTION
#--------------------------------------------------#
DEPTH       .ft                      :Measured Depth
CAL       .in        UNKNOWN   :CAL
DT       .us/ft        UNKNOWN   :DT
GR       .gAPI        UNKNOWN   :GR
~A    DEPTH    CAL    DT    GR
# ...
6998.00000    6.42135    78.43392    124.33379
6998.50000    6.40494    78.57375    117.83566
6999.00000    6.43809    77.85510    107.80681
6999.50000    6.49045    75.55087    97.77796
7000.00000    6.54282    73.24664    87.74911
7000.50000    6.59518    70.94241    84.22269
7001.00000    6.56148    70.25845    88.48900
7001.50000    6.52570    70.65526    92.75530
7002.00000    6.48991    71.05206    94.91978
7002.50000    6.45413    71.44887    95.69187
7003.00000    6.41834    71.84568    96.46396
7003.50000    6.38256    72.24249    96.14113
7004.00000    6.35259    70.00570    92.82476
7004.50000    6.36644    67.70975    89.50839
7005.00000    6.38029    65.41380    86.19202
7005.50000    6.39414    63.11785    68.15709
7006.00000    6.40799    60.82189    33.19824
7006.50000    6.42183    58.52594    38.65818
7007.00000    6.43568    57.56228    44.11812
7007.50000    6.44953    59.87380    49.57806
7008.00000    6.46338    59.28052    55.03800
7008.50000    6.47723    58.68723    57.92154
7009.00000    6.49107    58.09394    53.33554
7009.50000    6.50183    58.76579    48.74955
7010.00000    6.50966    61.14878    51.25577
7010.50000    6.51750    63.53178    64.53205
7011.00000    6.52533    66.70020    77.80833
7011.50000    6.53316    69.96573    91.08461
7012.00000    6.54100    73.23127    104.36089
7012.50000    6.54883    74.76318    102.98202
7013.00000    6.55666    73.87783    93.83314
7013.50000    6.56450    72.99247    84.68427
7014.00000    6.56869    72.10712    94.92711
7014.50000    6.55353    76.66463    97.93487
7015.00000    6.53837    77.00088    100.94263
7015.50000    6.52322    77.33713    103.95040
7016.00000    6.50806    77.67337    107.15602
7016.50000    6.49291    78.00962    115.72710
7017.00000    6.47775    78.34587    124.29818
7017.50000    6.46260    78.68211    126.13080
7018.00000    6.45069    79.01836    124.49272
7018.50000    6.49712    79.13124    122.85465
7019.00000    6.54355    78.89601    121.21658
7019.50000    6.58998    78.66078    120.89288
7020.00000    6.63641    78.42555    122.77797
7020.50000    6.68284    77.69737    124.66307
7021.00000    6.72927    76.34147    125.18887
7021.50000    6.75985    74.98557    124.45143
7022.00000    6.72351    73.62967    118.19800
7022.50000    6.68716    73.52002    108.47002
7023.00000    6.65082    74.23737    98.74204
7023.50000    6.61447    74.95473    93.68546
7024.00000    6.57813    75.67208    101.33015
7024.50000    6.54179    76.38944    106.34452
7025.00000    6.50544    77.10679    106.89049
7025.50000    6.47042    77.71735    107.43646
7026.00000    6.44921    77.56084    107.98243
7026.50000    6.42800    77.40433    108.99076
7027.00000    6.40679    77.24781    112.29249
7027.50000    6.38559    77.09130    114.33175
7028.00000    6.36438    77.29178    115.02763
7028.50000    6.34317    78.09371    124.60133
7029.00000    6.32196    78.89565    127.65066
7029.50000    6.30075    79.69759    127.93815
7030.00000    6.30927    80.49953    123.71395
7030.50000    6.31831    80.64149    119.48976
7031.00000    6.32736    80.13378    122.50226
7031.50000    6.33640    79.62607    125.53522
7032.00000    6.34544    79.11836    127.67240
7032.50000    6.35449    78.61065    124.42980
7033.00000    6.36353    78.07303    121.18720
7033.50000    6.37257    75.04922    119.12389
7034.00000    6.38162    72.02541    117.43135
7034.50000    6.39066    69.00159    115.73883
7035.00000    6.39970    65.97778    114.04630
7035.50000    6.40875    62.95397    101.99650
7036.00000    6.41779    59.93015    78.39776
7036.50000    6.42683    59.58579    54.79902
7037.00000    6.43588    63.74705    48.15176
7037.50000    6.44492    67.90831    53.48702
7038.00000    6.43261    72.06956    58.82228
7038.50000    6.41394    76.23082    84.52204
7039.00000    6.39527    80.23669    117.61631
7039.50000    6.37660    79.92238    127.73797
7040.00000    6.35794    79.60807    131.82605
7040.50000    6.33927    79.29375    135.91412
7041.00000    6.32060    78.97944    140.00220
7041.50000    6.30193    79.00423    144.09027
7042.00000    6.28326    79.80635    147.28307
7042.50000    6.26459    80.60848    145.58515
7043.00000    6.24592    81.35388    143.88723
7043.50000    6.22725    81.18948    142.18931
7044.00000    6.29424    81.02508    140.49140
7044.50000    6.36794    80.86067    138.79348
7045.00000    6.44164    80.64368    145.16086
7045.50000    6.51534    79.96232    152.25987
7046.00000    6.58903    79.28097    159.35888
7046.50000    6.55046    78.59962    154.53965
7047.00000    6.50453    77.91826    141.39353
7047.50000    6.45860    77.23691    128.24740
7048.00000    6.41266    76.55555    118.41438
7048.50000    6.36673    75.87420    112.09070
7049.00000    6.32080    75.19285    106.44834
7049.50000    6.27487    75.32189    108.25601
7050.00000    6.27029    76.23575    111.29136
7050.50000    6.31450    77.14961    114.38271
7051.00000    6.35870    78.06347    126.13735
7051.50000    6.40291    78.97733    128.26851
7052.00000    6.44712    79.89119    130.39968
7052.50000    6.49133    80.80505    132.53085
7053.00000    6.53554    80.28327    134.66202
7053.50000    6.57975    79.75844    136.79318
7054.00000    6.62396    79.23362    138.92435
7054.50000    6.66817    78.70879    141.05552
7055.00000    6.67674    78.18397    143.18669
7055.50000    6.64720    78.50274    143.56080
7056.00000    6.61766    79.63892    142.16824
7056.50000    6.58812    80.77510    140.77567
7057.00000    6.55858    81.56559    139.38311
7057.50000    6.52904    81.23152    137.99054
7058.00000    6.49949    80.89745    136.59798
7058.50000    6.46995    80.56338    148.84563
7059.00000    6.44041    80.22931    156.47315
7059.50000    6.41087    80.25968    164.10068
7060.00000    6.38133    80.64588    171.72821
7060.50000    6.35179    81.03207    171.32852
7061.00000    6.32484    81.41827    170.79562
7061.50000    6.44279    81.80447    170.26271
7062.00000    6.56075    81.46611    169.72981
7062.50000    6.60314    80.80382    169.19691
7063.00000    6.57687    80.14153    167.62256
7063.50000    6.55061    79.47924    163.26335
7064.00000    6.52434    78.81695    158.90414
7064.50000    6.49808    78.37456    154.54494
7065.00000    6.47181    78.72243    176.47535
7065.50000    6.44555    78.74334    173.53803
7066.00000    6.41928    78.55877    170.05000
7066.50000    6.39301    78.37420    166.56196
7067.00000    6.36675    78.18963    163.07392
7067.50000    6.34048    78.00506    160.75120
7068.00000    6.32526    77.86149    162.36604
7068.50000    6.33505    78.20936    163.98088
7069.00000    6.34485    78.31476    165.59572
7069.50000    6.35464    78.15043    164.25215
7070.00000    6.36444    77.98611    162.57286
7070.50000    6.37423    77.82178    160.89357
7071.00000    6.38403    77.87522    159.21428
7071.50000    6.39382    78.13355    157.53500
7072.00000    6.40362    78.39188    157.98661
7072.50000    6.41341    78.65021    167.83751
7073.00000    6.42049    78.90854    164.10949
7073.50000    6.42216    79.16687    156.09820
7074.00000    6.42384    79.42520    148.08691
7074.50000    6.42551    79.51995    140.07562
7075.00000    6.42718    79.26112    142.53226
7075.50000    6.42885    79.00230    156.92279
7076.00000    6.43053    78.74348    171.31331
7076.50000    6.43220    78.62259    169.84116
7077.00000    6.43387    78.73929    158.75643
7077.50000    6.43554    78.85600    147.67169
7078.00000    6.43722    78.97271    136.58695
7078.50000    6.43889    79.08941    141.52809
7079.00000    6.44056    78.62869    150.40885
7079.50000    6.44223    77.75799    145.43446
7080.00000    6.44390    76.88729    139.02183
7080.50000    6.42175    76.01658    132.60921
7081.00000    6.39958    75.14588    126.19658
7081.50000    6.37740    74.49212    119.78395
7082.00000    6.35523    75.16296    115.24371
7082.50000    6.33305    75.83379    119.43340
7083.00000    6.31088    76.50463    123.62310
