~VERSION INFORMATION
VERS. 2.0 : CWLS Log ASCII Standard - version 2.0
WRAP.  NO : One line per depth step
#--------------------------------------------------#
#----------------DRILLING INFO, INC.---------------#
#---------------WWW.DRILLINGINFO.COM---------------#
#------------------COPYRIGHT 2015------------------#
#--------------------------------------------------#
#THIS FILE MAY BE USED ONLY IN ACCORDANCE WITH A CURRENT SUBSCRIPTION AGREEMENT BETWEEN
#THE USER AND DRILLING INFO, INC. NO PART OF THIS FILE MAY BE REPRODUCED, USED, COPIED,
#MODIFIED, PROPAGATED, OR DISTRIBUTED EXCEPT IN ACCORDANCE WITH THE SUBSCRIPTION
#AGREEMENT. UNAUTHORIZED USE OR DISTRIBUTION OF ALL OR ANY PART OF THIS FILE MAY VIOLATE
#COPYRIGHT, TRADEMARK, AND/OR OTHER LAWS AND IS SUBJECT TO CIVIL AS WELL AS CRIMINAL
#SANCTIONS.
#--------------------------------------------------#
#THIS FILE IS PROVIDED "AS-IS" AND ALL WARRANTIES ARE EXPRESSLY DISCLAIMED, WHETHER
#EXPRESS, ORAL, IMPLIED, STATUTORY OR OTHERWISE, INCLUDING ANY IMPLIED WARRANTY OF FITNESS
#FOR A PARTICULAR PURPOSE, MERCHANTABILITY, TITLE OR NON-INFRINGEMENT, AND ANY WARRANTIES
#ARISING BY VIRTUE OF CUSTOM OF TRADE OR COURSE OF DEALING.  FURTHER, DRILLING INFO,
#INC. AND ITS LICENSORS DO NOT REPRESENT OR WARRANT THAT THIS FILE WILL MEET USER'S
#REQUIREMENTS OR ARE SUITABLE FOR USER'S NEEDS OR THAT THE DATA OR RESULTS PROVIDED IN
#CONJUNCTION THEREWITH ARE CORRECT, ACCURATE, TIMELY OR RELIABLE. THESE DISCLAIMERS SHALL
#APPLY REGARDLESS OF ANY FAILURE OF ESSENTIAL PURPOSE OF ANY LIMITED REMEDY.  SOME
#JURISDICTIONS DO NOT ALLOW THE EXCLUSION OF CERTAIN WARRANTIES SO SOME OF THE ABOVE
#EXCLUSIONS MAY NOT APPLY. IN NO EVENT SHALL DRILLING INFO, INC. OR ANY OF ITS AFFILIATES
#BE LIABLE UNDER ANY LEGAL THEORY, WHETHER IN TORT (INCLUDING WITHOUT LIMITATION
#NEGLIGENCE), CONTRACT, STRICT LIABILITY, STATUTORY OR OTHERWISE, FOR ANY SPECIAL,
#INCIDENTAL, CONSEQUENTIAL, EXEMPLARY, PUNITIVE OR INDIRECT DAMAGE OF ANY KIND, INCLUDING
#WITHOUT LIMITATION LOSS OF REVENUE, PROFITS, GOODWILL, USE, AND/OR DATA OR THE COST OF
#PROCUREMENT OF SUBSTITUTE GOODS OR SERVICES, EVEN IF APPRISED OF THE POSSIBILITY OF SUCH
#DAMAGES IN ADVANCE.
#--------------------------------------------------#
~WELL INFORMATION
#MNEMONIC     .UNIT              VALUE :DESCRIPTION
#--------------------------------------------------#
STRT       .FT                181 :START DEPTH
STOP       .FT                12231 :STOP DEPTH
STEP       .FT                   0.500 :STEP
NULL       .                  -999.250 :NULL
API        .                421093228700 :API NUMBER
COMP       .         CHESAPEAKE OPERATING  INC. :COMPANY
WELL       .        UNIVERSITY LANDS 4627  1 :WELL
DATE       .                06-May-2007 :LOG DATE
~CURVE INFORMATION
#MNEMONIC     .UNIT      API CODE :CURVE DESCRIPTION
#--------------------------------------------------#
DEPTH       .FT                      :Measured Depth
ILS.OHM        UNKNOWN   :ILS
GR.API        UNKNOWN   :GR
ILD.OHM        UNKNOWN   :ILD
CAL.INCH        UNKNOWN   :CAL
DT.US/FT        UNKNOWN   :DT
~A    DEPTH    ILS    GR    ILD    CAL    DT
# ...
 10554.5     582.025   20.478   161.559   6.005   -999.250
 10555     291.116   21.518   87.64   6.008   -999.250
 10555.5     119.127   22.559   39.393   6.01   -999.250
 10556     106.47   22.463   28.331   6.013   -999.250
 10556.5     113.863   20.515   27.452   6.016   -999.250
 10557     99.9   18.568   29.211   6.018   -999.250
 10557.5     127.857   16.621   32.828   6.021   -999.250
 10558     64.908   14.673   30.018   6.024   -999.250
 10558.5     59.445   15.973   24.844   6.026   -999.250
 10559     22.195   27.639   18.676   6.029   -999.250
 10559.5     10.402   44.69   12.508   6.031   -999.250
 10560     8.598   61.741   7.72   6.034   -999.250
 10560.5     7.97   73.722   8.018   6.037   -999.250
 10561     8.202   79.345   8.317   6.039   -999.250
 10561.5     8.623   79.206   8.615   6.053   -999.250
 10562     9.109   79.067   8.913   6.07   -999.250
 10562.5     9.519   78.713   9.169   6.087   -999.250
 10563     9.788   76.973   9.387   6.104   -999.250
 10563.5     10.531   75.233   9.606   6.121   -999.250
 10564     11.514   73.493   10.073   6.138   -999.250
 10564.5     13.143   71.602   11.113   6.155   -999.250
 10565     14.771   69.869   11.091   6.172   -999.250
 10565.5     14.843   68.17   10.584   6.189   -999.250
 10566     14.277   67.204   10.22   6.173   -999.250
 10566.5     13.71   67.005   9.915   6.141   -999.250
 10567     13.144   68.676   9.61   6.11   -999.250
 10567.5     11.947   70.347   9.305   6.078   -999.250
 10568     10.368   73.486   8.562   6.046   -999.250
 10568.5     8.789   78.737   7.781   6.014   -999.250
 10569     7.209   83.989   7.057   6.005   -999.250
 10569.5     6.354   89.24   6.557   6.007   -999.250
 10570     5.853   92.822   6.056   6.008   -999.250
 10570.5     5.416   93.929   5.666   6.01   -999.250
 10571     5.388   94.531   5.516   6.011   -999.250
 10571.5     5.36   95.134   5.366   6.013   -999.250
 10572     5.332   95.736   5.216   6.014   -999.250
 10572.5     5.255   94.911   5.066   6.016   -999.250
 10573     5.077   93.919   4.89   6.017   -999.250
 10573.5     4.9   96.257   4.646   6.019   -999.250
 10574     5.172   100.223   4.815   6.02   -999.250
 10574.5     5.878   99.562   5.213   6.022   -999.250
 10575     9.896   88.094   7.8   6.023   -999.250
 10575.5     19.021   71.527   11.455   6.025   -999.250
 10576     28.147   53.42   39.507   6.026   -999.250
 10576.5     94.749   35.313   108.789   6.028   -999.250
 10577     243.107   27.781   178.071   6.029   -999.250
 10577.5     567.133   23.548   247.353   6.031   -999.250
 10578     901.929   19.653   213.901   6.032   -999.250
 10578.5     336.02   15.757   69.466   6.034   -999.250
 10579     186.582   11.862   50.902   6.035   -999.250
 10579.5     74.012   10.039   32.337   6.036   -999.250
 10580     35.147   9.231   19.142   6.038   -999.250
 10580.5     32.71   8.644   15.5   6.039   -999.250
 10581     34.031   10.29   17.397   6.042   -999.250
 10581.5     38.242   12.585   18.708   6.047   -999.250
 10582     10.172   15.527   11.457   6.052   -999.250
 10582.5     5.4   33.987   6.437   6.056   -999.250
 10583     4.984   52.448   4.664   6.061   -999.250
 10583.5     5.896   72.074   5.661   6.066   -999.250
 10584     6.807   91.785   6.991   6.071   -999.250
 10584.5     6.323   107.648   6.846   6.076   -999.250
 10585     5.446   107.904   6.288   6.081   -999.250
 10585.5     4.869   108.01   5.729   6.086   -999.250
 10586     5.226   107.941   5.623   6.091   -999.250
 10586.5     5.583   107.873   5.361   6.096   -999.250
 10587     5.431   108.869   5.098   6.1   -999.250
 10587.5     5.185   110.613   4.836   6.105   -999.250
 10588     4.939   112.357   4.573   6.11   -999.250
 10588.5     5.572   114.101   4.612   6.115   -999.250
 10589     5.308   112.121   4.808   6.12   -999.250
 10589.5     6.529   109.158   5.004   6.125   -999.250
 10590     7.348   108.04   5.083   6.13   -999.250
 10590.5     6.718   106.994   4.799   6.135   -999.250
 10591     6.088   99.736   5.602   6.136   -999.250
 10591.5     13.968   85.646   17.05   6.135   -999.250
 10592     32.503   59.624   31.182   6.135   -999.250
 10592.5     55.624   34.274   45.315   6.134   -999.250
 10593     413.684   22.373   70.605   6.133   -999.250
 10593.5     538.692   14.549   89.296   6.133   -999.250
 10594     232.708   9.975   87.432   6.132   -999.250
 10594.5     334.568   7.903   103.821   6.132   -999.250
 10595     489.114   8.963   149.18   6.131   -999.250
 10595.5     755.19   11.299   194.538   6.131   -999.250
 10596     1417.568   14.456   239.897   6.13   -999.250
 10596.5     1852.727   15.327   235.565   6.129   -999.250
 10597     1104.506   12.538   204.403   6.129   -999.250
 10597.5     403.105   9.75   160.551   6.128   -999.250
 10598     174.239   8.599   116.698   6.128   -999.250
 10598.5     145.504   9.037   75.932   6.127   -999.250
 10599     166.436   20.424   70.426   6.126   -999.250
 10599.5     101.364   37.135   64.92   6.126   -999.250
 10600     44.49   55.113   53.234   6.125   -999.250
 10600.5     19.385   74.701   31.019   6.125   -999.250
 10601     11.423   94.29   14.908   6.124   -999.250
 10601.5     8.146   101.028   11.231   6.123   -999.250
 10602     13.64   94.365   8.806   6.122   -999.250
 10602.5     19.554   83.477   16.724   6.121   -999.250
 10603     31.065   72.589   26.146   6.12   -999.250
 10603.5     43.654   66.916   44.3   6.119   -999.250
 10604     72.948   66.889   80.932   6.118   -999.250
 10604.5     109.492   68.701   111.425   6.117   -999.250
 10605     123.307   65.205   132.391   6.116   -999.250
 10605.5     138.881   52.088   163.115   6.115   -999.250
 10606     156.373   37.428   200.183   6.114   -999.250
 10606.5     242.668   34.979   215.903   6.113   -999.250
 10607     392.646   37.134   179.041   6.112   -999.250
 10607.5     298.273   39.868   141.986   6.111   -999.250
 10608     182.136   40.565   104.462   6.111   -999.250
 10608.5     96.051   36.882   66.937   6.11   -999.250
 10609     90.893   33.199   57.768   6.109   -999.250
 10609.5     99.336   29.516   59.494   6.108   -999.250
 10610     118.91   34.396   50.187   6.107   -999.250
 10610.5     66.53   46.323   36.859   6.106   -999.250
 10611     45.153   58.25   23.531   6.105   -999.250
 10611.5     33.551   66.979   18.841   6.104   -999.250
 10612     34.379   69.284   19.249   6.103   -999.250
 10612.5     37.001   68.251   20.261   6.102   -999.250
 10613     45.386   62.177   22.74   6.101   -999.250
 10613.5     59.805   56.102   25.219   6.1   -999.250
 10614     48.051   50.028   24.014   6.099   -999.250
 10614.5     25.782   50.137   21.361   6.098   -999.250
 10615     20.017   56.56   16.313   6.097   -999.250
 10615.5     18.004   65.382   14.736   6.095   -999.250
 10616     14.474   74.736   13.619   6.094   -999.250
 10616.5     9.981   84.09   10.422   6.093   -999.250
 10617     5.927   92.405   6.387   6.092   -999.250
 10617.5     4.923   94.76   5.035   6.091   -999.250
 10618     4.73   95.952   4.904   6.09   -999.250
 10618.5     4.776   96.893   4.794   6.089   -999.250
 10619     4.832   98.999   4.794   6.088   -999.250
 10619.5     5.194   101.849   5.082   6.087   -999.250
 10620     5.685   99.134   5.613   6.086   -999.250
 10620.5     6.177   93.661   6.144   6.085   -999.250
 10621     7.018   74.769   7.91   6.083   -999.250
 10621.5     16.928   55.878   11.536   6.082   -999.250
 10622     52.34   45.851   30.115   6.081   -999.250
 10622.5     110.245   39.317   42.485   6.08   -999.250
 10623     93.959   43.143   52.2   6.079   -999.250
 10623.5     71.756   46.036   64.33   6.078   -999.250
 10624     84.513   46.857   85.875   6.08   -999.250
 10624.5     125.356   46.578   107.421   6.084   -999.250
 10625     223.671   47.965   205.024   6.088   -999.250
 10625.5     409.422   50.012   650.848   6.092   -999.250
 10626     796.958   48.535   1096.672   6.096   -999.250
 10626.5     757.784   38.753   1381.572   6.1   -999.250
