###############################################
##         ENVERUS                           ##
##         ESS - Open Hole                   ##
##         PERMIAN / DELAWARE                ##
##         Nov 03 2023  V4.0                 ##
##         42-109-32978-00-00                ##
###############################################
## Copyright 2017-2023  ENVERUS.  All Rights Reserved. 
## Confidential - Property of ENVERUS, use governed by terms and 
## conditions found within the existing Information Services Subscription Agreement 
## (as may be amended, the “ISSA”) between Customer and ENVERUS. 
## 
~VERSION INFORMATION
# MNEM.UNIT                               DATA : DESCRIPTION OF MNEMONIC
#-----.-----     ----------------------------- : -----------------------------
VERS.                                     2.00 : CWLS LOG ASCII STANDARD - VERSION 2.00
WRAP.                                       NO : MULTIPLE LINES PER DEPTH STEP
VEND.                                  ENVERUS : VENDOR
TYPE.                          ESS - OPEN HOLE : ENVERUS ESSENTIAL CURVES – ACCESSIBLE THROUGH ENVERUS PRISM(TM)
DOC.                                  43644371 : ENVERUS HEADER RAW DOCUMENT ID
#___________________________________________________________________________________________________ 
~WELL INFORMATION 
# sF+t5dzO8TjfhJXm5BhYJSGKqyGjnVcKAr1GJS+XHP+EILfiOmlFF7qBSMjafOrEHsreRpz+nmfYFwcq0MlVOA== 
# MNEM.UNIT                                              DATA : DESCRIPTION OF MNEMONIC 
#-----.-----                    ----------------------------- : ----------------------------- 
CNTY.                                               CULBERSON : COUNTY 
STATE.                                                  TEXAS : STATE 
CNTRY.                                                    USA : COUNTRY 
API.                                             42-109-32978 : API (10 Digit) 
API_14.                                    42-109-32978-00-00 : API (14 Digits) 
API_14_std.                                 42-109-32978-0000 : API (14 Digits Standard) 
UWI.                                           42109329780000 : UNIQUE WELL ID 
WELL.                                    42109329780000_API14 : WELL NAME
STRT.FT                                                 179.0 : START DEPTH
STOP.FT                                                9893.5 : STOP DEPTH
STEP.FT                                                   0.5 : STEP BETWEEN DEPTHS
NULL.                                                 -999.25 : NULL VALUE
#___________________________________________________________________________________________________ 
~PARAMETER INFORMATION 
# MNEM.UNIT                                              DATA : DESCRIPTION OF MNEMONIC 
#-----.-----                    ----------------------------- : ----------------------------- 
EKB.FT                                                   3282 : ELEVATION ABOVE MSL
#___________________________________________________________________________________________________ 
~CURVE INFORMATION 
# MNEM.UNIT           : CURVE DESCRIPTION 
#-----.-----          : ----------------------------- 
 DEPT.FT               : MEASURED DEPTH 
 GR.API                : GAMMA RAY (GAMMA RAY) 
 DT.US/FT              : SONIC DELTA TRANSIT TIME (SONIC) 
 #___________________________________________________________________________________________________ 
~A         DEPT             GR             DT
# ...
         4007.0         21.727        279.666
         4007.5         21.773        279.666
         4008.0         23.991        279.666
         4008.5         26.453        279.666
         4009.0         27.197        279.666
         4009.5         26.110        279.666
         4010.0         25.070        279.666
         4010.5         24.652        279.666
         4011.0         25.070        279.666
         4011.5         25.070        279.666
         4012.0         25.070        279.666
         4012.5         24.188        279.666
         4013.0         23.398        279.666
         4013.5         23.686        279.666
         4014.0         23.361        279.666
         4014.5         23.185        279.666
         4015.0         21.727        279.666
         4015.5         22.442        279.666
         4016.0         24.429        279.666
         4016.5         26.704        279.666
         4017.0         25.585        279.666
         4017.5         22.864        279.666
         4018.0         20.474        279.666
         4018.5         20.474        279.666
         4019.0         21.272        279.666
         4019.5         23.413        279.666
         4020.0         26.323        279.666
         4020.5         26.203        279.666
         4021.0         25.710        279.666
         4021.5         25.223        279.666
         4022.0         28.214        279.666
         4022.5         30.572        279.666
         4023.0         32.173        279.666
         4023.5         31.141        279.666
         4024.0         28.086        279.666
         4024.5         24.534        279.666
         4025.0         22.563        279.666
         4025.5         22.563        279.666
         4026.0         23.111        279.666
         4026.5         24.616        279.666
         4027.0         24.866        279.666
         4027.5         26.370        279.666
         4028.0         27.875        279.666
         4028.5         30.202        279.666
         4029.0         32.591        279.666
         4029.5         32.912        279.666
         4030.0         34.680        279.109
         4030.5         34.262        279.109
         4031.0         33.295        279.109
         4031.5         32.173        279.109
         4032.0         33.229        278.552
         4032.5         36.470        278.552
         4033.0         38.142        278.552
         4033.5         35.396        278.470
         4034.0         31.444        279.109
         4034.5         30.096        279.952
         4035.0         33.289        282.515
         4035.5         33.247        283.008
         4036.0         28.853        281.337
         4036.5         25.123        281.337
         4037.0         26.139        282.181
         4037.5         31.923        283.008
         4038.0         35.814        281.496
         4038.5         37.318        279.666
         4039.0         39.187        279.109
         4039.5         45.265        278.436
         4040.0         51.698        278.443
         4040.5         53.781        278.449
         4041.0         52.394        278.455
         4041.5         47.320        278.461
         4042.0         41.541        278.467
         4042.5         36.399        278.474
         4043.0         37.904        278.480
         4043.5         41.608        278.486
         4044.0         47.527        278.492
         4044.5         49.937        278.498
         4045.0         49.133        278.505
         4045.5         43.002        278.511
         4046.0         36.362        278.517
         4046.5         35.481        278.523
         4047.0         36.985        278.530
         4047.5         37.138        278.536
         4048.0         34.857        278.542
         4048.5         34.394        278.548
         4049.0         32.607        278.554
         4049.5         28.909        278.561
         4050.0         24.087        278.567
         4050.5         20.233        278.573
         4051.0         19.903        278.579
         4051.5         23.312        278.585
         4052.0         26.648        278.592
         4052.5         28.904        278.598
         4053.0         29.784        278.604
         4053.5         27.938        278.610
         4054.0         24.946        278.616
         4054.5         22.856        278.623
         4055.0         28.227        278.629
         4055.5         31.741        278.635
         4056.0         32.495        278.641
         4056.5         31.789        278.648
         4057.0         31.136        278.654
         4057.5         31.755        278.660
         4058.0         30.919        278.666
         4058.5         29.608        278.672
         4059.0         26.792        278.679
         4059.5         24.953        278.685
         4060.0         24.543        278.691
         4060.5         28.119        278.697
         4061.0         30.635        278.703
         4061.5         30.761        278.710
         4062.0         28.613        278.716
         4062.5         28.044        278.722
         4063.0         29.549        278.728
         4063.5         30.084        278.735
         4064.0         30.501        278.741
         4064.5         30.719        278.747
         4065.0         31.262        278.753
         4065.5         29.365        278.759
         4066.0         28.278        278.766
         4066.5         28.989        278.772
         4067.0         31.972        278.778
         4067.5         32.958        278.784
         4068.0         30.793        278.790
         4068.5         26.481        278.797
         4069.0         22.211        278.803
         4069.5         19.838        278.809
         4070.0         18.853        278.815
         4070.5         19.939        278.821
         4071.0         21.026        278.828
         4071.5         21.727        278.834
         4072.0         23.198        278.840
         4072.5         25.640        278.846
         4073.0         29.224        278.853
         4073.5         31.472        278.859
         4074.0         32.591        279.860
         4074.5         31.537        281.894
         4075.0         29.329        281.337
         4075.5         26.857        281.337
         4076.0         29.227        281.337
         4076.5         37.201        281.337
         4077.0         44.308        281.337
         4077.5         44.294        281.269
         4078.0         37.859        279.666
         4078.5         31.910        279.666
         4079.0         28.445        279.666
         4079.5         27.377        279.666
         4080.0         28.907        279.666
         4080.5         30.804        279.666
         4081.0         30.784        279.666
         4081.5         30.469        279.666
         4082.0         32.510        279.666
         4082.5         37.184        279.666
         4083.0         42.178        279.666
         4083.5         44.007        279.666
         4084.0         44.708        279.666
         4084.5         43.544        279.666
         4085.0         39.721        279.666
         4085.5         34.457        279.666
         4086.0         29.192        279.666
         4086.5         25.937        279.666
         4087.0         27.070        279.666
         4087.5         29.300        279.666
         4088.0         30.199        279.666
         4088.5         28.006        279.666
         4089.0         24.683        279.666
         4089.5         24.035        279.666
         4090.0         25.435        279.666
         4090.5         25.373        279.666
         4091.0         25.352        279.666
         4091.5         24.234        279.666
         4092.0         25.488        279.666
         4092.5         26.323        279.666
         4093.0         26.626        279.666
         4093.5         28.820        279.666
