###############################################
##         ENVERUS                           ##
##         ESS - Open Hole                   ##
##         PERMIAN / DELAWARE                ##
##         Nov 03 2023  V4.0                 ##
##         42-109-32538-90-00                ##
###############################################
## Copyright 2017-2023  ENVERUS.  All Rights Reserved. 
## Confidential - Property of ENVERUS, use governed by terms and 
## conditions found within the existing Information Services Subscription Agreement 
## (as may be amended, the “ISSA”) between Customer and ENVERUS. 
## 
~VERSION INFORMATION
# MNEM.UNIT                               DATA : DESCRIPTION OF MNEMONIC
#-----.-----     ----------------------------- : -----------------------------
VERS.                                     2.00 : CWLS LOG ASCII STANDARD - VERSION 2.00
WRAP.                                       NO : MULTIPLE LINES PER DEPTH STEP
VEND.                                  ENVERUS : VENDOR
TYPE.                          ESS - OPEN HOLE : ENVERUS ESSENTIAL CURVES – ACCESSIBLE THROUGH ENVERUS PRISM(TM)
DOC.                                  51093252 : ENVERUS HEADER RAW DOCUMENT ID
#___________________________________________________________________________________________________ 
~WELL INFORMATION 
# oCCetX3e+0pvkDd8h//i1tmWwvIHyfHqsQII3M49Y6eU5HggNAlLoqtwY+vCuZvzOG9Fr+Tv1xe2vto6NUMufQ== 
# MNEM.UNIT                                              DATA : DESCRIPTION OF MNEMONIC 
#-----.-----                    ----------------------------- : ----------------------------- 
CNTY.                                               CULBERSON : COUNTY 
STATE.                                                  TEXAS : STATE 
CNTRY.                                                    USA : COUNTRY 
API.                                             42-109-32538 : API (10 Digit) 
API_14.                                    42-109-32538-90-00 : API (14 Digits) 
API_14_std.                                 42-109-32538-9000 : API (14 Digits Standard) 
UWI.                                           42109325389000 : UNIQUE WELL ID 
WELL.                                                  DRD_55 : WELL NAME
STRT.FT                                                2546.5 : START DEPTH
STOP.FT                                               11260.0 : STOP DEPTH
STEP.FT                                                   0.5 : STEP BETWEEN DEPTHS
NULL.                                                 -999.25 : NULL VALUE
PREV_APII.                                     42109325380000 : WELL IDENTIFIER
#___________________________________________________________________________________________________ 
~PARAMETER INFORMATION 
# MNEM.UNIT                                              DATA : DESCRIPTION OF MNEMONIC 
#-----.-----                    ----------------------------- : ----------------------------- 
EKB.FT                                                   3182 : ELEVATION ABOVE MSL
#___________________________________________________________________________________________________ 
~CURVE INFORMATION 
# MNEM.UNIT           : CURVE DESCRIPTION 
#-----.-----          : ----------------------------- 
 DEPT.FT               : MEASURED DEPTH 
 CALI.IN               : CALIPER (CAL - CALIPER) 
 GR.API                : GAMMA RAY (GAMMA RAY) 
 DT.US/FT              : SONIC DELTA TRANSIT TIME (SONIC) 
 RESS.OHMM             : SHALLOW INDUCTION RESISTIVITY (ILS - SHALLOW RESISTIVITY) 
 RESD.OHMM             : DEEP INDUCTION RESISTIVITY (ILD - DEEP RESISTIVITY) 
 DPHI.V/V              : DENSITY POROSITY (DENSITY POROSITY) 
 NPHI.V/V              : NEUTRON POROSITY (NEUTRON POROSITY) 
 RHOB.G/CC             : BULK DENSITY (DENSITY) 
 #___________________________________________________________________________________________________ 
~A         DEPT           CALI             GR             DT           RESS           RESD           DPHI           NPHI           RHOB
# ...
        10246.0          6.111         89.712         79.673         26.531         32.270        0.11948        0.17254         2.5113
        10246.5          6.111         98.966         79.015         30.070         32.670        0.12427        0.17055         2.5043
        10247.0          6.133        101.016         77.986         31.297         33.446        0.12738        0.17745         2.5218
        10247.5          6.146         94.620         76.826         32.438         35.231        0.11328        0.18569         2.5340
        10248.0          6.147         89.302         75.519         33.486         35.990        0.10622        0.18236         2.5411
        10248.5          6.147         94.092         74.490         32.576         35.800        0.10552        0.16591         2.5431
        10249.0          6.147         97.646         73.051         31.934         34.386        0.10273        0.15657         2.5452
        10249.5          6.147         94.406         71.240         32.104         33.763        0.10184        0.16677         2.5474
        10250.0          6.147         84.921         69.062         35.262         35.796        0.09879        0.17553         2.5534
        10250.5          6.147         70.734         67.003         44.340         43.683        0.09264        0.16197         2.5746
        10251.0          6.147         51.460         65.254         55.859         56.225        0.06636        0.14372         2.6202
        10251.5          6.147         32.121         64.224         84.027         88.766        0.03441        0.09452         2.6822
        10252.0          6.147         31.002         64.249        167.782        164.196        0.00020        0.05956         2.7432
        10252.5          6.147         32.102         65.607        256.087        330.238        0.00020        0.06264         2.7724
        10253.0          6.147         43.283         68.614        208.498        168.285        0.00020        0.07026         2.7659
        10253.5          6.147         61.300         72.077         79.310         55.195        0.00020        0.12051         2.6714
        10254.0          6.147         97.640         75.403         34.839         27.743        0.06049        0.15260         2.5769
        10254.5          6.147        113.137         78.135         22.119         21.866        0.12881        0.13351         2.4940
        10255.0          6.147        111.837         79.422         22.254         21.218        0.13573        0.18775         2.4932
        10255.5          6.147        112.746         80.451         27.138         25.244        0.13473        0.23194         2.5017
        10256.0          6.147        110.323         80.491         32.232         29.546        0.12021        0.21779         2.5300
        10256.5          6.147        104.382         80.491         31.820         29.203        0.10270        0.19759         2.5545
        10257.0          6.147         96.022         80.491         30.334         27.527        0.09797        0.18568         2.5521
        10257.5          6.147         91.882         80.491         27.849         26.037        0.10414        0.18194         2.5216
        10258.0          6.147        100.579         81.507         28.663         29.560        0.12264        0.16675         2.4910
        10258.5          6.147        112.957         82.127         34.175         35.990        0.14316        0.18339         2.4660
        10259.0          6.147        115.019         82.536         40.759         43.834        0.15373        0.20301         2.4671
        10259.5          6.147        110.002         82.536         48.601         53.374        0.14864        0.18112         2.4745
        10260.0          6.147        104.361         81.902         57.961         65.002        0.14509        0.18498         2.4804
        10260.5          6.147        102.391         80.873         69.116         78.181        0.14323        0.18498         2.4790
        10261.0          6.147        101.435         79.843         80.817         97.373        0.14101        0.18186         2.4722
        10261.5          6.147        100.104         78.814         85.202         94.497        0.14982        0.18246         2.4731
        10262.0          6.147        103.596         78.037         75.148         86.235        0.13102        0.17728         2.4964
        10262.5          6.148        112.381         77.628         69.475         80.926        0.12982        0.16159         2.5037
        10263.0          6.149        113.547         76.954         64.940         76.661        0.13220        0.16954         2.5016
        10263.5          6.149        125.130         75.891         64.300         75.922        0.13014        0.17834         2.5001
        10264.0          6.150        137.478         74.003         63.934         74.955        0.13074        0.18143         2.4996
        10264.5          6.151        140.824         71.904         60.846         74.044        0.13192        0.18067         2.5078
        10265.0          6.152        115.756         69.974         61.431         86.204        0.11942        0.17389         2.5433
        10265.5          6.153         64.910         69.448         90.105        114.685        0.08956        0.14745         2.5776
        10266.0          6.154         64.081         69.968         91.697        113.771        0.05483        0.11280         2.6108
        10266.5          6.155        103.770         71.504         82.958         75.411        0.06679        0.09763         2.5973
        10267.0          6.156        110.853         73.766         51.066         48.287        0.11398        0.15029         2.5116
        10267.5          6.157        102.737         75.295         38.162         32.501        0.13281        0.19042         2.4991
        10268.0          6.158        103.532         75.251         30.239         28.223        0.12707        0.18332         2.5110
        10268.5          6.159        108.107         74.154         29.855         30.248        0.12333        0.16955         2.5130
        10269.0          6.159         98.909         71.683         35.339         34.988        0.12444        0.16275         2.5203
        10269.5          6.160         71.134         69.004         43.634         43.628        0.11712        0.15913         2.5452
        10270.0          6.161         52.494         67.044         56.542         57.068        0.08201        0.13094         2.5876
        10270.5          6.162         44.596         66.015         79.267         76.225        0.05120        0.10317         2.6386
        10271.0          6.163         39.495         66.548        110.660        108.277        0.00651        0.08206         2.6852
        10271.5          6.164         40.769         68.453        133.393        142.821        0.00850        0.07538         2.6804
        10272.0          6.165         95.564         70.833         92.941        122.504        0.05743        0.09037         2.6159
        10272.5          6.165        106.107         72.797         76.967         88.637        0.09173        0.11998         2.5525
        10273.0          6.165        119.651         73.937         60.322         63.934        0.12395        0.16593         2.5039
        10273.5          6.164        120.556         73.745         51.104         53.862        0.13734        0.16819         2.4911
        10274.0          6.164        111.265         72.714         48.472         53.261        0.13281        0.17333         2.5019
        10274.5          6.163         96.000         70.966         48.576         54.044        0.12344        0.16704         2.5232
        10275.0          6.162         86.396         69.431         49.855         56.040        0.10507        0.13949         2.5528
