###############################################
##         ENVERUS                           ##
##         ESS - Open Hole                   ##
##         PERMIAN / DELAWARE                ##
##         Nov 02 2023  V4.0                 ##
##         42-109-31391-00-00                ##
###############################################
## Copyright 2017-2023  ENVERUS.  All Rights Reserved. 
## Confidential - Property of ENVERUS, use governed by terms and 
## conditions found within the existing Information Services Subscription Agreement 
## (as may be amended, the “ISSA”) between Customer and ENVERUS. 
## 
~VERSION INFORMATION
# MNEM.UNIT                               DATA : DESCRIPTION OF MNEMONIC
#-----.-----     ----------------------------- : -----------------------------
VERS.                                     2.00 : CWLS LOG ASCII STANDARD - VERSION 2.00
WRAP.                                       NO : MULTIPLE LINES PER DEPTH STEP
VEND.                                  ENVERUS : VENDOR
TYPE.                          ESS - OPEN HOLE : ENVERUS ESSENTIAL CURVES – ACCESSIBLE THROUGH ENVERUS PRISM(TM)
DOC.                                  31999167 : ENVERUS HEADER RAW DOCUMENT ID
#___________________________________________________________________________________________________ 
~WELL INFORMATION 
# BOC9FSWoKCUsCFcWObZ1iTDYvHtSUwfaSl9bEava01AYiR20s/sWwY1hBaxvFz+VJj0aOQNxXrzxY9t5EPBGbg== 
# MNEM.UNIT                                              DATA : DESCRIPTION OF MNEMONIC 
#-----.-----                    ----------------------------- : ----------------------------- 
CNTY.                                               CULBERSON : COUNTY 
STATE.                                                  TEXAS : STATE 
CNTRY.                                                    USA : COUNTRY 
API.                                             42-109-31391 : API (10 Digit) 
API_14.                                    42-109-31391-00-00 : API (14 Digits) 
API_14_std.                                 42-109-31391-0000 : API (14 Digits Standard) 
UWI.                                           42109313910000 : UNIQUE WELL ID 
WELL.                                            TRES ALAS  1 : WELL NAME
STRT.FT                                                     0 : START DEPTH
STOP.FT                                               15494.0 : STOP DEPTH
STEP.FT                                                   0.5 : STEP BETWEEN DEPTHS
NULL.                                                 -999.25 : NULL VALUE
COMP.                           AMERICAN QUASAR PETROLEUM CO. : COMPANY
#___________________________________________________________________________________________________ 
~CURVE INFORMATION 
# MNEM.UNIT           : CURVE DESCRIPTION 
#-----.-----          : ----------------------------- 
 DEPT.FT               : MEASURED DEPTH 
 CALI.IN               : CALIPER (CAL - CAL) 
 GR.API                : GAMMA RAY (GR) 
 DT.US/FT              : SONIC DELTA TRANSIT TIME (DT) 
 #___________________________________________________________________________________________________ 
~A         DEPT           CALI             GR             DT
# ...
         9372.0         12.564         60.748         73.230
         9372.5         12.560         55.336         71.172
         9373.0         12.555         51.417         70.579
         9373.5         12.551         53.075         71.282
         9374.0         12.547         55.349         71.885
         9374.5         12.545         56.159         71.095
         9375.0         12.550         52.171         68.397
         9375.5         12.554         47.196         65.698
         9376.0         12.559         42.892         63.650
         9376.5         12.564         39.307         63.651
         9377.0         12.569         37.695         65.569
         9377.5         12.574         37.866         68.186
         9378.0         12.578         42.471         70.803
         9378.5         12.583         48.110         73.420
         9379.0         12.588         55.030         75.110
         9379.5         12.593         63.061         76.246
         9380.0         12.597         67.670         77.383
         9380.5         12.602         68.924         76.872
         9381.0         12.607         64.169         73.540
         9381.5         12.612         57.347         70.778
         9382.0         12.617         50.525         68.757
         9382.5         12.621         46.927         68.148
         9383.0         12.626         47.030         68.257
         9383.5         12.631         47.802         68.366
         9384.0         12.636         48.575         68.475
         9384.5         12.641         48.956         68.149
         9385.0         12.645         49.039         65.901
         9385.5         12.650         44.485         62.134
         9386.0         12.655         37.879         58.368
         9386.5         12.660         27.226         54.601
         9387.0         12.665         18.992         51.330
         9387.5         12.669         13.330         52.119
         9388.0         12.674         15.399         55.243
         9388.5         12.679         25.752         58.987
         9389.0         12.684         45.383         65.902
         9389.5         12.688         60.202         72.816
         9390.0         12.693         68.744         73.181
         9390.5         12.698         66.500         71.661
         9391.0         12.703         53.687         66.991
         9391.5         12.708         43.652         63.863
         9392.0         12.710         39.171         63.961
         9392.5         12.711         42.222         66.860
         9393.0         12.712         50.553         71.048
         9393.5         12.713         52.737         71.311
         9394.0         12.714         51.514         70.205
         9394.5         12.715         50.210         69.031
         9395.0         12.716         54.695         70.152
         9395.5         12.717         62.367         72.552
         9396.0         12.718         73.979         74.050
         9396.5         12.719         74.958         72.684
         9397.0         12.720         65.028         69.193
         9397.5         12.721         55.328         65.702
         9398.0         12.722         51.848         65.722
         9398.5         12.723         52.062         66.398
         9399.0         12.724         55.770         68.139
         9399.5         12.725         62.183         70.428
         9400.0         12.726         69.159         72.717
         9400.5         12.727         73.727         75.006
         9401.0         12.728         71.744         75.788
         9401.5         12.729         67.949         74.306
         9402.0         12.730         64.154         72.825
         9402.5         12.729         62.091         72.222
         9403.0         12.728         69.305         73.117
         9403.5         12.727         78.515         75.834
         9404.0         12.726         89.508         78.551
         9404.5         12.725         98.489         79.779
         9405.0         12.724         93.736         77.812
         9405.5         12.723         79.270         75.392
         9406.0         12.722         62.599         73.713
         9406.5         12.722         54.680         73.095
         9407.0         12.721         55.243         72.924
         9407.5         12.720         57.163         72.754
         9408.0         12.719         58.040         71.486
         9408.5         12.718         57.738         68.455
         9409.0         12.717         52.807         65.425
         9409.5         12.716         48.367         62.540
         9410.0         12.715         46.715         65.784
         9410.5         12.714         49.251         70.838
         9411.0         12.713         61.429         74.914
         9411.5         12.712         73.831         78.872
         9412.0         12.711         81.156         82.830
         9412.5         12.710         83.786         83.977
         9413.0         12.710         85.378         83.276
         9413.5         12.709         86.970         82.574
         9414.0         12.708         88.425         81.872
         9414.5         12.707         89.179         81.408
         9415.0         12.706         88.371         81.004
         9415.5         12.705         85.399         80.601
         9416.0         12.704         82.426         78.034
         9416.5         12.703         72.282         75.338
         9417.0         12.702         60.052         71.819
         9417.5         12.701         46.831         60.593
         9418.0         12.700         33.609         55.864
         9418.5         12.699         26.777         52.914
         9419.0         12.698         22.263         55.327
         9419.5         12.698         27.317         60.178
         9420.0         12.697         42.714         65.029
         9420.5         12.696         55.073         69.880
         9421.0         12.695         62.801         74.732
         9421.5         12.694         66.009         79.583
         9422.0         12.693         65.770         79.785
         9422.5         12.692         64.672         79.647
         9423.0         12.691         63.327         78.840
         9423.5         12.690         61.981         77.135
         9424.0         12.689         60.420         71.810
         9424.5         12.688         57.095         67.124
         9425.0         12.687         53.770         66.978
         9425.5         12.686         52.080         67.986
         9426.0         12.685         55.720         70.165
         9426.5         12.685         58.680         72.344
         9427.0         12.684         57.791         73.501
         9427.5         12.683         52.106         71.156
         9428.0         12.682         46.767         68.611
         9428.5         12.681         45.318         66.066
         9429.0         12.680         43.964         65.631
         9429.5         12.679         48.360         67.135
         9430.0         12.678         55.021         69.796
         9430.5         12.677         60.764         72.457
         9431.0         12.676         64.074         75.118
         9431.5         12.675         61.795         77.779
         9432.0         12.674         60.776         77.599
         9432.5         12.673         60.801         76.424
         9433.0         12.673         61.206         75.249
         9433.5         12.672         63.145         74.608
         9434.0         12.671         66.839         75.307
         9434.5         12.670         72.759         76.853
         9435.0         12.669         77.205         77.866
         9435.5         12.668         76.652         76.665
         9436.0         12.667         70.138         75.464
         9436.5         12.666         63.623         74.263
         9437.0         12.665         58.184         73.173
         9437.5         12.670         55.883         72.558
