###############################################
##         ENVERUS                           ##
##         ESS - Open Hole                   ##
##         PERMIAN / DELAWARE                ##
##         Nov 02 2023  V4.0                 ##
##         42-109-31391-00-00                ##
###############################################
## Copyright 2017-2023  ENVERUS.  All Rights Reserved. 
## Confidential - Property of ENVERUS, use governed by terms and 
## conditions found within the existing Information Services Subscription Agreement 
## (as may be amended, the “ISSA”) between Customer and ENVERUS. 
## 
~VERSION INFORMATION
# MNEM.UNIT                               DATA : DESCRIPTION OF MNEMONIC
#-----.-----     ----------------------------- : -----------------------------
VERS.                                     2.00 : CWLS LOG ASCII STANDARD - VERSION 2.00
WRAP.                                       NO : MULTIPLE LINES PER DEPTH STEP
VEND.                                  ENVERUS : VENDOR
TYPE.                          ESS - OPEN HOLE : ENVERUS ESSENTIAL CURVES – ACCESSIBLE THROUGH ENVERUS PRISM(TM)
DOC.                                  31999167 : ENVERUS HEADER RAW DOCUMENT ID
#___________________________________________________________________________________________________ 
~WELL INFORMATION 
# BOC9FSWoKCUsCFcWObZ1iTDYvHtSUwfaSl9bEava01AYiR20s/sWwY1hBaxvFz+VJj0aOQNxXrzxY9t5EPBGbg== 
# MNEM.UNIT                                              DATA : DESCRIPTION OF MNEMONIC 
#-----.-----                    ----------------------------- : ----------------------------- 
CNTY.                                               CULBERSON : COUNTY 
STATE.                                                  TEXAS : STATE 
CNTRY.                                                    USA : COUNTRY 
API.                                             42-109-31391 : API (10 Digit) 
API_14.                                    42-109-31391-00-00 : API (14 Digits) 
API_14_std.                                 42-109-31391-0000 : API (14 Digits Standard) 
UWI.                                           42109313910000 : UNIQUE WELL ID 
WELL.                                            TRES ALAS  1 : WELL NAME
STRT.FT                                                     0 : START DEPTH
STOP.FT                                               15494.0 : STOP DEPTH
STEP.FT                                                   0.5 : STEP BETWEEN DEPTHS
NULL.                                                 -999.25 : NULL VALUE
COMP.                           AMERICAN QUASAR PETROLEUM CO. : COMPANY
#___________________________________________________________________________________________________ 
~CURVE INFORMATION 
# MNEM.UNIT           : CURVE DESCRIPTION 
#-----.-----          : ----------------------------- 
 DEPT.FT               : MEASURED DEPTH 
 CALI.IN               : CALIPER (CAL - CAL) 
 GR.API                : GAMMA RAY (GR) 
 DT.US/FT              : SONIC DELTA TRANSIT TIME (DT) 
 #___________________________________________________________________________________________________ 
~A         DEPT           CALI             GR             DT
# ...
        11946.0         11.014         54.930         69.955
        11946.5         11.037         55.202         69.401
        11947.0         11.056         55.474         65.703
        11947.5         11.065         55.746         63.781
        11948.0         11.025         51.601         64.381
        11948.5         10.829         49.932         66.178
        11949.0         10.633         50.127         66.660
        11949.5         10.582         50.322         66.030
        11950.0         10.532         49.689         65.863
        11950.5         10.481         45.281         67.255
        11951.0         10.442         46.487         68.171
        11951.5         10.420         50.535         64.366
        11952.0         10.398         56.108         63.790
        11952.5         10.378         57.647         64.483
        11953.0         10.374         57.988         65.141
        11953.5         10.370         56.367         65.799
        11954.0         10.366         53.220         66.071
        11954.5         10.362         50.940         65.388
        11955.0         10.259         50.410         64.127
        11955.5         10.140         49.880         64.233
        11956.0         10.038         62.154         66.034
        11956.5         10.081         69.216         67.278
        11957.0         10.124         71.638         67.456
        11957.5         10.206         74.060         68.888
        11958.0         10.320         74.212         68.913
        11958.5         10.435         72.616         68.761
        11959.0         10.549         71.019         67.983
        11959.5         10.664         69.423         68.050
        11960.0         10.747         69.381         69.338
        11960.5         10.733         70.376         69.962
        11961.0         10.719         71.872         70.282
        11961.5         10.704         72.431         70.058
        11962.0         10.624         71.369         69.832
        11962.5         10.469         70.306         70.875
        11963.0         10.315         70.082         72.178
        11963.5         10.161         69.974         73.195
        11964.0         10.006         69.867         73.711
        11964.5          9.869         59.769         73.118
        11965.0          9.833         52.257         71.496
        11965.5          9.798         50.354         68.473
        11966.0          9.763         53.315         66.992
        11966.5          9.728         57.426         67.459
        11967.0          9.732         60.437         70.628
        11967.5          9.736         57.668         71.977
        11968.0          9.739         54.899         67.953
        11968.5          9.743         51.715         61.007
        11969.0          9.747         46.684         58.161
        11969.5          9.746         41.653         57.998
        11970.0          9.737         40.522         59.212
        11970.5          9.728         41.231         58.564
        11971.0          9.720         41.939         56.336
        11971.5          9.711         42.648         55.728
        11972.0          9.703         43.357         56.266
        11972.5          9.700         44.282         58.425
        11973.0          9.722         45.214         63.334
        11973.5          9.744         46.146         67.114
        11974.0          9.765         47.501         69.963
        11974.5          9.784         48.996         72.347
        11975.0          9.804         51.385         73.766
        11975.5          9.824         54.584         72.763
        11976.0          9.917         57.783         72.437
        11976.5         10.020         60.982         71.120
        11977.0          9.957         59.739         69.059
        11977.5          9.932         55.233         67.764
        11978.0          9.981         50.933         67.062
        11978.5         10.065         49.161         65.873
        11979.0         10.148         48.419         64.608
        11979.5         10.232         48.451         65.273
        11980.0         10.315         48.753         66.693
        11980.5         10.074         49.055         67.408
        11981.0          9.993         51.881         67.351
        11981.5         10.013         54.775         68.557
        11982.0         10.033         57.464         69.762
        11982.5         10.069         55.706         69.844
        11983.0         10.141         51.563         66.450
        11983.5         10.213         50.121         62.572
        11984.0         10.180         51.261         61.748
        11984.5         10.103         58.228         65.226
        11985.0         10.014         64.740         68.055
        11985.5          9.908         68.994         67.399
        11986.0          9.812         62.482         65.692
        11986.5          9.785         50.712         62.361
        11987.0          9.758         44.062         58.269
        11987.5          9.731         44.266         55.201
        11988.0          9.703         46.889         54.971
        11988.5          9.676         51.710         55.667
        11989.0          9.685         56.531         56.363
        11989.5          9.702         61.352         58.249
        11990.0          9.719         65.263         61.527
        11990.5          9.736         68.903         63.660
        11991.0          9.766         69.513         64.548
        11991.5          9.818         63.289         65.435
        11992.0          9.870         56.856         64.853
        11992.5          9.921         51.973         61.251
        11993.0          9.973         49.680         60.779
        11993.5         10.071         50.131         61.059
        11994.0         10.183         53.124         62.565
        11994.5         10.182         56.718         64.086
        11995.0         10.055         58.645         65.174
        11995.5          9.927         59.414         64.860
        11996.0          9.800         56.405         64.043
        11996.5          9.696         52.756         64.898
        11997.0          9.783         49.106         61.196
        11997.5          9.871         46.689         57.631
        11998.0          9.959         46.384         57.390
        11998.5          9.995         49.412         59.528
        11999.0         10.001         53.365         62.548
        11999.5         10.008         54.374         62.993
        12000.0         10.062         54.880         63.107
        12000.5         10.134         61.439         64.224
        12001.0         10.194         64.291         65.652
        12001.5         10.194         66.849         65.829
        12002.0         10.195         68.215         66.478
        12002.5         10.157         68.220         66.252
        12003.0         10.094         67.065         65.366
        12003.5          9.916         62.106         64.480
        12004.0          9.723         58.128         65.407
        12004.5          9.720         57.465         65.808
        12005.0          9.721         61.615         65.486
        12005.5          9.720         63.558         65.304
        12006.0          9.717         65.501         63.894
        12006.5          9.714         63.010         62.693
        12007.0          9.711         59.255         62.799
        12007.5          9.708         55.500         61.887
        12008.0          9.704         54.476         60.120
        12008.5          9.701         54.230         61.205
        12009.0          9.698         53.984         60.108
        12009.5          9.695         53.738         60.161
        12010.0          9.692         49.947         56.333
        12010.5          9.689         48.250         55.862
        12011.0          9.698         47.255         55.645
        12011.5          9.708         47.473         55.174
