~Version Information Block
 VERS.                2.00:     CWLS LOG ASCII STANDARD - VERSION 2.000000
 WRAP.                  NO:     One Line Per Depth Step
#
~Well Information Block
#MNEM.UNIT                     Data                         Information
#----------   ------------------------------------------   ----------------
 STRT.F                                        31.0000:     START DEPTH
 STOP.F                                     15936.0000:     STOP DEPTH
 STEP.F                                         0.5000:     STEP
 NULL.                                       -999.2500:     NULL VALUE
 COMP.                             AMERCN QUASAR PETRO:     COMPANY
 WELL.                                    SCOTT UNIT 1:     WELL
 FLD .                                         WILDCAT:     FIELD
 LOC .        Survey  PSL              - Abs  6331     - Blk  45   - Section  19:     LOCATION
 CNTY.                                              TX:     COUNTY
 STAT.                                              TX:     STATE
 CTRY.                        UNITED STATES OF AMERICA:     COUNTRY
 SRVC.                                      GEOGRAPHIX:     SERVICE COMPANY
 DATE.                                                :     DATE
 API .                                  42109313620000:     API NUMBER
 UWI .                                  42109313620000:     UWI NUMBER
 TVD .                                              NO:     TVD flag
 WSTA.                                             LOC:     Well status
#
~Curve Information Block
#MNEM.UNIT       API CODE      Curve Description
#----------    -------------   -------------------
 DEPT.F                    :   Depth in Feet
 LLD .OHMM                 :   LATEROLOG DEEP
 GRS .GAPI                 :   GAMMA RAY FROM SONIC LOG
 CALS.IN                   :   CALIPER FROM SONIC LOG
 MSFL.OHMM                 :   MICRO SPHERICALLY FOCUSED
 LLS .OHMM                 :   LATEROLOG SHALLOW
 DT  .US/F                 :   DELTA TIME
#
~Parameter Information Block
#MNEM.UNIT            Value               Description
#----------    --------------------    -------------------
 RUN .                         ONE:    Run Number
 PDAT.                          GL:    Permanent Datum
 EPD .FT                          :    Elevation Of Perm. Datum
 LMF .               KELLY BUSHING:    Log Measured From
 EKB .FT                          :    Elevation Of Kelly Bushing
 DF .FT                           :    Elevation Of Derrick Floor
 GL .FT                           :    Elevation Of Ground Level
 TD  .FT                          :    Total Depth
 CSGD.FT                          :    Casing Bottom (Driller) 1
 CSGL.FT                          :    Casing Bottom (Logger) 1
 MUD .                            :    Drilling Fluid Type
 MUDV .CP                         :    Drilling Fluid Viscosity
 MUDD .LB/USG                     :    Drilling Fluid Density
 FL .ML/30MIN                     :    Drilling Fluid Loss
 PH.                              :    Drilling Fluid Ph
 MUDS .                           :    Mud Sample Source
 RM .OHMM                         :    Resistivity Of Mud Sample
 RMT .DEGF                        :    Mud Sample Temperature
 RMF .OHMM                        :    Mud Filtrate Resistivity
 RMFT.DEGF                        :    Mud Filtrate Sample Temperature
 RMC .OHMM                        :    Mud Cake Resistivity
 RMCT.DEGF                        :    Mud Cake Sample Temperature
 RMB .OHMM                        :    Mud Resistivity At Bht
 TMAX .DEGF                       :    Bottom Hole Temperature
#
~Other Information Block
<DescLogPlotStart>   NEURALOG PLOT DEFINITION
PLOTDEFVERSION: 3
LASFILE: E:\Nair Innovations\42_TEXAS\109_Culberson\42109313620000_1.las
DEPTHSCALE: 239.999996
RESOLUTION: 200
DEPTHLABELFREQ: 100.000000
HEAVYGRIDFREQ: 50.000000
MEDIUMGRIDFREQ: 50.000000
LIGHTGRIDFREQ: 10.000000
#
#   TRACK 1
#
STARTTRACK: 
 LEFTX: 0.500000 inch
 RIGHTX: 3.000000 inch
 SCALETYPE: Linear
 NUMCHARTDIVISIONS: 10
CURVE: GRS   1.504600   250.000000 (0,0,255)      Solid             2     N    
CURVE: CALS  6.474400   14.873500  (0,131,131)    Solid             2     N    
ENDTRACK: 
#
#   TRACK 2
#
STARTTRACK: 
 LEFTX: 3.500000 inch
 RIGHTX: 6.000000 inch
 SCALETYPE: Log
 NUMCYCLES: 4
 STARTCYCLE: 2
CURVE: LLS   0.200000   2000.000000 (255,0,0)      Solid             4     Y   
BACKUP: 2000.000000 20000000.000000 (255,0,0)      Solid             4    
BACKUP: 0.000020   0.200000   (255,0,0)      Solid             4    
CURVE: MSFL  0.200000   2000.000000 (0,131,131)    Solid             2     N   
ENDTRACK: 
#
#   TRACK 3
#
STARTTRACK: 
 LEFTX: 6.500000 inch
 RIGHTX: 9.000000 inch
 SCALETYPE: Linear
 NUMCHARTDIVISIONS: 10
CURVE: LLD   0.200000   2000.000000 (255,0,255)    Solid             4     N   
CURVE: DT    190.000000 50.000000  (255,0,131)    Solid             2     N    
ENDTRACK: 
<DescLogPlotEnd>
<DepthTrack type='Reference' track='1' Label='0' color='0' hor='0' />
<Reference font='144,0,-900,0,500,0,16777216,Arial' />
~A DEPTH     LLD              GRS              CALS             MSFL             LLS              DT              
# ...
    2446.000 54086.65630000   60.64740000      11.24100000      -999.25000000    35.72330000      70.84850000     
    2446.500 54078.12110000   58.38470000      11.30120000      -999.25000000    35.19690000      70.85600000     
    2447.000 54070.86330000   56.49850000      11.30120000      -999.25000000    34.81110000      70.89850000     
    2447.500 54818.19530000   57.30440000      11.30120000      -999.25000000    34.96610000      71.08210000     
    2448.000 54810.25780000   59.50320000      11.30120000      -999.25000000    35.96950000      71.26570000     
    2448.500 54802.90630000   59.06110000      11.30120000      -999.25000000    36.49260000      71.26740000     
    2449.000 54767.31250000   58.36600000      11.30120000      -999.25000000    36.76490000      71.26920000     
    2449.500 54034.24610000   57.98620000      11.30120000      -999.25000000    36.75770000      71.45280000     
    2450.000 51628.47660000   58.73490000      11.30120000      -999.25000000    36.74900000      71.63640000     
    2450.500 39607.83980000   60.53080000      11.30120000      -999.25000000    36.74200000      71.64180000     
    2451.000 30040.83980000   61.69940000      11.30120000      -999.25000000    36.73490000      71.82910000     
    2451.500 23375.08590000   63.05460000      11.30120000      -999.25000000    37.24010000      72.40170000     
    2452.000 12119.51660000   64.24730000      11.30120000      -999.25000000    37.23290000      73.09470000     
    2452.500 8.29410000       70.76360000      11.30120000      -999.25000000    38.27130000      74.10010000     
    2453.000 11.24710000      77.53700000      11.30120000      -999.25000000    39.33870000      74.57810000     
    2453.500 20.97300000      88.45210000      11.30120000      -999.25000000    41.02170000      74.50720000     
    2454.000 48.83740000      102.75560000     11.30120000      -999.25000000    42.82230000      73.44740000     
    2454.500 50.87520000      105.04760000     11.30120000      -999.25000000    44.70180000      72.30720000     
    2455.000 50.76280000      91.45310000      11.30120000      -999.25000000    46.41590000      71.12730000     
    2455.500 51.32630000      79.02480000      11.33130000      -999.25000000    45.45840000      71.19100000     
    2456.000 56.92540000      74.48830000      11.36140000      -999.25000000    43.89610000      71.92000000     
    2456.500 62.32510000      72.61670000      11.42170000      -999.25000000    44.72420000      73.40540000     
    2457.000 64.70480000      73.93750000      11.42170000      -999.25000000    45.11120000      74.41080000     
    2457.500 65.27670000      82.85200000      11.42170000      -999.25000000    43.29920000      75.20940000     
    2458.000 61.18590000      90.19570000      11.42730000      -999.25000000    39.75090000      75.12030000     
    2458.500 54.46110000      88.58140000      11.49640000      -999.25000000    34.65170000      75.39480000     
    2459.000 50.81040000      80.78870000      11.54220000      -999.25000000    31.01130000      75.76020000     
    2459.500 48.06560000      72.38550000      11.58270000      -999.25000000    28.93090000      76.76200000     
    2460.000 46.10320000      65.13510000      11.63250000      -999.25000000    28.13510000      76.76380000     
    2460.500 44.83760000      61.25660000      11.66270000      -999.25000000    27.74270000      76.76560000     
    2461.000 44.83160000      59.56310000      11.64740000      -999.25000000    27.73740000      76.58550000     
    2461.500 45.45080000      59.02420000      11.63250000      -999.25000000    27.73210000      76.31460000     
    2462.000 46.76030000      60.52650000      11.63250000      -999.25000000    27.72670000      75.95280000     
    2462.500 47.36630000      62.78190000      11.63250000      -999.25000000    27.72130000      75.59090000     
    2463.000 48.02050000      62.02520000      11.63250000      -999.25000000    27.71580000      75.32000000     
    2463.500 47.18670000      61.26860000      11.63250000      -999.25000000    27.64860000      75.51810000     
    2464.000 44.82800000      61.64140000      11.66270000      -999.25000000    26.86680000      75.69820000     
    2464.500 39.20360000      64.27330000      11.66270000      -999.25000000    26.10690000      75.78000000     
    2465.000 34.05510000      68.03470000      11.66270000      -999.25000000    25.36850000      75.90910000     
    2465.500 31.88590000      64.81470000      11.66270000      -999.25000000    24.52030000      76.30340000     
    2466.000 30.73700000      60.59750000      11.69280000      -999.25000000    23.62450000      76.60360000     
    2466.500 29.54360000      57.25190000      11.72290000      -999.25000000    23.43930000      76.51430000     
    2467.000 28.73260000      55.21840000      11.75300000      -999.25000000    23.25360000      76.60730000     
    2467.500 27.55950000      56.56300000      11.78310000      -999.25000000    22.78910000      76.60910000     
    2468.000 26.43430000      60.29140000      11.79070000      -999.25000000    22.47130000      77.45480000     
    2468.500 25.70870000      63.92270000      11.85260000      -999.25000000    21.55260000      78.92550000     
    2469.000 24.65910000      65.76510000      11.91450000      -999.25000000    20.95980000      79.39270000     
    2469.500 22.96230000      63.07370000      11.97630000      -999.25000000    19.82630000      80.97600000     
    2470.000 20.22460000      61.97220000      12.02410000      -999.25000000    18.75420000      84.34580000     
    2470.500 18.26390000      60.83900000      12.08550000      -999.25000000    16.78400000      84.43850000     
    2471.000 15.94170000      59.32930000      12.16190000      -999.25000000    15.64980000      84.41090000     
    2471.500 14.96730000      58.57260000      12.26510000      -999.25000000    15.01790000      85.35120000     
    2472.000 18.87500000      55.93340000      12.32530000      -999.25000000    15.68100000      87.71660000     
    2472.500 21.57590000      50.28220000      12.41570000      -999.25000000    15.86720000      91.90020000     
    2473.000 21.45370000      45.38390000      12.47590000      -999.25000000    15.37790000      93.81110000     
    2473.500 20.57030000      42.74470000      12.50600000      -999.25000000    14.61560000      94.08560000     
    2474.000 21.14460000      40.85840000      12.50600000      -999.25000000    13.41630000      93.08730000     
    2474.500 22.97370000      40.85470000      12.50600000      -999.25000000    13.21360000      88.27090000     
    2475.000 24.61770000      40.85090000      12.53610000      -999.25000000    13.98570000      81.45460000     
    2475.500 26.37940000      40.84710000      12.53610000      -999.25000000    14.38370000      78.80950000     
    2476.000 28.66140000      40.84340000      12.53610000      -999.25000000    14.46310000      76.27630000     
    2476.500 31.57510000      40.20980000      12.53610000      -999.25000000    13.98480000      77.96500000     
    2477.000 31.55790000      39.03350000      12.53610000      -999.25000000    12.86710000      80.30210000     
    2477.500 28.96110000      38.19650000      12.53610000      -999.25000000    11.83880000      82.53660000     
    2478.000 26.62750000      39.14140000      12.53610000      -999.25000000    10.89270000      86.45990000     
    2478.500 25.14370000      41.62560000      12.53610000      -999.25000000    10.30360000      89.72550000     
    2479.000 24.16250000      42.70330000      12.53610000      -999.25000000    9.74650000       90.19610000     
    2479.500 23.15500000      42.32250000      12.56630000      -999.25000000    9.61050000       90.10690000     
    2480.000 22.18970000      42.69580000      12.56630000      -999.25000000    10.16950000      92.39930000     
    2480.500 21.56110000      43.06850000      12.56630000      -999.25000000    10.60020000      95.02340000     
