###############################################
##         ENVERUS                           ##
##         ESS - Open Hole                   ##
##         PERMIAN / DELAWARE                ##
##         Nov 02 2023  V4.0                 ##
##         42-109-31375-00-00                ##
###############################################
## Copyright 2017-2023  ENVERUS.  All Rights Reserved. 
## Confidential - Property of ENVERUS, use governed by terms and 
## conditions found within the existing Information Services Subscription Agreement 
## (as may be amended, the “ISSA”) between Customer and ENVERUS. 
## 
~VERSION INFORMATION
# MNEM.UNIT                               DATA : DESCRIPTION OF MNEMONIC
#-----.-----     ----------------------------- : -----------------------------
VERS.                                     2.00 : CWLS LOG ASCII STANDARD - VERSION 2.00
WRAP.                                       NO : MULTIPLE LINES PER DEPTH STEP
VEND.                                  ENVERUS : VENDOR
TYPE.                          ESS - OPEN HOLE : ENVERUS ESSENTIAL CURVES – ACCESSIBLE THROUGH ENVERUS PRISM(TM)
DOC.                                  32006335 : ENVERUS HEADER RAW DOCUMENT ID
#___________________________________________________________________________________________________ 
~WELL INFORMATION 
# Eb7Zbut2Nwqt2ftj1i2q6V2Ye1Joym9Qrd6BFF0aHeZ6Mf1z+VAuEcbs4uVngcAWjTW62nvWGWatc34NWk2mnA== 
# MNEM.UNIT                                              DATA : DESCRIPTION OF MNEMONIC 
#-----.-----                    ----------------------------- : ----------------------------- 
CNTY.                                               CULBERSON : COUNTY 
STATE.                                                  TEXAS : STATE 
CNTRY.                                                    USA : COUNTRY 
API.                                             42-109-31375 : API (10 Digit) 
API_14.                                    42-109-31375-00-00 : API (14 Digits) 
API_14_std.                                 42-109-31375-0000 : API (14 Digits Standard) 
UWI.                                           42109313750000 : UNIQUE WELL ID 
WELL.                                      7806 JV-P DUVAL  1 : WELL NAME
STRT.FT                                                     0 : START DEPTH
STOP.FT                                               15739.0 : STOP DEPTH
STEP.FT                                                   0.5 : STEP BETWEEN DEPTHS
NULL.                                                 -999.25 : NULL VALUE
COMP.                                  BTA OIL PRODUCERS  LLC : COMPANY 
DATE.                                             26-MAY-1978 : LOG DATE
#___________________________________________________________________________________________________ 
~CURVE INFORMATION 
# MNEM.UNIT           : CURVE DESCRIPTION 
#-----.-----          : ----------------------------- 
 DEPT.FT               : MEASURED DEPTH 
 CALI.IN               : CALIPER (CAL - CAL) 
 GR.API                : GAMMA RAY (GR) 
 DT.US/FT              : SONIC DELTA TRANSIT TIME (DT) 
 #___________________________________________________________________________________________________ 
~A         DEPT           CALI             GR             DT
# ...
         7656.0         12.936         44.068         61.649
         7656.5         12.918         40.434         61.888
         7657.0         12.899         43.966         62.127
         7657.5         12.880         49.098         62.366
         7658.0         12.872         54.230         62.605
         7658.5         12.879         62.539         62.844
         7659.0         12.885         71.047         63.083
         7659.5         12.892         79.555         65.856
         7660.0         12.898         81.237         69.171
         7660.5         12.915         76.774         72.487
         7661.0         12.945         72.312         72.770
         7661.5         12.937         67.849         71.912
         7662.0         12.929         59.864         71.055
         7662.5         12.922         50.305         70.197
         7663.0         12.914         40.746         69.339
         7663.5         12.906         32.104         66.686
         7664.0         12.898         30.895         62.808
         7664.5         12.890         29.686         60.622
         7665.0         12.882         28.476         58.436
         7665.5         12.841         27.267         56.250
         7666.0         12.791         26.226         54.442
         7666.5         12.741         25.403         54.238
         7667.0         12.727         24.581         54.528
         7667.5         12.732         23.758         54.818
         7668.0         12.738         22.935         54.831
         7668.5         12.743         30.267         54.549
         7669.0         12.748         33.778         54.268
         7669.5         12.753         37.290         53.986
         7670.0         12.759         41.019         55.776
         7670.5         12.764         54.346         59.442
         7671.0         12.769         67.672         63.109
         7671.5         12.775         74.260         66.948
         7672.0         12.780         75.016         70.803
         7672.5         12.778         65.128         72.586
         7673.0         12.775         54.451         69.132
         7673.5         12.773         46.367         65.678
         7674.0         12.771         38.282         62.424
         7674.5         12.768         37.451         60.592
         7675.0         12.766         41.871         59.234
         7675.5         12.764         45.791         60.192
         7676.0         12.761         50.838         61.150
         7676.5         12.759         55.920         62.966
         7677.0         12.764         60.840         67.645
         7677.5         12.774         64.227         72.133
         7678.0         12.785         67.613         71.523
         7678.5         12.795         68.508         70.913
         7679.0         12.805         66.615         70.302
         7679.5         12.816         55.468         69.692
         7680.0         12.826         42.140         69.082
         7680.5         12.830         32.628         59.295
         7681.0         12.834         30.908         58.472
         7681.5         12.837         32.738         57.649
         7682.0         12.841         35.112         56.826
         7682.5         12.845         37.613         57.700
         7683.0         12.849         40.726         58.672
         7683.5         12.853         48.199         59.643
         7684.0         12.857         54.746         60.673
         7684.5         12.861         60.846         64.408
         7685.0         12.865         63.070         65.646
         7685.5         12.869         59.071         65.901
         7686.0         12.872         59.849         66.156
         7686.5         12.876         63.597         66.411
         7687.0         12.880         67.404         66.666
         7687.5         12.881         71.343         70.665
         7688.0         12.877         75.282         71.310
         7688.5         12.874         74.686         70.457
         7689.0         12.870         69.524         69.603
         7689.5         12.866         56.158         68.056
         7690.0         12.863         45.625         65.516
         7690.5         12.861         52.491         62.975
         7691.0         12.869         57.209         62.242
         7691.5         12.876         59.014         63.892
         7692.0         12.884         57.966         65.542
         7692.5         12.891         55.521         66.512
         7693.0         12.899         52.768         65.913
         7693.5         12.906         50.482         65.313
         7694.0         12.914         50.521         64.714
         7694.5         12.915         50.560         64.114
         7695.0         12.912         50.598         63.514
         7695.5         12.909         50.411         63.294
         7696.0         12.906         48.052         63.219
         7696.5         12.903         45.692         63.144
         7697.0         12.900         43.508         59.940
         7697.5         12.897         42.202         60.616
         7698.0         12.894         41.274         61.293
         7698.5         12.891         43.079         61.969
         7699.0         12.888         46.195         63.678
         7699.5         12.886         51.433         66.049
         7700.0         12.883         56.672         68.421
         7700.5         12.880         61.910         79.043
         7701.0         12.877         64.914         76.845
         7701.5         12.874         64.018         74.648
         7702.0         12.871         61.597         67.861
         7702.5         12.868         58.211         65.588
         7703.0         12.865         51.357         64.344
         7703.5         12.862         43.893         63.124
         7704.0         12.860         36.429         61.930
         7704.5         12.857         32.781         60.737
         7705.0         12.854         29.636         59.544
         7705.5         12.851         29.123         57.829
         7706.0         12.845         30.885         55.979
         7706.5         12.834         34.146         54.501
         7707.0         12.824         42.062         58.217
         7707.5         12.814         48.719         61.118
         7708.0         12.803         55.376         63.756
         7708.5         12.793         62.032         66.394
         7709.0         12.782         68.689         69.032
         7709.5         12.772         70.439         69.166
         7710.0         12.770         67.345         68.380
         7710.5         12.769         64.252         67.595
         7711.0         12.768         61.158         66.809
         7711.5         12.767         60.143         66.929
         7712.0         12.767         62.352         67.126
         7712.5         12.766         64.561         67.323
         7713.0         12.765         66.769         67.519
         7713.5         12.764         68.644         67.716
         7714.0         12.763         64.756         67.912
         7714.5         12.762         60.869         68.019
         7715.0         12.762         38.053         66.722
         7715.5         12.761         32.724         64.095
         7716.0         12.760         36.069         59.718
         7716.5         12.759         45.450         58.477
         7717.0         12.753         53.152         61.102
         7717.5         12.746         60.630         63.727
         7718.0         12.740         68.108         66.351
         7718.5         12.733         75.586         68.976
         7719.0         12.727         70.608         70.093
         7719.5         12.721         37.135         67.416
         7720.0         12.714         29.507         64.740
         7720.5         12.708         27.788         62.063
         7721.0         12.704         30.738         59.386
         7721.5         12.709         40.195         56.710
