#   WellGreen Tech Inc.   Digitizing Services
#   www.wellgreentech.com
#   email: sales@wellgreentech.com
#
~Version Information Block
 VERS.                2.00:     CWLS LOG ASCII STANDARD - VERSION 2.000000
 WRAP.                  NO:     One Line Per Depth Step
#
~Well Information Block
#MNEM.UNIT                     Data                         Information
#----------   ------------------------------------------   ----------------
 STRT.FT                                      400.0000:     START DEPTH
 STOP.FT                                    10100.0000:     STOP DEPTH
 STEP.FT                                        0.5000:     STEP
 NULL.                                       -999.2500:     NULL VALUE
 COMP.                       ENRON OIL AND GAS COMPANY:     COMPANY
 WELL.                                   TXL "1" NO. 1:     WELL
 FLD .                                         WILDCAT:     FIELD
 LOC .                                              63:     LOCATION
 CNTY.                                       CULBERSON:     COUNTY
 STAT.                                           TEXAS:     STATE
 CTRY.                                             USA:     COUNTRY
 SRVC.                                    SCHLUMBERGER:     SERVICE COMPANY
 DATE.                                      06/28/1989:     DATE
 API .               42109320330000:    API NUMBER
 UWI .               42109320330000:    UWI NUMBER
 TVD .                                              NO:     TVD flag
 MATRIX .G/CC                  :    Matrix Density
#
~Curve Information Block
#MNEM.UNIT       API CODE      Curve Description
#----------    -------------   -------------------
 DEPT.FT                   :   Depth in Feet
 GR  .API      35 310 01 01:   Gamma Ray
 CALI.INCHES   70 280 01 01:   Caliper
 DT  .US/FT    60 520 08 01:   Delta T
 SPHI.V/V      61 890 01 01:   Sonic Porosity
#
~Parameter Information Block
#MNEM.UNIT            Value               Description
#----------    --------------------    -------------------
 RUN .                         ONE:    Run Number
 PDAT.                          GL:    Permanent Datum
 EPD .FT                 3890.3000:    Elevation Of Perm. Datum
 LMF .               KELLY BUSHING:    Log Measured From
 EKB .FT                 3905.1000:    Elevation Of Kelly Bushing
 DF .FT                  3904.1000:    Elevation Of Derrick Floor
 GL .FT                  3890.3000:    Elevation Of Ground Level
 TD .FT                  10100.0000:    Total Depth
 BHT .DEGF               193.00 :  Bottom Hole Temperature
 BLI .FT               10100.0000:   Bottom Log Interval
 CSGSIZE.IN              9.6250:   Casing Size
 BITSIZE.IN               8.750 :  BitSize
 CSGD.FT                      405:    Casing Bottom (Driller) 1
 CSGL.FT                      405:    Casing Bottom (Logger) 1
 MUD .                      SW GEL:    Drilling Fluid Type
 MUDV .CP                  34.0000:    Drilling Fluid Viscosity
 MUDD .LB/USG               9.1000:    Drilling Fluid Density
 FL .ML/30MIN               8.0000:    Drilling Fluid Loss
 PH.                       10.0000:    Drilling Fluid Ph
 MUDS .                  CIRC TANK:    Mud Sample Source
 RM .OHMM                   0.1720:    Resistivity Of Mud Sample
 RMT .DEGF                 75.0000:    Mud Sample Temperature
 RMF .OHMM                  0.1720:    Mud Filtrate Resistivity
 RMFT.DEGF                 75.0000:    Mud Filtrate Sample Temperature
 RMB .OHMM                  0.0710:    Mud Resistivity At Bht
 TMAX .DEGF               193.0000:    Bottom Hole Temperature
#
~Other Information Block
<DescLogPlotStart>   NEURALOG PLOT DEFINITION
PLOTDEFVERSION: 3
LASFILE: D:\nds\projects\20MAY19H\las\42109320330000_BEG_RAS_RS0022815370.las
DEPTHSCALE: 240.000000
RESOLUTION: 400
DEPTHLABELFREQ: 100.000000
HEAVYGRIDFREQ: 100.000000
MEDIUMGRIDFREQ: 50.000000
LIGHTGRIDFREQ: 10.000000
#
#   TRACK 1
#
STARTTRACK: 
 LEFTX: 0.500000 inch
 RIGHTX: 3.000000 inch
 SCALETYPE: Linear
 NUMCHARTDIVISIONS: 10
CURVE: GR    0.000000   125.000000 (0,0,255)      Solid             2     Y    
BACKUP: 125.000000 250.000000 (0,0,255)      Solid             2    
ENDTRACK: 
#
#   TRACK 2
#
STARTTRACK: 
 LEFTX: 0.500000 inch
 RIGHTX: 3.000000 inch
 SCALETYPE: Linear
 NUMCHARTDIVISIONS: 10
CURVE: CALI  6.000000   16.000000  (0,131,131)    Solid             2     N    
ENDTRACK: 
#
#   TRACK 3
#
STARTTRACK: 
 LEFTX: 3.500000 inch
 RIGHTX: 8.500000 inch
 SCALETYPE: Linear
 NUMCHARTDIVISIONS: 10
CURVE: DT    100.000000 40.000000  (255,0,255)    Solid             2     Y    
BACKUP: 160.000000 100.000000 (255,0,255)    Solid             2    
CURVE: SPHI  0.300000   -0.100000  (255,0,0)      Dot               2     Y    
BACKUP: 0.700000   0.300000   (255,0,0)      Dot               2    
BACKUP: -0.100000  -0.500000  (255,0,0)      Dot               2    
ENDTRACK: 
<DescLogPlotEnd>
~A DEPTH     GR               CALI             DT               SPHI            
# ...
    8765.500 87.05            8.99             54.86            0.08            
    8766.000 85.11            8.99             55.09            0.09            
    8766.500 84.35            8.99             55.37            0.09            
    8767.000 83.61            8.99             55.79            0.09            
    8767.500 82.86            8.99             56.21            0.10            
    8768.000 81.40            8.99             56.53            0.10            
    8768.500 79.92            8.99             56.81            0.10            
    8769.000 78.44            8.99             56.99            0.10            
    8769.500 77.25            8.99             56.91            0.10            
    8770.000 76.45            8.99             56.84            0.10            
    8770.500 79.82            9.00             57.07            0.10            
    8771.000 98.69            9.00             59.07            0.12            
    8771.500 130.70           9.00             62.77            0.15            
    8772.000 154.93           9.00             66.06            0.17            
    8772.500 188.05           9.00             67.95            0.19            
    8773.000 200.42           9.00             66.69            0.17            
    8773.500 181.69           9.00             64.71            0.16            
    8774.000 168.02           9.00             63.42            0.15            
    8774.500 163.01           9.00             62.98            0.15            
    8775.000 159.41           9.00             63.03            0.15            
    8775.500 162.84           9.01             63.09            0.15            
    8776.000 167.80           9.01             63.22            0.16            
    8776.500 170.88           9.01             63.23            0.16            
    8777.000 164.03           9.01             62.88            0.15            
    8777.500 155.18           9.01             62.53            0.15            
    8778.000 147.50           9.01             62.31            0.15            
    8778.500 145.56           9.01             62.35            0.15            
    8779.000 147.58           9.01             62.53            0.15            
    8779.500 156.27           9.01             62.59            0.15            
    8780.000 171.95           9.01             62.65            0.15            
    8780.500 188.52           9.01             63.15            0.15            
    8781.000 205.08           9.02             64.01            0.16            
    8781.500 220.69           9.02             64.83            0.17            
    8782.000 205.47           9.02             65.01            0.17            
    8782.500 188.61           9.02             64.61            0.16            
    8783.000 171.74           9.01             64.49            0.16            
    8783.500 158.42           9.01             64.94            0.17            
    8784.000 155.65           9.01             65.90            0.17            
    8784.500 155.66           9.01             66.49            0.18            
    8785.000 155.94           9.01             66.28            0.18            
    8785.500 156.67           9.01             65.60            0.17            
    8786.000 158.33           9.01             64.92            0.17            
    8786.500 163.22           9.01             65.07            0.17            
    8787.000 174.59           9.01             65.44            0.17            
    8787.500 185.40           9.01             65.23            0.17            
    8788.000 187.35           9.01             63.92            0.16            
    8788.500 175.77           9.01             62.27            0.15            
    8789.000 165.71           9.01             60.71            0.13            
    8789.500 163.35           9.01             59.28            0.12            
    8790.000 171.34           9.01             58.33            0.12            
    8790.500 180.19           9.01             58.02            0.11            
    8791.000 186.86           9.01             58.38            0.12            
    8791.500 181.21           9.01             58.92            0.12            
    8792.000 171.13           9.01             59.46            0.13            
    8792.500 159.22           9.01             60.13            0.13            
    8793.000 147.31           9.01             60.82            0.14            
    8793.500 131.32           9.01             61.38            0.14            
    8794.000 120.98           9.01             61.74            0.14            
    8794.500 119.64           9.01             62.10            0.15            
    8795.000 122.24           9.01             62.21            0.15            
    8795.500 126.84           9.01             62.33            0.15            
    8796.000 128.66           9.01             62.22            0.15            
    8796.500 130.36           9.01             61.94            0.14            
    8797.000 132.07           9.01             61.68            0.14            
    8797.500 132.72           9.01             61.70            0.14            
    8798.000 132.51           9.01             61.66            0.14            
    8798.500 124.10           9.01             60.98            0.14            
    8799.000 128.32           9.01             59.41            0.12            
    8799.500 116.70           9.01             57.31            0.11            
    8800.000 111.53           9.01             55.65            0.09            
    8800.500 111.13           9.01             56.01            0.10            
    8801.000 121.87           9.01             57.08            0.11            
    8801.500 124.91           9.01             58.69            0.12            
    8802.000 121.98           9.01             59.61            0.13            
    8802.500 125.38           9.01             60.55            0.14            
    8803.000 118.50           9.01             61.21            0.14            
    8803.500 125.91           9.01             61.53            0.14            
    8804.000 130.67           9.01             61.43            0.14            
    8804.500 135.15           9.01             60.72            0.14            
    8805.000 136.84           9.02             59.97            0.13            
    8805.500 129.57           9.04             59.53            0.12            
    8806.000 123.83           9.06             59.85            0.13            
    8806.500 119.46           9.09             60.36            0.13            
    8807.000 119.39           9.10             60.90            0.14            
    8807.500 122.42           9.10             61.45            0.14            
    8808.000 125.61           9.10             61.84            0.14            
    8808.500 126.24           9.10             62.18            0.15            
    8809.000 124.46           9.10             62.47            0.15            
    8809.500 120.69           9.10             62.55            0.15            
    8810.000 120.52           9.10             62.63            0.15            
    8810.500 126.24           9.10             62.97            0.15            
    8811.000 129.43           9.10             63.13            0.15            
    8811.500 131.03           9.10             62.17            0.15            
    8812.000 124.48           9.10             61.05            0.14            
    8812.500 119.08           9.10             60.04            0.13            
    8813.000 116.70           9.10             59.69            0.13            
    8813.500 123.99           9.10             60.00            0.13            
    8814.000 125.56           9.10             60.90            0.14            
    8814.500 127.51           9.10             61.80            0.14            
