~Version Information
 VERS.                  2.0:   CWLS log ASCII Standard -VERSION 2.0
 WRAP.                   NO:   One line per depth step
~Well Information Block
#MNEM.UNIT       Data Type    Information
#---------     -----------    ---------------------------
 STRT.F              3503.5000:
 STOP.F             12186.0000:
 STEP.F                 0.5000:
 NULL.               -999.2500:
 UWI .            42-109-32278:  API WELLHOLE NUMBER
 COMP.     SAMSON LONE STAR LP:  COMPANY NAME
 COUN.               CULBERSON:  COUNTY
 DAT2.                   02000:  LOGGING DATE 2
 DAT3.                   02000:  LOGGING DATE 3
 DAT4.                   02000:  LOGGING DATE 4
 DATE.                   02000:  LOGGING DATE
 DMF .           KELLY BUSHING:  DRILLING MEASURED
 LOC .    1521' FWL AND 2040' FSL:  FIELD LOCATION
 FL1 .    1521' FWL AND 2040' FSL:  FIELD LOCATION LINE 1
 FL2 .        SEC. 14, BLK. 46:  FIELD LOCATION LINE 2
 FLD .                 WILDCAT:  FIELD NAME
 HDAT.                   02000:  DATUM
 LMF .                    K.B.:  LOG MEASURED FROM
 OS1 .                    XRMI:  OTHER SERVICES LINE 1
 OS2 .               LSS / FWS:  OTHER SERVICES LINE 2
 OS3 .                 SDL/DSN:  OTHER SERVICES LINE 3
 OS4 .                DLL/MGRD:  OTHER SERVICES LINE 4
 PDAT.            GROUND LEVEL:  PERMANENT DATUM
 R1  .    TOOLSTRING: RWCH/D4TS/NGRT/LFS_D2/XRMI/CENT:  REMARKS LINE 1
 R2  .    LOGGING INTERVALS AS PER CUSTOMER REQUEST.:  REMARKS LINE 2
 RDT2.                   02000:  CASING DATE 2
 RDT3.                   02000:  CASING DATE 3
 RDT4.                   02000:  CASING DATE 4
 RDT5.                   02000:  CASING DATE 5
 SON .                 4992511:  SERVICE/TICKET ORDER NUMBER
 PROV.                   TEXAS:  STATE
 WELL.    UNIVERSITY LANDS 46-14 No. 2:  WELL NAME
~Parameter Information Block
#MNEM.UNIT       Value        Description
#---------     -----------    ---------------------------
~Curve Information Block
#MNEM.UNIT                 API CODE     Curve Description
#---------               -----------    ---------------------------
 DEPT.F                 00 000 000 000:  
 LLD .ohmm              00 000 000 000:  LLD                                    
 LLS .ohmm              00 000 000 000:  LLS                                    
 NPHI.decp              00 000 000 000:  Neutron Porosity                       
 GR  .api               00 000 000 000:  Gamma API                              
 MGRD.ohmm              00 000 000 000:  MCGRD                                  
 DRHO.g/cc              00 000 000 000:  DensityCorr                            
 DPHI.decp              00 000 000 000:  DensityPorosity                        
 PE  .b/e               00 000 000 000:  Pe                                     
 RHOB.g/cc              00 000 000 000:  Density                                
 XPHI.decp              00 000 000 000:  CrossplotPhi                           
 CALI.in                00 000 000 000:  Caliper                                
 DTC .                  00 000 000 000:  DELTA-T COMPRESSIONAL - FWS
 GR2 .GAPI              00 000 000 000:  NATURAL GAMMA - FWS
 SPHI.DECP              00 000 000 000:  SONIC POROSITY MTX=47.6 (DTC)
~A  DEPT        LLD        LLS        NPHI       GR         MGRD       DRHO       DPHI       PE         RHOB       XPHI       CALI       DTC        GR2        SPHI   
# ...
12103.0000   218.4665   180.3373     0.2294   512.2204    94.2334     0.0672     0.0579     3.5208     2.6109     0.1611     8.7855  -999.2500  -999.2500  -999.2500 
12103.5000   196.9101   163.9070     0.2352   511.6856    82.7839     0.0686     0.0533     3.6175     2.6189     0.1626     8.5489  -999.2500  -999.2500  -999.2500 
12104.0000   171.1464   142.4700     0.2322   507.5403    61.6246     0.0726     0.0548     3.6828     2.6163     0.1616     8.3275  -999.2500  -999.2500  -999.2500 
12104.5000   154.7809   126.7940     0.2348   509.4307    49.7655     0.0708     0.0659     3.6503     2.5973     0.1667     8.2282  -999.2500  -999.2500  -999.2500 
12105.0000   146.6597   118.1926     0.2377   511.8115    45.6112     0.0710     0.0676     3.5632     2.5944     0.1688     8.2282  -999.2500  -999.2500  -999.2500 
12105.5000   150.7923   120.7130     0.2362   513.5404    38.5112     0.0758     0.0581     3.5074     2.6106     0.1648     8.2282  -999.2500  -999.2500  -999.2500 
12106.0000   157.9566   126.4837     0.2359   515.1447    34.9348     0.0771     0.0541     3.5129     2.6176     0.1632     8.2282  -999.2500  -999.2500  -999.2500 
12106.5000   165.5640   132.8915     0.2357   514.1537    26.6779     0.0756     0.0537     3.5308     2.6181     0.1630     8.2282  -999.2500  -999.2500  -999.2500 
12107.0000   167.8611   134.8059     0.2348   510.8303    20.9812     0.0747     0.0512     3.5296     2.6224     0.1617     8.2206  -999.2500  -999.2500  -999.2500 
12107.5000   168.5125   135.2567     0.2321   511.5203    19.2576     0.0721     0.0510     3.5571     2.6228     0.1602     8.2206  -999.2500  -999.2500  -999.2500 
12108.0000   169.1800   135.0260     0.2300   524.5894    18.9360     0.0675     0.0583     3.6217     2.6103     0.1616     8.2206  -999.2500  -999.2500  -999.2500 
12108.5000   168.5757   132.4572     0.2386   529.1976    20.3305     0.0653     0.0665     3.6556     2.5963     0.1689     8.2206  -999.2500  -999.2500  -999.2500 
12109.0000   165.8511   127.4038     0.2442   521.3630    21.6864     0.0656     0.0643     3.6447     2.6000     0.1710     8.2130  -999.2500  -999.2500  -999.2500 
12109.5000   167.7132   124.3001     0.2434  -999.2500    24.2592     0.0657     0.0590     3.6150     2.6091     0.1688     8.2130  -999.2500  -999.2500  -999.2500 
12110.0000   177.8759   127.2661     0.2429  -999.2500    28.0908     0.0619     0.0621     3.6014     2.6038     0.1696     8.2130  -999.2500  -999.2500  -999.2500 
12110.5000   199.8103   138.2855     0.2409  -999.2500    40.4820     0.0567     0.0662     3.6345     2.5967     0.1700     8.6023  -999.2500  -999.2500  -999.2500 
12111.0000   228.4710   150.2438     0.2407  -999.2500    61.3541     0.0550     0.0716     3.6385     2.5875     0.1718     8.1443  -999.2500  -999.2500  -999.2500 
12111.5000   243.8230   152.0214     0.2420  -999.2500    78.2033     0.0522     0.0779     3.5737     2.5769     0.1736     8.0069  -999.2500  -999.2500  -999.2500 
12112.0000   235.2785   141.6890     0.2399  -999.2500    73.3120     0.0491     0.0744     3.5564     2.5828     0.1723     7.8847  -999.2500  -999.2500  -999.2500 
12112.5000   203.4694   119.5373     0.2435  -999.2500    64.0394     0.0504     0.0682     3.5974     2.5934     0.1724     7.7931  -999.2500  -999.2500  -999.2500 
12113.0000   175.0234    99.4426     0.2421  -999.2500    52.5857     0.0506     0.0653     3.5938     2.5983     0.1703     7.6863  -999.2500  -999.2500  -999.2500 
12113.5000   154.5775    83.4423     0.2488  -999.2500    46.6480     0.0467     0.0665     3.5529     2.5963     0.1741     7.5260  -999.2500  -999.2500  -999.2500 
12114.0000   147.1854    75.1874     0.2599  -999.2500    35.5886     0.0425     0.0717     3.5371     2.5874     0.1816     6.6557  -999.2500  -999.2500  -999.2500 
12114.5000   151.6741    75.5648     0.2763  -999.2500    24.0451     0.0390     0.0766     3.5537     2.5791     0.1855     6.1214  -999.2500  -999.2500  -999.2500 
12115.0000   176.5121    91.3741     0.2953  -999.2500    28.5973     0.0350     0.0783     3.5567     2.5761     0.2015     4.6863  -999.2500  -999.2500  -999.2500 
12115.5000   221.4736   116.3353     0.2586  -999.2500    46.7386     0.0325     0.0760     3.5342     2.5800     0.1824     4.5000  -999.2500  -999.2500  -999.2500 
12116.0000   250.5726   131.1081     0.2352  -999.2500    61.8713     0.0290     0.0847     3.4988     2.5651     0.1736     4.5000  -999.2500  -999.2500  -999.2500 
12116.5000   245.9397   131.9009     0.2355  -999.2500    59.4096     0.0281     0.1840     3.4071     2.3953     0.2150     4.5000  -999.2500  -999.2500  -999.2500 
12117.0000   193.9173   105.2786     0.2344  -999.2500    24.7453     0.0958     0.3329     3.3033     2.1407     0.2981     4.5000  -999.2500  -999.2500  -999.2500 
12117.5000   152.8993    85.3601  -999.2500  -999.2500    21.6843     0.2386     0.3606     3.2988     2.0934  -999.2500     4.5000  -999.2500  -999.2500  -999.2500 
12118.0000   120.1407    68.8738  -999.2500  -999.2500    22.1625     0.3330     0.3063     3.3524     2.1863  -999.2500     4.5000  -999.2500  -999.2500  -999.2500 
12118.5000    95.4213    54.5457  -999.2500  -999.2500    32.1230     0.3793     0.2515     3.4131     2.2799  -999.2500     4.5000  -999.2500  -999.2500  -999.2500 
12119.0000    77.5234    43.5104  -999.2500  -999.2500    27.9627     0.4572     0.1737     3.4937     2.4129  -999.2500     4.5000  -999.2500  -999.2500  -999.2500 
12119.5000    66.3233    36.6168  -999.2500  -999.2500    19.2138     0.5226     0.1061     3.5492     2.5286  -999.2500     4.5000  -999.2500  -999.2500  -999.2500 
12120.0000    60.2349    33.1253  -999.2500  -999.2500    15.9738     0.5374     0.0681     3.5832     2.5936  -999.2500     4.5000  -999.2500  -999.2500  -999.2500 
12120.5000    59.5041    32.8982  -999.2500  -999.2500    17.8316     0.5308     0.0360     3.6590     2.6485  -999.2500     4.5000  -999.2500  -999.2500  -999.2500 
12121.0000    65.2024    36.9407  -999.2500  -999.2500    24.1908     0.5133     0.0008     3.7379     2.7087  -999.2500     4.5000  -999.2500  -999.2500  -999.2500 
12121.5000    79.2376    46.7672  -999.2500  -999.2500    47.3346     0.4607    -0.0257     3.7526     2.7540  -999.2500     4.5000  -999.2500  -999.2500  -999.2500 
12122.0000   100.9415    60.8352  -999.2500  -999.2500    42.0839     0.3619    -0.0207     3.7336     2.7455  -999.2500     4.5000  -999.2500  -999.2500  -999.2500 
12122.5000   126.4915    75.5194  -999.2500  -999.2500    38.3143     0.2666     0.0061     3.7152     2.6996  -999.2500     4.5000  -999.2500  -999.2500  -999.2500 
12123.0000   146.3772    85.6484  -999.2500  -999.2500    36.2135     0.2197     0.0241     3.6686     2.6687  -999.2500     4.5000  -999.2500  -999.2500  -999.2500 
12123.5000   157.3068    89.2863  -999.2500  -999.2500    35.7167     0.2051     0.0312     3.6130     2.6566  -999.2500     4.5000  -999.2500  -999.2500  -999.2500 
12124.0000   162.7534    89.8812  -999.2500  -999.2500    37.3691     0.1956     0.0376     3.6145     2.6458  -999.2500     4.5000  -999.2500  -999.2500  -999.2500 
12124.5000   162.3855    88.9796  -999.2500  -999.2500    44.7374     0.1868     0.0434     3.6524     2.6358  -999.2500     4.5000  -999.2500  -999.2500  -999.2500 
12125.0000   143.9812    78.7373  -999.2500  -999.2500    36.9928     0.1876     0.0449     3.6829     2.6333  -999.2500     4.5000  -999.2500  -999.2500  -999.2500 
12125.5000   118.2963    64.6940  -999.2500  -999.2500    22.7245     0.1915     0.0446     3.6989     2.6338  -999.2500     4.5000  -999.2500  -999.2500  -999.2500 
12126.0000   102.3983    54.1625  -999.2500  -999.2500     9.2960     0.1877     0.0478     3.7007     2.6282  -999.2500     4.5000  -999.2500  -999.2500  -999.2500 
12126.5000    99.5652    50.7223  -999.2500  -999.2500     3.3236     0.1833     0.0512     3.7021     2.6224  -999.2500     4.5000  -999.2500  -999.2500  -999.2500 
12127.0000   106.2564    54.3703  -999.2500  -999.2500     1.0505     0.1837     0.0485     3.6850     2.6270  -999.2500     4.5000  -999.2500  -999.2500  -999.2500 
