~VERSION INFORMATION
VERS. 2.0 : CWLS Log ASCII Standard - Version 2.0
WRAP. NO : One line per depth step
#--------------------------------------------------#
#----------------DRILLING INFO, INC.---------------#
#---------------WWW.DRILLINGINFO.COM---------------#
#------------------COPYRIGHT 2015------------------#
#--------------------------------------------------#
#THIS FILE MAY BE USED ONLY IN ACCORDANCE WITH A CURRENT SUBSCRIPTION AGREEMENT BETWEEN
#THE USER AND DRILLING INFO, INC. NO PART OF THIS FILE MAY BE REPRODUCED, USED, COPIED,
#MODIFIED, PROPAGATED, OR DISTRIBUTED EXCEPT IN ACCORDANCE WITH THE SUBSCRIPTION
#AGREEMENT. UNAUTHORIZED USE OR DISTRIBUTION OF ALL OR ANY PART OF THIS FILE MAY VIOLATE
#COPYRIGHT, TRADEMARK, AND/OR OTHER LAWS AND IS SUBJECT TO CIVIL AS WELL AS CRIMINAL
#SANCTIONS.
#--------------------------------------------------#
#THIS FILE IS PROVIDED "AS-IS" AND ALL WARRANTIES ARE EXPRESSLY DISCLAIMED, WHETHER
#EXPRESS, ORAL, IMPLIED, STATUTORY OR OTHERWISE, INCLUDING ANY IMPLIED WARRANTY OF FITNESS
#FOR A PARTICULAR PURPOSE, MERCHANTABILITY, TITLE OR NON-INFRINGEMENT, AND ANY WARRANTIES
#ARISING BY VIRTUE OF CUSTOM OF TRADE OR COURSE OF DEALING.  FURTHER, DRILLING INFO,
#INC. AND ITS LICENSORS DO NOT REPRESENT OR WARRANT THAT THIS FILE WILL MEET USER'S
#REQUIREMENTS OR ARE SUITABLE FOR USER'S NEEDS OR THAT THE DATA OR RESULTS PROVIDED IN
#CONJUNCTION THEREWITH ARE CORRECT, ACCURATE, TIMELY OR RELIABLE. THESE DISCLAIMERS SHALL
#APPLY REGARDLESS OF ANY FAILURE OF ESSENTIAL PURPOSE OF ANY LIMITED REMEDY.  SOME
#JURISDICTIONS DO NOT ALLOW THE EXCLUSION OF CERTAIN WARRANTIES SO SOME OF THE ABOVE
#EXCLUSIONS MAY NOT APPLY. IN NO EVENT SHALL DRILLING INFO, INC. OR ANY OF ITS AFFILIATES
#BE LIABLE UNDER ANY LEGAL THEORY, WHETHER IN TORT (INCLUDING WITHOUT LIMITATION
#NEGLIGENCE), CONTRACT, STRICT LIABILITY, STATUTORY OR OTHERWISE, FOR ANY SPECIAL,
#INCIDENTAL, CONSEQUENTIAL, EXEMPLARY, PUNITIVE OR INDIRECT DAMAGE OF ANY KIND, INCLUDING
#WITHOUT LIMITATION LOSS OF REVENUE, PROFITS, GOODWILL, USE, AND/OR DATA OR THE COST OF
#PROCUREMENT OF SUBSTITUTE GOODS OR SERVICES, EVEN IF APPRISED OF THE POSSIBILITY OF SUCH
#DAMAGES IN ADVANCE.
#--------------------------------------------------#
~WELL INFORMATION
#MNEMONIC     .UNIT              VALUE :DESCRIPTION
#--------------------------------------------------#
STRT       .ft                51.00000 :START DEPTH
STOP       .ft                9476.00000 :STOP DEPTH
STEP       .ft                0.50000 :STEP
NULL       .                -999.25000 :NULL VALUE
COMP       .                 :COMPANY
WELL       .                 :WELL
FLD       .                 :FIELD
LOC       .                 :LOCATION
CNTY       .                 :COUNTY
STAT       .                 :STATE
CTRY       .                 :COUNTRY
SRVC       .                 :SERVICE COMPANY
DATE       .                 :DATE
API       .                42109100520000 :API NUMBER
~CURVE INFORMATION
#MNEMONIC     .UNIT      API CODE :CURVE DESCRIPTION
#--------------------------------------------------#
DEPTH       .ft                      :Measured Depth
CAL       .in        UNKNOWN   :CAL
DT       .us/ft        UNKNOWN   :DT
GR       .gAPI        UNKNOWN   :GR
~A    DEPTH    CAL    DT    GR
# ...
6390.00000    6.57957    73.18445    87.17275
6390.50000    6.56659    73.18034    81.86484
6391.00000    6.55361    68.51186    76.55692
6391.50000    6.54063    63.84338    70.73603
6392.00000    6.52765    62.89906    63.97307
6392.50000    6.51468    64.29264    57.21011
6393.00000    6.66756    65.68621    50.44715
6393.50000    6.90737    67.07979    52.11343
6394.00000    7.14718    68.47336    55.86728
6394.50000    7.38699    69.86694    60.28936
6395.00000    7.03486    71.26051    66.16027
6395.50000    6.53503    71.48174    72.03118
6396.00000    6.53232    71.26730    75.27938
6396.50000    6.52960    71.05286    70.92459
6397.00000    6.52688    70.83842    66.56979
6397.50000    6.52417    70.62398    69.33777
6398.00000    6.52145    72.30927    78.51894
6398.50000    6.51874    74.10957    87.70011
6399.00000    6.51602    73.19949    96.88128
6399.50000    6.51330    70.93042    87.91849
6400.00000    6.51459    68.66134    55.56923
6400.50000    6.52583    66.39227    58.35654
6401.00000    6.53707    64.12319    61.14385
6401.50000    6.54831    64.86537    63.93116
6402.00000    6.55955    67.49533    73.02385
6402.50000    6.57079    70.12529    89.67111
6403.00000    6.58202    72.75525    106.31837
6403.50000    6.59326    74.67729    112.40179
6404.00000    6.60450    72.62894    109.51933
6404.50000    6.61868    70.58058    106.63687
6405.00000    6.63548    68.53223    99.29392
6405.50000    6.65229    66.48388    81.85117
6406.00000    6.66909    64.43553    64.40842
6406.50000    6.68911    62.38717    57.98354
6407.00000    6.70795    62.20296    62.63051
6407.50000    6.73247    64.17334    67.27748
6408.00000    6.78140    66.14373    72.36001
6408.50000    6.75113    68.11411    77.44753
6409.00000    6.67218    70.08449    82.53504
6409.50000    6.59323    72.05488    87.62256
6410.00000    6.60813    74.02526    87.89469
6410.50000    6.63221    74.11556    82.26435
6411.00000    6.65628    73.21891    76.63402
6411.50000    6.68035    72.32225    74.81950
6412.00000    6.70442    71.42559    81.83099
6412.50000    6.72849    71.44498    88.84249
6413.00000    6.75256    72.07044    92.86328
6413.50000    6.77663    72.69590    85.47775
6414.00000    6.76738    72.20422    78.09222
6414.50000    6.74786    70.47802    70.70669
6415.00000    6.72834    68.75181    70.95495
6415.50000    6.70883    69.90029    74.93804
6416.00000    6.68931    71.07243    78.92114
6416.50000    6.66979    72.24458    82.90423
6417.00000    6.69714    73.41672    86.88733
6417.50000    6.76581    74.58886    86.37313
6418.00000    6.83448    73.01075    83.86419
6418.50000    6.90314    69.50751    83.43917
6419.00000    6.97181    69.66518    86.56303
6419.50000    7.04048    70.42170    89.68690
6420.00000    7.10915    70.42368    84.23887
6420.50000    7.17781    69.73021    77.89254
6421.00000    7.20449    69.03674    73.87229
6421.50000    7.14897    68.73180    77.96898
6422.00000    7.09345    69.35698    82.06568
6422.50000    7.03793    69.98215    86.16237
6423.00000    6.98241    70.36846    88.42309
6423.50000    6.92689    69.56148    84.74145
6424.00000    6.87138    68.75449    81.05981
6424.50000    6.81586    67.94750    77.37816
6425.00000    6.76034    68.08195    76.90087
6425.50000    6.70482    68.28392    78.91384
6426.00000    6.64930    68.48590    80.52679
6426.50000    6.61603    68.68788    79.41485
6427.00000    6.58863    68.88986    78.30291
6427.50000    6.56123    67.95549    77.19097
6428.00000    6.53383    65.35968    76.76825
6428.50000    6.50644    65.02143    77.59009
6429.00000    6.47904    65.56462    78.41192
6429.50000    6.46874    66.10781    79.23375
6430.00000    6.47161    66.65100    80.05558
6430.50000    6.47448    67.19419    80.87742
6431.00000    6.47735    67.47470    81.34780
6431.50000    6.48022    66.89483    78.76094
6432.00000    6.48309    66.31496    76.17407
6432.50000    6.48596    65.73509    73.58721
6433.00000    6.48883    65.15522    71.00035
6433.50000    6.49170    64.57535    68.41349
6434.00000    6.49792    64.61589    66.04380
6434.50000    6.50489    65.05602    66.82870
6435.00000    6.51186    65.49615    67.61361
6435.50000    6.51883    65.93628    68.39852
6436.00000    6.52581    66.37641    69.18342
6436.50000    6.53278    66.69468    69.96833
6437.00000    6.53975    66.01677    70.75324
6437.50000    6.54672    65.33885    71.55828
6438.00000    6.55370    64.66094    72.36794
6438.50000    6.56067    63.98302    73.17759
6439.00000    6.56637    63.30511    73.98725
6439.50000    6.56645    62.56617    74.79691
6440.00000    6.56652    62.57878    75.60657
6440.50000    6.56660    63.00534    76.41622
6441.00000    6.56667    63.43190    74.49160
6441.50000    6.56675    63.85847    83.95653
6442.00000    6.56682    62.96464    83.59134
6442.50000    6.56690    61.59736    76.08463
6443.00000    6.56698    60.23009    68.57793
6443.50000    6.56705    58.86281    61.07122
6444.00000    6.56536    59.73041    53.56452
6444.50000    6.56326    61.81531    55.29885
6445.00000    6.56116    63.90021    60.97519
6445.50000    6.55906    65.98512    66.65153
6446.00000    6.55696    68.07002    72.32787
6446.50000    6.55486    70.15492    78.00421
6447.00000    6.55276    72.23982    78.81575
6447.50000    6.55066    71.01584    76.94859
6448.00000    6.54856    69.02723    75.08143
6448.50000    6.54646    67.03861    73.21427
6449.00000    6.54436    65.05000    71.34711
6449.50000    6.56557    63.06138    69.42360
6450.00000    6.60457    65.80015    65.39079
6450.50000    6.64358    60.57567    61.35798
6451.00000    6.68258    57.22717    57.32516
6451.50000    6.72158    57.40377    53.29235
6452.00000    6.76058    57.58037    49.25954
6452.50000    6.76833    58.20117    45.22673
6453.00000    6.69942    60.74910    42.55043
6453.50000    6.63050    63.29703    47.95657
6454.00000    6.66155    65.84495    53.36272
6454.50000    6.71603    68.39288    61.55953
6455.00000    6.77050    70.94081    89.79674
6455.50000    6.71621    72.90001    112.94290
6456.00000    6.60730    71.66859    104.62668
6456.50000    6.52067    70.43716    96.31046
6457.00000    6.52375    69.20574    89.29556
6457.50000    6.52684    70.19368    105.06580
6458.00000    6.52992    71.42184    120.83603
6458.50000    6.53300    72.65000    136.60626
6459.00000    6.53608    73.87817    141.76251
6459.50000    6.53917    75.10633    138.85879
6460.00000    6.54225    76.33449    127.21759
6460.50000    6.54533    77.56266    118.54156
6461.00000    6.54842    77.00922    110.00047
6461.50000    6.55150    76.31403    101.45937
6462.00000    6.55458    75.61884    92.91828
6462.50000    6.55766    75.87961    94.22614
6463.00000    6.56075    76.40117    95.56843
6463.50000    6.56383    76.12073    96.91072
6464.00000    6.56691    75.84029    98.25301
6464.50000    6.56999    75.55986    96.57850
6465.00000    6.57001    67.37142    93.26111
6465.50000    6.56984    67.91238    89.94372
6466.00000    6.56968    68.79884    59.31912
6466.50000    6.56952    69.68529    69.29501
6467.00000    6.56935    70.57175    79.27090
6467.50000    6.56919    71.45821    89.24679
6468.00000    6.56902    71.45559    99.22267
6468.50000    6.56886    70.66895    100.83133
6469.00000    6.56870    69.88232    93.64120
6469.50000    6.56853    69.09568    86.45107
6470.00000    6.56837    69.98994    79.26094
6470.50000    6.56820    72.53845    87.63997
6471.00000    6.56804    75.08697    97.39939
6471.50000    6.56788    75.96501    107.15880
6472.00000    6.56771    74.96566    113.87221
6472.50000    6.56755    73.97784    110.74938
6473.00000    6.56738    73.22510    107.62654
6473.50000    6.56722    71.42166    99.00137
6474.00000    6.56706    68.26785    89.90602
6474.50000    6.56689    67.22802    80.81067
6475.00000    6.56673    66.87783    71.71532
6475.50000    6.56656    66.52763    67.62319
6476.00000    6.56640    64.34949    63.67944
6476.50000    6.56624    60.73399    59.73568
