###############################################
##         ENVERUS                           ##
##         ESS - Open Hole                   ##
##         PERMIAN / DELAWARE                ##
##         Nov 02 2023  V4.0                 ##
##         42-109-32255-00-00                ##
###############################################
## Copyright 2017-2023  ENVERUS.  All Rights Reserved. 
## Confidential - Property of ENVERUS, use governed by terms and 
## conditions found within the existing Information Services Subscription Agreement 
## (as may be amended, the “ISSA”) between Customer and ENVERUS. 
## 
~VERSION INFORMATION
# MNEM.UNIT                               DATA : DESCRIPTION OF MNEMONIC
#-----.-----     ----------------------------- : -----------------------------
VERS.                                     2.00 : CWLS LOG ASCII STANDARD - VERSION 2.00
WRAP.                                       NO : MULTIPLE LINES PER DEPTH STEP
VEND.                                  ENVERUS : VENDOR
TYPE.                          ESS - OPEN HOLE : ENVERUS ESSENTIAL CURVES – ACCESSIBLE THROUGH ENVERUS PRISM(TM)
DOC.                                  22531479 : ENVERUS HEADER RAW DOCUMENT ID
#___________________________________________________________________________________________________ 
~WELL INFORMATION 
# hWe/832LbRsDOXT7erJRLf+k/AYA64twV/RtTeeHm/CkPExvlrAQ0qJE/El28xU0WYmlktkqeCNHArF5iUyCGg== 
# MNEM.UNIT                                              DATA : DESCRIPTION OF MNEMONIC 
#-----.-----                    ----------------------------- : ----------------------------- 
CNTY.                                               CULBERSON : COUNTY 
STATE.                                                  TEXAS : STATE 
CNTRY.                                                    USA : COUNTRY 
API.                                             42-109-32255 : API (10 Digit) 
API_14.                                    42-109-32255-00-00 : API (14 Digits) 
API_14_std.                                 42-109-32255-0000 : API (14 Digits Standard) 
UWI.                                           42109322550000 : UNIQUE WELL ID 
WELL.                               MELISSA TAYLOR STATE 27-1 : WELL NAME
STRT.FT                                                7612.0 : START DEPTH
STOP.FT                                               13645.5 : STOP DEPTH
STEP.FT                                                   0.5 : STEP BETWEEN DEPTHS
NULL.                                                 -999.25 : NULL VALUE
COMP.                                         PETRO-HUNT,LLC. : COMPANY 
FLD.                                                  WILDCAT : FIELD 
SRVC.                                            SCHLUMBERGER : SERVICE COMPANY 
DATE.                                              04/06/2006 : DATE 
TVD.                                                       NO : TVD FLAG
#___________________________________________________________________________________________________ 
~PARAMETER INFORMATION 
# MNEM.UNIT                                              DATA : DESCRIPTION OF MNEMONIC 
#-----.-----                    ----------------------------- : ----------------------------- 
RUN.                                                      ONE : RUN NUMBER 
PDAT.                                                      GL : PERMANENT DATUM 
EPD.FT                                               000.0000 : ELEVATION OF PERM. DATUM 
LMF.                                            KELLY BUSHING : LOG MEASURED FROM 
EKB.FT                                                 3796.6 : ELEVATION OF KELLY BUSHING 
DF.FT                                                  3773.0 : ELEVATION OF DERRICK FLOOR 
GL.FT                                                  3795.6 : ELEVATION OF GROUND LEVEL 
TD.FT                                              13716.0000 : TOTAL DEPTH 
BHT.DEGF                                               224.00 : BOTTOM HOLE TEMPERATURE 
BLI.FT                                             13716.0000 : BOTTOM LOG INTERVAL 
CSGSIZE.IN                                             9.6250 : CASING SIZE 
BITSIZE.IN                                              8.750 : BITSIZE 
CSGD.FT                                               12804.0 : CASING BOTTOM (DRILLER) 1 
CSGL.FT                                               12802.0 : CASING BOTTOM (LOGGER) 1 
MUD.                                                    BRINE : DRILLING FLUID TYPE 
MUDV.CP                                                  45.0 : DRILLING FLUID VISCOSITY 
MUDD.LB/USG                                               9.5 : DRILLING FLUID DENSITY 
PH.                                                      10.0 : DRILLING FLUID PH 
FL.ML/30MIN                                               5.0 : DRILLING FLUID LOSS 
MUDS.                                               CIRC TANK : MUD SAMPLE SOURCE 
RM.OHMM                                                 0.064 : RESISTIVITY OF MUD SAMPLE 
RMT.DEGF                                                66.00 : MUD SAMPLE TEMPERATURE 
RMF.OHMM                                                0.048 : MUD FILTRATE RESISTIVITY 
RMFT.DEGF                                               66.00 : MUD FILTRATE SAMPLE TEMPERATURE 
RMC.OHMM                                                0.095 : MUD CAKE RESISTIVITY 
RMCT.DEGF                                               66.00 : MUD CAKE SAMPLE TEMPERATURE 
RMB.OHMM                                                0.015 : MUD RESISTIVITY AT BHT 
TMAX.DEGF                                              224.00 : BOTTOM HOLE TEMPERATURE
#___________________________________________________________________________________________________ 
~CURVE INFORMATION 
# MNEM.UNIT           : CURVE DESCRIPTION 
#-----.-----          : ----------------------------- 
 DEPT.FT               : MEASURED DEPTH 
 DT__A.US/FT           : SONIC DELTA TRANSIT TIME (DELTA T COMP) 
 SPHI__A.V/V           : SONIC POROSITY (SONIC POROSITY) 
 #___________________________________________________________________________________________________ 
~A         DEPT          DT__A        SPHI__A
# ...
        13528.0         71.687     -999.25000
        13528.5         71.496     -999.25000
        13529.0         71.156     -999.25000
        13529.5         70.942     -999.25000
        13530.0         70.942     -999.25000
        13530.5         71.142     -999.25000
        13531.0         71.543     -999.25000
        13531.5         73.246     -999.25000
        13532.0         74.950     -999.25000
        13532.5         75.704     -999.25000
        13533.0         76.647     -999.25000
        13533.5         77.590     -999.25000
        13534.0         78.534     -999.25000
        13534.5         79.477     -999.25000
        13535.0         80.420     -999.25000
        13535.5         81.363     -999.25000
        13536.0         80.611     -999.25000
        13536.5         79.860     -999.25000
        13537.0         79.108     -999.25000
        13537.5         78.357     -999.25000
        13538.0         77.355     -999.25000
        13538.5         76.353     -999.25000
        13539.0         75.551     -999.25000
        13539.5         74.950     -999.25000
        13540.0         74.449     -999.25000
        13540.5         73.948     -999.25000
        13541.0         70.942     -999.25000
        13541.5         67.936     -999.25000
        13542.0         66.613     -999.25000
        13542.5         66.391     -999.25000
        13543.0         66.319     -999.25000
        13543.5         66.525     -999.25000
        13544.0         67.138     -999.25000
        13544.5         67.750     -999.25000
        13545.0         68.361     -999.25000
        13545.5         68.974     -999.25000
        13546.0         69.586     -999.25000
        13546.5         69.980     -999.25000
        13547.0         70.080     -999.25000
        13547.5         70.341     -999.25000
        13548.0         72.244     -999.25000
        13548.5         74.148     -999.25000
        13549.0         76.052     -999.25000
        13549.5         77.956     -999.25000
        13550.0         77.785     -999.25000
        13550.5         77.623     -999.25000
        13551.0         77.080     -999.25000
        13551.5         76.281     -999.25000
        13552.0         75.479     -999.25000
        13552.5         74.680     -999.25000
        13553.0         74.217     -999.25000
        13553.5         73.981     -999.25000
        13554.0         73.146     -999.25000
        13554.5         69.860     -999.25000
        13555.0         64.930     -999.25000
        13555.5         63.995     -999.25000
        13556.0         63.484     -999.25000
        13556.5         63.413     -999.25000
        13557.0         63.327     -999.25000
        13557.5         63.527     -999.25000
        13558.0         64.538     -999.25000
        13558.5         65.443     -999.25000
        13559.0         65.898     -999.25000
        13559.5         66.150     -999.25000
        13560.0         66.148     -999.25000
        13560.5         66.144     -999.25000
        13561.0         64.835     -999.25000
        13561.5         62.682     -999.25000
        13562.0         60.581     -999.25000
        13562.5         58.918     -999.25000
        13563.0         58.667     -999.25000
        13563.5         58.417     -999.25000
        13564.0         57.866     -999.25000
        13564.5         57.114     -999.25000
        13565.0         56.363     -999.25000
        13565.5         55.945     -999.25000
        13566.0         56.029     -999.25000
        13566.5         56.112     -999.25000
        13567.0         56.196     -999.25000
        13567.5         56.279     -999.25000
        13568.0         56.613     -999.25000
        13568.5         57.415     -999.25000
        13569.0         59.870     -999.25000
        13569.5         63.126     -999.25000
        13570.0         65.731     -999.25000
        13570.5         65.731     -999.25000
        13571.0         65.571     -999.25000
        13571.5         65.331     -999.25000
        13572.0         65.391     -999.25000
        13572.5         65.448     -999.25000
        13573.0         65.504     -999.25000
        13573.5         65.509     -999.25000
        13574.0         65.466     -999.25000
        13574.5         65.423     -999.25000
        13575.0         65.381     -999.25000
        13575.5         65.331     -999.25000
        13576.0         64.188     -999.25000
        13576.5         62.801     -999.25000
        13577.0         61.523     -999.25000
        13577.5         61.890     -999.25000
        13578.0         62.231     -999.25000
        13578.5         62.325     -999.25000
        13579.0         62.325     -999.25000
        13579.5         62.325     -999.25000
        13580.0         62.325     -999.25000
        13580.5         62.325     -999.25000
        13581.0         62.328     -999.25000
        13581.5         62.332     -999.25000
        13582.0         62.337     -999.25000
        13582.5         62.341     -999.25000
        13583.0         62.544     -999.25000
        13583.5         63.747     -999.25000
        13584.0         64.747     -999.25000
        13584.5         65.746     -999.25000
        13585.0         66.165     -999.25000
        13585.5         66.200     -999.25000
        13586.0         66.235     -999.25000
        13586.5         66.271     -999.25000
        13587.0         66.307     -999.25000
        13587.5         66.586     -999.25000
        13588.0         67.229     -999.25000
        13588.5         67.874     -999.25000
        13589.0         68.337     -999.25000
        13589.5         68.072     -999.25000
        13590.0         67.742     -999.25000
        13590.5         67.411     -999.25000
        13591.0         67.134     -999.25000
        13591.5         67.175     -999.25000
        13592.0         67.210     -999.25000
        13592.5         67.245     -999.25000
        13593.0         67.282     -999.25000
        13593.5         67.317     -999.25000
        13594.0         67.299     -999.25000
        13594.5         67.217     -999.25000
        13595.0         67.134     -999.25000
        13595.5         67.331     -999.25000
        13596.0         67.536     -999.25000
        13596.5         66.690     -999.25000
        13597.0         65.736     -999.25000
        13597.5         65.467     -999.25000
        13598.0         65.173     -999.25000
        13598.5         64.878     -999.25000
        13599.0         64.534     -999.25000
        13599.5         64.063     -999.25000
        13600.0         63.500     -999.25000
        13600.5         62.935     -999.25000
        13601.0         62.553     -999.25000
        13601.5         62.278     -999.25000
        13602.0         62.002     -999.25000
        13602.5         61.727     -999.25000
        13603.0         61.452     -999.25000
        13603.5         60.951     -999.25000
        13604.0         60.248     -999.25000
        13604.5         59.549     -999.25000
        13605.0         58.577     -999.25000
        13605.5         57.191     -999.25000
        13606.0         55.806     -999.25000
        13606.5         54.422     -999.25000
        13607.0         53.037     -999.25000
        13607.5         51.515     -999.25000
        13608.0         51.052     -999.25000
        13608.5         50.801     -999.25000
        13609.0         50.662     -999.25000
        13609.5         50.523     -999.25000
        13610.0         50.384     -999.25000
        13610.5         50.319     -999.25000
        13611.0         50.364     -999.25000
        13611.5         50.410     -999.25000
        13612.0         50.455     -999.25000
        13612.5         50.501     -999.25000
        13613.0         50.669     -999.25000
        13613.5         50.835     -999.25000
        13614.0         51.002     -999.25000
        13614.5         51.168     -999.25000
