~Version Information
 VERS.                  2.0:   CWLS log ASCII Standard -VERSION 2.0
 WRAP.                   NO:   One line per depth step
~Well Information Block
#MNEM.UNIT       Data Type    Information
#---------     -----------    ---------------------------
 STRT.F              3503.5000:
 STOP.F             12186.0000:
 STEP.F                 0.5000:
 NULL.               -999.2500:
 UWI .            42-109-32278:  API WELLHOLE NUMBER
 COMP.     SAMSON LONE STAR LP:  COMPANY NAME
 COUN.               CULBERSON:  COUNTY
 DAT2.                   02000:  LOGGING DATE 2
 DAT3.                   02000:  LOGGING DATE 3
 DAT4.                   02000:  LOGGING DATE 4
 DATE.                   02000:  LOGGING DATE
 DMF .           KELLY BUSHING:  DRILLING MEASURED
 LOC .    1521' FWL AND 2040' FSL:  FIELD LOCATION
 FL1 .    1521' FWL AND 2040' FSL:  FIELD LOCATION LINE 1
 FL2 .        SEC. 14, BLK. 46:  FIELD LOCATION LINE 2
 FLD .                 WILDCAT:  FIELD NAME
 HDAT.                   02000:  DATUM
 LMF .                    K.B.:  LOG MEASURED FROM
 OS1 .                    XRMI:  OTHER SERVICES LINE 1
 OS2 .               LSS / FWS:  OTHER SERVICES LINE 2
 OS3 .                 SDL/DSN:  OTHER SERVICES LINE 3
 OS4 .                DLL/MGRD:  OTHER SERVICES LINE 4
 PDAT.            GROUND LEVEL:  PERMANENT DATUM
 R1  .    TOOLSTRING: RWCH/D4TS/NGRT/LFS_D2/XRMI/CENT:  REMARKS LINE 1
 R2  .    LOGGING INTERVALS AS PER CUSTOMER REQUEST.:  REMARKS LINE 2
 RDT2.                   02000:  CASING DATE 2
 RDT3.                   02000:  CASING DATE 3
 RDT4.                   02000:  CASING DATE 4
 RDT5.                   02000:  CASING DATE 5
 SON .                 4992511:  SERVICE/TICKET ORDER NUMBER
 PROV.                   TEXAS:  STATE
 WELL.    UNIVERSITY LANDS 46-14 No. 2:  WELL NAME
~Parameter Information Block
#MNEM.UNIT       Value        Description
#---------     -----------    ---------------------------
~Curve Information Block
#MNEM.UNIT                 API CODE     Curve Description
#---------               -----------    ---------------------------
 DEPT.F                 00 000 000 000:  
 LLD .ohmm              00 000 000 000:  LLD                                    
 LLS .ohmm              00 000 000 000:  LLS                                    
 NPHI.decp              00 000 000 000:  Neutron Porosity                       
 GR  .api               00 000 000 000:  Gamma API                              
 MGRD.ohmm              00 000 000 000:  MCGRD                                  
 DRHO.g/cc              00 000 000 000:  DensityCorr                            
 DPHI.decp              00 000 000 000:  DensityPorosity                        
 PE  .b/e               00 000 000 000:  Pe                                     
 RHOB.g/cc              00 000 000 000:  Density                                
 XPHI.decp              00 000 000 000:  CrossplotPhi                           
 CALI.in                00 000 000 000:  Caliper                                
 DTC .                  00 000 000 000:  DELTA-T COMPRESSIONAL - FWS
 GR2 .GAPI              00 000 000 000:  NATURAL GAMMA - FWS
 SPHI.DECP              00 000 000 000:  SONIC POROSITY MTX=47.6 (DTC)
~A  DEPT        LLD        LLS        NPHI       GR         MGRD       DRHO       DPHI       PE         RHOB       XPHI       CALI       DTC        GR2        SPHI   
# ...
 4826.5000    70.3088    43.0933     0.1415   114.4559    55.5819     0.0357     0.1155     3.0273     2.5125     0.1345    11.4412    68.3682   130.0614     0.1469 
 4827.0000    76.3512    46.2559     0.1441   142.0299    52.6297     0.0401     0.1094     3.0182     2.5229     0.1335    11.4260    68.9179   139.4044     0.1508 
 4827.5000    78.0132    47.0749     0.1492   152.2168    56.6668     0.0486     0.1064     3.0685     2.5281     0.1352    11.3954    69.9829   135.5753     0.1583 
 4828.0000    75.4033    45.3787     0.1474   133.7630    56.8648     0.0604     0.1051     3.1213     2.5302     0.1337    11.3725    70.2721   125.3133     0.1603 
 4828.5000    73.4631    44.3291     0.1420   127.5229    66.8209     0.0770     0.0970     3.2212     2.5440     0.1274    11.3725    70.4267   123.5775     0.1614 
 4829.0000    71.6407    43.3315     0.1425   136.7497    71.8194     0.0967     0.0865     3.2992     2.5620     0.1237    11.3802    71.1894   125.9430     0.1668 
 4829.5000    70.6741    42.7200     0.1432   137.6031    69.2290     0.1140     0.0853     3.2028     2.5641     0.1237    11.3878    71.4541   129.3211     0.1687 
 4830.0000    70.9638    43.0913     0.1450   136.5364    62.4262     0.1265     0.0943     3.0656     2.5487     0.1281    11.3954    72.0446   129.7806     0.1729 
 4830.5000    72.3112    44.4865     0.1462   150.6167    61.0201     0.1351     0.1024     3.0553     2.5349     0.1324    11.3878    72.3706   126.6578     0.1752 
 4831.0000    73.2126    45.4391     0.1487   149.8167    72.7168     0.1410     0.0992     3.1088     2.5404     0.1324    11.3954    72.7558   119.4931     0.1779 
 4831.5000    75.3597    47.4312     0.1395   129.4429    69.1290     0.1481     0.0866     3.1491     2.5619     0.1220    11.3878    73.1450   113.0517     0.1807 
 4832.0000    74.5170    47.9983     0.1287   133.7630    54.5603     0.1609     0.0837     3.0887     2.5669     0.1168    11.3802    72.4540   112.0987     0.1758 
 4832.5000    69.7454    46.2622     0.1361   141.0698    49.2523     0.1822     0.0891     3.0036     2.5576     0.1157    11.3725    71.5468   113.6474     0.1694 
 4833.0000    59.9124    41.6491     0.1441   127.9495    52.9250     0.2096     0.0880     3.1371     2.5594     0.1252    11.3649    72.5432   119.3399     0.1764 
 4833.5000    49.4571    34.6443     0.1484   123.7361    31.6924     0.2394     0.0830     3.3613     2.5681     0.1258    11.4336    73.7158   127.4491     0.1847 
 4834.0000    41.8793    29.3029     0.1651   135.0964    18.9212     0.2615     0.0920     3.3780     2.5527     0.1299    11.4641    73.3410   130.0018     0.1820 
 4834.5000    37.1242    25.8957     0.1947   130.5096    18.2226     0.2696     0.1161     3.2157     2.5114     0.1642    11.5023    72.4507   122.2075     0.1757 
 4835.0000    34.3276    24.7151     0.1977   107.7891    24.8754     0.2806     0.1169     3.0510     2.5101     0.1662    11.5481    70.6312   102.6196     0.1629 
 4835.5000    31.5770    23.5746     0.1590    98.9889    23.8449     0.3003     0.0892     3.0112     2.5574     0.1341    11.5939    68.4500    86.7757     0.1475 
 4836.0000    28.5692    21.7713     0.1267    99.2556    18.9595     0.3193     0.0718     3.0838     2.5872     0.1091    11.6473    66.8364    77.6539     0.1360 
 4836.5000    25.8469    19.7797     0.1243    96.9088    15.5907     0.3393     0.0706     3.1065     2.5893     0.1095    11.7084    64.5471    79.0962     0.1199 
 4837.0000    24.3849    18.7122     0.1276    95.7888    15.1208     0.3600     0.0719     3.0600     2.5870     0.1096    11.7847    63.8994    81.7340     0.1153 
 4837.5000    24.8808    19.5015     0.1306    89.8687    16.7966     0.3715     0.0738     3.1179     2.5838     0.1128    11.7924    65.4254    81.4022     0.1261 
 4838.0000    27.1110    21.6792     0.1321    79.5751    19.2587     0.3715     0.0736     3.2788     2.5842     0.1128    11.8534    66.5528    74.7821     0.1340 
 4838.5000    30.3482    24.3634     0.1221    73.6550    22.8171     0.3645     0.0727     3.4004     2.5858     0.1036    11.8840    66.6865    67.4643     0.1350 
 4839.0000    33.1716    26.3932     0.1163    70.7749    23.0876     0.3516     0.0749     3.5060     2.5819     0.1060    11.9679    66.4125    63.3119     0.1330 
 4839.5000    34.5146    27.0710     0.1228    73.1750    20.6709     0.3336     0.0840     3.6192     2.5664     0.1060    11.9908    65.7431    65.0009     0.1283 
 4840.0000    34.7606    26.8316     0.1277    81.7085    19.3461     0.3136     0.1015     3.6394     2.5364     0.1166    12.0748    65.4522    70.6977     0.1263 
 4840.5000    35.0686    26.5166     0.1289    89.6553    19.0695     0.2974     0.1170     3.5533     2.5099     0.1249    12.1206    66.0217    80.6534     0.1303 
 4841.0000    36.4148    26.8640     0.1410    93.8154    21.6150     0.2866     0.1215     3.3903     2.5022     0.1313    12.0901    67.3462    93.6978     0.1396 
 4841.5000    39.6314    28.6502     0.1548   109.9758    29.4732     0.2789     0.1225     3.2356     2.5005     0.1450    12.1511    69.0056   109.3716     0.1514 
 4842.0000    45.1962    32.2907     0.1778   139.1853    40.3652     0.2772     0.1191     3.3111     2.5064     0.1563    12.1359    69.9747   117.9913     0.1582 
 4842.5000    52.6616    37.4777     0.2037   142.5454    49.8448     0.2826     0.1034     3.5797     2.5332     0.1641    12.1435    69.7415   117.4594     0.1566 
 4843.0000    60.5386    42.9485     0.1940   124.5361    57.3144     0.2700     0.0879     3.7850     2.5597     0.1530    12.1435    69.2129   115.6243     0.1528 
 4843.5000    67.1222    47.3816     0.1636   120.2694    70.4341     0.2266     0.0768     3.8746     2.5787     0.1245    12.1359    68.8396   120.5170     0.1502 
 4844.0000    70.1067    49.4969     0.1566   136.8564    82.3832     0.1822     0.0676     3.7930     2.5943     0.1249    12.1511    67.9047   128.5411     0.1436 
 4844.5000    69.0247    48.7976     0.1672   142.7232    63.2968     0.1469     0.0718     3.4854     2.5873     0.1373    12.1282    67.1559   128.4787     0.1383 
 4845.0000    66.7014    47.3700     0.1777   134.1364    54.3208     0.1215     0.0798     3.1561     2.5735     0.1411    12.0901    69.0413   124.9219     0.1516 
 4845.5000    65.1772    45.9651     0.1896   130.5629    49.1699     0.1141     0.0839     2.9262     2.5666     0.1491    11.9985    71.3937   126.9471     0.1683 
 4846.0000    66.9135    47.1718     0.1981   139.3631    54.7215     0.1160     0.0927     2.8168     2.5514     0.1587    11.9603    71.3342   126.8109     0.1679 
 4846.5000    72.4005    51.4835     0.1926   139.7365    81.7742     0.1207     0.0970     2.8959     2.5442     0.1587    11.9374    70.2428   120.1696     0.1601 
 4847.0000    82.3981    59.3383     0.1745   125.9228   110.3243     0.1317     0.0852     3.1002     2.5643     0.1413    11.9069    69.1400   109.7374     0.1523 
 4847.5000    92.0868    68.7626     0.1522   121.5494   113.3485     0.1468     0.0766     3.2658     2.5790     0.1256    11.8687    68.2017   102.9812     0.1457 
 4848.0000    89.7990    67.3073     0.1449   111.0958    87.5320     0.1670     0.0800     3.2860     2.5731     0.1223    11.8916    68.1904    96.8632     0.1456 
 4848.5000    83.9259    62.1566     0.1505    97.9222    47.8669     0.2041     0.0724     3.2432     2.5863     0.1246    11.9145    66.9003    89.7156     0.1365 
 4849.0000    76.6937    54.0869     0.1414    85.9753    30.2527     0.2498     0.0582     3.1872     2.6106     0.1129    11.8763    65.0809    75.2161     0.1236 
 4849.5000    77.9870    52.7081     0.1257    61.3347    35.2207     0.2858     0.0573     3.1539     2.6120     0.1034    11.8153    62.5511    58.6446     0.1057 
 4850.0000    94.9265    69.1778     0.0956    38.0809    66.1862     0.3188     0.0568     3.2548     2.6129     0.0849    11.7847    58.8998    45.0301     0.0799 
 4850.5000   126.9755    95.7807     0.0609    32.1955   123.6803     0.3553     0.0396     3.3980     2.6423     0.0570    11.7618    56.6730    39.9374     0.0642 
