###############################################
##         ENVERUS                           ##
##         ESS - Open Hole                   ##
##         PERMIAN / DELAWARE                ##
##         Nov 02 2023  V4.0                 ##
##         42-109-32255-00-00                ##
###############################################
## Copyright 2017-2023  ENVERUS.  All Rights Reserved. 
## Confidential - Property of ENVERUS, use governed by terms and 
## conditions found within the existing Information Services Subscription Agreement 
## (as may be amended, the “ISSA”) between Customer and ENVERUS. 
## 
~VERSION INFORMATION
# MNEM.UNIT                               DATA : DESCRIPTION OF MNEMONIC
#-----.-----     ----------------------------- : -----------------------------
VERS.                                     2.00 : CWLS LOG ASCII STANDARD - VERSION 2.00
WRAP.                                       NO : MULTIPLE LINES PER DEPTH STEP
VEND.                                  ENVERUS : VENDOR
TYPE.                          ESS - OPEN HOLE : ENVERUS ESSENTIAL CURVES – ACCESSIBLE THROUGH ENVERUS PRISM(TM)
DOC.                                  22531479 : ENVERUS HEADER RAW DOCUMENT ID
#___________________________________________________________________________________________________ 
~WELL INFORMATION 
# hWe/832LbRsDOXT7erJRLf+k/AYA64twV/RtTeeHm/CkPExvlrAQ0qJE/El28xU0WYmlktkqeCNHArF5iUyCGg== 
# MNEM.UNIT                                              DATA : DESCRIPTION OF MNEMONIC 
#-----.-----                    ----------------------------- : ----------------------------- 
CNTY.                                               CULBERSON : COUNTY 
STATE.                                                  TEXAS : STATE 
CNTRY.                                                    USA : COUNTRY 
API.                                             42-109-32255 : API (10 Digit) 
API_14.                                    42-109-32255-00-00 : API (14 Digits) 
API_14_std.                                 42-109-32255-0000 : API (14 Digits Standard) 
UWI.                                           42109322550000 : UNIQUE WELL ID 
WELL.                               MELISSA TAYLOR STATE 27-1 : WELL NAME
STRT.FT                                                7612.0 : START DEPTH
STOP.FT                                               13645.5 : STOP DEPTH
STEP.FT                                                   0.5 : STEP BETWEEN DEPTHS
NULL.                                                 -999.25 : NULL VALUE
COMP.                                         PETRO-HUNT,LLC. : COMPANY 
FLD.                                                  WILDCAT : FIELD 
SRVC.                                            SCHLUMBERGER : SERVICE COMPANY 
DATE.                                              04/06/2006 : DATE 
TVD.                                                       NO : TVD FLAG
#___________________________________________________________________________________________________ 
~PARAMETER INFORMATION 
# MNEM.UNIT                                              DATA : DESCRIPTION OF MNEMONIC 
#-----.-----                    ----------------------------- : ----------------------------- 
RUN.                                                      ONE : RUN NUMBER 
PDAT.                                                      GL : PERMANENT DATUM 
EPD.FT                                               000.0000 : ELEVATION OF PERM. DATUM 
LMF.                                            KELLY BUSHING : LOG MEASURED FROM 
EKB.FT                                                 3796.6 : ELEVATION OF KELLY BUSHING 
DF.FT                                                  3773.0 : ELEVATION OF DERRICK FLOOR 
GL.FT                                                  3795.6 : ELEVATION OF GROUND LEVEL 
TD.FT                                              13716.0000 : TOTAL DEPTH 
BHT.DEGF                                               224.00 : BOTTOM HOLE TEMPERATURE 
BLI.FT                                             13716.0000 : BOTTOM LOG INTERVAL 
CSGSIZE.IN                                             9.6250 : CASING SIZE 
BITSIZE.IN                                              8.750 : BITSIZE 
CSGD.FT                                               12804.0 : CASING BOTTOM (DRILLER) 1 
CSGL.FT                                               12802.0 : CASING BOTTOM (LOGGER) 1 
MUD.                                                    BRINE : DRILLING FLUID TYPE 
MUDV.CP                                                  45.0 : DRILLING FLUID VISCOSITY 
MUDD.LB/USG                                               9.5 : DRILLING FLUID DENSITY 
PH.                                                      10.0 : DRILLING FLUID PH 
FL.ML/30MIN                                               5.0 : DRILLING FLUID LOSS 
MUDS.                                               CIRC TANK : MUD SAMPLE SOURCE 
RM.OHMM                                                 0.064 : RESISTIVITY OF MUD SAMPLE 
RMT.DEGF                                                66.00 : MUD SAMPLE TEMPERATURE 
RMF.OHMM                                                0.048 : MUD FILTRATE RESISTIVITY 
RMFT.DEGF                                               66.00 : MUD FILTRATE SAMPLE TEMPERATURE 
RMC.OHMM                                                0.095 : MUD CAKE RESISTIVITY 
RMCT.DEGF                                               66.00 : MUD CAKE SAMPLE TEMPERATURE 
RMB.OHMM                                                0.015 : MUD RESISTIVITY AT BHT 
TMAX.DEGF                                              224.00 : BOTTOM HOLE TEMPERATURE
#___________________________________________________________________________________________________ 
~CURVE INFORMATION 
# MNEM.UNIT           : CURVE DESCRIPTION 
#-----.-----          : ----------------------------- 
 DEPT.FT               : MEASURED DEPTH 
 DT__A.US/FT           : SONIC DELTA TRANSIT TIME (DELTA T COMP) 
 SPHI__A.V/V           : SONIC POROSITY (SONIC POROSITY) 
 #___________________________________________________________________________________________________ 
~A         DEPT          DT__A        SPHI__A
# ...
        11962.0         75.036        0.19200
        11962.5         74.290        0.18800
        11963.0         73.811        0.18300
        11963.5         73.916        0.18500
        11964.0         74.055        0.18700
        11964.5         74.157        0.18900
        11965.0         74.157        0.18900
        11965.5         74.343        0.19000
        11966.0         74.651        0.19200
        11966.5         74.958        0.19500
        11967.0         75.092        0.19500
        11967.5         75.044        0.19400
        11968.0         75.018        0.19400
        11968.5         75.020        0.19600
        11969.0         75.983        0.20500
        11969.5         77.479        0.21300
        11970.0         78.770        0.22200
        11970.5         80.061        0.23100
        11971.0         80.486        0.23400
        11971.5         80.921        0.23700
        11972.0         81.265        0.23700
        11972.5         80.904        0.23500
        11973.0         80.663        0.23400
        11973.5         80.462        0.23200
        11974.0         80.301        0.23100
        11974.5         80.181        0.23100
        11975.0         80.241        0.23200
        11975.5         81.120        0.24200
        11976.0         82.867        0.25000
        11976.5         84.337        0.25800
        11977.0         85.602        0.26800
        11977.5         84.398        0.26800
        11978.0         82.892        0.25500
        11978.5         81.386        0.24100
        11979.0         80.181        0.22500
        11979.5         76.702        0.21000
        11980.0         73.803        0.19200
        11980.5         70.904        0.17300
        11981.0         69.398        0.15500
        11981.5         67.892        0.14300
        11982.0         67.048        0.13800
        11982.5         67.289        0.14000
        11983.0         67.948        0.14400
        11983.5         68.648        0.14800
        11984.0         69.351        0.15200
        11984.5         70.056        0.15600
        11985.0         70.237        0.15900
        11985.5         70.417        0.16400
        11986.0         71.356        0.16900
        11986.5         72.294        0.17400
        11987.0         73.421        0.17900
        11987.5         73.663        0.18300
        11988.0         73.517        0.18300
        11988.5         73.172        0.18000
        11989.0         72.525        0.17600
        11989.5         71.877        0.17300
        11990.0         71.559        0.16900
        11990.5         71.867        0.17500
        11991.0         72.651        0.17900
        11991.5         73.419        0.18400
        11992.0         74.187        0.18800
        11992.5         74.880        0.19200
        11993.0         75.048        0.19400
        11993.5         75.202        0.19500
        11994.0         75.355        0.19600
        11994.5         75.509        0.19800
        11995.0         75.663        0.19900
        11995.5         75.816        0.20100
        11996.0         75.970        0.20200
        11996.5         76.123        0.20400
        11997.0         76.711        0.20700
        11997.5         77.470        0.21100
        11998.0         78.012        0.21400
        11998.5         78.012        0.21400
        11999.0         77.445        0.21400
        11999.5         76.412        0.20700
        12000.0         75.379        0.19800
        12000.5         74.346        0.18900
        12001.0         73.313        0.17900
        12001.5         72.281        0.17200
        12002.0         71.747        0.17000
        12002.5         72.149        0.17300
        12003.0         73.115        0.18200
        12003.5         74.191        0.19000
        12004.0         75.482        0.19600
        12004.5         75.884        0.19700
        12005.0         75.949        0.19800
        12005.5         75.723        0.19900
        12006.0         76.084        0.20100
        12006.5         76.910        0.20600
        12007.0         77.599        0.21200
        12007.5         78.133        0.21600
        12008.0         77.932        0.21600
        12008.5         77.731        0.21500
        12009.0         77.221        0.21100
        12009.5         76.506        0.20700
        12010.0         75.791        0.20200
        12010.5         75.241        0.19800
        12011.0         75.000        0.19400
        12011.5         75.643        0.20300
        12012.0         77.249        0.21400
        12012.5         78.855        0.22500
        12013.0         80.783        0.23500
        12013.5         82.229        0.24600
        12014.0         84.036        0.25700
        12014.5         85.843        0.26800
        12015.0         86.807        0.27700
        12015.5         85.723        0.27700
        12016.0         83.916        0.26900
        12016.5         80.645        0.25100
        12017.0         75.181        0.21000
        12017.5         69.716        0.15200
        12018.0         66.892        0.13500
        12018.5         68.186        0.14900
        12019.0         70.837        0.16700
        12019.5         73.491        0.18500
        12020.0         75.898        0.20100
        12020.5         75.901        0.19900
        12021.0         74.736        0.19400
        12021.5         74.118        0.18700
        12022.0         74.361        0.18900
        12022.5         74.758        0.19300
        12023.0         75.206        0.19600
        12023.5         75.672        0.19900
        12024.0         75.782        0.20000
        12024.5         75.243        0.20000
        12025.0         73.948        0.18700
        12025.5         72.444        0.17700
        12026.0         70.939        0.16600
        12026.5         70.163        0.15900
        12027.0         70.232        0.16100
        12027.5         71.124        0.17000
        12028.0         72.358        0.17700
        12028.5         73.595        0.18500
        12029.0         74.834        0.19200
        12029.5         75.446        0.19700
        12030.0         75.674        0.19900
        12030.5         75.902        0.20100
        12031.0         76.084        0.20200
        12031.5         77.078        0.20700
        12032.0         77.565        0.21100
        12032.5         77.823        0.21400
        12033.0         78.133        0.21600
        12033.5         77.867        0.21700
        12034.0         76.602        0.20800
        12034.5         75.337        0.20000
        12035.0         74.072        0.19200
        12035.5         72.992        0.18300
        12036.0         72.189        0.17500
        12036.5         71.386        0.16600
        12037.0         70.574        0.16000
        12037.5         69.773        0.15500
        12038.0         69.340        0.15200
        12038.5         69.153        0.15200
        12039.0         68.967        0.15200
        12039.5         68.780        0.15000
        12040.0         68.593        0.14800
        12040.5         68.406        0.14600
        12041.0         68.248        0.14500
        12041.5         69.212        0.15800
        12042.0         70.875        0.16900
        12042.5         72.648        0.18000
        12043.0         74.277        0.19000
        12043.5         74.919        0.19400
        12044.0         75.513        0.19900
        12044.5         76.106        0.20300
        12045.0         76.386        0.20300
        12045.5         76.238        0.20300
        12046.0         75.851        0.19900
        12046.5         75.395        0.19600
        12047.0         74.939        0.19200
        12047.5         74.482        0.18800
        12048.0         73.988        0.18400
        12048.5         73.700        0.18400
