# Exported from Transform Software 5.2.0 on 25-May-2018 by user brian.umlang
# DI Transform - A Product of Drillinginfo, Inc. - www.drillinginfo.com
#
~VERSION INFORMATION
 VERS.        2.0 : LAS ASCII STANDARD - VERSION 2.0
 WRAP.         NO : ONE LINE PER DEPTH STEP

~WELL INFORMATION
#MNEM.UNIT       DATA TYPE       INFORMATION
#---------       ---------       -----------
# Enverus has updated the API/UWI.  The previous names are renamed to  PREV_API / PREV_UWI
API.         42-109-32508-00-00 : API (14 Digits with Dashes)
UWI.             42109325080000 : UNIQUE WELL ID

 STRT.ft                1970 : Start Depth
 STOP.ft                8730 : Stop Depth
 STEP.ft                 0.5 : Step Length
 NULL.               -999.25 : Null Value
 COMP.                       : Company
 WELL.  42109325080000_API14 : Well Name
 FLD.                        : Field Name
 LOC.                        : Well Location
 CNTY.                       : County
 STAT.                       : State or Province
 CTRY.                       : Country
 SRVC.                       : Service Company
 DATE.                       : Date
PREV_APII.         42109325080000 : Well Identifier

~CURVE INFORMATION
#MNEM.UNIT       API CODE       CURVE DESCRIPTION
#---------       --------       -----------------
 DEPT.ft        : <Measured Depth>
 CAL.in         : Caliper
 DT.us/ft       : Pressure Wave Sonic
 GR.gAPI        : Gamma Ray

~PARAMETER INFORMATION
#MNEM.UNIT       VALUE       DESCRIPTION
#---------       -----       -----------
 EKB.ft      3552 : Elevation above MSL

~A      DEPT         CAL          DT          GR
# ...
        3282     16.4781     84.6784     60.9229
      3282.5     16.4023     83.5798     61.3386
        3283     16.3333     83.5088     58.5938
      3283.5     16.2764     83.9168     57.8125
        3284     16.2649     84.4482     57.8107
      3284.5     16.2649     85.4439     54.4716
        3285     16.2649     85.6111     53.8385
      3285.5     16.2561     85.1963     56.9968
        3286     16.2202     84.5029     59.0025
      3286.5     16.1946     84.0869     58.9844
        3287     16.1628     83.8596     58.5674
      3287.5     16.1384     84.1027     57.2026
        3288     16.0964      84.386     52.5046
      3288.5     16.0574     84.8184     48.3603
        3289      16.006     85.2759      47.351
      3289.5     15.9278     85.3356     52.6752
        3290     15.8047     84.8666     56.0137
      3290.5     15.7656      83.368     48.3123
        3291     15.7402     82.6493     44.5632
      3291.5     15.6484     82.8259     52.4009
        3292     15.6222     82.9623     54.5594
      3292.5     15.5632     82.2482     57.3257
        3293     15.5312     80.7151     64.5439
      3293.5     15.5117     81.1845     64.9165
        3294     15.4922      83.475     58.7055
      3294.5     15.4922     85.3299     52.2824
        3295     15.4922     85.6725     48.4375
      3295.5     15.4727     85.2058     48.9645
        3296     15.4431     84.3846     51.8577
      3296.5     15.3945      84.269     51.2112
        3297     15.3447      84.269     49.1334
      3297.5      15.241     84.2354     50.2118
        3298      15.129     83.9766     53.8272
      3298.5     15.0309     83.6121     58.3837
        3299     14.9329     82.9292     62.1007
      3299.5     14.8739     82.4761     62.4383
        3300     14.8672     82.6128     56.8251
      3300.5     14.8672     83.0643     53.6231
        3301     14.8672     83.9861     52.9297
      3301.5     14.8477     84.8236     51.8335
        3302     14.8477     85.4108     50.7812
      3302.5     14.8128     86.3948     48.7464
        3303     14.8281     86.7137     46.2677
      3303.5     14.8086     86.8421     45.8303
        3304     14.7891     86.7926     48.4075
      3304.5     14.7721     86.6159     48.4634
        3305     14.7522     85.9845     47.6022
      3305.5     14.7109     85.3907     45.4633
        3306     14.6523     84.8579     44.7129
      3306.5     14.6142     84.5643     49.7448
        3307     14.5937      84.386     58.6368
      3307.5     14.5158     84.1525     58.0092
        3308     14.4766     83.7427     53.9671
      3308.5     14.4375     83.1518      57.214
        3309     14.3973     82.5114     61.4421
      3309.5     14.3203     82.3437     61.9141
        3310     14.2617     82.9411     60.3325
      3310.5     14.2203     83.7704     57.9549
        3311     14.1641     84.5696     53.4339
      3311.5     14.1414     84.8632     50.5113
        3312     14.0859     84.8432     49.1742
      3312.5      14.082     84.4208     50.5859
        3313      14.023     83.8466     50.1953
      3313.5     13.9249      83.553     50.8289
        3314     13.8516     83.5088     52.2002
      3314.5     13.8125     83.4503      51.381
        3315     13.7539      83.005     48.6328
      3315.5     13.7084     82.6316     48.6969
        3316      13.669     82.5935     50.3906
      3316.5     13.5781     82.8503     49.5737
        3317     13.5314     83.4147     50.0718
      3317.5     13.5195     83.6257     53.1134
        3318     13.4609      83.425     55.6931
      3318.5     13.4219     83.0144     57.6967
        3319     13.4023     82.7793      59.355
      3319.5     13.3731     82.4567     61.0342
        3320     13.3242     82.1053     58.4425
      3320.5     13.2942     82.3121     54.3889
        3321     13.2352     82.3392     53.8858
      3321.5     13.1371     82.0622     58.3728
        3322     13.0391     81.2749      65.625
      3322.5     13.0117     80.4759     70.9259
        3323     12.9406     79.8455     72.9215
      3323.5     12.8425     79.5519     69.3734
        3324     12.8359     79.3752     67.1157
      3324.5      12.744     79.4564     65.0856
        3325     12.6655     79.9679       61.24
      3325.5     12.6065     80.3072     58.8386
        3326     12.6016      79.879     58.7891
      3326.5      12.508     78.1726     57.7768
        3327     12.4844     77.3796     53.7436
      3327.5     12.4486     77.6211     52.3438
        3328     12.4062     80.3436     53.6819
      3328.5     12.3076     81.8503     56.2125
        3329     11.9154     80.7169     67.4982
      3329.5     11.6619     77.8916     90.7899
        3330     11.4505     73.8545    101.3545
      3330.5     11.3906     72.5938     95.2308
        3331     11.3325     73.4462      74.694
      3331.5      11.293      74.035     75.0004
        3332     11.1949     74.3286     77.5427
      3332.5     11.1164     74.6784     78.2033
        3333     11.0586     74.6713     76.2518
      3333.5     11.0179     73.6556     75.9766
        3334     10.9199      71.543     74.7847
      3334.5     10.8609      70.161      71.265
        3335     10.8214     69.5906     71.0947
      3335.5     10.7624     69.6684     79.7074
        3336     10.7229     70.4678    105.5051
      3336.5     10.6639     69.0381    110.2491
        3337     10.6289     66.4246     86.9506
      3337.5     10.5898      65.658     68.6081
        3338     10.5508       66.08     63.2649
      3338.5     10.5117     68.2232     68.2209
        3339     10.4922      68.838     71.5757
      3339.5     10.4531     67.3881     73.1114
        3340     10.3945     66.4706     76.0456
      3340.5     10.3482     67.9084     94.0731
        3341     10.2969     75.2836    126.8037
      3341.5     10.2887     79.5467    182.4675
        3342     10.2383     76.9737    218.9842
      3342.5     10.1903     72.9971    187.8349
        3343     10.1797     71.4084    139.4492
      3343.5     10.1406     71.5205    139.6001
        3344     10.1211     73.3663    166.8898
      3344.5     10.1016      72.378    161.6129
        3345     10.1016     68.4757    137.1076
      3345.5     10.0625     68.4846     112.692
        3346      10.043     70.0844    106.1436
      3346.5      10.043     72.2591    124.6783
        3347      10.043     73.4503    146.4322
      3347.5      10.043      71.637    148.1892
        3348      10.043     69.0787    118.7902
      3348.5      10.043     68.1456    104.3053
        3349      10.043     67.9802     94.5016
      3349.5      10.043     69.0207     94.9962
        3350     10.0625     68.0065    107.0708
      3350.5     10.1016     66.4227    116.0426
        3351      10.137     66.5756     91.4833
      3351.5     10.1602     67.0079     59.8243
        3352      10.255     68.2535     50.8094
      3352.5     10.3909     72.2095     48.4616
        3353     10.4902     74.2976     47.4809
      3353.5     10.5703     77.7792     48.4375
        3354     10.6094     78.4795     52.1308
      3354.5     10.6289     77.6208     52.9297
        3355     10.6871     76.7847     51.8609
      3355.5     10.7071     76.5497     50.9761
        3356     10.7461     76.7877     50.3906
      3356.5      10.786     77.6049     50.5946
        3357     10.8438     77.7193     52.2716
      3357.5     10.8633     77.6023     53.1082
        3358     10.8633     77.6023     51.9322
      3358.5     10.8633     76.9216      48.082
        3359     10.9219      75.731     45.7426
      3359.5     10.9643     76.2088     44.3359
        3360     10.9805     77.2961     44.7266
      3360.5     11.0195      78.646     44.9219
        3361     11.0391     80.1306     44.7266
      3361.5     11.0391     80.3509     44.2616
        3362     11.0391     80.3509       43.75
      3362.5     11.0839     80.3509      47.077
        3363     11.1562     80.4279     50.9766
      3363.5     11.1562     80.5263     50.7812
