# Exported from Transform Software 5.2.0 on 25-May-2018 by user brian.umlang
# DI Transform - A Product of Drillinginfo, Inc. - www.drillinginfo.com
#
~VERSION INFORMATION
 VERS.        2.0 : LAS ASCII STANDARD - VERSION 2.0
 WRAP.         NO : ONE LINE PER DEPTH STEP

~WELL INFORMATION
#MNEM.UNIT       DATA TYPE       INFORMATION
#---------       ---------       -----------
# Enverus has updated the API/UWI.  The previous names are renamed to  PREV_API / PREV_UWI
API.         42-109-32508-00-00 : API (14 Digits with Dashes)
UWI.             42109325080000 : UNIQUE WELL ID

 STRT.ft                1970 : Start Depth
 STOP.ft                8730 : Stop Depth
 STEP.ft                 0.5 : Step Length
 NULL.               -999.25 : Null Value
 COMP.                       : Company
 WELL.  42109325080000_API14 : Well Name
 FLD.                        : Field Name
 LOC.                        : Well Location
 CNTY.                       : County
 STAT.                       : State or Province
 CTRY.                       : Country
 SRVC.                       : Service Company
 DATE.                       : Date
PREV_APII.         42109325080000 : Well Identifier

~CURVE INFORMATION
#MNEM.UNIT       API CODE       CURVE DESCRIPTION
#---------       --------       -----------------
 DEPT.ft        : <Measured Depth>
 CAL.in         : Caliper
 DT.us/ft       : Pressure Wave Sonic
 GR.gAPI        : Gamma Ray

~PARAMETER INFORMATION
#MNEM.UNIT       VALUE       DESCRIPTION
#---------       -----       -----------
 EKB.ft      3552 : Elevation above MSL

~A      DEPT         CAL          DT          GR
# ...
        6398      9.6596     78.3618     77.8568
      6398.5      9.8373      75.998     77.2255
        6399      9.3903     72.5984     78.4345
      6399.5      9.2898     70.7548     77.0986
        6400      9.3008     73.8082     77.7344
      6400.5      9.2825     76.5977     80.5525
        6401       9.623     84.5906    102.7267
      6401.5      9.7695     85.4433     135.234
        6402       9.565     86.7932    150.2159
      6402.5      9.4461     85.5812     132.411
        6403     10.1282     84.6977    110.4992
      6403.5     10.5666     86.0687    102.1484
        6404     10.8706     84.4447     91.9682
      6404.5      9.2434     84.1749     86.2713
        6405      9.6816      85.692     88.4113
      6405.5      10.225     87.4159     93.1151
        6406      9.8338      86.886     95.5892
      6406.5        9.56     86.5936     99.4874
        6407      9.4619     87.4708     102.832
      6407.5       9.312     76.7822    100.7036
        6408      9.2617      67.054     83.2922
      6408.5      9.2581     74.7743     69.2966
        6409      9.3398     83.3331     78.6136
      6409.5       9.206      83.463     93.0474
        6410      9.1079     81.4616     85.4001
      6410.5      9.0098     76.6697     82.6777
        6411      9.0072     79.5129     81.7877
      6411.5      9.2179     79.7697     88.5518
        6412      9.3586     85.3659    101.0452
      6412.5      9.5719     80.1043    107.5636
        6413     10.6681     79.7661    101.1698
      6413.5     10.9041     79.8856     94.8005
        6414     11.0985     82.5803       99.83
      6414.5     11.3383      86.495    105.5063
        6415     11.8215     86.7836    109.0342
      6415.5     12.3215     86.8483    111.7809
        6416     12.4258     84.2616    114.5523
      6416.5     12.4453     83.8403    120.5656
        6417     12.2825     82.1015    123.8561
      6417.5       12.09     70.0201    108.5698
        6418     11.9303     67.9994     72.3886
      6418.5     11.2486     68.4211     59.0584
        6419     10.8015     70.1051      63.084
      6419.5     10.7656      73.109     72.0551
        6420     10.7656     71.2762     76.8153
      6420.5     10.7461       68.96     77.3438
        6421     10.7654     65.2999     76.2358
      6421.5     10.4071     62.9992     71.1774
        6422     10.4408      63.063     61.3281
      6422.5     11.3594      63.486     51.9935
        6423     12.2865     60.8222     45.9297
      6423.5     12.1136     57.3721      44.359
        6424     11.3425     55.7355     36.6427
      6424.5     11.0586     54.0432     20.1307
        6425     11.0977     53.0704     14.3547
      6425.5     11.2446      53.364     15.5418
        6426     11.2646      54.386     18.7324
      6426.5     11.2819     61.0641     32.6489
        6427     11.0727     71.5262     58.2223
      6427.5      9.9054     71.4035     92.7638
        6428      9.6721     73.4871    126.2425
      6428.5      9.6719     71.0579    138.6036
        6429      9.6719     68.8441    130.8436
      6429.5      9.2422     68.3713    109.9414
        6430      9.1892     71.4366    123.9719
      6430.5       9.125     71.6959    137.6578
        6431      9.0989     71.4907    160.7652
      6431.5      8.9927     77.5421    172.4085
        6432      8.9394     75.2522    154.6939
      6432.5      9.7374     75.3588    143.5741
        6433     12.0392     76.6605    134.1797
      6433.5      14.369     70.2286    123.4924
        6434     13.6007     74.4375    127.1251
      6434.5     13.7931      74.386     135.921
        6435     14.3006     71.8946    132.5584
      6435.5     12.4313     76.1213     127.395
        6436     12.6277       81.35     146.965
      6436.5     13.2263     78.5814     172.013
        6437     13.2847     63.3061    159.9301
      6437.5      10.692      65.693    123.9393
        6438      9.9053     67.3071     81.6286
      6438.5      9.8025     67.2568     87.2708
        6439        9.26     64.2907    101.8981
      6439.5      9.1033     60.5589     91.7759
        6440      9.0017     59.9338      70.086
      6440.5      9.0694     60.8495     62.8938
        6441      9.1675     63.9307     67.8154
      6441.5      9.2189     65.8074     75.6999
        6442       9.125     67.9234     77.9718
      6442.5      9.0664     64.1763     77.4468
        6443      9.2411     66.7367     75.2901
      6443.5     11.9908     65.4674     80.3175
        6444     14.1504     66.3213     91.0723
      6444.5     15.1102     64.5216    104.7266
        6445     15.1198     66.3743    110.1562
      6445.5     14.5476     66.3743    104.5461
        6446      9.9769     64.0541    103.0167
      6446.5      9.1733     64.2555    106.7195
        6447      9.0273     63.5176    100.8801
      6447.5       9.036     62.2056     92.4253
        6448       9.263     62.4418     89.0756
      6448.5     10.0455     63.2852      83.999
        6449     10.1754     64.7309     80.8594
      6449.5      9.5007     63.8443     85.3974
        6450      9.3291     63.8039       85.83
      6450.5      9.1529     61.8798     82.0596
        6451      8.9732      58.785     61.9141
      6451.5      8.8396     58.2682     57.7241
        6452      8.9092     57.9005     54.0805
      6452.5      9.0792        58.3     53.9062
        6453      9.3398      60.803     61.5775
      6453.5       9.371     64.2494     70.7322
        6454      9.3844     65.7173     88.9113
      6454.5      9.0856     67.0508    101.4584
        6455      8.8906     65.0107    102.0001
      6455.5      8.8906     64.2961     94.6121
        6456      8.9102      62.666     84.7627
      6456.5      8.9102     61.6036     78.4937
        6457      8.8546     59.8119     74.1035
      6457.5      8.9075     60.1011     62.6298
        6458      9.0056     60.7851     56.0387
      6458.5      9.0273     63.6878     57.1166
        6459      9.0273     63.5258     66.8456
      6459.5      9.0273     63.3333     76.1211
        6460      9.0273     63.1012     77.9236
      6460.5      9.0467      63.331     78.5136
        6461      9.0861     65.6747     78.9084
      6461.5      9.1055     65.0765     79.2969
        6462      9.1055     65.2662     80.0987
      6462.5      9.1055      67.334     84.2659
        6463      9.1055     67.0894     91.5355
      6463.5      9.1055     67.8745     96.5069
        6464      9.1055     67.4269     95.8452
      6464.5      9.1055     66.6699     93.0412
        6465      9.1055     64.5301     86.1057
      6465.5      9.1055     63.8247     69.7345
        6466      9.1055     64.2404     54.3006
      6466.5       9.125     67.3375     47.4679
        6467       9.125     70.3627     46.2379
      6467.5      9.1641     69.6695     50.5011
        6468      9.1641     70.3821     62.6953
      6468.5      9.1641     71.6504     76.8747
        6469      9.1641      72.319     90.5937
      6469.5       9.125     69.2476     97.0703
        6470      9.1055     66.8426     89.4456
      6470.5      9.1055     69.8855     81.2168
        6471       9.125     71.4035     74.6669
      6471.5       9.125     75.1873     94.2896
        6472      9.2123      69.159    127.8624
      6472.5      9.3104     67.8038    128.4256
        6473     10.0004     70.3132    105.4507
      6473.5     10.2097      65.634      85.467
        6474     10.3381      67.024     82.6172
      6474.5     10.4798     67.5368     83.4578
        6475     10.5312     66.6703     91.4789
      6475.5     10.4725     67.8448     98.5582
        6476      9.5713     66.6293     94.0864
      6476.5       9.324       65.13     81.5905
        6477      9.1437     65.7334     74.0776
      6477.5      9.0332     66.7313     79.0463
        6478      9.0132     65.3183     88.0317
      6478.5      9.0664     61.6705     82.3319
        6479      9.1399     60.9841     73.9326
      6479.5      9.1836     58.4921     61.9009
