~VERSION INFORMATION
VERS. 2.0 : CWLS Log ASCII Standard - Version 2.0
WRAP. NO : One line per depth step
#--------------------------------------------------#
#----------------DRILLING INFO, INC.---------------#
#---------------WWW.DRILLINGINFO.COM---------------#
#------------------COPYRIGHT 2015------------------#
#--------------------------------------------------#
#THIS FILE MAY BE USED ONLY IN ACCORDANCE WITH A CURRENT SUBSCRIPTION AGREEMENT BETWEEN
#THE USER AND DRILLING INFO, INC. NO PART OF THIS FILE MAY BE REPRODUCED, USED, COPIED,
#MODIFIED, PROPAGATED, OR DISTRIBUTED EXCEPT IN ACCORDANCE WITH THE SUBSCRIPTION
#AGREEMENT. UNAUTHORIZED USE OR DISTRIBUTION OF ALL OR ANY PART OF THIS FILE MAY VIOLATE
#COPYRIGHT, TRADEMARK, AND/OR OTHER LAWS AND IS SUBJECT TO CIVIL AS WELL AS CRIMINAL
#SANCTIONS.
#--------------------------------------------------#
#THIS FILE IS PROVIDED "AS-IS" AND ALL WARRANTIES ARE EXPRESSLY DISCLAIMED, WHETHER
#EXPRESS, ORAL, IMPLIED, STATUTORY OR OTHERWISE, INCLUDING ANY IMPLIED WARRANTY OF FITNESS
#FOR A PARTICULAR PURPOSE, MERCHANTABILITY, TITLE OR NON-INFRINGEMENT, AND ANY WARRANTIES
#ARISING BY VIRTUE OF CUSTOM OF TRADE OR COURSE OF DEALING.  FURTHER, DRILLING INFO,
#INC. AND ITS LICENSORS DO NOT REPRESENT OR WARRANT THAT THIS FILE WILL MEET USER'S
#REQUIREMENTS OR ARE SUITABLE FOR USER'S NEEDS OR THAT THE DATA OR RESULTS PROVIDED IN
#CONJUNCTION THEREWITH ARE CORRECT, ACCURATE, TIMELY OR RELIABLE. THESE DISCLAIMERS SHALL
#APPLY REGARDLESS OF ANY FAILURE OF ESSENTIAL PURPOSE OF ANY LIMITED REMEDY.  SOME
#JURISDICTIONS DO NOT ALLOW THE EXCLUSION OF CERTAIN WARRANTIES SO SOME OF THE ABOVE
#EXCLUSIONS MAY NOT APPLY. IN NO EVENT SHALL DRILLING INFO, INC. OR ANY OF ITS AFFILIATES
#BE LIABLE UNDER ANY LEGAL THEORY, WHETHER IN TORT (INCLUDING WITHOUT LIMITATION
#NEGLIGENCE), CONTRACT, STRICT LIABILITY, STATUTORY OR OTHERWISE, FOR ANY SPECIAL,
#INCIDENTAL, CONSEQUENTIAL, EXEMPLARY, PUNITIVE OR INDIRECT DAMAGE OF ANY KIND, INCLUDING
#WITHOUT LIMITATION LOSS OF REVENUE, PROFITS, GOODWILL, USE, AND/OR DATA OR THE COST OF
#PROCUREMENT OF SUBSTITUTE GOODS OR SERVICES, EVEN IF APPRISED OF THE POSSIBILITY OF SUCH
#DAMAGES IN ADVANCE.
#--------------------------------------------------#
~WELL INFORMATION
#MNEMONIC     .UNIT              VALUE :DESCRIPTION
#--------------------------------------------------#
STRT       .ft                51.00000 :START DEPTH
STOP       .ft                9476.00000 :STOP DEPTH
STEP       .ft                0.50000 :STEP
NULL       .                -999.25000 :NULL VALUE
COMP       .                 :COMPANY
WELL       .                 :WELL
FLD       .                 :FIELD
LOC       .                 :LOCATION
CNTY       .                 :COUNTY
STAT       .                 :STATE
CTRY       .                 :COUNTRY
SRVC       .                 :SERVICE COMPANY
DATE       .                 :DATE
API       .                42109100520000 :API NUMBER
~CURVE INFORMATION
#MNEMONIC     .UNIT      API CODE :CURVE DESCRIPTION
#--------------------------------------------------#
DEPTH       .ft                      :Measured Depth
CAL       .in        UNKNOWN   :CAL
DT       .us/ft        UNKNOWN   :DT
GR       .gAPI        UNKNOWN   :GR
~A    DEPTH    CAL    DT    GR
# ...
8816.00000    6.32955    63.39962    63.56589
8816.50000    6.32663    61.30497    56.60880
8817.00000    6.32370    59.49915    50.14235
8817.50000    6.32078    57.69332    43.67590
8818.00000    6.31785    55.88749    43.04307
8818.50000    6.31492    55.69479    42.85607
8819.00000    6.31200    55.66505    42.66907
8819.50000    6.30907    55.63532    42.48208
8820.00000    6.30615    54.85705    42.29508
8820.50000    6.30322    53.80694    42.10808
8821.00000    6.30029    53.11333    43.52642
8821.50000    6.29737    53.15735    45.48552
8822.00000    6.29444    53.20136    44.35226
8822.50000    6.29152    53.24538    42.67314
8823.00000    6.28859    53.28940    40.99403
8823.50000    6.28566    53.33342    39.31492
8824.00000    6.27645    53.37743    39.24466
8824.50000    6.26709    53.07018    40.41970
8825.00000    6.25773    52.75640    41.59475
8825.50000    6.24837    52.44263    42.76980
8826.00000    6.23900    52.12885    43.94484
8826.50000    6.22964    51.93152    42.75202
8827.00000    6.22028    52.18765    41.02331
8827.50000    6.21092    52.44379    39.29460
8828.00000    6.20156    52.69993    37.56589
8828.50000    6.19219    52.95606    35.83718
8829.00000    6.18283    53.21220    35.73870
8829.50000    6.17347    53.46833    36.83282
8830.00000    6.16411    53.72447    37.92694
8830.50000    6.15475    53.98060    39.02105
8831.00000    6.14538    54.23674    40.11517
8831.50000    6.13602    54.16722    41.20929
8832.00000    6.12666    53.96514    42.30341
8832.50000    6.11730    53.76305    43.39752
8833.00000    6.11667    53.56096    43.54761
8833.50000    6.11674    53.35887    42.76715
8834.00000    6.11682    53.09694    41.98668
8834.50000    6.11689    52.48156    41.20622
8835.00000    6.13033    51.86618    40.42575
8835.50000    6.15387    51.25080    40.75017
8836.00000    6.17741    51.71038    41.44963
8836.50000    6.20095    52.22796    42.14910
8837.00000    6.22449    52.74554    43.69663
8837.50000    6.24803    53.26312    46.40870
8838.00000    6.26550    53.78070    49.12077
8838.50000    6.27158    54.29827    51.83284
8839.00000    6.27767    54.81585    54.54491
8839.50000    6.28375    55.33343    57.25698
8840.00000    6.28983    55.62212    59.96905
8840.50000    6.29591    55.29269    60.05904
8841.00000    6.30199    54.96326    54.35383
8841.50000    6.30807    54.63383    48.64861
8842.00000    6.31262    54.30440    42.94340
8842.50000    6.31268    53.97498    41.30484
8843.00000    6.31274    53.64555    43.97802
8843.50000    6.31280    53.31612    46.65119
8844.00000    6.31287    53.13312    49.32437
8844.50000    6.31293    53.28064    51.99755
8845.00000    6.31300    53.42817    53.23431
8845.50000    6.31306    53.57569    50.60442
8846.00000    6.31312    53.72321    47.97454
8846.50000    6.31319    53.87074    52.43460
8847.00000    6.31325    54.01826    57.79739
8847.50000    6.31331    55.09005    63.16018
8848.00000    6.31338    56.19079    68.52298
8848.50000    6.31344    57.29152    73.88577
8849.00000    6.32613    58.39226    74.70682
8849.50000    6.34854    59.49299    73.48777
8850.00000    6.37095    60.59373    72.26872
8850.50000    6.39335    61.69446    70.12211
8851.00000    6.41576    61.28662    67.79137
8851.50000    6.43817    60.72889    65.46063
8852.00000    6.46058    60.17116    63.12989
8852.50000    6.48298    59.19341    60.79915
8853.00000    6.50539    58.05056    58.46842
8853.50000    6.49018    56.90770    55.97082
8854.00000    6.46851    55.76485    52.60283
8854.50000    6.44684    55.32976    49.23483
8855.00000    6.42516    55.19490    45.86683
8855.50000    6.40350    55.06003    42.49883
8856.00000    6.38182    54.92516    39.13083
8856.50000    6.36015    54.79029    37.29698
8857.00000    6.33848    54.74086    37.42794
8857.50000    6.31681    55.21496    37.55889
8858.00000    6.29514    55.68906    37.68984
8858.50000    6.27347    55.54551    37.82080
8859.00000    6.25180    55.21866    37.95175
8859.50000    6.23013    54.89181    38.08271
8860.00000    6.20846    54.56496    38.88091
8860.50000    6.18679    54.23811    41.16613
8861.00000    6.16512    53.91126    43.45135
8861.50000    6.14474    53.58441    55.17464
8862.00000    6.14891    54.75096    60.28458
8862.50000    6.15308    56.89228    65.39452
8863.00000    6.15725    59.03360    70.50446
8863.50000    6.16142    59.46289    60.83137
8864.00000    6.16559    58.18184    57.73320
8864.50000    6.16976    56.90079    54.63502
8865.00000    6.17393    55.61975    51.53685
8865.50000    6.17810    55.02296    48.43868
8866.00000    6.18227    55.17054    46.72052
8866.50000    6.18644    55.31812    45.13556
8867.00000    6.19061    55.46570    43.55060
8867.50000    6.19385    55.61328    42.24129
8868.00000    6.19389    55.76086    43.31805
8868.50000    6.19394    55.83335    44.39480
8869.00000    6.19398    55.44703    45.47156
8869.50000    6.19403    55.06072    46.54832
8870.00000    6.19408    54.67440    47.67738
8870.50000    6.19412    54.28809    48.90093
8871.00000    6.19417    53.90177    50.12448
8871.50000    6.19422    53.95771    51.34802
8872.00000    6.19901    54.35613    52.57157
8872.50000    6.20826    54.75455    53.79512
8873.00000    6.21750    55.15297    57.19336
8873.50000    6.22674    55.55139    61.71087
8874.00000    6.23599    55.94980    63.63653
8874.50000    6.24523    56.34822    59.38291
8875.00000    6.25448    56.74664    54.48496
8875.50000    6.26372    57.14506    48.55852
8876.00000    6.27296    56.99157    42.63208
8876.50000    6.28221    56.75592    45.38249
8877.00000    6.29145    55.60046    48.17569
8877.50000    6.30053    53.46668    50.96889
8878.00000    6.30959    53.51614    53.76208
8878.50000    6.31866    53.91886    57.68379
8879.00000    6.32773    54.32158    64.89506
8879.50000    6.33679    54.72429    72.10633
8880.00000    6.34586    56.93138    79.31760
8880.50000    6.35492    59.31821    86.52887
8881.00000    6.36399    61.70504    92.93583
8881.50000    6.38091    62.15952    88.93805
8882.00000    6.39920    62.15941    84.94027
8882.50000    6.41748    62.15930    80.94248
8883.00000    6.43577    61.92261    76.94470
8883.50000    6.45405    61.55005    78.51443
8884.00000    6.47234    61.17750    81.70165
8884.50000    6.49062    60.80494    84.88888
8885.00000    6.50891    60.43238    88.07611
8885.50000    6.52719    61.09216    91.26333
8886.00000    6.52923    61.92498    94.45056
8886.50000    6.51623    62.75781    97.63779
8887.00000    6.50323    63.59063    99.67634
8887.50000    6.49023    64.42345    97.10236
8888.00000    6.47723    64.91763    94.52837
8888.50000    6.46422    64.77021    91.95438
8889.00000    6.45122    64.62278    88.81242
8889.50000    6.43822    64.38460    85.58034
8890.00000    6.42522    63.69271    82.34826
8890.50000    6.41222    63.00082    79.11618
8891.00000    6.39921    62.30892    75.88410
8891.50000    6.38818    61.61702    72.65202
8892.00000    6.38130    60.92513    70.52369
8892.50000    6.37443    60.23324    73.30191
8893.00000    6.36755    59.54134    76.08013
8893.50000    6.36068    59.37914    81.11568
8894.00000    6.35381    61.66992    90.48946
8894.50000    6.34693    63.96071    99.86322
8895.00000    6.34006    66.25150    109.23700
8895.50000    6.33318    68.54229    118.61077
8896.00000    6.32631    70.34514    125.78465
8896.50000    6.31943    71.68932    121.98915
8897.00000    6.32206    73.03350    118.19365
8897.50000    6.32795    73.73074    117.86501
8898.00000    6.33384    73.36455    118.50046
8898.50000    6.33973    72.99836    119.13590
8899.00000    6.34563    72.63217    119.77134
8899.50000    6.35152    72.26598    120.35931
8900.00000    6.35741    71.89978    119.57851
8900.50000    6.36330    71.53360    118.79771
8901.00000    6.36919    71.24843    118.01691
8901.50000    6.37508    71.26524    117.23611
8902.00000    6.38098    71.28206    116.45531
8902.50000    6.38687    71.29888    115.67451
