###############################################
##         ENVERUS                           ##
##         ESS - Open Hole                   ##
##         PERMIAN / DELAWARE                ##
##         Nov 02 2023  V4.0                 ##
##         42-109-32297-90-00                ##
###############################################
## Copyright 2017-2023  ENVERUS.  All Rights Reserved. 
## Confidential - Property of ENVERUS, use governed by terms and 
## conditions found within the existing Information Services Subscription Agreement 
## (as may be amended, the “ISSA”) between Customer and ENVERUS. 
## 
~VERSION INFORMATION
# MNEM.UNIT                               DATA : DESCRIPTION OF MNEMONIC
#-----.-----     ----------------------------- : -----------------------------
VERS.                                     2.00 : CWLS LOG ASCII STANDARD - VERSION 2.00
WRAP.                                       NO : MULTIPLE LINES PER DEPTH STEP
VEND.                                  ENVERUS : VENDOR
TYPE.                          ESS - OPEN HOLE : ENVERUS ESSENTIAL CURVES – ACCESSIBLE THROUGH ENVERUS PRISM(TM)
DOC.                                  52921007 : ENVERUS HEADER RAW DOCUMENT ID
#___________________________________________________________________________________________________ 
~WELL INFORMATION 
# EM3SY5Bwx6x9YoJmjxbMXtwK21/gMzSEmeWIZ71LA4UD3Y8PQw/mHJ0IHc4n7dRi3zAL189RIdETacnakexX1Q== 
# MNEM.UNIT                                              DATA : DESCRIPTION OF MNEMONIC 
#-----.-----                    ----------------------------- : ----------------------------- 
CNTY.                                               CULBERSON : COUNTY 
STATE.                                                  TEXAS : STATE 
CNTRY.                                                    USA : COUNTRY 
API.                                             42-109-32297 : API (10 Digit) 
API_14.                                    42-109-32297-90-00 : API (14 Digits) 
API_14_std.                                 42-109-32297-9000 : API (14 Digits Standard) 
UWI.                                           42109322979000 : UNIQUE WELL ID 
WELL.                          MELISSA TAYLOR STATE 105-3  1H : WELL NAME
STRT.FT                                                 200.0 : START DEPTH
STOP.FT                                               10260.0 : STOP DEPTH
STEP.FT                                                   0.5 : STEP BETWEEN DEPTHS
NULL.                                                 -999.25 : NULL VALUE
PREV_API.                                        421093229700 : API NUMBER 
COMP.                              CHESAPEAKE OPERATING  INC. : COMPANY 
DATE.                                             17-JUN-2008 : LOG DATE
#___________________________________________________________________________________________________ 
~CURVE INFORMATION 
# MNEM.UNIT           : CURVE DESCRIPTION 
#-----.-----          : ----------------------------- 
 DEPT.FT               : MEASURED DEPTH 
 CALI.IN               : CALIPER (CAL - CAL) 
 GR.API                : GAMMA RAY (GR) 
 DT.US/FT              : SONIC DELTA TRANSIT TIME (DT) 
 RESS.OHMM             : SHALLOW INDUCTION RESISTIVITY (ILS - ILS) 
 RESD.OHMM             : DEEP INDUCTION RESISTIVITY (ILD - ILD) 
 DPHI.V/V              : DENSITY POROSITY (DPHI) 
 NPHI.V/V              : NEUTRON POROSITY (NPHI) 
 RHOB.G/CC             : BULK DENSITY (RHOB) 
 #___________________________________________________________________________________________________ 
~A         DEPT           CALI             GR             DT           RESS           RESD           DPHI           NPHI           RHOB
# ...
         6041.0         12.370         87.035         69.252         86.371         97.376        0.03438        0.16906         2.6460
         6041.5         12.374         87.819         69.511         83.753         94.681        0.03880        0.17209         2.6450
         6042.0         12.376         88.486         69.544         84.534         97.376        0.03886        0.17512         2.6440
         6042.5         12.376         88.385         69.345         85.314         99.644        0.04151        0.17814         2.6430
         6043.0         12.376         88.276         68.942         86.095         98.757        0.03986        0.17380         2.6380
         6043.5         12.376         87.774         68.539         86.875         97.870        0.04393        0.16471         2.6320
         6044.0         12.376         87.272         68.194         87.114         96.984        0.04847        0.16484         2.6260
         6044.5         12.363         86.419         67.931         85.940         96.097        0.04943        0.17019         2.6260
         6045.0         12.339         85.496         67.668         84.765         95.813        0.04781        0.17554         2.6270
         6045.5         12.314         85.144         67.662         83.591         95.816        0.04724        0.18089         2.6240
         6046.0         12.290         85.944         67.795         82.416         95.819        0.04933        0.18255         2.6200
         6046.5         12.275         87.049         67.838         81.242         95.822        0.05493        0.16918         2.6160
         6047.0         12.261         86.323         66.542         80.068        107.520        0.05134        0.15581         2.6240
         6047.5         12.248         81.955         65.227         85.098        126.899        0.04096        0.14243         2.6320
         6048.0         12.235         75.566         62.608        110.256        146.278        0.03526        0.12906         2.6410
         6048.5         12.227         68.176         59.990        134.456        186.683        0.03357        0.11515         2.6450
         6049.0         12.229         61.118         57.371        158.385        252.960        0.03799        0.10065         2.6450
         6049.5         12.231         54.179         55.943        188.013        319.237        0.03978        0.08615         2.6450
         6050.0         12.233         47.240         54.614        284.912        385.514        0.03138        0.07166         2.6460
         6050.5         12.235         42.122         53.285        360.203        445.856        0.01723        0.05716         2.6640
         6051.0         12.237         39.200         51.956        349.862        470.377        0.01010        0.05507         2.6820
         6051.5         12.239         38.721         52.401        317.282        417.660        0.00953        0.05414         2.6900
         6052.0         12.240         48.355         54.697        204.683        350.502        0.01518        0.06657         2.6910
         6052.5         12.252         65.549         57.558        124.091        229.871        0.02308        0.09379         2.6860
         6053.0         12.271         69.418         60.191        144.679        157.099        0.03766        0.11114         2.6690
         6053.5         12.289         67.870         59.074        183.431        169.376        0.04091        0.09684         2.6470
         6054.0         12.308         55.175         56.680        222.183        249.047        0.03630        0.08255         2.6480
         6054.5         12.327         46.917         51.717        260.935        318.127        0.02937        0.06825         2.6540
         6055.0         12.346         38.660         50.577        271.341        309.491        0.02233        0.05395         2.6610
         6055.5         12.329         30.407         49.965        279.318        306.482        0.01823        0.03966         2.6780
         6056.0         12.312         29.587         50.408        277.886        329.128        0.01660        0.03373         2.6780
         6056.5         12.294         28.800         51.073        264.204        322.938        0.02148        0.03332         2.6740
         6057.0         12.277         28.800         51.738        250.522        304.131        0.03798        0.03494         2.6710
         6057.5         12.260         28.880         52.415        236.840        280.806        0.07212        0.03656         2.6310
         6058.0         12.243         29.892         53.044        225.347        257.482        0.10091        0.03819         2.5670
         6058.5         12.248         30.905         53.256        236.619        282.947        0.07716        0.03981         2.5890
         6059.0         12.255         31.917         53.336        247.890        319.584        0.04147        0.03932         2.6110
         6059.5         12.261         32.930         52.855        259.162        341.510       -0.00446        0.03792         2.6640
         6060.0         12.268         31.963         51.956        278.977        341.521        0.00246        0.03652         2.7240
         6060.5         12.275         30.990         51.058        302.586        372.852        0.01019        0.03512         2.7140
         6061.0         12.282         32.775         50.159        303.332        397.096        0.01090        0.03495         2.7040
         6061.5         12.289         34.963         49.987        304.078        392.423        0.00660        0.03596         2.6990
         6062.0         12.296         37.152         50.239        304.824        394.774       -0.00612        0.03696         2.7150
         6062.5         12.303         39.341         50.408        318.786        422.703       -0.00770        0.03796         2.7180
         6063.0         12.310         39.675         50.309        354.168        519.509       -0.00585        0.03897         2.7170
         6063.5         12.317         37.880         50.119        389.551        566.107       -0.00245        0.03997         2.7160
         6064.0         12.324         36.085         49.929        371.300        538.665       -0.00268        0.04097         2.7150
         6064.5         12.331         36.280         49.847        321.444        467.691       -0.01268        0.04197         2.7190
         6065.0         12.333         38.288         49.947        282.985        394.577       -0.01794        0.04298         2.7310
         6065.5         12.336         40.297         50.024        292.753        412.155       -0.01212        0.04398         2.7300
         6066.0         12.339         41.914         50.024        322.975        437.462       -0.00444        0.04468         2.7130
         6066.5         12.341         39.751         49.878        338.939        452.366        0.01059        0.04311         2.6950
         6067.0         12.344         37.588         49.672        346.968        456.632        0.00780        0.04155         2.7000
         6067.5         12.343         36.941         49.467        336.309        437.258        0.00349        0.03998         2.7040
         6068.0         12.333         38.824         50.131        291.722        374.543       -0.00214        0.03842         2.7080
         6068.5         12.323         46.960         51.796        239.386        276.498       -0.00484        0.04397         2.7120
         6069.0         12.317         57.760         57.055        187.049        215.963        0.01606        0.05724         2.6970
         6069.5         12.320         68.560         59.675        148.153        196.663        0.03762        0.08891         2.6460
         6070.0         12.323         74.605         60.897        144.615        201.512        0.05022        0.12057         2.6450
