~Version Information
 VERS.                  2.0:   CWLS log ASCII Standard -VERSION 2.0
 WRAP.                   NO:   One line per depth step
~Well Information Block
#MNEM.UNIT     VALUE/NAME     DESCRIPTION
#---------     -----------    ---------------------------
 STRT.F              8564.0000: START DEPTH
 STOP.F             14132.0000: STOP DEPTH
 STEP.F                 0.5000: STEP DEPTH
 NULL.                 -999.25: NULL VALUE
 FL6 .       API  42-109-33219:  LOCATIONLINE6
 LOC .     253' FEL & 408' FNL:  LOCATION
 FL4 .           ABSTRACT 1760:  LOCATIONLINE4
 FL3 .        T&P RR CO SURVEY:  LOCATIONLINE3
 FL2 .     SECTION 32, BLOCK 58 T2:  LOCATIONLINE2
 FL1 .     253' FEL & 408' FNL:  LOCATIONLINE1
 DMF .                      KB:  DRILL MEAS FROM
 PDAT.                      GL:  PERMANENT DATUM
 CTRY.                     USA:  COUNTRY NAME
 PROV.                   TEXAS:  PROVINCE
 STAT.                   TEXAS:  STATE NAME
 CNTY.               CULBERSON:  COUNTY NAME
 FLD .     FORD, WEST (WOLFCAMP):  FIELD NAME
 WELL.        MOTHER FEE 28 2H:  WELL NAME
 COMP.     CAPITAN ENERGY INC.:  COMPANY
 DATE.             24-Jan-2018:  DATE
 SVCO.             Halliburton:  SERVICECONAME
 HIDE.                        :  WELLNAMEOPERAT
 BASI.                 PERMIAN:  BASIN
 UWI .            42-109-33219LAT:  UNIQUE WELL IDENTIFIER
 API .            42-109-33219LAT:  API NUMBER
 RANG.                     N/A:  RANGE
 TOWN.                     N/A:  TOWNSHIP
 SECT.                     N/A:  SECTION
 SON .               904563795:  JOB NUMBER
 SRVC.             Halliburton:  SERVICE COMPANY
 LMF .                      KB:  LOG MEASURED FROM
 EGL .ft             3142.0000:  GROUND ELEVATION
 BAP .ft                0.0000:  GL ELEV ONSHORE
 GVFD.g                 1.0000:  GRAVITY FIELD
 EKB .ft             3167.0000:  KB ELEVATION
 EDF .ft             3166.0000:  DF ELEVATION
~Curve Information Block
#MNEM.UNIT                 API CODE     Curve Description
#---------               -----------    ---------------------------
 DEPT.F                 00 000 000 000:  Depth
 CCL .V                 00 000 000 000:  Casing Collar Locator
 NPHI_OH.pu             00 000 000 000:  NPHI_OH
 NPHI_CHI.pu            00 000 000 000:  NPHI_CHI
 GR_OH.api              00 000 000 000:  GR_OH
 GR_CHI.api             00 000 000 000:  GR_CHI
 RHOB_OH.g/cc           00 000 000 000:  RHOB_OH
 RHOB_CHI.g/cc          00 000 000 000:  RHOB_CHI
 PE_OH.b/e              00 000 000 000:  PE_OH
 PE_CHI.b/e             00 000 000 000:  PE_CHI
 DTC_OH.uspf            00 000 000 000:  DTC_OH
 DTC_CHI.uspf           00 000 000 000:  DTC_CHI
 SPHI_CHI.pu            00 000 000 000:  SPHI_CHI
 RT10_OH.ohmm           00 000 000 000:  RT10_OH
 RT10_CHI.ohmm          00 000 000 000:  RT10_CHI
 RT30_OH.ohmm           00 000 000 000:  RT30_OH
 RT30_CHI.ohmm          00 000 000 000:  RT30_CHI
 RT90_OH.ohmm           00 000 000 000:  RT90_OH
 RT90_CHI.ohmm          00 000 000 000:  RT90_CHI
 SGF .cu                00 000 000 000:  Formation Sigma
 CRNF.NONE              00 000 000 000:  CaptMode Capt Ratio
 RIN .NONE              00 000 000 000:  CaptMode Gross Inel Ratio
#Other Information
#
#WARRANTY: Halliburton will use its best efforts to furnish customers with 
#accurate information and interpretations that are part of, and incident to, the services 
#provided.  However, Halliburton cannot and does not warrant the accuracy 
#or correctness of such information and interpretations.  Under no circumstances should any 
#such information or interpretation be relied upon as the sole basis for any drilling, 
#completion, production, or financial decision or any procedure involving any risk to the 
#safety of any drilling venture, drilling rig or its crew or any other third party.  The 
#Customer has full responsibility for all drilling, completion and production operation.  
#Halliburton makes no representations or warranties, either expressed or 
#implied, including, but not limited to, the implied warranties of merchantability or fitness 
#for a particular purpose, with respect to the services rendered.  In no event will 
#Halliburton be liable for failure to obtain any particular results or for 
#any damages, including, but not limited to, indirect, special or consequential damages, 
#resulting from the use of any information or interpretation provided by Halliburton.
#
~A    DEPT       CCL    NPHI_OH NPHI_CHI  GR_OH    GR_CHI  RHOB_OH RHOB_CHI  PE_OH   PE_CHI   DTC_OH  DTC_CHI SPHI_CHI RT10_OH  RT10_CHI RT30_OH  RT30_CHI RT90_OH  RT90_CHI   SGF    CRNF   RIN   
# ...
   11882.0000   -0.5977 -999.25   9.6342  -999.25  97.2261 -999.25   2.6135 -999.25    3.4510 -999.25 67.9795  14.4100  -999.25  33.8952  -999.25  32.2989  -999.25  35.5755 21.8424 0.8137 1.0565
   11882.5000   -0.5676 -999.25   8.8788  -999.25  91.1924 -999.25   2.6239 -999.25    3.6650 -999.25 66.9761  13.7000  -999.25  44.9785  -999.25  44.4604  -999.25  50.1606 20.3444 0.7764 1.0350
   11883.0000   -0.5375 -999.25   8.1043  -999.25  91.5625 -999.25   2.6386 -999.25    4.0004 -999.25 65.3321  12.5400  -999.25  57.3370  -999.25  58.3317  -999.25  67.4750 18.7599 0.7418 1.0115
   11883.5000   -0.5074 -999.25   7.0735  -999.25  88.6371 -999.25   2.6555 -999.25    4.2999 -999.25 63.2891  11.1000  -999.25  73.1392  -999.25  75.7319  -999.25  89.0922 17.5530 0.7292 0.9930
   11884.0000   -0.4773 -999.25   6.1996  -999.25  79.6521 -999.25   2.6655 -999.25    4.4912 -999.25 62.0518  10.2200  -999.25  88.6240  -999.25  93.8929  -999.25 111.6731 16.5792 0.7240 0.9784
   11884.5000   -0.4472 -999.25   5.2662  -999.25  76.0514 -999.25   2.6748 -999.25    4.6656 -999.25 60.4247   9.0700  -999.25 106.1948  -999.25 113.8636  -999.25 136.6955 15.9407 0.7173 0.9662
   11885.0000   -0.4171 -999.25   4.2246  -999.25  62.8170 -999.25   2.6820 -999.25    4.7322 -999.25 58.8029   7.9200  -999.25 120.8149  -999.25 130.3683  -999.25 155.7640 15.5798 0.7156 0.9589
   11885.5000   -0.3870 -999.25   3.8965  -999.25  60.6771 -999.25   2.6818 -999.25    4.7409 -999.25 58.8613   7.9600  -999.25 125.1009  -999.25 135.3258  -999.25 161.8137 15.4573 0.7164 0.9531
   11886.0000   -0.3569 -999.25   3.4652  -999.25  54.7185 -999.25   2.6844 -999.25    4.7508 -999.25 58.3966   7.6400  -999.25 130.0840  -999.25 140.7789  -999.25 167.5739 15.5073 0.7217 0.9514
   11886.5000   -0.3268 -999.25   3.1646  -999.25  48.4616 -999.25   2.6861 -999.25    4.7386 -999.25 58.0138   7.3600  -999.25 132.6764  -999.25 143.5481  -999.25 169.9127 15.6323 0.7292 0.9528
   11887.0000   -0.2967 -999.25   3.1010  -999.25  47.0316 -999.25   2.6861 -999.25    4.7189 -999.25 57.9463   7.3200  -999.25 134.0320  -999.25 144.9403  -999.25 171.2970 15.8001 0.7366 0.9587
   11887.5000   -0.2666 -999.25   3.1637  -999.25  46.7044 -999.25   2.6857 -999.25    4.7074 -999.25 57.9700   7.3300  -999.25 132.8955  -999.25 143.6745  -999.25 169.7171 15.8595 0.7464 0.9659
   11888.0000   -0.2365 -999.25   3.3582  -999.25  48.3398 -999.25   2.6847 -999.25    4.7077 -999.25 58.1220   7.4400  -999.25 129.7189  -999.25 140.2481  -999.25 165.8864 15.9366 0.7574 0.9729
   11888.5000   -0.2064 -999.25   3.6365  -999.25  52.6471 -999.25   2.6826 -999.25    4.7026 -999.25 58.6037   7.7800  -999.25 126.4105  -999.25 136.6898  -999.25 162.2861 15.9724 0.7695 0.9779
   11889.0000   -0.1763 -999.25   3.5345  -999.25  47.6996 -999.25   2.6841 -999.25    4.7125 -999.25 58.2860   7.5600  -999.25 124.2535  -999.25 134.3959  -999.25 158.8355 16.1241 0.7811 0.9830
   11889.5000   -0.1462 -999.25   3.8761  -999.25  51.8919 -999.25   2.6813 -999.25    4.6991 -999.25 58.8822   7.9800  -999.25 119.2806  -999.25 129.0376  -999.25 153.0059 16.4128 0.7922 0.9904
   11890.0000   -0.1161 -999.25   4.2583  -999.25  57.9277 -999.25   2.6776 -999.25    4.6696 -999.25 59.5203   8.4300  -999.25 115.8231  -999.25 125.2564  -999.25 149.2037 16.8455 0.8109 1.0017
   11890.5000   -0.0860 -999.25   4.7700  -999.25  65.5206 -999.25   2.6730 -999.25    4.6313 -999.25 60.1717   8.8900  -999.25 111.1039  -999.25 120.0540  -999.25 143.7268 17.2782 0.8257 1.0153
   11891.0000   -0.0559 -999.25   5.3043  -999.25  71.4254 -999.25   2.6692 -999.25    4.5959 -999.25 60.6882   9.2600  -999.25 104.1550  -999.25 112.3297  -999.25 134.7308 17.6300 0.8369 1.0282
   11891.5000   -0.0258 -999.25   6.1689  -999.25  80.1760 -999.25   2.6613 -999.25    4.5212 -999.25 61.8594  10.0800  -999.25  91.6608  -999.25  98.5353  -999.25 118.3364 18.0703 0.8471 1.0380
   11892.0000    0.0043 -999.25   6.2121  -999.25  73.6131 -999.25   2.6608 -999.25    4.4784 -999.25 62.2711  10.3800  -999.25  86.5210  -999.25  92.9433  -999.25 110.7496 18.6293 0.8521 1.0443
   11892.5000    0.0344 -999.25   6.5365  -999.25  75.0927 -999.25   2.6573 -999.25    4.4172 -999.25 62.9097  10.8300  -999.25  81.5547  -999.25  87.3233  -999.25 103.7536 19.3645 0.8643 1.0512
   11893.0000    0.0645 -999.25   6.7632  -999.25  75.2577 -999.25   2.6540 -999.25    4.3350 -999.25 63.3558  11.1400  -999.25  78.7189  -999.25  83.9477  -999.25  99.3494 20.2477 0.8770 1.0587
   11893.5000    0.0946 -999.25   7.0617  -999.25  79.2283 -999.25   2.6506 -999.25    4.2844 -999.25 63.7773  11.4400  -999.25  75.5323  -999.25  80.1960  -999.25  94.8247 20.9801 0.8906 1.0688
   11894.0000    0.1247 -999.25   7.4817  -999.25  85.1661 -999.25   2.6454 -999.25    4.1805 -999.25 64.2870  11.8000  -999.25  71.1296  -999.25  74.7105  -999.25  88.0120 21.6486 0.9135 1.0787
   11894.5000    0.1548 -999.25   8.2008  -999.25  94.0844 -999.25   2.6366 -999.25    4.0477 -999.25 65.2979  12.5200  -999.25  61.2191  -999.25  63.2608  -999.25  73.9922 22.3303 0.9370 1.0902
   11895.0000    0.1849 -999.25   8.5938  -999.25  96.3553 -999.25   2.6308 -999.25    3.9256 -999.25 66.0566  13.0500  -999.25  54.3498  -999.25  55.3648  -999.25  64.1050 23.0748 0.9601 1.1001
   11895.5000    0.2150 -999.25   9.0671  -999.25  98.1874 -999.25   2.6233 -999.25    3.7790 -999.25 67.0140  13.7300  -999.25  47.3251  -999.25  47.5130  -999.25  54.3730 23.8983 0.9791 1.1089
   11896.0000    0.2451 -999.25   9.7103  -999.25 100.6402 -999.25   2.6135 -999.25    3.5777 -999.25 68.3294  14.6600  -999.25  37.9291  -999.25  37.1183  -999.25  41.6426 24.8337 0.9784 1.1147
   11896.5000    0.2752 -999.25  10.5589  -999.25 103.8954 -999.25   2.6014 -999.25    3.3620 -999.25 70.0196  15.8600  -999.25  29.8334  -999.25  28.4763  -999.25  31.2743 25.6461 0.9763 1.1183
   11897.0000    0.3053 -999.25  11.6722  -999.25 117.9436 -999.25   2.5904 -999.25    3.2277 -999.25 71.0958  16.6200  -999.25  21.8652  -999.25  20.1016  -999.25  21.5522 26.4089 0.9786 1.1200
   11897.5000    0.3355 -999.25  11.5512  -999.25 114.2440 -999.25   2.5918 -999.25    3.1857 -999.25 70.9311  16.5000  -999.25  21.1721  -999.25  19.2921  -999.25  20.5359 26.8623 0.9862 1.1204
   11898.0000    0.3656 -999.25  11.2230  -999.25 107.6430 -999.25   2.5943 -999.25    3.1405 -999.25 70.4112  16.1300  -999.25  21.9997  -999.25  19.9900  -999.25  21.2102 27.5112 1.0021 1.1225
   11898.5000    0.3957 -999.25  11.3477  -999.25 109.6367 -999.25   2.5927 -999.25    3.1092 -999.25 70.4845  16.1800  -999.25  21.7445  -999.25  19.6729  -999.25  20.8290 28.1541 1.0154 1.1265
   11899.0000    0.4258 -999.25  11.9653  -999.25 121.4803 -999.25   2.5869 -999.25    3.0518 -999.25 70.7788  16.3900  -999.25  20.1442  -999.25  17.9504  -999.25  18.8839 28.8177 1.0269 1.1328
   11899.5000    0.4559 -999.25  12.3671  -999.25 125.2110 -999.25   2.5827 -999.25    2.9722 -999.25 71.1873  16.6800  -999.25  19.5597  -999.25  17.2774  -999.25  18.0482 29.5243 1.0409 1.1379
   11900.0000    0.4860 -999.25  11.9383  -999.25 109.8398 -999.25   2.5860 -999.25    2.9114 -999.25 70.9156  16.4900  -999.25  20.0287  -999.25  17.7162  -999.25  18.3894 30.1946 1.0528 1.1408
   11900.5000    0.5161 -999.25  12.0037  -999.25 105.9915 -999.25   2.5859 -999.25    2.8628 -999.25 70.6752  16.3200  -999.25  19.5182  -999.25  17.1620  -999.25  17.6794 30.8019 1.0588 1.1401
   11901.0000    0.5462 -999.25  12.8337  -999.25 119.5146 -999.25   2.5797 -999.25    2.7903 -999.25 71.1131  16.6300  -999.25  19.2058  -999.25  16.6683  -999.25  17.0534 31.3760 1.0720 1.1398
   11901.5000    0.5763 -999.25  13.4645  -999.25 125.8290 -999.25   2.5750 -999.25    2.7322 -999.25 71.9105  17.1900  -999.25  19.6215  -999.25  16.9620  -999.25  17.2681 31.7896 1.0810 1.1426
   11902.0000    0.6064 -999.25  13.3550  -999.25 122.3139 -999.25   2.5756 -999.25    2.6794 -999.25 71.7246  17.0600  -999.25  20.8170  -999.25  17.9796  -999.25  18.2986 32.4639 1.0956 1.1471
   11902.5000    0.6365 -999.25  13.6019  -999.25 122.6528 -999.25   2.5747 -999.25    2.6608 -999.25 71.8736  17.1700  -999.25  20.8932  -999.25  18.0091  -999.25  18.2559 33.2459 1.1146 1.1505
