~Version Information Block
 VERS.                2.00:     CWLS LOG ASCII STANDARD - VERSION 2.000000
 WRAP.                  NO:     One Line Per Depth Step
#
~Well Information Block
#MNEM.UNIT                     Data                         Information
#----------   ------------------------------------------   ----------------
 STRT.F                                        31.0000:     START DEPTH
 STOP.F                                     15936.0000:     STOP DEPTH
 STEP.F                                         0.5000:     STEP
 NULL.                                       -999.2500:     NULL VALUE
 COMP.                             AMERCN QUASAR PETRO:     COMPANY
 WELL.                                    SCOTT UNIT 1:     WELL
 FLD .                                         WILDCAT:     FIELD
 LOC .        Survey  PSL              - Abs  6331     - Blk  45   - Section  19:     LOCATION
 CNTY.                                              TX:     COUNTY
 STAT.                                              TX:     STATE
 CTRY.                        UNITED STATES OF AMERICA:     COUNTRY
 SRVC.                                      GEOGRAPHIX:     SERVICE COMPANY
 DATE.                                                :     DATE
 API .                                  42109313620000:     API NUMBER
 UWI .                                  42109313620000:     UWI NUMBER
 TVD .                                              NO:     TVD flag
 WSTA.                                             LOC:     Well status
#
~Curve Information Block
#MNEM.UNIT       API CODE      Curve Description
#----------    -------------   -------------------
 DEPT.F                    :   Depth in Feet
 LLD .OHMM                 :   LATEROLOG DEEP
 GRS .GAPI                 :   GAMMA RAY FROM SONIC LOG
 CALS.IN                   :   CALIPER FROM SONIC LOG
 MSFL.OHMM                 :   MICRO SPHERICALLY FOCUSED
 LLS .OHMM                 :   LATEROLOG SHALLOW
 DT  .US/F                 :   DELTA TIME
#
~Parameter Information Block
#MNEM.UNIT            Value               Description
#----------    --------------------    -------------------
 RUN .                         ONE:    Run Number
 PDAT.                          GL:    Permanent Datum
 EPD .FT                          :    Elevation Of Perm. Datum
 LMF .               KELLY BUSHING:    Log Measured From
 EKB .FT                          :    Elevation Of Kelly Bushing
 DF .FT                           :    Elevation Of Derrick Floor
 GL .FT                           :    Elevation Of Ground Level
 TD  .FT                          :    Total Depth
 CSGD.FT                          :    Casing Bottom (Driller) 1
 CSGL.FT                          :    Casing Bottom (Logger) 1
 MUD .                            :    Drilling Fluid Type
 MUDV .CP                         :    Drilling Fluid Viscosity
 MUDD .LB/USG                     :    Drilling Fluid Density
 FL .ML/30MIN                     :    Drilling Fluid Loss
 PH.                              :    Drilling Fluid Ph
 MUDS .                           :    Mud Sample Source
 RM .OHMM                         :    Resistivity Of Mud Sample
 RMT .DEGF                        :    Mud Sample Temperature
 RMF .OHMM                        :    Mud Filtrate Resistivity
 RMFT.DEGF                        :    Mud Filtrate Sample Temperature
 RMC .OHMM                        :    Mud Cake Resistivity
 RMCT.DEGF                        :    Mud Cake Sample Temperature
 RMB .OHMM                        :    Mud Resistivity At Bht
 TMAX .DEGF                       :    Bottom Hole Temperature
#
~Other Information Block
<DescLogPlotStart>   NEURALOG PLOT DEFINITION
PLOTDEFVERSION: 3
LASFILE: E:\Nair Innovations\42_TEXAS\109_Culberson\42109313620000_1.las
DEPTHSCALE: 239.999996
RESOLUTION: 200
DEPTHLABELFREQ: 100.000000
HEAVYGRIDFREQ: 50.000000
MEDIUMGRIDFREQ: 50.000000
LIGHTGRIDFREQ: 10.000000
#
#   TRACK 1
#
STARTTRACK: 
 LEFTX: 0.500000 inch
 RIGHTX: 3.000000 inch
 SCALETYPE: Linear
 NUMCHARTDIVISIONS: 10
CURVE: GRS   1.504600   250.000000 (0,0,255)      Solid             2     N    
CURVE: CALS  6.474400   14.873500  (0,131,131)    Solid             2     N    
ENDTRACK: 
#
#   TRACK 2
#
STARTTRACK: 
 LEFTX: 3.500000 inch
 RIGHTX: 6.000000 inch
 SCALETYPE: Log
 NUMCYCLES: 4
 STARTCYCLE: 2
CURVE: LLS   0.200000   2000.000000 (255,0,0)      Solid             4     Y   
BACKUP: 2000.000000 20000000.000000 (255,0,0)      Solid             4    
BACKUP: 0.000020   0.200000   (255,0,0)      Solid             4    
CURVE: MSFL  0.200000   2000.000000 (0,131,131)    Solid             2     N   
ENDTRACK: 
#
#   TRACK 3
#
STARTTRACK: 
 LEFTX: 6.500000 inch
 RIGHTX: 9.000000 inch
 SCALETYPE: Linear
 NUMCHARTDIVISIONS: 10
CURVE: LLD   0.200000   2000.000000 (255,0,255)    Solid             4     N   
CURVE: DT    190.000000 50.000000  (255,0,131)    Solid             2     N    
ENDTRACK: 
<DescLogPlotEnd>
<DepthTrack type='Reference' track='1' Label='0' color='0' hor='0' />
<Reference font='144,0,-900,0,500,0,16777216,Arial' />
~A DEPTH     LLD              GRS              CALS             MSFL             LLS              DT              
# ...
   10496.000 252.45080000     34.07230000      7.14740000       101.67710000     90.98980000      51.78750000     
   10496.500 222.26070000     40.22590000      7.11690000       87.76310000      85.94170000      53.74810000     
   10497.000 188.20770000     43.54890000      7.11660000       143.39130000     77.00920000      55.66010000     
   10497.500 150.85170000     45.70830000      7.14650000       120.04290000     48.24010000      56.38850000     
   10498.000 91.69430000      47.83130000      7.18010000       22.14930000      29.00380000      56.93470000     
   10498.500 28.13020000      49.76040000      7.23660000       10.59010000      14.18890000      61.03190000     
   10499.000 14.63350000      73.33390000      7.27340000       7.57030000       12.19610000      67.58720000     
   10499.500 12.19490000      125.76040000     7.29640000       8.00830000       11.70180000      73.23220000     
   10500.000 11.86180000      128.76510000     7.33630000       8.93780000       11.54050000      84.43100000     
   10500.500 12.02390000      140.05290000     7.36790000       9.05910000       11.53890000      86.52500000     
   10501.000 12.35620000      135.16710000     7.38580000       8.57050000       11.69710000      86.40220000     
   10501.500 12.69810000      128.21540000     7.38530000       8.22100000       11.91990000      85.17510000     
   10502.000 13.78710000      126.65230000     7.38490000       7.99500000       12.78910000      82.40270000     
   10502.500 17.41320000      115.90560000     7.38440000       9.70530000       14.30200000      79.67270000     
   10503.000 21.43780000      107.61150000     7.38390000       18.34690000      20.07510000      79.49150000     
   10503.500 27.08920000      102.32950000     7.38350000       25.03100000      22.44040000      79.31050000     
   10504.000 31.08540000      104.57760000     7.35280000       30.09930000      22.45230000      79.67670000     
   10504.500 32.39850000      106.07300000     7.26180000       32.60350000      21.35820000      80.04280000     
   10505.000 32.40280000      105.30870000     7.26130000       29.52700000      21.10100000      79.22350000     
   10505.500 30.17540000      103.79140000     7.23070000       30.34320000      21.09820000      78.40410000     
   10506.000 29.84540000      105.38630000     7.23020000       32.94740000      21.98350000      78.22310000     
   10506.500 30.68140000      107.60980000     7.22980000       14.02820000      22.90610000      79.36720000     
   10507.000 27.48980000      107.52260000     7.23390000       14.02450000      23.54160000      80.09130000     
   10507.500 28.26050000      107.51130000     7.25910000       14.02070000      23.53830000      80.67420000     
   10508.000 28.26430000      108.02680000     7.25860000       13.82520000      22.57440000      81.60940000     
   10508.500 26.78210000      109.34550000     7.25820000       12.98600000      21.03740000      82.66180000     
   10509.000 23.60250000      110.89190000     7.26930000       10.86600000      18.60560000      84.44550000     
   10509.500 19.24270000      114.61750000     7.30080000       10.22060000      15.92180000      84.83830000     
   10510.000 17.96690000      117.24210000     7.31720000       8.36120000       15.15100000      84.43610000     
   10510.500 17.90370000      117.98420000     7.31680000       8.14400000       18.13780000      81.83600000     
   10511.000 22.70290000      117.22030000     7.31620000       12.72310000      22.13460000      79.51360000     
   10511.500 26.77810000      110.05570000     7.28560000       13.90810000      24.79040000      78.78550000     
   10512.000 29.48690000      92.34900000      7.25490000       23.59810000      27.74360000      76.78070000     
   10512.500 31.58910000      86.31400000      7.19410000       24.92840000      29.59720000      75.50550000     
   10513.000 33.44310000      87.10450000      7.16340000       20.27110000      32.24210000      75.14190000     
   10513.500 35.46860000      87.89770000      7.13280000       12.34570000      34.53150000      75.14340000     
   10514.000 39.93030000      90.19700000      7.16250000       11.20840000      37.49550000      77.33320000     
   10514.500 47.88790000      89.93370000      7.16210000       12.00400000      41.84870000      78.80010000     
   10515.000 62.11500000      88.89160000      7.16160000       12.68930000      46.70740000      79.16690000     
   10515.500 77.57930000      86.69740000      7.16120000       13.05170000      55.83920000      79.10970000     
   10516.000 97.37100000      84.02770000      7.16070000       13.39090000      68.81100000      77.66560000     
   10516.500 137.69320000     79.75020000      7.16030000       30.45760000      90.37530000      74.76260000     
   10517.000 270.04100000     72.65590000      7.12960000       153.21280000     115.90420000     70.86900000     
   10517.500 360.46290000     65.86790000      7.12920000       725.02400000     117.24540000     65.85330000     
   10518.000 396.92590000     59.07990000      7.12870000       274.39330000     91.37130000      60.28470000     
   10518.500 309.95910000     45.51470000      7.15850000       35.39900000      44.89080000      56.69650000     
   10519.000 44.62430000      41.36220000      7.15800000       18.34750000      21.30150000      57.74230000     
   10519.500 18.77200000      46.24590000      7.18780000       10.74410000      15.96540000      61.48220000     
   10520.000 15.91940000      56.40060000      7.21750000       8.96750000       15.73200000      63.94550000     
   10520.500 13.47520000      87.18720000      7.27740000       8.59110000       12.63440000      71.51520000     
   10521.000 12.95650000      109.21540000     7.30730000       8.71470000       13.90880000      79.54090000     
   10521.500 13.88420000      113.36850000     7.33700000       7.38520000       15.10260000      81.91300000     
   10522.000 16.13470000      115.86770000     7.33650000       7.48560000       17.56570000      79.72590000     
   10522.500 20.54400000      114.94850000     7.30590000       9.32770000       19.87650000      74.25610000     
   10523.000 24.60820000      104.15520000     7.27470000       13.71110000      23.11810000      72.98080000     
   10523.500 27.21510000      96.25550000      7.24240000       12.79560000      24.42170000      73.58230000     
   10524.000 29.02520000      96.24580000      7.21390000       10.26320000      25.12720000      74.98980000     
   10524.500 36.86830000      98.84190000      7.21340000       10.87850000      27.49890000      75.99420000     
   10525.000 62.16940000      98.83100000      7.21300000       15.46250000      33.96560000      76.99850000     
   10525.500 85.29980000      98.06710000      7.20320000       19.25730000      39.32830000      76.81750000     
   10526.000 99.23790000      95.04410000      7.18190000       20.46880000      44.19390000      75.78610000     
   10526.500 110.78900000     89.76210000      7.16860000       23.22360000      48.76060000      73.50790000     
   10527.000 118.68750000     66.78430000      7.15080000       66.91380000      48.23460000      67.69500000     
   10527.500 120.34640000     60.37270000      7.15030000       34.43200000      45.93930000      65.30650000     
   10528.000 109.82610000     59.60880000      7.18010000       19.71260000      36.71780000      63.69340000     
   10528.500 49.48210000      68.02910000      7.17950000       11.34030000      27.22260000      66.77330000     
   10529.000 32.79940000      80.75220000      7.20940000       9.95650000       26.11930000      73.10860000     
   10529.500 31.07790000      95.67340000      7.20890000       9.95390000       24.71850000      84.47770000     
   10530.000 28.83640000      109.75900000     7.23870000       10.22910000      23.71670000      87.04260000     
   10530.500 25.90350000      115.35200000     7.20800000       10.51180000      23.38980000      85.70360000     
