###############################################
##         ENVERUS                           ##
##         ESS - Open Hole                   ##
##         PERMIAN / DELAWARE                ##
##         Nov 02 2023  V4.0                 ##
##         42-109-31448-00-00                ##
###############################################
## Copyright 2017-2023  ENVERUS.  All Rights Reserved. 
## Confidential - Property of ENVERUS, use governed by terms and 
## conditions found within the existing Information Services Subscription Agreement 
## (as may be amended, the “ISSA”) between Customer and ENVERUS. 
## 
~VERSION INFORMATION
# MNEM.UNIT                               DATA : DESCRIPTION OF MNEMONIC
#-----.-----     ----------------------------- : -----------------------------
VERS.                                     2.00 : CWLS LOG ASCII STANDARD - VERSION 2.00
WRAP.                                       NO : MULTIPLE LINES PER DEPTH STEP
VEND.                                  ENVERUS : VENDOR
TYPE.                          ESS - OPEN HOLE : ENVERUS ESSENTIAL CURVES – ACCESSIBLE THROUGH ENVERUS PRISM(TM)
DOC.                                  31981796 : ENVERUS HEADER RAW DOCUMENT ID
#___________________________________________________________________________________________________ 
~WELL INFORMATION 
# ZFHslD71edIju97HcKZ52TF5U8X6gSJhIkoGhJkY8ckYnZzQD/y6zifgDis2Hn4asra90GxYkgpqCQaJUi2DCw== 
# MNEM.UNIT                                              DATA : DESCRIPTION OF MNEMONIC 
#-----.-----                    ----------------------------- : ----------------------------- 
CNTY.                                               CULBERSON : COUNTY 
STATE.                                                  TEXAS : STATE 
CNTRY.                                                    USA : COUNTRY 
API.                                             42-109-31448 : API (10 Digit) 
API_14.                                    42-109-31448-00-00 : API (14 Digits) 
API_14_std.                                 42-109-31448-0000 : API (14 Digits Standard) 
UWI.                                           42109314480000 : UNIQUE WELL ID 
WELL.                                               TRIKEN  1 : WELL NAME
STRT.FT                                                   4.0 : START DEPTH
STOP.FT                                               13097.0 : STOP DEPTH
STEP.FT                                                   0.5 : STEP BETWEEN DEPTHS
NULL.                                                 -999.25 : NULL VALUE
COMP.                                             MARALO  LLC : COMPANY 
DATE.                                             04-NOV-1984 : LOG DATE
#___________________________________________________________________________________________________ 
~CURVE INFORMATION 
# MNEM.UNIT           : CURVE DESCRIPTION 
#-----.-----          : ----------------------------- 
 DEPT.FT               : MEASURED DEPTH 
 CALI.IN               : CALIPER (CAL - CAL) 
 GR.API                : GAMMA RAY (GR) 
 DT.US/FT              : SONIC DELTA TRANSIT TIME (DT) 
 #___________________________________________________________________________________________________ 
~A         DEPT           CALI             GR             DT
# ...
         3172.0         13.826         46.789         69.250
         3172.5         13.827         46.210         69.565
         3173.0         13.827         45.631         69.880
         3173.5         13.827         45.052         70.194
         3174.0         13.827         44.473         70.411
         3174.5         13.827         43.895         70.039
         3175.0         13.827         43.316         69.666
         3175.5         13.827         42.737         69.293
         3176.0         13.827         42.158         68.920
         3176.5         13.827         42.971         68.548
         3177.0         13.825         44.351         68.485
         3177.5         13.820         47.533         68.912
         3178.0         13.815         51.038         69.339
         3178.5         13.810         54.544         69.766
         3179.0         13.805         58.049         70.193
         3179.5         13.800         61.555         70.620
         3180.0         13.796         63.392         71.047
         3180.5         13.791         62.203         71.474
         3181.0         13.786         61.013         71.901
         3181.5         13.781         59.824         72.293
         3182.0         13.776         58.634         72.112
         3182.5         13.771         57.445         71.932
         3183.0         13.766         56.255         71.752
         3183.5         13.762         55.066         71.572
         3184.0         13.757         53.876         71.391
         3184.5         13.752         54.011         71.211
         3185.0         13.747         55.645         71.031
         3185.5         13.742         57.279         70.851
         3186.0         13.737         58.913         70.670
         3186.5         13.732         60.546         70.490
         3187.0         13.728         62.180         70.285
         3187.5         13.723         63.814         70.020
         3188.0         13.718         65.447         69.755
         3188.5         13.713         65.817         69.490
         3189.0         13.708         64.384         69.224
         3189.5         13.703         62.950         68.959
         3190.0         13.699         61.517         68.830
         3190.5         13.681         60.083         68.830
         3191.0         13.660         58.650         68.830
         3191.5         13.639         57.217         68.830
         3192.0         13.619         55.783         68.890
         3192.5         13.598         54.800         69.066
         3193.0         13.577         56.496         69.241
         3193.5         13.556         58.192         69.417
         3194.0         13.535         59.889         69.593
         3194.5         13.514         61.585         69.768
         3195.0         13.493         63.281         69.944
         3195.5         13.472         64.978         70.120
         3196.0         13.451         66.670         69.735
         3196.5         13.430         68.355         69.196
         3197.0         13.409         70.039         68.658
         3197.5         13.388         66.465         68.119
         3198.0         13.367         61.986         67.580
         3198.5         13.346         57.508         67.042
         3199.0         13.325         53.030         66.503
         3199.5         13.306         48.551         65.964
         3200.0         13.287         48.122         65.426
         3200.5         13.268         50.096         64.887
         3201.0         13.248         52.070         64.472
         3201.5         13.229         52.010         64.685
         3202.0         13.210         50.201         64.897
         3202.5         13.191         48.392         65.110
         3203.0         13.171         49.041         65.323
         3203.5         13.152         54.266         65.535
         3204.0         13.133         59.491         65.748
         3204.5         13.114         63.357         65.952
         3205.0         13.095         64.597         66.147
         3205.5         13.075         65.837         66.341
         3206.0         13.060         67.077         66.535
         3206.5         13.053         68.316         66.929
         3207.0         13.046         69.556         67.971
         3207.5         13.040         71.872         69.012
         3208.0         13.033         81.743         70.053
         3208.5         13.026         91.614         71.094
         3209.0         13.020         99.797         72.135
         3209.5         13.013        102.409         72.828
         3210.0         13.006         99.428         71.609
         3210.5         13.000         87.697         70.391
         3211.0         12.993         75.965         69.172
         3211.5         12.986         64.234         67.953
         3212.0         12.980         58.319         66.735
         3212.5         12.973         53.114         65.516
         3213.0         12.966         59.180         64.298
         3213.5         12.960         66.215         63.836
         3214.0         12.953         73.250         66.571
         3214.5         12.947         80.286         68.246
         3215.0         12.940         79.213         67.712
         3215.5         12.933         75.747         67.178
         3216.0         12.927         72.281         66.643
         3216.5         12.920         68.815         66.109
         3217.0         12.913         65.349         65.575
         3217.5         12.907         61.882         65.040
         3218.0         12.900         58.416         64.506
         3218.5         12.893         54.950         63.972
         3219.0         12.887         51.484         63.652
         3219.5         12.880         50.430         63.752
         3220.0         12.873         50.359         63.852
         3220.5         12.867         50.288         63.951
         3221.0         12.860         50.217         64.051
         3221.5         12.853         51.000         64.151
         3222.0         12.847         53.670         64.251
         3222.5         12.840         56.339         64.350
         3223.0         12.833         59.009         64.450
         3223.5         12.827         61.678         64.644
         3224.0         12.814         64.348         65.473
         3224.5         12.801         68.027         66.302
         3225.0         12.788         71.986         66.494
         3225.5         12.775         73.553         66.148
         3226.0         12.762         70.718         65.802
         3226.5         12.749         67.884         65.456
         3227.0         12.736         65.050         65.110
         3227.5         12.723         62.216         64.764
         3228.0         12.710         59.381         64.418
         3228.5         12.697         56.547         64.073
         3229.0         12.684         53.713         63.727
         3229.5         12.671         50.879         63.381
         3230.0         12.658         52.474         63.035
         3230.5         12.645         54.132         62.716
         3231.0         12.632         55.791         63.500
         3231.5         12.619         63.391         64.283
         3232.0         12.606         71.735         65.067
         3232.5         12.592         80.079         65.850
         3233.0         12.579         88.423         66.634
         3233.5         12.566         96.207         67.418
         3234.0         12.553        101.744         68.201
         3234.5         12.540         98.630         68.985
         3235.0         12.525         82.763         66.550
         3235.5         12.509         66.897         60.172
         3236.0         12.493         51.031         57.394
         3236.5         12.477         55.226         59.350
         3237.0         12.461         65.507         61.306
         3237.5         12.445         75.789         63.262
