~VERSION INFORMATION
VERS. 2.0 : CWLS Log ASCII Standard - version 2.0
WRAP.  NO : One line per depth step
#--------------------------------------------------#
#----------------DRILLING INFO, INC.---------------#
#---------------WWW.DRILLINGINFO.COM---------------#
#------------------COPYRIGHT 2015------------------#
#--------------------------------------------------#
#THIS FILE MAY BE USED ONLY IN ACCORDANCE WITH A CURRENT SUBSCRIPTION AGREEMENT BETWEEN
#THE USER AND DRILLING INFO, INC. NO PART OF THIS FILE MAY BE REPRODUCED, USED, COPIED,
#MODIFIED, PROPAGATED, OR DISTRIBUTED EXCEPT IN ACCORDANCE WITH THE SUBSCRIPTION
#AGREEMENT. UNAUTHORIZED USE OR DISTRIBUTION OF ALL OR ANY PART OF THIS FILE MAY VIOLATE
#COPYRIGHT, TRADEMARK, AND/OR OTHER LAWS AND IS SUBJECT TO CIVIL AS WELL AS CRIMINAL
#SANCTIONS.
#--------------------------------------------------#
#THIS FILE IS PROVIDED "AS-IS" AND ALL WARRANTIES ARE EXPRESSLY DISCLAIMED, WHETHER
#EXPRESS, ORAL, IMPLIED, STATUTORY OR OTHERWISE, INCLUDING ANY IMPLIED WARRANTY OF FITNESS
#FOR A PARTICULAR PURPOSE, MERCHANTABILITY, TITLE OR NON-INFRINGEMENT, AND ANY WARRANTIES
#ARISING BY VIRTUE OF CUSTOM OF TRADE OR COURSE OF DEALING.  FURTHER, DRILLING INFO,
#INC. AND ITS LICENSORS DO NOT REPRESENT OR WARRANT THAT THIS FILE WILL MEET USER'S
#REQUIREMENTS OR ARE SUITABLE FOR USER'S NEEDS OR THAT THE DATA OR RESULTS PROVIDED IN
#CONJUNCTION THEREWITH ARE CORRECT, ACCURATE, TIMELY OR RELIABLE. THESE DISCLAIMERS SHALL
#APPLY REGARDLESS OF ANY FAILURE OF ESSENTIAL PURPOSE OF ANY LIMITED REMEDY.  SOME
#JURISDICTIONS DO NOT ALLOW THE EXCLUSION OF CERTAIN WARRANTIES SO SOME OF THE ABOVE
#EXCLUSIONS MAY NOT APPLY. IN NO EVENT SHALL DRILLING INFO, INC. OR ANY OF ITS AFFILIATES
#BE LIABLE UNDER ANY LEGAL THEORY, WHETHER IN TORT (INCLUDING WITHOUT LIMITATION
#NEGLIGENCE), CONTRACT, STRICT LIABILITY, STATUTORY OR OTHERWISE, FOR ANY SPECIAL,
#INCIDENTAL, CONSEQUENTIAL, EXEMPLARY, PUNITIVE OR INDIRECT DAMAGE OF ANY KIND, INCLUDING
#WITHOUT LIMITATION LOSS OF REVENUE, PROFITS, GOODWILL, USE, AND/OR DATA OR THE COST OF
#PROCUREMENT OF SUBSTITUTE GOODS OR SERVICES, EVEN IF APPRISED OF THE POSSIBILITY OF SUCH
#DAMAGES IN ADVANCE.
#--------------------------------------------------#
~WELL INFORMATION
#MNEMONIC     .UNIT              VALUE :DESCRIPTION
#--------------------------------------------------#
STRT       .FT                4 :START DEPTH
STOP       .FT                10042 :STOP DEPTH
STEP       .FT                   0.500 :STEP
NULL       .                  -999.250 :NULL
API        .                421093139500 :API NUMBER
COMP       .         MOBIL OIL CORPORATION :COMPANY
WELL       .        MADERA-BROMAN  1 :WELL
DATE       .                27-Jun-1979 :LOG DATE
~CURVE INFORMATION
#MNEMONIC     .UNIT      API CODE :CURVE DESCRIPTION
#--------------------------------------------------#
DEPTH       .FT                      :Measured Depth
DT.US/FT        UNKNOWN   :DT
GR.API        UNKNOWN   :GR
CAL.INCH        UNKNOWN   :CAL
~A    DEPTH    DT    GR    CAL
# ...
 6561.5     65.406   19.663   7.778
 6562     63.382   23.866   7.774
 6562.5     61.36   26.366   7.778
 6563     59.339   28.518   7.788
 6563.5     59.712   30.671   7.798
 6564     62.387   31.215   7.808
 6564.5     63.758   30.707   7.819
 6565     63.798   30.199   7.829
 6565.5     63.766   29.692   7.839
 6566     63.136   29.184   7.849
 6566.5     62.506   28.848   7.859
 6567     61.876   29.451   7.87
 6567.5     61.246   30.054   7.88
 6568     60.616   30.657   7.89
 6568.5     59.986   31.26   7.9
 6569     59.356   31.863   7.938
 6569.5     63.886   32.466   8.094
 6570     68.768   33.069   8.249
 6570.5     77.312   33.672   8.405
 6571     82.403   38.147   8.56
 6571.5     86.22   46.479   8.989
 6572     90.037   54.812   9.42
 6572.5     91.66   63.144   9.851
 6573     87.405   71.477   10.282
 6573.5     83.15   79.81   10.712
 6574     77.419   86.858   11.143
 6574.5     78.626   87.697   11.574
 6575     79.833   88.537   12.005
 6575.5     81.04   89.376   12.254
 6576     82.246   88.28   12.484
 6576.5     86.766   86.865   13.123
 6577     92.045   85.451   13.409
 6577.5     91.993   84.036   13.483
 6578     89.929   84.678   13.922
 6578.5     87.864   86.224   14.441
 6579     85.799   87.77   14.627
 6579.5     83.734   89.316   14.282
 6580     83.772   90.862   13.751
 6580.5     84.961   92.408   13.777
 6581     86.151   93.954   13.839
 6581.5     87.341   95.25   14.37
 6582     88.531   96.303   14.901
 6582.5     87.157   95.552   15.068
 6583     85.265   93.175   14.999
 6583.5     83.879   90.797   14.798
 6584     87.931   88.42   14.598
 6584.5     91.983   86.042   14.397
 6585     96.036   86.972   14.354
 6585.5     100.088   90.414   14.598
 6586     96.145   93.629   14.935
 6586.5     91.796   92.288   15.273
 6587     87.447   90.947   15.61
 6587.5     83.627   89.607   15.705
 6588     80.465   88.266   15.709
 6588.5     77.302   86.925   15.712
 6589     74.139   85.585   14.94
 6589.5     73.131   84.244   13.222
 6590     73.345   82.903   11.504
 6590.5     73.558   81.562   11.324
 6591     73.752   80.222   11.148
 6591.5     72.334   78.881   10.856
 6592     70.916   77.54   10.451
 6592.5     71.02   76.2   10.047
 6593     72.574   74.859   9.643
 6593.5     73.667   73.518   9.308
 6594     73.467   73.639   9.129
 6594.5     73.268   74.125   9.08
 6595     73.068   74.612   9.1
 6595.5     73.106   75.099   9.163
 6596     73.562   75.586   9.226
 6596.5     74.018   76.072   9.288
 6597     74.474   76.559   9.347
 6597.5     74.93   77.046   9.394
 6598     75.386   77.532   9.432
 6598.5     74.575   78.019   9.421
 6599     72.976   76.08   9.411
 6599.5     71.376   73.484   9.401
 6600     69.777   70.889   9.294
 6600.5     65.405   68.293   9.383
 6601     61.122   69.336   9.313
 6601.5     59.238   73.835   9.029
 6602     59.232   78.333   8.745
 6602.5     59.377   78.657   8.461
 6603     59.522   73.38   8.177
 6603.5     59.667   73.471   8.165
 6604     59.707   74.059   8.155
 6604.5     60.186   74.646   8.144
 6605     61.591   75.234   8.134
 6605.5     62.996   75.821   8.123
 6606     64.401   76.592   8.113
 6606.5     65.806   77.492   8.102
 6607     67.571   78.392   8.092
 6607.5     69.375   79.292   8.108
 6608     71.179   80.192   8.152
 6608.5     72.984   76.217   8.196
 6609     74.788   71.993   8.239
 6609.5     65.2   67.769   8.283
 6610     64.3   63.546   8.327
 6610.5     63.401   59.322   9.839
 6611     62.501   55.261   9.824
 6611.5     55.084   55.149   9.808
 6612     55.511   55.037   9.478
 6612.5     55.938   54.924   9.13
 6613     56.365   54.812   8.834
 6613.5     56.791   54.7   8.711
 6614     57.218   54.587   8.587
 6614.5     59.876   67.898   8.464
 6615     66.751   77.254   8.341
 6615.5     56.906   79.354   8.217
 6616     53.882   81.453   8.193
 6616.5     57.916   83.553   8.184
 6617     61.949   85.653   8.175
 6617.5     65.983   87.753   8.166
 6618     71.826   89.852   8.157
 6618.5     78.983   91.163   8.354
 6619     86.601   90.405   8.563
 6619.5     92.608   77.346   10.101
 6620     90.355   63.008   12.76
 6620.5     88.102   48.928   13.61
 6621     85.849   44.288   14.46
 6621.5     84.214   39.647   15.311
 6622     91.081   35.314   15.839
 6622.5     97.948   38.911   15.848
 6623     104.815   38.751   15.857
 6623.5     103.967   37.549   15.865
 6624     86.93   36.348   15.874
 6624.5     84.489   36.365   15.883
 6625     82.047   38.944   15.892
 6625.5     76.705   41.522   15.288
 6626     66.695   61.403   14.568
 6626.5     59.89   61.319   13.849
 6627     54.054   61.235   12.341
 6627.5     48.946   60.528   10.668
 6628     47.356   59.658   8.996
 6628.5     49.488   58.787   8.684
 6629     50.829   57.916   8.456
 6629.5     50.849   57.046   8.411
 6630     50.869   56.175   8.391
 6630.5     50.889   55.304   8.37
 6631     50.909   54.936   8.35
 6631.5     50.929   56.205   8.33
 6632     50.949   57.473   8.309
 6632.5     50.812   58.742   8.289
 6633     50.115   59.202   8.371
 6633.5     49.418   59.619   8.488
 6634     49.104   60.035   8.606
 6634.5     49.081   58.447   8.723
 6635     49.057   55.55   8.812
 6635.5     49.033   52.653   8.808
 6636     49.009   48.713   8.804
 6636.5     48.986   44.393   8.801
 6637     48.962   40.073   8.797
 6637.5     48.938   35.753   8.793
 6638     48.929   31.433   8.766
 6638.5     48.966   27.112   8.715
 6639     49.002   26.353   8.665
 6639.5     49.038   26.53   8.614
 6640     49.101   26.706   8.564
 6640.5     49.237   26.883   8.513
 6641     49.373   27.06   8.462
 6641.5     49.521   27.237   8.412
 6642     49.859   27.414   8.407
 6642.5     50.197   27.59   8.419
 6643     50.382   27.767   8.431
 6643.5     50.473   27.944   8.442
 6644     50.563   28.121   8.454
 6644.5     52.108   28.297   8.466
 6645     55.607   28.474   8.478
 6645.5     59.167   28.651   8.49
 6646     62.844   28.828   8.501
 6646.5     66.521   29.004   8.513
 6647     69.76   29.181   8.53
 6647.5     72.814   29.358   8.585
 6648     75.869   29.535   8.639
 6648.5     72.471   29.712   8.694
 6649     66.305   29.888   8.749
 6649.5     60.086   30.065   8.699
 6650     62.017   30.242   8.623
 6650.5     63.949   30.419   8.547
 6651     65.126   30.595   8.471
 6651.5     60.292   30.772   8.395
 6652     56.838   30.949   8.319
 6652.5     56.409   31.126   8.243
 6653     55.981   31.302   8.167
 6653.5     55.553   31.479   8.091
 6654     56.05   31.656   8.015
 6654.5     57.662   31.833   7.939
 6655     59.274   32.01   7.863
 6655.5     60.886   32.186   7.799
 6656     60.773   32.363   7.771
 6656.5     60.468   32.54   7.743
 6657     60.162   32.717   7.715
 6657.5     59.936   33.159   7.686
 6658     59.83   35.125   7.658
 6658.5     59.724   36.627   7.63
 6659     58.303   36.337   7.608
 6659.5     56.147   36.046   7.65
 6660     54.774   35.756   7.692
 6660.5     56.378   35.466   7.733
 6661     58.774   34.798   7.775
 6661.5     61.281   33.67   7.817
 6662     63.74   32.543   7.819
 6662.5     64.624   27.021   7.819
 6663     64.368   20.196   7.819
 6663.5     63.766   22.189   7.819
 6664     63.163   24.183   7.819
 6664.5     62.561   26.176   7.819
 6665     61.958   28.169   7.82
 6665.5     61.416   28.467   7.813
 6666     62.282   27.349   7.791
 6666.5     63.148   26.232   7.769
 6667     64.014   25.114   7.747
 6667.5     63.37   23.996   7.725
 6668     62.008   22.879   7.703
 6668.5     60.647   21.761   7.681
 6669     59.872   20.644   7.659
 6669.5     59.993   19.526   7.636
 6670     60.114   21.026   7.614
 6670.5     60.007   24.628   7.582
 6671     59.898   28.23   7.545
 6671.5     59.79   31.832   7.509
 6672     60.253   32.466   7.472
 6672.5     60.823   32.339   7.435
 6673     61.18   32.213   7.398
 6673.5     61.18   32.086   7.389
 6674     61.18   31.96   7.4
 6674.5     61.179   32.617   7.41
 6675     61.32   34.545   7.421
 6675.5     61.667   36.473   7.431
