~VERSION INFORMATION
VERS. 2.0 : CWLS Log ASCII Standard - Version 2.0
WRAP. NO : One line per depth step
#--------------------------------------------------#
#----------------DRILLING INFO, INC.---------------#
#---------------WWW.DRILLINGINFO.COM---------------#
#------------------COPYRIGHT 2015------------------#
#--------------------------------------------------#
#THIS FILE MAY BE USED ONLY IN ACCORDANCE WITH A CURRENT SUBSCRIPTION AGREEMENT BETWEEN
#THE USER AND DRILLING INFO, INC. NO PART OF THIS FILE MAY BE REPRODUCED, USED, COPIED,
#MODIFIED, PROPAGATED, OR DISTRIBUTED EXCEPT IN ACCORDANCE WITH THE SUBSCRIPTION
#AGREEMENT. UNAUTHORIZED USE OR DISTRIBUTION OF ALL OR ANY PART OF THIS FILE MAY VIOLATE
#COPYRIGHT, TRADEMARK, AND/OR OTHER LAWS AND IS SUBJECT TO CIVIL AS WELL AS CRIMINAL
#SANCTIONS.
#--------------------------------------------------#
#THIS FILE IS PROVIDED "AS-IS" AND ALL WARRANTIES ARE EXPRESSLY DISCLAIMED, WHETHER
#EXPRESS, ORAL, IMPLIED, STATUTORY OR OTHERWISE, INCLUDING ANY IMPLIED WARRANTY OF FITNESS
#FOR A PARTICULAR PURPOSE, MERCHANTABILITY, TITLE OR NON-INFRINGEMENT, AND ANY WARRANTIES
#ARISING BY VIRTUE OF CUSTOM OF TRADE OR COURSE OF DEALING.  FURTHER, DRILLING INFO,
#INC. AND ITS LICENSORS DO NOT REPRESENT OR WARRANT THAT THIS FILE WILL MEET USER'S
#REQUIREMENTS OR ARE SUITABLE FOR USER'S NEEDS OR THAT THE DATA OR RESULTS PROVIDED IN
#CONJUNCTION THEREWITH ARE CORRECT, ACCURATE, TIMELY OR RELIABLE. THESE DISCLAIMERS SHALL
#APPLY REGARDLESS OF ANY FAILURE OF ESSENTIAL PURPOSE OF ANY LIMITED REMEDY.  SOME
#JURISDICTIONS DO NOT ALLOW THE EXCLUSION OF CERTAIN WARRANTIES SO SOME OF THE ABOVE
#EXCLUSIONS MAY NOT APPLY. IN NO EVENT SHALL DRILLING INFO, INC. OR ANY OF ITS AFFILIATES
#BE LIABLE UNDER ANY LEGAL THEORY, WHETHER IN TORT (INCLUDING WITHOUT LIMITATION
#NEGLIGENCE), CONTRACT, STRICT LIABILITY, STATUTORY OR OTHERWISE, FOR ANY SPECIAL,
#INCIDENTAL, CONSEQUENTIAL, EXEMPLARY, PUNITIVE OR INDIRECT DAMAGE OF ANY KIND, INCLUDING
#WITHOUT LIMITATION LOSS OF REVENUE, PROFITS, GOODWILL, USE, AND/OR DATA OR THE COST OF
#PROCUREMENT OF SUBSTITUTE GOODS OR SERVICES, EVEN IF APPRISED OF THE POSSIBILITY OF SUCH
#DAMAGES IN ADVANCE.
#--------------------------------------------------#
~WELL INFORMATION
#MNEMONIC     .UNIT              VALUE :DESCRIPTION
#--------------------------------------------------#
STRT       .ft                25.00000 :START DEPTH
STOP       .ft                17086.00000 :STOP DEPTH
STEP       .ft                0.50000 :STEP
NULL       .                -999.25000 :NULL VALUE
COMP       .                 :COMPANY
WELL       .                 :WELL
FLD       .                 :FIELD
LOC       .                 :LOCATION
CNTY       .                 :COUNTY
STAT       .                 :STATE
CTRY       .                 :COUNTRY
SRVC       .                 :SERVICE COMPANY
DATE       .                 :DATE
API       .                42109309270000 :API NUMBER
~CURVE INFORMATION
#MNEMONIC     .UNIT      API CODE :CURVE DESCRIPTION
#--------------------------------------------------#
DEPTH       .ft                      :Measured Depth
CAL       .in        UNKNOWN   :CAL
DT       .us/ft        UNKNOWN   :DT
GR       .gAPI        UNKNOWN   :GR
~A    DEPTH    CAL    DT    GR
# ...
1340.50000    -999.25000    51.52233    15.09996
1341.00000    -999.25000    51.69932    14.84692
1341.50000    -999.25000    51.87631    14.63293
1342.00000    -999.25000    52.05329    15.64577
1342.50000    -999.25000    52.23028    16.65861
1343.00000    -999.25000    52.24962    17.67144
1343.50000    -999.25000    52.15409    18.68428
1344.00000    -999.25000    52.05857    19.15084
1344.50000    -999.25000    51.96304    18.83308
1345.00000    -999.25000    51.86751    18.51533
1345.50000    -999.25000    51.77198    18.19757
1346.00000    -999.25000    51.70101    17.87982
1346.50000    -999.25000    51.64104    17.56206
1347.00000    -999.25000    51.58106    17.24431
1347.50000    -999.25000    51.52109    16.92655
1348.00000    -999.25000    51.46112    16.60880
1348.50000    -999.25000    51.40114    16.29104
1349.00000    -999.25000    51.38553    15.97329
1349.50000    -999.25000    51.38390    15.72177
1350.00000    -999.25000    51.38421    15.55551
1350.50000    -999.25000    51.44559    15.38925
1351.00000    -999.25000    51.38353    15.22299
1351.50000    -999.25000    51.31167    15.05674
1352.00000    -999.25000    51.23980    14.89048
1352.50000    -999.25000    51.16794    14.72422
1353.00000    -999.25000    51.09608    14.55796
1353.50000    -999.25000    51.02527    14.34533
1354.00000    -999.25000    51.07195    13.98230
1354.50000    -999.25000    51.11863    13.61927
1355.00000    -999.25000    51.16531    13.25624
1355.50000    -999.25000    51.21199    12.89321
1356.00000    -999.25000    51.25867    12.77270
1356.50000    -999.25000    51.30535    12.97287
1357.00000    -999.25000    51.35202    13.17304
1357.50000    -999.25000    51.33633    13.37321
1358.00000    -999.25000    51.30943    13.57338
1358.50000    -999.25000    51.28584    13.77355
1359.00000    -999.25000    51.28420    13.97372
1359.50000    -999.25000    51.28256    14.17389
1360.00000    -999.25000    51.28091    13.76703
1360.50000    -999.25000    51.27927    13.35978
1361.00000    -999.25000    51.27762    12.95253
1361.50000    -999.25000    51.27598    12.54529
1362.00000    -999.25000    51.41253    12.13804
1362.50000    -999.25000    51.76865    11.73079
1363.00000    -999.25000    52.11973    11.49745
1363.50000    -999.25000    52.47082    12.54231
1364.00000    -999.25000    52.82189    13.58716
1364.50000    -999.25000    52.71968    14.63202
1365.00000    -999.25000    52.56654    15.67687
1365.50000    -999.25000    52.41340    16.72173
1366.00000    -999.25000    52.26026    17.76658
1366.50000    -999.25000    52.10712    18.81143
1367.00000    -999.25000    51.95398    19.25390
1367.50000    -999.25000    51.80084    17.27823
1368.00000    -999.25000    51.64770    15.30256
1368.50000    -999.25000    51.49456    14.02337
1369.00000    -999.25000    51.34142    14.22943
1369.50000    -999.25000    51.18828    14.43548
1370.00000    -999.25000    51.03514    14.64152
1370.50000    -999.25000    50.88200    14.84758
1371.00000    -999.25000    50.83431    15.05363
1371.50000    -999.25000    50.84060    15.86529
1372.00000    -999.25000    50.84689    16.73420
1372.50000    -999.25000    50.85318    17.60310
1373.00000    -999.25000    50.85948    17.39791
1373.50000    -999.25000    50.86577    16.46195
1374.00000    -999.25000    50.87206    15.52600
1374.50000    -999.25000    50.87835    14.59004
1375.00000    -999.25000    50.88465    13.65409
1375.50000    -999.25000    52.01544    12.71813
1376.00000    -999.25000    53.25414    11.78217
1376.50000    -999.25000    54.47165    10.84622
1377.00000    -999.25000    54.14634    9.91026
1377.50000    -999.25000    53.82102    11.33610
1378.00000    -999.25000    53.36443    14.96438
1378.50000    -999.25000    52.74659    18.33930
1379.00000    -999.25000    52.12874    17.02952
1379.50000    -999.25000    51.51090    15.71974
1380.00000    -999.25000    50.93515    14.40995
1380.50000    -999.25000    50.90354    14.07821
1381.00000    -999.25000    50.87194    14.61973
1381.50000    -999.25000    50.84033    15.16124
1382.00000    -999.25000    50.80872    15.70275
1382.50000    -999.25000    50.77711    15.53962
1383.00000    -999.25000    50.74551    14.69338
1383.50000    -999.25000    50.71390    13.84714
1384.00000    -999.25000    50.68229    13.00090
1384.50000    -999.25000    50.65068    13.36235
1385.00000    -999.25000    50.67066    15.98828
1385.50000    -999.25000    50.70047    15.63219
1386.00000    -999.25000    50.73027    15.27609
1386.50000    -999.25000    50.76007    14.92000
1387.00000    -999.25000    50.78987    14.56391
1387.50000    -999.25000    50.81967    14.20782
1388.00000    -999.25000    50.84947    13.85173
1388.50000    -999.25000    50.87928    13.84463
1389.00000    -999.25000    50.90908    15.21747
1389.50000    -999.25000    50.93888    16.59031
1390.00000    -999.25000    50.96868    16.82688
1390.50000    -999.25000    50.97889    16.25344
1391.00000    -999.25000    50.98569    15.68001
1391.50000    -999.25000    50.99249    15.10657
1392.00000    -999.25000    50.99928    14.53313
1392.50000    -999.25000    51.00608    14.00202
1393.00000    -999.25000    51.01287    14.16854
1393.50000    -999.25000    51.01967    14.33505
1394.00000    -999.25000    51.02647    14.50156
1394.50000    -999.25000    51.00565    14.66807
1395.00000    -999.25000    50.96988    14.83458
1395.50000    -999.25000    50.93411    15.00109
1396.00000    -999.25000    50.89834    15.12090
1396.50000    -999.25000    50.86257    15.12917
1397.00000    -999.25000    50.82679    15.13745
1397.50000    -999.25000    50.79102    15.14572
1398.00000    -999.25000    50.75525    15.15400
1398.50000    -999.25000    50.77257    15.16227
1399.00000    -999.25000    50.84028    15.17055
1399.50000    -999.25000    50.90799    15.17882
1400.00000    -999.25000    50.97571    15.18709
1400.50000    -999.25000    51.04342    15.19537
1401.00000    -999.25000    51.07438    15.18624
1401.50000    -999.25000    51.07268    15.01272
1402.00000    -999.25000    51.07099    14.83920
1402.50000    -999.25000    51.06929    14.66568
1403.00000    -999.25000    51.06759    14.49216
1403.50000    -999.25000    51.06589    14.31863
1404.00000    -999.25000    51.06420    14.14511
1404.50000    -999.25000    51.06250    13.97159
1405.00000    -999.25000    51.06080    13.79807
1405.50000    -999.25000    51.05910    13.62455
1406.00000    -999.25000    51.08367    13.45103
1406.50000    -999.25000    51.25125    13.27751
1407.00000    -999.25000    51.41883    13.10399
1407.50000    -999.25000    51.58640    12.93046
1408.00000    -999.25000    51.75398    12.75694
1408.50000    -999.25000    51.92156    12.58342
1409.00000    -999.25000    52.08914    13.11982
1409.50000    -999.25000    52.25671    14.77842
1410.00000    -999.25000    52.28808    15.71151
1410.50000    -999.25000    52.28637    15.71987
1411.00000    -999.25000    52.28466    15.72823
1411.50000    -999.25000    52.28295    15.73659
1412.00000    -999.25000    52.28124    15.74495
1412.50000    -999.25000    52.28659    16.00477
1413.00000    -999.25000    52.29282    16.38473
1413.50000    -999.25000    52.29906    16.76470
1414.00000    -999.25000    52.30530    17.14467
1414.50000    -999.25000    52.31153    17.52464
1415.00000    -999.25000    52.31777    17.90461
1415.50000    -999.25000    52.32400    18.28458
1416.00000    -999.25000    52.33024    15.76699
1416.50000    -999.25000    52.30296    14.67803
1417.00000    -999.25000    52.07005    15.27985
1417.50000    -999.25000    51.83715    15.88168
1418.00000    -999.25000    51.60424    16.48351
1418.50000    -999.25000    51.37134    17.08534
1419.00000    -999.25000    51.40103    17.68717
1419.50000    -999.25000    51.44356    17.88674
1420.00000    -999.25000    51.48609    17.61708
1420.50000    -999.25000    51.52862    17.34743
1421.00000    -999.25000    51.57115    17.07777
1421.50000    -999.25000    51.61368    16.80812
1422.00000    -999.25000    51.65621    16.53846
