~VERSION INFORMATION
 VERS.                2.0:   CWLS LOG ASCII STANDARD - VERSION 2.0
 WRAP.                 NO:   ONE LINE PER DEPTH STEP
~WELL INFORMATION
#MNEM.UNIT      DATA TYPE    INFORMATION
#----------   ------------   ------------------------------
 STRT.FT        8672.0000:   START DEPTH
 STOP.FT       14432.0000:   STOP DEPTH
 STEP.FT           0.5000:   STEP LENGTH
 NULL.          -999.2500:   NULL VALUE
 COMP. CAPITAN ENERGY, INCORPORATED:   COMPANY
 WELL.  MOTHER FEE 28 #1H:   WELL
 FLD . FORD, WEST (WOLFCAMP)	:   FIELD
 LOC .                   :   LOCATION
 CNTY.          CULBERSON:   COUNTY
 STAT.              TEXAS:   STATE
 CTRY. UNITED STATES OF AMERICA:   COUNTRY
 SRVC.        HALLIBURTON:   SERVICE COMPANY
 DATE.        16-Nov-2015:   LOGDATE
 API .     42109328880000:   API NUMBER
~CURVE INFORMATION
#MNEM.UNIT       API CODE    CURVE DESCRIPTION
#----------   ------------   ------------------------------
 DEPT.FT                 :   
 CALD_C.IN   45 280 60 00:   CALIPER FROM DENSITY COMPOSITE LOG
 DCOR.G/C3   45 356 01 00:   DENSITY CORRECTION
 DPHI_LS.DEC 45 890 10 00:   DENSITY POROSITY LIMESTONE
 DT_CH.US/F  60 501 00 00:   DELTA FROM THE FULL WAVE SONIC IN CASED HOLE
 GRD .GAPI   45 310 01 00:   GAMMA RAY FROM DENSITY LOG
 LLDC.OHMM   11 220 10 00:   CORRECTED LATEROLOG DEEP RESISTIVITY
 LLSC.OHMM   11 220 09 00:   CORRECTED LATEROLOG SHALLOW RESISTIVITY
 MSFLC.OHMM  11 270 04 00:   CORRECTED MICRO SPHERICALLY FOCUSED RESISTIVITY
 NPHI_LS.DEC 42 890 01 00:   NEUTRON POROSITY LIMESTONE
 PE  .B/E    45 358 01 00:   PHOTO ELECTRIC CROSS SECTION
 RHOB_CH.G/C3 45 350 01 00:   
~PARAMETER INFORMATION
#MNEM.UNIT          VALUE    DESCRIPTION
#----------   ------------   ------------------------------
 DATE.           11/16/15:   RUN DATE
 RUN .                  1:   RUN NUMBER
 BLI .FT            14432:   BOTTOM LOG INTERVAL
 TLI .FT             8672:   TOP LOG INTERVAL
 ORIG.     1" 2" 5" PRINT:   ORIGIN OF DATA
 UWI .     42109328880000:   UNIQUE WELL ID
~OTHER INFORMATION
~A   DEPT         CALD_C      DCOR       DPHI_LS      DT_CH       GRD        LLDC        LLSC        MSFLC       NPHI_LS         PE      RHOB_CH
# ...
 14412.0000   -999.2500   -999.2500      0.0914     71.1316    119.9537     59.5712     45.5032     26.7203      0.1633      3.4139      2.5618
 14412.5000   -999.2500   -999.2500      0.0938     71.7024    123.6728     53.8795     42.2250     24.3831      0.1657      3.3400      2.5624
 14413.0000   -999.2500   -999.2500      0.0960     72.2294    131.8824     52.1639     40.5647     23.5078      0.1682      3.2186      2.5596
 14413.5000   -999.2500   -999.2500      0.0955     72.8345    130.7327     39.8182     31.9516     17.9688      0.1691      3.0963      2.5540
 14414.0000   -999.2500   -999.2500      0.0934     73.3006    126.6229     27.6331     21.6242     11.4113      0.1662      2.9149      2.5585
 14414.5000   -999.2500   -999.2500      0.0912     74.1663    119.1838     15.4480     14.4317      8.8179      0.1628      2.8084      2.5646
 14415.0000   -999.2500   -999.2500      0.0959     74.3502    126.3829     14.6583     12.8979      8.5658      0.1682      2.7139      2.5624
 14415.5000   -999.2500   -999.2500      0.1000     74.8100    146.7434     17.3863     14.5050     10.0478      0.1738      2.7139      2.5490
 14416.0000   -999.2500   -999.2500      0.1024     74.8100    150.9137     20.8476     17.0859     11.4981      0.1756      2.7139      2.5456
 14416.5000   -999.2500   -999.2500      0.0966     74.3075    133.3321     16.4378     14.4169      9.2101      0.1677      2.7400      2.5529
 14417.0000   -999.2500   -999.2500      0.0936     73.8467    127.0774     16.4869     14.3730      9.0432      0.1637      2.7618      2.5596
 14417.5000   -999.2500   -999.2500      0.0920     73.6069    119.6777     15.5807     13.8506      8.6504      0.1615      2.7947      2.5622
 14418.0000   -999.2500   -999.2500      0.0899     73.0209    110.5604     14.5748     12.9633      8.0087      0.1589      2.8340      2.5648
 14418.5000   -999.2500   -999.2500      0.0892     73.2410    113.3684     14.1728     13.1432      7.7638      0.1603      2.8663      2.5668
 14419.0000   -999.2500   -999.2500      0.0948     73.7910    123.1296     18.2593     15.6622      9.8775      0.1643      2.8889      2.5657
 14419.5000   -999.2500   -999.2500      0.0955     73.8175    121.4493     18.3166     16.1666     10.0593      0.1635      2.9149      2.5573
 14420.0000   -999.2500   -999.2500      0.0955     73.8892    122.4706     17.9569     15.9688      9.9963      0.1622      2.9149      2.5529
 14420.5000   -999.2500   -999.2500      0.0956     74.0458    123.0264     18.2052     15.0495      9.8676      0.1645      2.9149      2.5529
 14421.0000   -999.2500   -999.2500      0.0925     74.2276    113.8436     16.1640     13.3622      8.5557      0.1634      2.9149      2.5576
 14421.5000   -999.2500   -999.2500      0.0911     74.4095    112.5164     14.4416     13.1063      8.2402      0.1643      2.9170      2.5635
 14422.0000   -999.2500   -999.2500      0.0940     74.5913    118.2960     14.6219     13.4423      8.6003      0.1658      2.8739      2.5624
 14422.5000   -999.2500   -999.2500      0.0975     74.7732    124.7194     15.5543     13.3402      8.6831      0.1660      2.8264      2.5568
 14423.0000   -999.2500   -999.2500      0.0958     74.9551    122.2181     13.6202     12.0588      7.7619      0.1631      2.7852      2.5523
 14423.5000   -999.2500   -999.2500      0.0975     75.0247    124.9985     13.8642     12.2616      7.9548      0.1633      2.7575      2.5507
 14424.0000   -999.2500   -999.2500      0.0976     74.9914    126.3238     14.2673     12.5152      8.1142      0.1645      2.7748      2.5507
 14424.5000   -999.2500   -999.2500      0.0967     74.7783    121.7497     13.8000     12.2859      8.0688      0.1641      2.7925      2.5507
 14425.0000   -999.2500   -999.2500      0.0953     74.5120    120.1100     13.9826     12.4778      8.0233      0.1640      2.7996      2.5518
 14425.5000   -999.2500   -999.2500      0.0937     74.2034    118.3036     14.4426     12.5554      8.1293      0.1629      2.8112      2.5553
 14426.0000   -999.2500   -999.2500      0.0923     73.6485    116.4972     14.9034     13.0794      8.3486      0.1612      2.8143      2.5593
 14426.5000   -999.2500   -999.2500      0.0916     73.0936    115.1723     15.3686     13.7964      8.5400      0.1595      2.8264      2.5632
 14427.0000   -999.2500   -999.2500      0.0918     73.1069    119.7104     16.3489     14.7453      9.2567      0.1588      2.8385      2.5640
 14427.5000   -999.2500   -999.2500      0.0983     73.3100    132.2229     21.5233     18.0808     11.6379      0.1652      2.8612      2.5590
 14428.0000   -999.2500   -999.2500      0.0944     73.0492    119.6470     19.6238     16.5323     10.4188      0.1604      2.8726      2.5585
 14428.5000   -999.2500   -999.2500      0.0914     72.7440    116.1982     19.1412     16.4819     10.2808      0.1603      2.8897      2.5629
 14429.0000   -999.2500   -999.2500      0.0905     72.5275    113.4475     20.3655     17.3230     10.6240      0.1604      2.9415      2.5640
 14429.5000   -999.2500   -999.2500      0.0912     72.4277    116.4758     22.8176     19.1124     11.6282      0.1606      3.0163      2.5639
 14430.0000   -999.2500   -999.2500      0.0921     72.3630    120.9516     24.8356     20.1892     12.7088      0.1607      3.0820      2.5637
 14430.5000   -999.2500   -999.2500      0.0917     72.2553    117.0068     24.6627     20.8465     12.9056      0.1608      3.1336      2.5636
 14431.0000   -999.2500   -999.2500      0.0909     72.1475    117.4927     25.6733     21.5509     13.4387      0.1609      3.1740      2.5634
 14431.5000   -999.2500   -999.2500      0.0893     72.0398    115.8889   -999.2500   -999.2500   -999.2500      0.1609      3.1740      2.5633
 14432.0000   -999.2500   -999.2500      0.0878     71.9320    115.8784   -999.2500   -999.2500   -999.2500      0.1606      3.1556      2.5633
