# Exported from Transform Software 5.2.0 on 30-Oct-2019 by user kathryn.gehrke
# DI Transform - A Product of Drillinginfo, Inc. - www.drillinginfo.com
#
~VERSION INFORMATION
 VERS.        2.0 : LAS ASCII STANDARD - VERSION 2.0
 WRAP.         NO : ONE LINE PER DEPTH STEP

~WELL INFORMATION
#MNEM.UNIT       DATA TYPE       INFORMATION
#---------       ---------       -----------
 STRT.ft                  40 : Start Depth
 STOP.ft                9358 : Stop Depth
 STEP.ft                 0.5 : Step Length
 NULL.               -999.25 : Null Value
 COMP.                       : Company
 WELL.  42109330610000_API14 : Well Name
 FLD.                        : Field Name
 LOC.                        : Well Location
 CNTY.                       : County
 STAT.                       : State or Province
 CTRY.                       : Country
 SRVC.                       : Service Company
 DATE.                       : Date
 API.         42109330610000 : Well Identifier

~CURVE INFORMATION
#MNEM.UNIT       API CODE       CURVE DESCRIPTION
#---------       --------       -----------------
 DEPT.ft        : <Measured Depth>
 DT.us/ft       : Sonic
 GR.gAPI        : Gamma Ray

~PARAMETER INFORMATION
#MNEM.UNIT       VALUE       DESCRIPTION
#---------       -----       -----------
 EKB.ft      3200.5 : Elevation above MSL

~A      DEPT          DT          GR
# ...
      4922.5    280.3607     34.2626
        4923    278.9831      34.984
      4923.5    269.2056     36.1864
        4924    253.9922     38.2126
      4924.5    240.1225     40.4008
        4925    235.4709     38.1342
      4925.5    235.4709     34.7555
        4926    235.8547     30.4389
      4926.5    242.2504     25.8698
        4927    258.6146     24.5291
      4927.5    274.1053     25.3647
        4928    281.5804     24.4149
      4928.5    272.6228     24.2764
        4929    254.3952      27.048
      4929.5    243.1035     27.8958
        4930    246.6586     25.7315
      4930.5    263.4747     25.9597
        4931    277.5201     30.0478
      4931.5    282.3472     31.7435
        4932    281.5807     31.1485
      4932.5    274.8024     31.6171
        4933    267.1519     33.0599
      4933.5    267.1166     31.6419
        4934    275.6894     30.3006
      4934.5    283.1485      32.073
        4935    285.1703     34.4903
      4935.5    284.3687     36.4266
        4936    283.5671      37.148
      4936.5    282.7655     38.1099
        4937    282.7655     39.4389
      4937.5    282.7655     36.8062
        4938    283.5671     31.0727
      4938.5    282.7655     27.4275
        4939    281.5813     25.5037
      4939.5    281.1623     21.7826
        4940    281.1623     22.2253
      4940.5    281.1623     27.9968
        4941    281.9639     35.0974
      4941.5    281.9639     37.7555
        4942    281.1623     37.0469
      4942.5      280.78     36.5531
        4943     280.743     38.3503
      4943.5    281.1623     38.3632
        4944    281.5817     36.8195
      4944.5    277.5738     33.4269
        4945    269.2131     33.9078
      4945.5    255.5673     36.7805
        4946    242.5319     37.1608
      4946.5    237.4938     34.4019
        4947    242.8386     36.2864
      4947.5    256.6188     41.8174
        4948    271.4672     44.7295
      4948.5    279.9409     43.4398
        4949    282.7655     42.1846
      4949.5    281.1623     47.3085
        4950    281.1623     54.0551
      4950.5    281.9639     56.3994
        4951    281.9639     50.3005
      4951.5    281.9639     41.4028
        4952    281.9639     33.6807
      4952.5    281.9639      31.503
        4953    282.7655     31.9705
      4953.5    282.7655     37.9691
        4954    282.7655     46.7263
      4954.5    282.7655     51.3359
        4955    282.7655     48.6178
      4955.5    282.7655     43.6676
        4956    282.7655     40.1603
      4956.5    281.9639      39.085
        4957    281.9639     38.2501
      4957.5    281.9639     35.9724
        4958    281.9639     31.9977
      4958.5    281.9639     30.5411
        4959    281.9639     35.6633
      4959.5    281.9639     43.0185
        4960    281.9639     43.4275
      4960.5    281.9639     41.1222
        4961    282.3446     42.6784
      4961.5    282.7655     44.6023
        4962    282.7655     44.6162
      4962.5    282.7655      44.956
        4963    282.7655     51.3078
      4963.5    282.7655     60.0783
        4964    282.7655     69.8387
      4964.5    282.7655     74.4078
        4965    282.7655     75.0441
      4965.5    283.5671     72.7666
        4966    283.1869     72.1443
      4966.5    282.7655     68.9473
        4967    282.7655     60.5447
      4967.5    282.7655     51.4913
        4968     283.187     46.1866
      4968.5    282.7655     44.8426
        4969    282.7655      46.639
      4969.5    283.5671      44.758
        4970    283.5671     39.6937
      4970.5     281.584     38.9579
        4971     273.589     37.6568
      4971.5    268.7585     35.3507
        4972     269.518     37.2601
      4972.5     277.302     41.4613
        4973    283.1452      44.715
      4973.5    282.3859     48.3222
        4974     275.636     51.4484
      4974.5    259.2245     52.6653
        4975    245.1754     50.7706
      4975.5    239.0995     47.0213
        4976    251.6286     42.8349
      4976.5    268.0827     38.6485
        4977    278.9257     32.7348
      4977.5    282.7655     30.3006
        4978    279.9815     32.8036
      4978.5    271.3967     38.3198
        4979    255.3647      53.779
      4979.5    243.9095     74.0033
        4980    243.1079     89.9399
      4980.5    252.9973     86.7454
        4981    274.3269      70.016
      4981.5    282.3429     49.6584
        4982    283.5671     39.4688
      4982.5    276.4186      37.981
        4983    262.0118     39.9198
      4983.5    245.5571     38.9729
        4984    236.6954     33.4569
      4984.5    237.6422     27.3172
        4985     248.798     24.5441
      4985.5    265.0192     23.3267
        4986    278.1007     23.6798
      4986.5     283.144     26.1973
        4987    281.5855     27.5275
      4987.5    276.7983     26.2124
        4988    265.9991     27.5274
      4988.5    253.3628     31.4877
        4989    243.7211     31.8714
      4989.5     239.479     27.7985
        4990     239.479     25.7315
      4990.5     239.479      27.159
        4991    243.0408     29.8042
      4991.5    254.2177     30.9095
        4992    268.4346     30.5411
      4992.5    278.9237      31.247
        4993    278.8032     32.2244
      4993.5    268.0046     31.0376
        4994    251.9956     30.3006
      4994.5    240.1146     30.7816
        4995    237.0741     30.1882
      4995.5    237.0741     27.0776
        4996    235.0933     25.3786
      4996.5    238.4422     25.6034
        4997    252.1886     27.1429
      4997.5    268.8333     29.8039
        4998    279.7246     30.3006
      4998.5    281.9639     30.0601
        4999    281.1623     29.8196
      4999.5    277.3898     28.5049
        5000    266.3561     28.6172
      5000.5    250.3946     31.3589
        5001    238.3237     32.7054
      5001.5    235.4709     31.1503
        5002    235.0938     30.7816
      5002.5    233.8677      31.022
        5003    232.2645     30.4289
      5003.5    233.0661     29.8196
        5004    233.0661      28.505
      5004.5    232.6892     27.6553
        5005    231.4629      32.657
      5005.5    231.4629     42.2762
        5006    231.4629      46.525
      5006.5    231.0381     45.4833
        5007    236.2003     40.8021
      5007.5     252.184     38.2365
        5008    270.4324     38.8295
      5008.5    280.7373     39.9198
        5009    282.7655     37.5314
      5009.5    282.7655     35.5912
        5010    282.3891     35.5912
      5010.5    279.1827     36.7936
        5011    271.8045     36.5531
      5011.5    258.2263     36.3126
        5012    245.1882     36.0721
      5012.5    237.4995     35.0313
        5013    233.4915     33.1864
      5013.5    233.0661     33.5388
        5014    231.8884     34.6293
      5014.5    231.4629     34.4054
        5015    232.2645     33.1864
      5015.5    232.2645     33.4269
        5016    234.2437     30.7983
      5016.5    235.8469     27.8006
        5017    237.0741     25.1386
      5017.5    237.0741     23.9362
        5018    235.8968     22.3647
      5018.5    233.8677     22.3647
        5019    232.2645     23.3267
      5019.5    233.4418     25.7146
        5020    243.2488     27.6384
      5020.5    261.1838     31.5979
        5021    275.9266     35.0933
      5021.5    282.3394     34.6462
        5022    282.7655     32.9459
      5022.5    282.7655     32.5937
        5023    282.7655     32.0957
      5023.5    281.9639     31.7435
        5024    279.9855      31.984
      5024.5    273.8115     31.1509
        5025    258.0183     30.0601
      5025.5    243.3764     30.4122
        5026    235.8975     31.7435
      5026.5     235.846     31.5202
        5027    238.2508     28.2824
      5027.5    239.0523     26.3413
        5028    247.7922      26.805
      5028.5    258.8789     28.5999
        5029    259.9458     31.3741
      5029.5    250.1913     32.4823
        5030    239.1042     30.5585
      5030.5    236.6995     28.2652
