###############################################
##         ENVERUS                           ##
##         ESS - Open Hole                   ##
##         PERMIAN / DELAWARE                ##
##         Nov 03 2023  V4.0                 ##
##         42-109-32978-00-00                ##
###############################################
## Copyright 2017-2023  ENVERUS.  All Rights Reserved. 
## Confidential - Property of ENVERUS, use governed by terms and 
## conditions found within the existing Information Services Subscription Agreement 
## (as may be amended, the “ISSA”) between Customer and ENVERUS. 
## 
~VERSION INFORMATION
# MNEM.UNIT                               DATA : DESCRIPTION OF MNEMONIC
#-----.-----     ----------------------------- : -----------------------------
VERS.                                     2.00 : CWLS LOG ASCII STANDARD - VERSION 2.00
WRAP.                                       NO : MULTIPLE LINES PER DEPTH STEP
VEND.                                  ENVERUS : VENDOR
TYPE.                          ESS - OPEN HOLE : ENVERUS ESSENTIAL CURVES – ACCESSIBLE THROUGH ENVERUS PRISM(TM)
DOC.                                  43644371 : ENVERUS HEADER RAW DOCUMENT ID
#___________________________________________________________________________________________________ 
~WELL INFORMATION 
# sF+t5dzO8TjfhJXm5BhYJSGKqyGjnVcKAr1GJS+XHP+EILfiOmlFF7qBSMjafOrEHsreRpz+nmfYFwcq0MlVOA== 
# MNEM.UNIT                                              DATA : DESCRIPTION OF MNEMONIC 
#-----.-----                    ----------------------------- : ----------------------------- 
CNTY.                                               CULBERSON : COUNTY 
STATE.                                                  TEXAS : STATE 
CNTRY.                                                    USA : COUNTRY 
API.                                             42-109-32978 : API (10 Digit) 
API_14.                                    42-109-32978-00-00 : API (14 Digits) 
API_14_std.                                 42-109-32978-0000 : API (14 Digits Standard) 
UWI.                                           42109329780000 : UNIQUE WELL ID 
WELL.                                    42109329780000_API14 : WELL NAME
STRT.FT                                                 179.0 : START DEPTH
STOP.FT                                                9893.5 : STOP DEPTH
STEP.FT                                                   0.5 : STEP BETWEEN DEPTHS
NULL.                                                 -999.25 : NULL VALUE
#___________________________________________________________________________________________________ 
~PARAMETER INFORMATION 
# MNEM.UNIT                                              DATA : DESCRIPTION OF MNEMONIC 
#-----.-----                    ----------------------------- : ----------------------------- 
EKB.FT                                                   3282 : ELEVATION ABOVE MSL
#___________________________________________________________________________________________________ 
~CURVE INFORMATION 
# MNEM.UNIT           : CURVE DESCRIPTION 
#-----.-----          : ----------------------------- 
 DEPT.FT               : MEASURED DEPTH 
 GR.API                : GAMMA RAY (GAMMA RAY) 
 DT.US/FT              : SONIC DELTA TRANSIT TIME (SONIC) 
 #___________________________________________________________________________________________________ 
~A         DEPT             GR             DT
# ...
         2789.0         24.036        280.223
         2789.5         27.842        280.223
         2790.0         30.501        280.223
         2790.5         29.362        280.223
         2791.0         28.447        280.223
         2791.5         29.248        280.223
         2792.0         30.084        280.223
         2792.5         30.132        280.223
         2793.0         28.830        280.223
         2793.5         29.283        280.223
         2794.0         30.501        280.223
         2794.5         30.620        280.223
         2795.0         29.714        280.223
         2795.5         28.210        280.223
         2796.0         27.123        280.223
         2796.5         26.741        280.223
         2797.0         27.577        280.223
         2797.5         26.789        280.223
         2798.0         25.285        279.666
         2798.5         24.652        279.666
         2799.0         24.652        279.666
         2799.5         24.652        279.666
         2800.0         24.652        279.666
         2800.5         25.273        279.666
         2801.0         28.120        279.666
         2801.5         33.033        279.666
         2802.0         38.292        279.666
         2802.5         42.547        279.666
         2803.0         43.251        279.666
         2803.5         43.072        279.666
         2804.0         47.043        279.666
         2804.5         54.498        279.666
         2805.0         57.660        279.666
         2805.5         52.160        279.666
         2806.0         41.111        279.666
         2806.5         32.487        279.666
         2807.0         27.217        279.666
         2807.5         24.281        279.666
         2808.0         22.466        279.666
         2808.5         23.508        279.666
         2809.0         28.934        279.666
         2809.5         35.040        279.666
         2810.0         37.187        280.717
         2810.5         35.006        281.894
         2811.0         34.299        281.894
         2811.5         36.443        281.894
         2812.0         43.818        281.894
         2812.5         53.410        282.389
         2813.0         64.510        281.622
         2813.5         72.985        279.666
         2814.0         74.791        279.666
         2814.5         67.527        279.109
         2815.0         54.063        279.109
         2815.5         42.443        279.109
         2816.0         35.650        279.109
         2816.5         33.138        279.109
         2817.0         31.634        279.109
         2817.5         30.501        279.109
         2818.0         29.461        279.109
         2818.5         27.730        279.109
         2819.0         26.741        279.109
         2819.5         27.159        279.109
         2820.0         28.366        279.109
         2820.5         26.959        279.109
         2821.0         24.197        279.109
         2821.5         22.981        279.109
         2822.0         22.145        279.109
         2822.5         22.145        279.109
         2823.0         21.522        279.109
         2823.5         20.891        279.109
         2824.0         20.603        279.109
         2824.5         20.595        279.109
         2825.0         20.102        279.109
         2825.5         18.597        279.109
         2826.0         18.422        279.109
         2826.5         18.802        279.109
         2827.0         18.802        279.109
         2827.5         18.430        279.109
         2828.0         19.528        279.109
         2828.5         22.012        279.109
         2829.0         24.105        279.109
         2829.5         25.488        279.109
         2830.0         24.093        279.109
         2830.5         22.357        279.109
         2831.0         21.309        279.109
         2831.5         22.867        279.109
         2832.0         25.879        279.109
         2832.5         28.113        279.109
         2833.0         29.248        279.109
         2833.5         29.286        279.109
         2834.0         30.373        279.109
         2834.5         31.459        279.109
         2835.0         32.963        279.109
         2835.5         32.282        279.109
         2836.0         30.045        279.109
         2836.5         28.123        279.109
         2837.0         26.741        279.109
         2837.5         27.159        279.109
         2838.0         28.200        279.109
         2838.5         29.705        279.109
         2839.0         30.501        279.109
         2839.5         28.733        279.109
         2840.0         24.368        279.109
         2840.5         21.103        279.109
         2841.0         20.056        279.109
         2841.5         21.181        279.109
         2842.0         23.496        279.109
         2842.5         26.861        279.109
         2843.0         29.557        279.109
         2843.5         31.814        279.109
         2844.0         35.196        279.109
         2844.5         40.455        279.109
         2845.0         45.246        279.109
         2845.5         47.421        279.109
         2846.0         46.757        279.109
         2846.5         43.419        279.109
         2847.0         38.157        279.109
         2847.5         32.745        279.109
         2848.0         28.938        279.109
         2848.5         27.119        279.085
         2849.0         26.545        279.109
         2849.5         25.488        279.273
         2850.0         24.696        281.279
         2850.5         21.628        281.894
         2851.0         18.096        281.894
         2851.5         17.004        281.894
         2852.0         18.778        281.894
         2852.5         22.036        282.950
         2853.0         27.048        282.732
         2853.5         30.979        280.727
         2854.0         32.881        279.109
         2854.5         33.008        279.109
         2855.0         33.426        279.109
         2855.5         31.967        279.109
         2856.0         31.377        279.109
         2856.5         31.464        279.109
         2857.0         30.084        279.109
         2857.5         30.040        279.109
         2858.0         30.084        279.109
         2858.5         31.607        279.109
         2859.0         31.882        279.109
         2859.5         31.879        279.109
         2860.0         31.798        279.109
         2860.5         31.337        279.109
         2861.0         31.337        279.109
         2861.5         30.065        278.863
         2862.0         27.119        278.863
         2862.5         23.693        278.863
         2863.0         22.145        278.863
         2863.5         24.336        278.863
         2864.0         26.615        278.863
         2864.5         27.577        278.863
         2865.0         27.202        278.863
         2865.5         27.159        278.863
         2866.0         28.683        278.863
         2866.5         30.375        278.863
         2867.0         32.151        278.863
         2867.5         32.633        278.863
         2868.0         32.173        278.863
         2868.5         31.755        278.863
         2869.0         32.465        278.863
         2869.5         32.884        278.863
         2870.0         31.797        278.863
         2870.5         28.623        278.863
         2871.0         25.028        278.863
         2871.5         23.524        278.863
         2872.0         24.546        278.863
         2872.5         26.699        278.863
         2873.0         25.697        278.863
         2873.5         25.111        278.863
         2874.0         26.615        278.863
         2874.5         29.289        278.863
         2875.0         28.935        278.863
         2875.5         25.801        278.863
