###############################################
##         ENVERUS                           ##
##         ESS - Open Hole                   ##
##         PERMIAN / DELAWARE                ##
##         Nov 02 2023  V4.0                 ##
##         42-109-31383-00-00                ##
###############################################
## Copyright 2017-2023  ENVERUS.  All Rights Reserved. 
## Confidential - Property of ENVERUS, use governed by terms and 
## conditions found within the existing Information Services Subscription Agreement 
## (as may be amended, the “ISSA”) between Customer and ENVERUS. 
## 
~VERSION INFORMATION
# MNEM.UNIT                               DATA : DESCRIPTION OF MNEMONIC
#-----.-----     ----------------------------- : -----------------------------
VERS.                                     2.00 : CWLS LOG ASCII STANDARD - VERSION 2.00
WRAP.                                       NO : MULTIPLE LINES PER DEPTH STEP
VEND.                                  ENVERUS : VENDOR
TYPE.                          ESS - OPEN HOLE : ENVERUS ESSENTIAL CURVES – ACCESSIBLE THROUGH ENVERUS PRISM(TM)
DOC.                                  31887493 : ENVERUS HEADER RAW DOCUMENT ID
#___________________________________________________________________________________________________ 
~WELL INFORMATION 
# e8MMFGpko9nixUfuEkfb9P8cKS4olzuguLrtdgPIjARTX3oRymgI2EYtnk6GmA/F0PbYW2Z7xnLx5OgyGayifw== 
# MNEM.UNIT                                              DATA : DESCRIPTION OF MNEMONIC 
#-----.-----                    ----------------------------- : ----------------------------- 
CNTY.                                               CULBERSON : COUNTY 
STATE.                                                  TEXAS : STATE 
CNTRY.                                                    USA : COUNTRY 
API.                                             42-109-31383 : API (10 Digit) 
API_14.                                    42-109-31383-00-00 : API (14 Digits) 
API_14_std.                                 42-109-31383-0000 : API (14 Digits Standard) 
UWI.                                           42109313830000 : UNIQUE WELL ID 
WELL.                                          KIRK  T. A.  1 : WELL NAME
STRT.FT                                                  43.0 : START DEPTH
STOP.FT                                               16492.0 : STOP DEPTH
STEP.FT                                                   0.5 : STEP BETWEEN DEPTHS
NULL.                                                 -999.25 : NULL VALUE
COMP.                                             EXXON CORP. : COMPANY 
DATE.                                             05-AUG-1981 : LOG DATE
#___________________________________________________________________________________________________ 
~CURVE INFORMATION 
# MNEM.UNIT           : CURVE DESCRIPTION 
#-----.-----          : ----------------------------- 
 DEPT.FT               : MEASURED DEPTH 
 CALI.IN               : CALIPER (CAL - CAL) 
 GR.API                : GAMMA RAY (GR) 
 SP.MV                 : SPONTANEOUS POTENTIAL (SP) 
 DT.US/FT              : SONIC DELTA TRANSIT TIME (DT) 
 RESS.OHMM             : SHALLOW INDUCTION RESISTIVITY (ILS - ILS) 
 RESD.OHMM             : DEEP INDUCTION RESISTIVITY (ILD - ILD) 
 NPHI.V/V              : NEUTRON POROSITY (NPHI) 
 #___________________________________________________________________________________________________ 
~A         DEPT           CALI             GR             SP             DT           RESS           RESD           NPHI
# ...
         1182.0       -999.250         10.126        -23.017       -999.250         18.420         25.551        0.03185
         1182.5       -999.250         10.754        -23.155       -999.250         18.439         25.161        0.03591
         1183.0       -999.250         12.188        -23.294       -999.250         18.458         24.772        0.03997
         1183.5       -999.250         12.547        -23.433       -999.250         18.477         24.771        0.04104
         1184.0       -999.250         12.496        -23.571       -999.250         18.496         24.914        0.04108
         1184.5       -999.250         12.444        -23.710       -999.250         18.514         25.057        0.04113
         1185.0       -999.250         12.393        -23.848       -999.250         18.533         25.199        0.04117
         1185.5       -999.250         12.341        -23.970       -999.250         18.552         25.342        0.04121
         1186.0       -999.250         12.290        -23.843       -999.250         18.422         25.485        0.04126
         1186.5       -999.250         12.238        -23.715       -999.250         18.164         25.628        0.04130
         1187.0       -999.250         12.187        -23.587       -999.250         17.906         25.770        0.04135
         1187.5       -999.250         10.671        -23.460       -999.250         17.647         25.913        0.04139
         1188.0       -999.250          8.534        -23.332       -999.250         17.389         26.056        0.04144
         1188.5       -999.250          6.397        -23.204       -999.250         17.131         26.007        0.03958
         1189.0       -999.250          6.573        -23.077       -999.250         16.873         25.633        0.02798
         1189.5       -999.250          7.276        -22.949       -999.250         16.614         25.259        0.01637
         1190.0       -999.250          7.904        -22.821       -999.250         16.356         24.885        0.01010
         1190.5       -999.250          7.538        -22.789       -999.250         16.098         24.510        0.00918
         1191.0       -999.250          7.172        -22.913       -999.250         15.888         24.136        0.00826
         1191.5       -999.250          6.806        -23.037       -999.250         15.693         23.762        0.00735
         1192.0       -999.250          6.712        -23.160       -999.250         15.499         23.388        0.00848
         1192.5       -999.250          7.450        -23.284       -999.250         15.304         23.014        0.01179
         1193.0       -999.250          8.187        -23.408       -999.250         15.109         22.640        0.01510
         1193.5       -999.250          8.924        -23.532       -999.250         14.915         22.265        0.01960
         1194.0       -999.250          9.661        -23.655       -999.250         14.720         21.891        0.02419
         1194.5       -999.250         10.055        -23.779       -999.250         14.525         21.517        0.02529
         1195.0       -999.250         10.281        -23.903       -999.250         14.693         21.143        0.02624
         1195.5       -999.250         10.506        -23.832       -999.250         14.932         20.814        0.02719
         1196.0       -999.250         10.732        -23.642       -999.250         15.170         20.827        0.04546
         1196.5       -999.250         10.761        -23.451       -999.250         15.408         20.840        0.05925
         1197.0       -999.250         10.308        -23.261       -999.250         15.646         20.853        0.06366
         1197.5       -999.250          9.854        -23.071       -999.250         15.884         20.866        0.06389
         1198.0       -999.250          9.600        -22.880       -999.250         16.049         20.879        0.06411
         1198.5       -999.250         10.167        -22.690       -999.250         16.023         20.892        0.06318
         1199.0       -999.250         10.734        -22.500       -999.250         15.997         20.905        0.06106
         1199.5       -999.250         10.181        -22.309       -999.250         15.972         20.918        0.05107
         1200.0       -999.250          8.985        -22.263       -999.250         15.946         20.931        0.03242
         1200.5       -999.250          7.966        -22.328       -999.250         15.920         20.944        0.02024
         1201.0       -999.250          7.171        -22.394       -999.250         15.894         20.957        0.01932
         1201.5       -999.250          9.249        -22.459       -999.250         15.917         20.970        0.02162
         1202.0       -999.250         11.008        -22.524       -999.250         15.969         20.984        0.02972
         1202.5       -999.250         11.135        -22.590       -999.250         16.021         20.997        0.03778
         1203.0       -999.250         11.020        -22.655       -999.250         16.073         21.010        0.04555
         1203.5       -999.250          9.594        -22.700       -999.250         16.125         21.023        0.03820
         1204.0       -999.250          8.453        -22.685       -999.250         16.177         21.036        0.02492
         1204.5       -999.250          8.768        -22.669       -999.250         16.229         21.049        0.01622
         1205.0       -999.250          9.084        -22.654       -999.250         16.281         21.062        0.01620
         1205.5       -999.250          9.363        -22.639       -999.250         16.333         21.075        0.01665
         1206.0       -999.250          8.998        -22.623       -999.250         16.385         21.088        0.02486
         1206.5       -999.250          8.539        -22.608       -999.250         16.437         21.180        0.02906
         1207.0       -999.250          8.080        -22.593       -999.250         16.310         21.305        0.03118
         1207.5       -999.250          7.621        -22.578       -999.250         16.134         21.430        0.02993
         1208.0       -999.250          7.163        -22.562       -999.250         15.958         21.555        0.02851
         1208.5       -999.250          7.027        -22.547       -999.250         15.782         21.681        0.02709
         1209.0       -999.250          7.954        -22.532       -999.250         15.606         21.806        0.02567
         1209.5       -999.250          8.881        -22.516       -999.250         15.430         21.931        0.02294
         1210.0       -999.250          9.678        -22.501       -999.250         15.378         22.056        0.01948
         1210.5       -999.250          9.512        -22.486       -999.250         15.379         22.181        0.01602
         1211.0       -999.250          9.347        -22.470       -999.250         15.380         22.306        0.01256
         1211.5       -999.250          9.640        -22.455       -999.250         15.382         22.431        0.01283
         1212.0       -999.250         10.660        -22.440       -999.250         15.383         22.557        0.01555
         1212.5       -999.250         11.680        -22.515       -999.250         15.491         22.673        0.01692
         1213.0       -999.250         12.535        -22.641       -999.250         15.897         22.780        0.01744
         1213.5       -999.250         11.670        -22.767       -999.250         16.303         22.888        0.01795
         1214.0       -999.250         10.804        -22.893       -999.250         16.709         22.996        0.01825
         1214.5       -999.250          9.939        -23.019       -999.250         17.115         23.104        0.01760
         1215.0       -999.250         10.427        -23.145       -999.250         17.521         23.211        0.01695
