###############################################
##         ENVERUS                           ##
##         ESS - Open Hole                   ##
##         PERMIAN / DELAWARE                ##
##         Nov 03 2023  V4.0                 ##
##         42-109-33370-00-00                ##
###############################################
## Copyright 2017-2023  ENVERUS.  All Rights Reserved. 
## Confidential - Property of ENVERUS, use governed by terms and 
## conditions found within the existing Information Services Subscription Agreement 
## (as may be amended, the “ISSA”) between Customer and ENVERUS. 
## 
~VERSION INFORMATION
# MNEM.UNIT                               DATA : DESCRIPTION OF MNEMONIC
#-----.-----     ----------------------------- : -----------------------------
VERS.                                     2.00 : CWLS LOG ASCII STANDARD - VERSION 2.00
WRAP.                                       NO : MULTIPLE LINES PER DEPTH STEP
VEND.                                  ENVERUS : VENDOR
TYPE.                          ESS - OPEN HOLE : ENVERUS ESSENTIAL CURVES – ACCESSIBLE THROUGH ENVERUS PRISM(TM)
DOC.                                  52814434 : ENVERUS HEADER RAW DOCUMENT ID
#___________________________________________________________________________________________________ 
~WELL INFORMATION 
# 4wk/Fx8UuugU+iebl2dHJIcndKaYvWbTE+/Vf37HP7rynMiEVi3nAb6NYbehQO/VbM9PVY38flJCaeNisGRn4g== 
# MNEM.UNIT                                              DATA : DESCRIPTION OF MNEMONIC 
#-----.-----                    ----------------------------- : ----------------------------- 
CNTY.                                               CULBERSON : COUNTY 
STATE.                                                  TEXAS : STATE 
CNTRY.                                                    USA : COUNTRY 
API.                                             42-109-33370 : API (10 Digit) 
API_14.                                    42-109-33370-00-00 : API (14 Digits) 
API_14_std.                                 42-109-33370-0000 : API (14 Digits Standard) 
UWI.                                           42109333700000 : UNIQUE WELL ID 
WELL.                                       ROXANNE FEE 46 3H : WELL NAME
STRT.FT                                                8800.0 : START DEPTH
STOP.FT                                               14157.0 : STOP DEPTH
STEP.FT                                                   0.5 : STEP BETWEEN DEPTHS
NULL.                                                 -999.25 : NULL VALUE
LOC.                                        API  42-109-33370 : LOCATION 
FL1.                                        API  42-109-33370 : LOCATIONLINE1 
DMF.                                                       KB : DRILL MEAS FROM 
PDAT.                                                      GL : PERMANENT DATUM 
FLD.                                    FORD, WEST (WOLFCAMP) : FIELD NAME 
COMP.                                          CAPITAN ENERGY : COMPANY 
DATE.                                             29-APR-2019 : DATE 
SVCO.                                             HALLIBURTON : SERVICECONAME 
PROV.                                                   TEXAS : PROVINCE 
BASI.                                                 PERMIAN : BASIN 
RANG.                                                     N/A : RANGE 
TOWN.                                                     N/A : TOWNSHIP 
SECT.                                                     N/A : SECTION 
SON.                                                905631605 : JOB NUMBER 
SRVC.                                             HALLIBURTON : SERVICE COMPANY 
LMF.                                                       KB : LOG MEASURED FROM 
BAP.FT                                                 0.0000 : GL ELEV ONSHORE 
GVFD.G                                                 1.0000 : GRAVITY FIELD
#___________________________________________________________________________________________________ 
~CURVE INFORMATION 
# MNEM.UNIT           : CURVE DESCRIPTION 
#-----.-----          : ----------------------------- 
 DEPT.FT               : MEASURED DEPTH 
 GR.API                : GAMMA RAY (GR_CHI - GR_CHI) 
 GR__01.API            : GAMMA RAY (GR_OH - GR_OH) 
 DT.US/FT              : SONIC DELTA TRANSIT TIME (DTC_CHI - DTC_CHI) 
 DT__01.US/FT          : SONIC DELTA TRANSIT TIME (DTC_OH - DTC_OH) 
 PE.B/E                : PHOTOELECTRIC EFFECT/FACTOR (PE_CHI - PE_CHI) 
 PE__01.B/E            : PHOTOELECTRIC EFFECT/FACTOR (PE_OH - PE_OH) 
 RESS_10.OHMM          : 10 INCH SHALLOW INDUCTION RESISTIVITY (RT10_CHI - RT10_CHI) 
 RESS_10__01.OHMM      : 10 INCH SHALLOW INDUCTION RESISTIVITY (RT10_OH - RT10_OH) 
 RESM_30.OHMM          : 30 INCH MEDIUM INDUCTION RESISTIVITY (RT30_CHI - RT30_CHI) 
 RESM_30__01.OHMM      : 30 INCH MEDIUM INDUCTION RESISTIVITY (RT30_OH - RT30_OH) 
 RESD_90.OHMM          : 90 INCH DEEP INDUCTION RESISTIVITY (RT90_CHI - RT90_CHI) 
 RESD_90__01.OHMM      : 90 INCH DEEP INDUCTION RESISTIVITY (RT90_OH - RT90_OH) 
 NPHI.V/V              : NEUTRON POROSITY (NPHI_CHI - NPHI_CHI) 
 NPHI__01.V/V          : NEUTRON POROSITY (NPHI_OH - NPHI_OH) 
 SPHI.V/V              : SONIC POROSITY (SPHI_CHI - SPHI_CHI) 
 RHOB.G/CC             : BULK DENSITY (RHOB_CHI - RHOB_CHI) 
 RHOB__01.G/CC         : BULK DENSITY (RHOB_OH - RHOB_OH) 
 #___________________________________________________________________________________________________ 
~A         DEPT             GR         GR__01             DT         DT__01             PE         PE__01        RESS_10    RESS_10__01        RESM_30    RESM_30__01        RESD_90    RESD_90__01           NPHI       NPHI__01           SPHI           RHOB       RHOB__01
# ...
         9505.0         97.476        110.184         72.610         73.698         3.1142         2.7809         18.131         14.244         18.729         13.458         19.924         13.684        0.12330        0.13140        0.17690         2.5717         2.5479
         9505.5         98.004        110.162         72.671         74.371         3.1057         2.8254         17.608         14.341         18.188         13.540         19.349         13.781        0.12360        0.12980        0.17740         2.5710         2.5464
         9506.0        100.172        110.245         72.724         74.978         3.0854         2.8527         17.066         14.464         17.628         13.660         18.753         13.919        0.12420        0.12930        0.17790         2.5692         2.5452
         9506.5        105.910        110.654         72.837         75.461         3.0508         2.8800         16.601         14.698         17.148         13.901         18.243         14.192        0.12600        0.12980        0.17850         2.5653         2.5438
         9507.0        114.844        111.280         72.996         75.760         3.0069         2.8983         16.276         15.164         16.813         14.351         17.886         14.682        0.12870        0.13140        0.17900         2.5595         2.5446
         9507.5        121.516        112.478         73.028         75.785         2.9639         2.9205         16.037         16.155         16.565         15.289         17.623         15.697        0.13020        0.13510        0.17920         2.5553         2.5478
         9508.0        124.956        113.403         72.965         75.677         2.9310         2.9406         15.863         16.796         16.386         15.899         17.432         16.367        0.13040        0.13770        0.17890         2.5532         2.5515
         9508.5        125.502        114.517         72.825         75.436         2.9073         2.9714         15.784         17.478         16.304         16.552         17.345         17.100        0.12980        0.14050        0.17830         2.5530         2.5576
         9509.0        124.329        114.716         72.724         75.061         2.9050         2.9891         15.894         17.883         16.418         16.939         17.466         17.548        0.12910        0.14160        0.17750         2.5539         2.5605
         9509.5        121.766        114.041         72.594         74.839         2.9155         3.0036         16.232         18.276         16.767         17.314         17.837         18.004        0.12780        0.14130        0.17640         2.5559         2.5619
         9510.0        117.867        113.040         72.404         74.738         2.9347         3.0017         16.811         18.566         17.366         17.585         18.474         18.341        0.12600        0.14020        0.17510         2.5589         2.5612
         9510.5        114.585        111.008         72.169         74.824         2.9517         2.9831         17.667         19.035         18.249         18.012         19.414         18.871        0.12390        0.13780        0.17350         2.5617         2.5584
         9511.0        111.961        109.094         71.936         75.107         2.9783         2.9647         18.946         19.538         19.571         18.466         20.820         19.426        0.12210        0.13610        0.17170         2.5644         2.5567
         9511.5        109.236        106.006         71.637         75.513         3.0167         2.9398         20.800         20.468         21.486         19.306         22.857         20.437        0.11970        0.13350        0.16940         2.5675         2.5558
         9512.0        104.819        102.994         71.263         75.869         3.0821         2.9339         23.461         21.514         24.234         20.254         25.781         21.567        0.11640        0.13110        0.16660         2.5723         2.5571
         9512.5         99.569         98.036         70.816         76.066         3.1772         2.9497         27.233         23.394         28.131         21.974         29.926         23.605        0.11180        0.12710        0.16320         2.5780         2.5621
         9513.0         93.805         93.750         70.270         75.975         3.3077         2.9866         32.369         24.966         33.436         23.451         35.570         25.365        0.10500        0.12090        0.15910         2.5844         2.5691
         9513.5         86.612         87.297         69.494         75.531         3.4283         3.0742         38.503         27.355         39.772         25.768         42.311         28.135        0.09490        0.10830        0.15420         2.5915         2.5826
         9514.0         78.325         82.086         68.619         74.777         3.5320         3.1788         45.248         29.583         46.740         28.044         49.723         30.842        0.08320        0.09900        0.14890         2.5985         2.5968
         9514.5         70.408         75.041         67.779         73.880         3.6266         3.3571         52.154         32.925         53.873         31.569         57.312         35.026        0.07210        0.08780        0.14390         2.6049         2.6199
         9515.0         63.122         69.510         67.131         73.144         3.6948         3.5311         58.514         36.212         60.443         35.129         64.302         39.228        0.06270        0.07740        0.13990         2.6097         2.6374
         9515.5         58.143         61.998         66.743         72.153         3.7489         3.8048         63.471         41.498         65.563         40.933         69.748         46.048        0.05710        0.06180        0.13730         2.6131         2.6601
         9516.0         57.134         56.309         66.592         71.149         3.8053         4.0475         66.381         45.619         68.569         45.693         72.946         51.582        0.05570        0.04940        0.13640         2.6151         2.6717
         9516.5         60.821         55.282         66.639         70.165         3.8555         4.1348         66.358         46.565         68.545         46.951         72.920         53.084        0.05870        0.04400        0.13720         2.6153         2.6716
         9517.0         69.004         58.149         67.010         69.225         3.8776         4.1208         62.850         44.947         64.922         45.504         69.066         51.499        0.06680        0.04230        0.14030         2.6127         2.6595
         9517.5         78.924         61.984         67.818         68.430         3.8169         4.0656         55.990         43.336         57.835         43.937         61.527         49.744        0.07860        0.04440        0.14560         2.6064         2.6500
         9518.0         89.481         68.919         69.084         67.309         3.6465         3.9369         46.883         40.762         48.429         41.298         51.520         46.752        0.09360        0.05110        0.15280         2.5958         2.6374
         9518.5         97.277         82.880         70.519         65.970         3.4461         3.6639         37.600         35.832         38.839         36.160         41.319         40.912        0.10870        0.06590        0.16060         2.5850         2.6150
         9519.0        102.657         93.507         71.626         64.515         3.2698         3.4672         29.584         32.410         30.559         32.607         32.510         36.855        0.12050        0.08260        0.16750         2.5764         2.5990
         9519.5        106.427        106.887         72.340         63.062         3.1336         3.2329         23.514         28.562         24.289         28.627         25.839         32.283        0.12850        0.11100        0.17280         2.5703         2.5803
