~VERSION INFORMATION
VERS. 2.0 : CWLS Log ASCII Standard - Version 2.0
WRAP. NO : One line per depth step
#--------------------------------------------------#
#----------------DRILLING INFO, INC.---------------#
#---------------WWW.DRILLINGINFO.COM---------------#
#------------------COPYRIGHT 2015------------------#
#--------------------------------------------------#
#THIS FILE MAY BE USED ONLY IN ACCORDANCE WITH A CURRENT SUBSCRIPTION AGREEMENT BETWEEN
#THE USER AND DRILLING INFO, INC. NO PART OF THIS FILE MAY BE REPRODUCED, USED, COPIED,
#MODIFIED, PROPAGATED, OR DISTRIBUTED EXCEPT IN ACCORDANCE WITH THE SUBSCRIPTION
#AGREEMENT. UNAUTHORIZED USE OR DISTRIBUTION OF ALL OR ANY PART OF THIS FILE MAY VIOLATE
#COPYRIGHT, TRADEMARK, AND/OR OTHER LAWS AND IS SUBJECT TO CIVIL AS WELL AS CRIMINAL
#SANCTIONS.
#--------------------------------------------------#
#THIS FILE IS PROVIDED "AS-IS" AND ALL WARRANTIES ARE EXPRESSLY DISCLAIMED, WHETHER
#EXPRESS, ORAL, IMPLIED, STATUTORY OR OTHERWISE, INCLUDING ANY IMPLIED WARRANTY OF FITNESS
#FOR A PARTICULAR PURPOSE, MERCHANTABILITY, TITLE OR NON-INFRINGEMENT, AND ANY WARRANTIES
#ARISING BY VIRTUE OF CUSTOM OF TRADE OR COURSE OF DEALING.  FURTHER, DRILLING INFO,
#INC. AND ITS LICENSORS DO NOT REPRESENT OR WARRANT THAT THIS FILE WILL MEET USER'S
#REQUIREMENTS OR ARE SUITABLE FOR USER'S NEEDS OR THAT THE DATA OR RESULTS PROVIDED IN
#CONJUNCTION THEREWITH ARE CORRECT, ACCURATE, TIMELY OR RELIABLE. THESE DISCLAIMERS SHALL
#APPLY REGARDLESS OF ANY FAILURE OF ESSENTIAL PURPOSE OF ANY LIMITED REMEDY.  SOME
#JURISDICTIONS DO NOT ALLOW THE EXCLUSION OF CERTAIN WARRANTIES SO SOME OF THE ABOVE
#EXCLUSIONS MAY NOT APPLY. IN NO EVENT SHALL DRILLING INFO, INC. OR ANY OF ITS AFFILIATES
#BE LIABLE UNDER ANY LEGAL THEORY, WHETHER IN TORT (INCLUDING WITHOUT LIMITATION
#NEGLIGENCE), CONTRACT, STRICT LIABILITY, STATUTORY OR OTHERWISE, FOR ANY SPECIAL,
#INCIDENTAL, CONSEQUENTIAL, EXEMPLARY, PUNITIVE OR INDIRECT DAMAGE OF ANY KIND, INCLUDING
#WITHOUT LIMITATION LOSS OF REVENUE, PROFITS, GOODWILL, USE, AND/OR DATA OR THE COST OF
#PROCUREMENT OF SUBSTITUTE GOODS OR SERVICES, EVEN IF APPRISED OF THE POSSIBILITY OF SUCH
#DAMAGES IN ADVANCE.
#--------------------------------------------------#
~WELL INFORMATION
#MNEMONIC     .UNIT              VALUE :DESCRIPTION
#--------------------------------------------------#
STRT       .ft                25.00000 :START DEPTH
STOP       .ft                17086.00000 :STOP DEPTH
STEP       .ft                0.50000 :STEP
NULL       .                -999.25000 :NULL VALUE
COMP       .                 :COMPANY
WELL       .                 :WELL
FLD       .                 :FIELD
LOC       .                 :LOCATION
CNTY       .                 :COUNTY
STAT       .                 :STATE
CTRY       .                 :COUNTRY
SRVC       .                 :SERVICE COMPANY
DATE       .                 :DATE
API       .                42109309270000 :API NUMBER
~CURVE INFORMATION
#MNEMONIC     .UNIT      API CODE :CURVE DESCRIPTION
#--------------------------------------------------#
DEPTH       .ft                      :Measured Depth
CAL       .in        UNKNOWN   :CAL
DT       .us/ft        UNKNOWN   :DT
GR       .gAPI        UNKNOWN   :GR
~A    DEPTH    CAL    DT    GR
# ...
8027.00000    15.07577    58.74336    23.61756
8027.50000    15.07649    58.15122    22.81154
8028.00000    15.07721    57.55908    22.90319
8028.50000    15.07793    56.96694    25.11175
8029.00000    15.07865    58.36636    27.32031
8029.50000    15.07937    60.83058    37.14386
8030.00000    15.08009    63.29481    45.39881
8030.50000    15.08081    64.16330    40.88383
8031.00000    15.08152    62.76208    36.36886
8031.50000    15.08224    61.36086    31.85388
8032.00000    15.08296    59.95964    27.48545
8032.50000    15.08368    58.55842    31.29571
8033.00000    15.08440    57.26783    35.10596
8033.50000    15.08512    61.77390    38.91622
8034.00000    15.08584    66.27998    43.97895
8034.50000    15.08656    70.78605    50.22046
8035.00000    15.08727    69.45855    56.46197
8035.50000    15.08799    68.10423    56.46953
8036.00000    15.08871    66.74990    53.87565
8036.50000    15.08943    65.39558    51.28176
8037.00000    15.09015    64.04126    48.68788
8037.50000    15.09087    63.34099    46.09399
8038.00000    15.09159    66.40561    45.43382
8038.50000    15.09231    69.47024    50.60180
8039.00000    15.09303    68.41276    55.76977
8039.50000    15.09375    66.97440    54.09960
8040.00000    15.09446    65.53604    44.51631
8040.50000    15.09518    64.09769    32.89010
8041.00000    15.09590    62.65933    28.00272
8041.50000    15.09419    61.22098    31.04053
8042.00000    15.09087    59.78262    34.07834
8042.50000    15.08755    60.95089    37.11615
8043.00000    15.08424    62.70363    45.29919
8043.50000    15.08092    64.74845    53.56078
8044.00000    15.07761    66.79328    61.82237
8044.50000    15.07429    68.83810    66.44568
8045.00000    15.07097    70.88292    61.22559
8045.50000    15.06766    68.14772    54.91964
8046.00000    15.21604    65.13385    48.43145
8046.50000    15.28654    62.11997    41.94325
8047.00000    15.27638    60.64436    35.45506
8047.50000    15.26622    59.42569    31.74919
8048.00000    15.25606    59.18370    29.36244
8048.50000    15.24590    58.94171    26.97569
8049.00000    15.23574    58.69973    26.35460
8049.50000    15.22557    58.45774    26.30056
8050.00000    15.21541    58.21576    26.24653
8050.50000    15.20525    58.70512    26.26825
8051.00000    15.19509    59.87523    29.29718
8051.50000    15.18493    61.04533    32.32611
8052.00000    15.17477    62.21543    35.35504
8052.50000    15.16461    63.38553    41.20058
8053.00000    15.15445    64.55563    49.44358
8053.50000    15.15942    64.19111    45.39458
8054.00000    15.17676    62.06592    38.90846
8054.50000    15.19410    59.94073    32.42234
8055.00000    15.21144    57.81554    25.93622
8055.50000    15.22878    59.66030    26.75671
8056.00000    15.24612    61.64469    30.91826
8056.50000    15.26346    63.62909    36.47311
8057.00000    15.28079    64.85093    42.02795
8057.50000    15.28423    65.90633    47.58280
8058.00000    15.27356    66.96174    47.59918
8058.50000    15.26289    66.29325    43.07343
8059.00000    15.25222    65.20959    38.54768
8059.50000    15.24155    64.12594    34.02194
8060.00000    15.23088    63.04228    32.20909
8060.50000    15.22021    61.95863    37.42754
8061.00000    15.20955    62.75263    42.64599
8061.50000    15.19888    67.43161    47.86444
8062.00000    15.18821    68.33344    49.82565
8062.50000    15.17754    65.71061    44.49531
8063.00000    15.16687    63.08776    39.16497
8063.50000    15.15620    60.84223    34.96888
8064.00000    15.15053    62.59351    38.28087
8064.50000    15.16834    64.34479    41.59287
8065.00000    15.18614    66.09607    44.90486
8065.50000    15.20394    67.84735    48.21685
8066.00000    15.22175    66.06852    42.06061
8066.50000    15.23955    64.06118    34.38637
8067.00000    15.25735    62.05383    29.66389
8067.50000    15.27515    61.55737    28.58390
8068.00000    15.29296    61.30479    27.50390
8068.50000    15.31076    61.05221    26.42391
8069.00000    15.30313    60.73026    27.56995
8069.50000    15.28823    59.46576    29.43207
8070.00000    15.27333    58.20125    30.83818
8070.50000    15.25843    57.53309    27.27433
8071.00000    15.24353    57.02118    23.71047
8071.50000    15.22863    56.50926    20.14662
8072.00000    15.21373    57.02549    21.55590
8072.50000    15.19882    58.51539    23.89597
8073.00000    15.18392    62.25704    30.06369
8073.50000    15.16902    66.03776    39.41135
8074.00000    15.15412    69.81847    48.75901
8074.50000    15.13922    73.59919    55.08116
8075.00000    15.12432    74.68522    59.43778
8075.50000    15.12507    71.91041    58.71084
8076.00000    15.14282    69.13559    46.97530
8076.50000    15.16056    66.36078    34.50803
8077.00000    15.17831    63.58597    22.04077
8077.50000    15.19605    60.81115    26.00516
8078.00000    15.20209    58.03634    30.34626
8078.50000    15.20477    60.22486    36.43476
8079.00000    15.20745    62.46574    48.52765
8079.50000    15.21013    64.70663    53.40646
8080.00000    15.21280    66.94751    50.46287
8080.50000    15.21548    69.18840    47.51929
8081.00000    15.21816    64.33524    42.95496
8081.50000    15.22084    62.44579    32.94389
8082.00000    15.22352    60.55634    22.93282
8082.50000    15.22619    58.66689    22.67682
8083.00000    15.24559    56.77745    23.72667
8083.50000    15.27041    56.74394    24.77651
8084.00000    15.29524    61.52261    28.77532
8084.50000    15.30221    68.06443    36.08470
8085.00000    15.28092    65.83054    43.39408
8085.50000    15.25963    63.59664    41.57180
8086.00000    15.23834    62.29655    33.93809
8086.50000    15.21706    61.97259    29.71551
8087.00000    15.19576    61.64863    28.28393
8087.50000    15.17447    61.32467    26.85234
8088.00000    15.15319    60.80292    25.42076
8088.50000    15.13190    59.65148    23.98918
8089.00000    15.11060    58.50004    28.68741
8089.50000    15.08931    61.07492    35.69928
8090.00000    15.06803    63.85697    42.39250
8090.50000    15.06702    65.94356    49.08571
8091.00000    15.09192    67.84579    55.77893
8091.50000    15.11681    69.74802    60.64068
8092.00000    15.14170    71.65026    45.53742
8092.50000    15.16660    72.57229    40.95493
8093.00000    15.19149    66.31693    36.45633
8093.50000    15.21638    63.58455    36.20185
8094.00000    15.20840    63.24950    35.94737
8094.50000    15.18709    62.91445    35.69289
8095.00000    15.16578    62.57940    35.43840
8095.50000    15.14447    62.24435    35.18392
8096.00000    15.12316    61.90930    34.92944
8096.50000    15.11273    61.57425    34.67496
8097.00000    15.11857    61.05337    31.29172
8097.50000    15.12440    60.52893    27.68335
8098.00000    15.13024    60.00448    24.65253
8098.50000    15.13607    59.48004    30.19610
8099.00000    15.14191    60.78818    35.73967
8099.50000    15.14775    62.69592    40.84688
8100.00000    15.15358    64.60366    44.72957
8100.50000    15.15942    66.52366    48.61227
8101.00000    15.16513    68.52169    52.49496
8101.50000    15.16716    68.98620    54.54664
8102.00000    15.16919    68.31087    55.90459
8102.50000    15.17122    67.63554    54.43785
8103.00000    15.17325    66.96022    52.35095
8103.50000    15.17529    66.28489    48.36280
8104.00000    15.17732    65.60956    44.37465
8104.50000    15.17935    70.51981    45.11261
8105.00000    15.18138    70.45497    50.47948
8105.50000    15.18342    68.99824    48.57472
8106.00000    15.18545    67.54152    39.45634
8106.50000    15.18748    66.08480    31.88594
8107.00000    15.18951    64.62808    33.55093
8107.50000    15.20460    63.17136    41.18173
8108.00000    15.24607    61.71464    64.47136
8108.50000    15.28754    73.60265    57.33961
8109.00000    15.32901    71.69783    50.20787
8109.50000    15.28425    69.79300    43.17213
8110.00000    15.23539    67.88818    42.40257
8110.50000    15.18652    65.98335    41.63302
8111.00000    15.13765    64.07853    40.13713
8111.50000    15.10749    64.26242    37.64225
8112.00000    15.11366    64.30269    35.14737
