~VERSION INFORMATION
 VERS.                2.0:   CWLS LOG ASCII STANDARD - VERSION 2.0
 WRAP.                 NO:   ONE LINE PER DEPTH STEP
~WELL INFORMATION
#MNEM.UNIT      DATA TYPE    INFORMATION
#----------   ------------   ------------------------------
 STRT.FT        8672.0000:   START DEPTH
 STOP.FT       14432.0000:   STOP DEPTH
 STEP.FT           0.5000:   STEP LENGTH
 NULL.          -999.2500:   NULL VALUE
 COMP. CAPITAN ENERGY, INCORPORATED:   COMPANY
 WELL.  MOTHER FEE 28 #1H:   WELL
 FLD . FORD, WEST (WOLFCAMP)	:   FIELD
 LOC .                   :   LOCATION
 CNTY.          CULBERSON:   COUNTY
 STAT.              TEXAS:   STATE
 CTRY. UNITED STATES OF AMERICA:   COUNTRY
 SRVC.        HALLIBURTON:   SERVICE COMPANY
 DATE.        16-Nov-2015:   LOGDATE
 API .     42109328880000:   API NUMBER
~CURVE INFORMATION
#MNEM.UNIT       API CODE    CURVE DESCRIPTION
#----------   ------------   ------------------------------
 DEPT.FT                 :   
 CALD_C.IN   45 280 60 00:   CALIPER FROM DENSITY COMPOSITE LOG
 DCOR.G/C3   45 356 01 00:   DENSITY CORRECTION
 DPHI_LS.DEC 45 890 10 00:   DENSITY POROSITY LIMESTONE
 DT_CH.US/F  60 501 00 00:   DELTA FROM THE FULL WAVE SONIC IN CASED HOLE
 GRD .GAPI   45 310 01 00:   GAMMA RAY FROM DENSITY LOG
 LLDC.OHMM   11 220 10 00:   CORRECTED LATEROLOG DEEP RESISTIVITY
 LLSC.OHMM   11 220 09 00:   CORRECTED LATEROLOG SHALLOW RESISTIVITY
 MSFLC.OHMM  11 270 04 00:   CORRECTED MICRO SPHERICALLY FOCUSED RESISTIVITY
 NPHI_LS.DEC 42 890 01 00:   NEUTRON POROSITY LIMESTONE
 PE  .B/E    45 358 01 00:   PHOTO ELECTRIC CROSS SECTION
 RHOB_CH.G/C3 45 350 01 00:   
~PARAMETER INFORMATION
#MNEM.UNIT          VALUE    DESCRIPTION
#----------   ------------   ------------------------------
 DATE.           11/16/15:   RUN DATE
 RUN .                  1:   RUN NUMBER
 BLI .FT            14432:   BOTTOM LOG INTERVAL
 TLI .FT             8672:   TOP LOG INTERVAL
 ORIG.     1" 2" 5" PRINT:   ORIGIN OF DATA
 UWI .     42109328880000:   UNIQUE WELL ID
~OTHER INFORMATION
~A   DEPT         CALD_C      DCOR       DPHI_LS      DT_CH       GRD        LLDC        LLSC        MSFLC       NPHI_LS         PE      RHOB_CH
# ...
  9428.0000      8.2664      0.0094      0.0559     64.6034     57.3175     78.2408     59.4685     32.2673      0.0933      3.9441      2.6226
  9428.5000      8.2594      0.0082      0.0450     64.7366     54.1666     77.5900     57.9642     31.6572      0.0887      3.9606      2.6397
  9429.0000      8.2581      0.0069      0.0523     64.8365     58.8483     79.3387     59.0525     32.5970      0.0920      3.9752      2.6382
  9429.5000      8.2581      0.0057      0.0551     64.8365     55.3223     79.5016     59.2697     32.1908      0.0949      3.9897      2.6211
  9430.0000      8.2581      0.0044      0.0427     64.7175     46.4624     78.1442     59.2690     31.3319      0.0868      4.0043      2.6249
  9430.5000      8.2581      0.0031      0.0404     64.5034     49.6482     78.0224     59.2683     31.8929      0.0842      4.0188      2.6479
  9431.0000      8.2937      0.0019      0.0464     64.5034     54.2492     79.7721     59.2676     33.0196      0.0887      4.0446      2.6447
  9431.5000      8.3387      0.0006      0.0457     65.5692     56.8436     79.7755     59.2670     33.0196      0.0925      4.0421      2.6323
  9432.0000      8.3838     -0.0011      0.0541     66.9013     69.7211     80.0228     59.2663     33.8597      0.1012      4.0396      2.6180
  9432.5000      8.4288     -0.0022      0.0705     68.2335     86.0360     80.5134     58.7143     34.1071      0.1180      4.0371      2.6008
  9433.0000      8.4739     -0.0026      0.0878     69.3525     97.1471     75.4574     55.9572     34.3007      0.1289      4.0138      2.5835
  9433.5000      8.5099     -0.0024      0.0926     69.8626    110.9609     71.1909     52.3961     31.8580      0.1342      3.8725      2.5663
  9434.0000      8.5098     -0.0019      0.0952     71.3474    113.2676     54.8730     48.2991     23.2435      0.1371      3.5066      2.5587
  9434.5000      8.4811     -0.0004      0.0975     72.8322    114.6932     35.0905     25.5439     14.7904      0.1420      3.1407      2.5594
  9435.0000      8.4436     -0.0004      0.1013     73.2623    117.9819     23.9045     17.8006     10.6679      0.1466      2.8822      2.5543
  9435.5000      8.4084     -0.0020      0.1004     72.8094    115.6458     16.3268     15.1359      8.9170      0.1487      2.6953      2.5513
  9436.0000      8.3765     -0.0019      0.0984     71.5938    111.3741     15.8488     14.0609      8.4370      0.1447      2.6004      2.5513
  9436.5000      8.3613     -0.0004      0.0942     70.7645    100.4012     15.4050     13.8449      8.0457      0.1391      2.5851      2.5535
  9437.0000      8.3461     -0.0004      0.0881     70.4107     90.8113     14.2790     12.8538      7.6818      0.1336      2.6320      2.5609
  9437.5000      8.3309      0.0006      0.0868     70.1651     88.0450     16.0267     14.0157      8.2391      0.1294      2.6968      2.5639
  9438.0000      8.3158      0.0024      0.0865     70.0652     89.2726     17.9312     15.7212      9.2546      0.1272      2.7505      2.5654
  9438.5000      8.3067      0.0042      0.0894     70.0652     92.9500     20.2626     17.2110     10.0989      0.1242      2.8250      2.5654
  9439.0000      8.3067      0.0063      0.0889     70.0652     91.7093     23.2123     20.5953     11.9464      0.1160      2.9149      2.5654
  9439.5000      8.3067      0.0072      0.0886     69.9653     91.0662     31.0518     25.6686     14.7082      0.1083      3.0602      2.5639
  9440.0000      8.3067      0.0082      0.0849     69.4268     83.2582     39.9027     34.2466     17.7766      0.1014      3.2306      2.5594
  9440.5000      8.3067      0.0091      0.0812     68.5804     77.3273     47.0520     38.0861     20.3553      0.0995      3.4010      2.5550
  9441.0000      8.3444      0.0100      0.0790     67.7339     75.3249     52.5550     40.5220     22.3661      0.0991      3.5485      2.5557
  9441.5000      8.3481      0.0110      0.0790     67.9337     73.8785     51.9303     41.4093     22.5255      0.1003      3.5817      2.5654
  9442.0000      8.3380      0.0119      0.0789     68.5998     72.4624     45.9694     38.8332     20.5989      0.1034      3.5840      2.5736
  9442.5000      8.3279      0.0123      0.0810     69.2659     75.2898     39.6598     33.6661     18.4006      0.1061      3.4873      2.5736
  9443.0000      8.3177      0.0123      0.0847     69.9320     81.2312     33.8747     28.4991     15.4826      0.1103      3.3275      2.5721
  9443.5000      8.3076      0.0114      0.0872     70.1651     89.9399     28.3832     23.3321     13.2310      0.1135      3.1285      2.5691
  9444.0000      8.2458      0.0070      0.0890     70.2770     93.7060     23.1797     19.3959     10.8666      0.1174      2.9842      2.5684
  9444.5000      8.1977      0.0027      0.0855     70.3371     82.9746     17.9552     15.7673      8.7381      0.1182      2.8744      2.5684
  9445.0000      8.1980     -0.0017      0.0819     70.3973     75.3697     14.9979     12.8738      7.5648      0.1166      2.8600      2.5669
  9445.5000      8.2410     -0.0060      0.0827     70.4574     73.5220     13.8439     12.1573      7.4324      0.1159      2.8914      2.5602
  9446.0000      8.3051     -0.0104      0.0873     70.5175     84.8811     15.9910     14.1495      8.4538      0.1168      2.9028      2.5498
  9446.5000      8.3051     -0.0130      0.0896     70.5777     88.9822     16.9221     14.4738      8.9128      0.1174      2.9054      2.5275
  9447.0000      8.3051     -0.0123      0.0862     70.6378     82.9011     15.0970     13.7594      8.0888      0.1171      2.8904      2.5230
  9447.5000      8.3051     -0.0085      0.0891     70.6979     94.2942     16.9286     14.5631      8.8428      0.1204      2.8224      2.5208
  9448.0000      8.3051     -0.0048      0.0904     70.6646     95.7987     16.4024     14.6834      8.4508      0.1211      2.6916      2.5223
  9448.5000      8.3051     -0.0011      0.0870     70.6313     92.3962     14.5040     13.4176      7.5902      0.1235      2.6063      2.5304
  9449.0000      8.3095      0.0026      0.0853     70.6313     90.7157     13.5237     12.1518      6.9819      0.1249      2.5287      2.5758
  9449.5000      8.3219      0.0063      0.0886     71.5537     92.2128     12.0944     10.6365      6.2848      0.1284      2.4568      2.5780
  9450.0000      8.3343      0.0101      0.0917     72.6649     88.7675     10.2252      9.7426      5.8009      0.1317      2.3900      2.5795
  9450.5000      8.3467      0.0116      0.0937     73.3327     87.2554      9.7072      9.4635      5.3511      0.1339      2.3569      2.5809
  9451.0000      8.3136      0.0118      0.0960     73.0558     97.0092      9.9339      9.5618      5.5210      0.1362      2.3279      2.5809
  9451.5000      8.3136      0.0119      0.0979     72.7089    103.0212     10.8411      9.7270      5.9324      0.1363      2.3695      2.5808
  9452.0000      8.3136      0.0121      0.0924     72.6412     87.5175     10.4458      9.7083      5.7582      0.1300      2.3750      2.5793
  9452.5000      8.3136      0.0123      0.0902     72.6105     86.8050     10.4783      9.8676      5.8795      0.1298      2.4367      2.5726
  9453.0000      8.3136      0.0124      0.0900     72.7467     91.8666     11.0786     10.2678      6.2458      0.1336      2.4898      2.5681
  9453.5000      8.3136      0.0126      0.0963     72.9491    105.1051     12.3078     10.7979      6.8248      0.1386      2.4740      2.5643
  9454.0000      8.3136      0.0128      0.0977     73.1277    109.5130     12.2698     11.2197      6.8439      0.1388      2.4297      2.5605
  9454.5000      8.3098      0.0130      0.0985     73.3446    108.8280     11.6316     10.8632      6.4200      0.1373      2.3580      2.5575
  9455.0000      8.3422      0.0131      0.0949     73.3901    105.1087     10.8110      9.8521      5.9775      0.1335      2.2874      2.5590
  9455.5000      8.3088      0.0133      0.0988     73.2595    112.1021     11.1412     10.3202      6.1689      0.1387      2.2845      2.5619
