###############################################
##         ENVERUS                           ##
##         ESS - Open Hole                   ##
##         PERMIAN / DELAWARE                ##
##         Nov 02 2023  V4.0                 ##
##         42-109-31375-00-00                ##
###############################################
## Copyright 2017-2023  ENVERUS.  All Rights Reserved. 
## Confidential - Property of ENVERUS, use governed by terms and 
## conditions found within the existing Information Services Subscription Agreement 
## (as may be amended, the “ISSA”) between Customer and ENVERUS. 
## 
~VERSION INFORMATION
# MNEM.UNIT                               DATA : DESCRIPTION OF MNEMONIC
#-----.-----     ----------------------------- : -----------------------------
VERS.                                     2.00 : CWLS LOG ASCII STANDARD - VERSION 2.00
WRAP.                                       NO : MULTIPLE LINES PER DEPTH STEP
VEND.                                  ENVERUS : VENDOR
TYPE.                          ESS - OPEN HOLE : ENVERUS ESSENTIAL CURVES – ACCESSIBLE THROUGH ENVERUS PRISM(TM)
DOC.                                  32006335 : ENVERUS HEADER RAW DOCUMENT ID
#___________________________________________________________________________________________________ 
~WELL INFORMATION 
# Eb7Zbut2Nwqt2ftj1i2q6V2Ye1Joym9Qrd6BFF0aHeZ6Mf1z+VAuEcbs4uVngcAWjTW62nvWGWatc34NWk2mnA== 
# MNEM.UNIT                                              DATA : DESCRIPTION OF MNEMONIC 
#-----.-----                    ----------------------------- : ----------------------------- 
CNTY.                                               CULBERSON : COUNTY 
STATE.                                                  TEXAS : STATE 
CNTRY.                                                    USA : COUNTRY 
API.                                             42-109-31375 : API (10 Digit) 
API_14.                                    42-109-31375-00-00 : API (14 Digits) 
API_14_std.                                 42-109-31375-0000 : API (14 Digits Standard) 
UWI.                                           42109313750000 : UNIQUE WELL ID 
WELL.                                      7806 JV-P DUVAL  1 : WELL NAME
STRT.FT                                                     0 : START DEPTH
STOP.FT                                               15739.0 : STOP DEPTH
STEP.FT                                                   0.5 : STEP BETWEEN DEPTHS
NULL.                                                 -999.25 : NULL VALUE
COMP.                                  BTA OIL PRODUCERS  LLC : COMPANY 
DATE.                                             26-MAY-1978 : LOG DATE
#___________________________________________________________________________________________________ 
~CURVE INFORMATION 
# MNEM.UNIT           : CURVE DESCRIPTION 
#-----.-----          : ----------------------------- 
 DEPT.FT               : MEASURED DEPTH 
 CALI.IN               : CALIPER (CAL - CAL) 
 GR.API                : GAMMA RAY (GR) 
 DT.US/FT              : SONIC DELTA TRANSIT TIME (DT) 
 #___________________________________________________________________________________________________ 
~A         DEPT           CALI             GR             DT
# ...
        13860.0          9.243         70.855         72.576
        13860.5          9.246         70.698         73.779
        13861.0          9.248         71.860         73.854
        13861.5          9.251         74.334         73.813
        13862.0          9.253         80.582         73.773
        13862.5          9.255         86.056         73.732
        13863.0          9.254         86.954         73.691
        13863.5          9.254         86.728         73.650
        13864.0          9.253         85.568         73.522
        13864.5          9.253         83.257         72.678
        13865.0          9.253         79.272         71.833
        13865.5          9.252         75.286         70.989
        13866.0          9.252         73.522         70.145
        13866.5          9.251         72.168         69.300
        13867.0          9.251         70.156         68.933
        13867.5          9.251         67.533         69.261
        13868.0          9.250         64.910         69.590
        13868.5          9.262         68.455         70.281
        13869.0          9.276         76.459         70.983
        13869.5          9.289         84.892         71.685
        13870.0          9.303         93.325         74.614
        13870.5          9.317         95.393         74.709
        13871.0          9.322         96.371         74.805
        13871.5          9.318         97.349         74.901
        13872.0          9.314         98.327         76.098
        13872.5          9.310        114.245         77.437
        13873.0          9.312        121.779         78.775
        13873.5          9.315        126.657         80.114
        13874.0          9.317        131.534         81.452
        13874.5          9.320        136.411         82.791
        13875.0          9.322        136.429         84.129
        13875.5          9.324        135.934         85.468
        13876.0          9.327        133.789         86.806
        13876.5          9.329        131.644         88.145
        13877.0          9.331        129.499         88.551
        13877.5          9.333        127.354         88.594
        13878.0          9.336        125.175         88.637
        13878.5          9.338        121.324         88.681
        13879.0          9.340        117.472         88.724
        13879.5          9.343        113.620         87.549
        13880.0          9.345        109.764         84.936
        13880.5          9.347        105.907         82.324
        13881.0          9.349        102.050         80.225
        13881.5          9.352         98.193         78.565
        13882.0          9.352         95.314         77.602
        13882.5          9.350         94.581         76.638
        13883.0          9.347         93.847         75.675
        13883.5          9.345         93.114         75.864
        13884.0          9.343         92.920         77.430
        13884.5          9.340         94.644         78.048
        13885.0          9.338         96.108         77.764
        13885.5          9.335         95.849         77.479
        13886.0          9.333         95.589         77.194
        13886.5          9.330         95.330         76.910
        13887.0          9.328         95.071         76.625
        13887.5          9.325         94.811         76.340
        13888.0          9.323         94.552         76.055
        13888.5          9.321         97.000         76.743
        13889.0          9.318         99.534         77.558
        13889.5          9.316        102.281         78.369
        13890.0          9.313        102.180         79.125
        13890.5          9.311        101.975         79.880
        13891.0          9.308         99.290         77.059
        13891.5          9.304         97.635         75.661
        13892.0          9.300         96.785         74.742
        13892.5          9.296         95.834         73.823
        13893.0          9.292         94.843         73.601
        13893.5          9.288         93.852         74.163
        13894.0          9.284         93.075         74.725
        13894.5          9.281         93.070         75.286
        13895.0          9.283         93.065         75.848
        13895.5          9.284         90.542         76.009
        13896.0          9.286         88.522         75.434
        13896.5          9.288         86.501         74.859
        13897.0          9.289         84.481         74.284
        13897.5          9.291         82.460         74.432
        13898.0          9.293         85.823         75.818
        13898.5          9.294         89.445         77.203
        13899.0          9.296         91.346         78.090
        13899.5          9.298         91.722         78.408
        13900.0          9.299         93.789         78.727
        13900.5          9.301         97.802         79.045
        13901.0          9.303        101.815         79.364
        13901.5          9.304         99.299         79.126
        13902.0          9.306         94.366         78.069
        13902.5          9.307         93.439         77.012
        13903.0          9.309         97.059         75.954
        13903.5          9.310        104.629         75.870
        13904.0          9.312        114.328         76.757
        13904.5          9.313        124.811         77.643
        13905.0          9.315        135.570         79.692
        13905.5          9.316        146.328         86.538
        13906.0          9.318        151.280         88.711
        13906.5          9.320        151.394         90.437
        13907.0          9.321        151.508         92.162
        13907.5          9.323        142.952         89.384
        13908.0          9.324        133.402         86.543
        13908.5          9.326        122.893         84.090
        13909.0          9.327        106.958         81.658
        13909.5          9.329         92.218         79.368
        13910.0          9.330         95.943         78.927
        13910.5          9.332         98.426         78.487
        13911.0          9.333         99.872         78.046
        13911.5          9.335        101.319         78.251
        13912.0          9.336        102.766         78.486
        13912.5          9.338         98.699         78.722
        13913.0          9.340         94.498         78.560
        13913.5          9.341         91.095         77.403
        13914.0          9.340         92.880         76.245
        13914.5          9.335         94.665         75.534
        13915.0          9.329         95.713         76.063
        13915.5          9.323         92.608         76.591
        13916.0          9.318         91.101         77.120
        13916.5          9.312         91.716         77.648
        13917.0          9.306         92.332         78.132
        13917.5          9.300         92.948         78.362
        13918.0          9.295         93.563         78.592
        13918.5          9.289         94.819         78.823
        13919.0          9.294        101.104         79.053
        13919.5          9.301        100.265         79.284
        13920.0          9.308         93.949         78.294
        13920.5          9.314         89.592         76.644
        13921.0          9.321         89.273         74.993
        13921.5          9.328         88.954         74.465
        13922.0          9.335         88.634         74.427
        13922.5          9.334         88.315         74.389
        13923.0          9.331         87.218         74.351
        13923.5          9.329         84.634         74.313
        13924.0          9.326         82.050         74.275
        13924.5          9.323         80.668         74.683
        13925.0          9.323         84.792         75.196
        13925.5          9.327         88.916         75.710
