~VERSION INFORMATION
 VERS.                2.0:   CWLS LOG ASCII STANDARD - VERSION 2.0
 WRAP.                 NO:   ONE LINE PER DEPTH STEP
~WELL INFORMATION
#MNEM.UNIT      DATA TYPE    INFORMATION
#----------   ------------   ------------------------------
 STRT.FT        8672.0000:   START DEPTH
 STOP.FT       14432.0000:   STOP DEPTH
 STEP.FT           0.5000:   STEP LENGTH
 NULL.          -999.2500:   NULL VALUE
 COMP. CAPITAN ENERGY, INCORPORATED:   COMPANY
 WELL.  MOTHER FEE 28 #1H:   WELL
 FLD . FORD, WEST (WOLFCAMP)	:   FIELD
 LOC .                   :   LOCATION
 CNTY.          CULBERSON:   COUNTY
 STAT.              TEXAS:   STATE
 CTRY. UNITED STATES OF AMERICA:   COUNTRY
 SRVC.        HALLIBURTON:   SERVICE COMPANY
 DATE.        16-Nov-2015:   LOGDATE
 API .     42109328880000:   API NUMBER
~CURVE INFORMATION
#MNEM.UNIT       API CODE    CURVE DESCRIPTION
#----------   ------------   ------------------------------
 DEPT.FT                 :   
 CALD_C.IN   45 280 60 00:   CALIPER FROM DENSITY COMPOSITE LOG
 DCOR.G/C3   45 356 01 00:   DENSITY CORRECTION
 DPHI_LS.DEC 45 890 10 00:   DENSITY POROSITY LIMESTONE
 DT_CH.US/F  60 501 00 00:   DELTA FROM THE FULL WAVE SONIC IN CASED HOLE
 GRD .GAPI   45 310 01 00:   GAMMA RAY FROM DENSITY LOG
 LLDC.OHMM   11 220 10 00:   CORRECTED LATEROLOG DEEP RESISTIVITY
 LLSC.OHMM   11 220 09 00:   CORRECTED LATEROLOG SHALLOW RESISTIVITY
 MSFLC.OHMM  11 270 04 00:   CORRECTED MICRO SPHERICALLY FOCUSED RESISTIVITY
 NPHI_LS.DEC 42 890 01 00:   NEUTRON POROSITY LIMESTONE
 PE  .B/E    45 358 01 00:   PHOTO ELECTRIC CROSS SECTION
 RHOB_CH.G/C3 45 350 01 00:   
~PARAMETER INFORMATION
#MNEM.UNIT          VALUE    DESCRIPTION
#----------   ------------   ------------------------------
 DATE.           11/16/15:   RUN DATE
 RUN .                  1:   RUN NUMBER
 BLI .FT            14432:   BOTTOM LOG INTERVAL
 TLI .FT             8672:   TOP LOG INTERVAL
 ORIG.     1" 2" 5" PRINT:   ORIGIN OF DATA
 UWI .     42109328880000:   UNIQUE WELL ID
~OTHER INFORMATION
~A   DEPT         CALD_C      DCOR       DPHI_LS      DT_CH       GRD        LLDC        LLSC        MSFLC       NPHI_LS         PE      RHOB_CH
# ...
 13656.0000   -999.2500   -999.2500      0.0852     70.0783     94.7427     53.1473     40.9640     23.5585      0.1408      3.6031      2.5724
 13656.5000   -999.2500   -999.2500      0.0879     70.1672    107.0445     56.4259     44.0563     25.4257      0.1429      3.5829      2.5690
 13657.0000   -999.2500   -999.2500      0.0880     70.2561    110.5586     58.6050     45.6524     26.3128      0.1451      3.5829      2.5702
 13657.5000   -999.2500   -999.2500      0.0867     70.3450    105.6758     55.0141     43.1429     24.9538      0.1469      3.5829      2.5702
 13658.0000   -999.2500   -999.2500      0.0881     70.3983    110.0152     56.6520     43.9784     25.4580      0.1483      3.5829      2.5684
 13658.5000   -999.2500   -999.2500      0.0886     70.3378    107.5507     56.5106     43.7241     26.1788      0.1477      3.5829      2.5684
 13659.0000   -999.2500   -999.2500      0.0857     70.2621    101.0941     52.6562     40.7568     23.9628      0.1472      3.5749      2.5724
 13659.5000   -999.2500   -999.2500      0.0844     70.1985     97.5181     48.5778     38.3993     22.3472      0.1472      3.5624      2.5734
 13660.0000   -999.2500   -999.2500      0.0848     70.3284     99.4209     48.9801     39.1085     22.7809      0.1478      3.5568      2.5744
 13660.5000   -999.2500   -999.2500      0.0857     70.5449    102.8865     48.5779     38.3902     22.1496      0.1480      3.5427      2.5728
 13661.0000   -999.2500   -999.2500      0.0891     70.6648    110.7636     52.8304     42.4254     24.0503      0.1480      3.5317      2.5648
 13661.5000   -999.2500   -999.2500      0.0927     70.5664    120.7507     59.6241     46.5060     26.6429      0.1476      3.5250      2.5623
 13662.0000   -999.2500   -999.2500      0.0912     70.4680    116.2396     58.3421     45.0645     26.6116      0.1464      3.5230      2.5622
 13662.5000   -999.2500   -999.2500      0.0880     70.3696    110.6456     55.1278     43.1424     25.2024      0.1456      3.5043      2.5663
 13663.0000   -999.2500   -999.2500      0.0865     70.2712    108.2582     53.8901     40.9952     24.2381      0.1456      3.5046      2.5721
 13663.5000   -999.2500   -999.2500      0.0842     70.2318    102.5525     48.3568     39.3234     22.4453      0.1456      3.5048      2.5781
 13664.0000   -999.2500   -999.2500      0.0817     70.2318     99.2492     43.6913     33.8095     20.4591      0.1460      3.4792      2.5788
 13664.5000   -999.2500   -999.2500      0.0803     70.2984     96.3908     40.3061     32.0610     18.8415      0.1464      3.4654      2.5806
 13665.0000   -999.2500   -999.2500      0.0803     70.4649     96.3784     36.5734     28.9813     17.2827      0.1464      3.4656      2.5784
 13665.5000   -999.2500   -999.2500      0.0843     70.4649    102.4859     41.9120     34.3488     19.0116      0.1460      3.4845      2.5753
 13666.0000   -999.2500   -999.2500      0.0842     70.4655     96.2537     39.3758     31.4812     19.0272      0.1437      3.4940      2.5747
 13666.5000   -999.2500   -999.2500      0.0841     70.4683     96.0973     38.4388     30.9706     18.2709      0.1424      3.5072      2.5722
 13667.0000   -999.2500   -999.2500      0.0870     70.4710    100.4903     41.8121     33.4877     20.1244      0.1412      3.4897      2.5705
 13667.5000   -999.2500   -999.2500      0.0868     70.4738     99.8809     41.2218     33.3398     19.8127      0.1392      3.4676      2.5702
 13668.0000   -999.2500   -999.2500      0.0868     70.4766    101.7019     42.0519     33.6673     19.7611      0.1377      3.4458      2.5705
 13668.5000   -999.2500   -999.2500      0.0867     70.4794    102.1321     43.1417     34.3118     20.1532      0.1376      3.4279      2.5726
 13669.0000   -999.2500   -999.2500      0.0841     70.4821     98.3483     42.1535     34.5615     19.5668      0.1375      3.4688      2.5774
 13669.5000   -999.2500   -999.2500      0.0806     70.4849     89.4967     37.7164     30.9007     17.7204      0.1381      3.4696      2.5801
 13670.0000   -999.2500   -999.2500      0.0790     70.4877     88.9067     37.1379     29.8674     17.3864      0.1405      3.4936      2.5812
 13670.5000   -999.2500   -999.2500      0.0798     70.4905     90.6154     37.1956     29.8673     17.4273      0.1422      3.5020      2.5791
 13671.0000   -999.2500   -999.2500      0.0820     70.4932     93.3933     37.2670     29.9829     17.7260      0.1432      3.4858      2.5788
 13671.5000   -999.2500   -999.2500      0.0833     70.4960     95.7244     37.6245     30.3343     18.0518      0.1440      3.4615      2.5754
 13672.0000   -999.2500   -999.2500      0.0840     70.4982     98.1698     38.4878     31.6723     18.4013      0.1435      3.4453      2.5752
 13672.5000   -999.2500   -999.2500      0.0840     70.2333     96.4178     39.7973     32.0987     18.7509      0.1420      3.4413      2.5786
 13673.0000   -999.2500   -999.2500      0.0816     69.9684     90.7170     38.6775     30.6646     17.8244      0.1406      3.4413      2.5788
 13673.5000   -999.2500   -999.2500      0.0797     69.7035     89.1369     37.0391     31.3704     17.9693      0.1384      3.4615      2.5790
 13674.0000   -999.2500   -999.2500      0.0812     69.4386     91.7115     41.8645     34.0312     19.7262      0.1380      3.4817      2.5806
 13674.5000   -999.2500   -999.2500      0.0795     69.2660     86.8670     40.9088     32.6220     18.7561      0.1367      3.5025      2.5812
 13675.0000   -999.2500   -999.2500      0.0795     69.3104     88.4888     41.5709     33.3133     19.0839      0.1362      3.5050      2.5809
 13675.5000   -999.2500   -999.2500      0.0798     69.5879     93.5645     42.5292     35.8603     20.2179      0.1357      3.5425      2.5791
 13676.0000   -999.2500   -999.2500      0.0816     69.8655     98.4462     46.7396     37.1058     20.7319      0.1355      3.5566      2.5806
 13676.5000   -999.2500   -999.2500      0.0791     70.1430     89.0105     41.2407     32.7149     19.1123      0.1343      3.5592      2.5808
 13677.0000   -999.2500   -999.2500      0.0802     70.2318     92.5353     41.8291     33.2926     19.4539      0.1360      3.5617      2.5791
 13677.5000   -999.2500   -999.2500      0.0816     70.2651     94.3911     42.6355     33.4494     19.7213      0.1380      3.5520      2.5792
 13678.0000   -999.2500   -999.2500      0.0814     70.2651     96.3213     41.7301     34.1167     19.9350      0.1396      3.5637      2.5793
 13678.5000   -999.2500   -999.2500      0.0833     70.2241     99.0858     45.6974     34.4260     20.6949      0.1413      3.5425      2.5794
 13679.0000   -999.2500   -999.2500      0.0819     70.1559     94.7447     41.0929     32.9707     18.8519      0.1404      3.5425      2.5794
 13679.5000   -999.2500   -999.2500      0.0827     70.0876     94.4463     40.3713     32.0683     18.6482      0.1404      3.5374      2.5795
 13680.0000   -999.2500   -999.2500      0.0807     70.0193     88.2485     36.9258     29.3882     17.0234      0.1399      3.5123      2.5837
 13680.5000   -999.2500   -999.2500      0.0797     69.9511     90.9222     34.4977     28.6239     16.9670      0.1392      3.5023      2.5798
 13681.0000   -999.2500   -999.2500      0.0827     69.9435     96.8468     41.1409     33.1996     18.7662      0.1390      3.4852      2.5795
 13681.5000   -999.2500   -999.2500      0.0810     69.9512     93.5006     40.0344     31.4500     18.3816      0.1370      3.4766      2.5791
 13682.0000   -999.2500   -999.2500      0.0802     69.9588     94.3762     41.2046     32.5729     18.5042      0.1363      3.4909      2.5788
 13682.5000   -999.2500   -999.2500      0.0834     69.9664     97.9279     42.3479     33.9333     19.8225      0.1381      3.5047      2.5754
 13683.0000   -999.2500   -999.2500      0.0826     69.9741     96.8288     41.5880     33.5595     19.4940      0.1395      3.5047      2.5748
 13683.5000   -999.2500   -999.2500      0.0835     69.9817     96.5379     41.1365     32.7729     19.0833      0.1407      3.5194      2.5751
