~Version Information
 VERS.                  2.0:   CWLS log ASCII Standard -VERSION 2.0
 WRAP.                   NO:   One line per depth step
~Well Information Block
#MNEM.UNIT       Data Type    Information
#---------     -----------    ---------------------------
 STRT.F              3503.5000:
 STOP.F             12186.0000:
 STEP.F                 0.5000:
 NULL.               -999.2500:
 UWI .            42-109-32278:  API WELLHOLE NUMBER
 COMP.     SAMSON LONE STAR LP:  COMPANY NAME
 COUN.               CULBERSON:  COUNTY
 DAT2.                   02000:  LOGGING DATE 2
 DAT3.                   02000:  LOGGING DATE 3
 DAT4.                   02000:  LOGGING DATE 4
 DATE.                   02000:  LOGGING DATE
 DMF .           KELLY BUSHING:  DRILLING MEASURED
 LOC .    1521' FWL AND 2040' FSL:  FIELD LOCATION
 FL1 .    1521' FWL AND 2040' FSL:  FIELD LOCATION LINE 1
 FL2 .        SEC. 14, BLK. 46:  FIELD LOCATION LINE 2
 FLD .                 WILDCAT:  FIELD NAME
 HDAT.                   02000:  DATUM
 LMF .                    K.B.:  LOG MEASURED FROM
 OS1 .                    XRMI:  OTHER SERVICES LINE 1
 OS2 .               LSS / FWS:  OTHER SERVICES LINE 2
 OS3 .                 SDL/DSN:  OTHER SERVICES LINE 3
 OS4 .                DLL/MGRD:  OTHER SERVICES LINE 4
 PDAT.            GROUND LEVEL:  PERMANENT DATUM
 R1  .    TOOLSTRING: RWCH/D4TS/NGRT/LFS_D2/XRMI/CENT:  REMARKS LINE 1
 R2  .    LOGGING INTERVALS AS PER CUSTOMER REQUEST.:  REMARKS LINE 2
 RDT2.                   02000:  CASING DATE 2
 RDT3.                   02000:  CASING DATE 3
 RDT4.                   02000:  CASING DATE 4
 RDT5.                   02000:  CASING DATE 5
 SON .                 4992511:  SERVICE/TICKET ORDER NUMBER
 PROV.                   TEXAS:  STATE
 WELL.    UNIVERSITY LANDS 46-14 No. 2:  WELL NAME
~Parameter Information Block
#MNEM.UNIT       Value        Description
#---------     -----------    ---------------------------
~Curve Information Block
#MNEM.UNIT                 API CODE     Curve Description
#---------               -----------    ---------------------------
 DEPT.F                 00 000 000 000:  
 LLD .ohmm              00 000 000 000:  LLD                                    
 LLS .ohmm              00 000 000 000:  LLS                                    
 NPHI.decp              00 000 000 000:  Neutron Porosity                       
 GR  .api               00 000 000 000:  Gamma API                              
 MGRD.ohmm              00 000 000 000:  MCGRD                                  
 DRHO.g/cc              00 000 000 000:  DensityCorr                            
 DPHI.decp              00 000 000 000:  DensityPorosity                        
 PE  .b/e               00 000 000 000:  Pe                                     
 RHOB.g/cc              00 000 000 000:  Density                                
 XPHI.decp              00 000 000 000:  CrossplotPhi                           
 CALI.in                00 000 000 000:  Caliper                                
 DTC .                  00 000 000 000:  DELTA-T COMPRESSIONAL - FWS
 GR2 .GAPI              00 000 000 000:  NATURAL GAMMA - FWS
 SPHI.DECP              00 000 000 000:  SONIC POROSITY MTX=47.6 (DTC)
~A  DEPT        LLD        LLS        NPHI       GR         MGRD       DRHO       DPHI       PE         RHOB       XPHI       CALI       DTC        GR2        SPHI   
# ...
 7619.5000   214.4332   172.6897     0.1609    79.4685    36.4079     0.0510     0.0854     3.6098     2.5640     0.1338    10.4947    73.3586    83.0146     0.1822 
 7620.0000   215.9529   173.4304     0.1802   110.5091    29.1808     0.0550     0.1020     3.2881     2.5356     0.1508    10.5099    73.9032    96.5186     0.1860 
 7620.5000   192.7503   159.7609     0.1946   120.3227    26.7658     0.0714     0.1026     3.1258     2.5345     0.1589    10.5252    75.4132   106.3976     0.1967 
 7621.0000   154.7224   134.8654     0.2018   113.7092    26.0704     0.0791     0.1067     3.1823     2.5275     0.1643    10.5328    76.7708   107.4868     0.2063 
 7621.5000   119.2807   110.6227     0.2062   103.9490    26.5492     0.0781     0.1080     3.2324     2.5253     0.1673    10.5405    78.6696   102.8323     0.2197 
 7622.0000    93.2399    92.6525     0.1960    96.6422    26.5449     0.0809     0.0933     3.1576     2.5504     0.1561    10.5481    79.8253    98.9096     0.2279 
 7622.5000    72.4889    74.3795     0.1972   108.5358    23.7024     0.0831     0.0822     2.9724     2.5695     0.1526    10.5634    79.4563    98.7139     0.2253 
 7623.0000    59.0635    61.2543     0.2106   121.6561    23.4190     0.0852     0.0740     2.8210     2.5834     0.1569    10.5786    79.2713   103.7002     0.2240 
 7623.5000    52.0347    52.9023     0.2172   122.0827    17.3247     0.0900     0.0626     2.7903     2.6030     0.1564    10.5863    79.1407   109.5715     0.2231 
 7624.0000    48.6688    49.0923     0.2084   113.2292    13.6667     0.0817     0.0696     2.8709     2.5911     0.1541    10.6092    79.2944   111.2393     0.2241 
 7624.5000    49.3218    48.7431     0.1992    96.3222    13.1691     0.0836     0.0915     2.9777     2.5535     0.1543    10.6092    79.2743   101.7091     0.2240 
 7625.0000    54.3683    53.2548     0.1843    83.0952     8.9372     0.1296     0.1007     3.0647     2.5379     0.1526    10.5786    77.7777    90.6558     0.2134 
 7625.5000    63.4992    61.3428     0.1664    82.0285    11.2802     0.1521     0.0983     3.2527     2.5419     0.1417    10.5710    74.9871    80.7555     0.1937 
 7626.0000    77.7320    77.1812     0.1599    80.4818    22.6260     0.1182     0.0850     3.4786     2.5647     0.1331    10.5710    72.2577    74.9438     0.1744 
 7626.5000    92.7592    91.8761     0.1529    76.2684    63.4819     0.0990     0.0553     3.6186     2.6154     0.1252    10.5328    69.4646    72.4421     0.1546 
 7627.0000   104.4742   105.0919     0.1477    74.6683    59.6729     0.0977     0.0399     3.7008     2.6418     0.1105    10.5405    67.7399    73.9142     0.1424 
 7627.5000   113.1983   114.6527     0.1341    67.4682    47.9862     0.0907     0.0419     3.6520     2.6384     0.1070    10.5481    65.7427    74.7991     0.1283 
 7628.0000   121.6047   126.3715     0.1269    54.1879    75.5017     0.0906     0.0362     3.7092     2.6481     0.0971    10.5481    64.3320    71.2976     0.1183 
 7628.5000   129.9184   140.3601     0.1155    49.4944   128.1078     0.0915     0.0282     3.9433     2.6617     0.0878    10.5481    64.0022    66.0390     0.1160 
 7629.0000   128.8167   137.8591     0.1017    67.0948    81.2018     0.0824     0.0425     3.8774     2.6373     0.0839    10.5481    64.5820    70.5829     0.1201 
 7629.5000   122.1781   126.8302     0.1205    96.4288    44.0351     0.0792     0.0731     3.5786     2.5849     0.0920    10.5634    66.4620    85.7120     0.1334 
 7630.0000   111.4048   109.4710     0.1539   116.8026    37.3841     0.0898     0.0962     3.4178     2.5456     0.1212    10.5786    67.4948   102.4579     0.1407 
 7630.5000   104.8455   101.4663     0.1837   112.8025    34.0309     0.0939     0.1044     3.3899     2.5315     0.1537    10.5863    71.3819   112.4221     0.1682 
 7631.0000   102.9531    99.7995     0.1971   104.5357    22.9920     0.0916     0.0979     3.3325     2.5426     0.1584    10.5939    74.8391   116.7362     0.1926 
 7631.5000    99.7800    94.5321     0.1872   108.8558    19.7431     0.0988     0.0873     3.1945     2.5607     0.1491    10.6092    76.3153   119.9271     0.2031 
 7632.0000   100.2421    91.2923     0.1961   119.6827    21.7901     0.1017     0.0829     3.1070     2.5682     0.1523    10.6168    77.3847   120.3525     0.2106 
 7632.5000   107.2005    95.8649     0.2017   114.9359    23.9037     0.0854     0.0807     3.1336     2.5720     0.1562    10.6550    75.6424   110.1076     0.1983 
 7633.0000   126.6240   116.8355     0.1692    83.4152    38.6335     0.0703     0.0585     3.4088     2.6099     0.1288    10.6626    71.7877    88.7753     0.1711 
 7633.5000   169.1571   158.7729     0.1252    49.6544    83.5968     0.0719     0.0114     4.0000     2.6905     0.0885    10.6473    68.2565    65.0009     0.1461 
 7634.0000   242.4016   218.1174     0.0798    37.2275   134.6737     0.0767    -0.0245     4.5047     2.7519     0.0509    10.6321    62.9766    48.2040     0.1087 
 7634.5000   332.0696   269.3764     0.0569    37.0675   139.4377     0.0720    -0.0195     4.5854     2.7434     0.0374    10.6168    56.3988    38.8695     0.0622 
 7635.0000   448.6545   333.9570     0.0513    32.4807   189.2472     0.0655     0.0063     4.4524     2.6993     0.0382    10.6168    53.4923    31.9346     0.0417 
 7635.5000   586.8839   462.7494     0.0446    24.8539  1668.6371     0.0622     0.0194     4.5307     2.6768     0.0416    10.6321    51.8946    25.5188     0.0304 
 7636.0000   689.6068   579.7512     0.0333    19.9471  1331.6665     0.0602     0.0204     4.8306     2.6752     0.0324    10.6244    52.0663    24.3360     0.0316 
 7636.5000   586.7849   513.3386     0.0371    22.0272   648.6764     0.0629     0.0136     4.9294     2.6867     0.0330    10.6244    52.9450    33.1599     0.0378 
 7637.0000   347.6260   293.4168     0.0620    52.2678   115.5621     0.0642     0.0191     4.5621     2.6773     0.0513    10.6321    53.8989    54.5773     0.0445 
 7637.5000   205.7712   163.4614     0.1038   101.3889    43.7705     0.0600     0.0594     3.9021     2.6083     0.0909    10.6473    58.8611    81.1512     0.0796 
 7638.0000   143.3514   110.2965     0.1521   132.5896    29.9920     0.0549     0.1037     3.3882     2.5326     0.1154    10.6702    65.1857   103.2833     0.1244 
 7638.5000   113.4910    89.3038     0.1923   149.0700    27.3430     0.0518     0.1218     3.1889     2.5018     0.1652    10.6855    71.5184   115.1450     0.1692 
 7639.0000    96.8903    80.5857     0.2180   143.8966    27.6265     0.0517     0.1181     3.1539     2.5080     0.1774    10.7008    76.2504   117.5956     0.2026 
 7639.5000    85.8625    75.3376     0.2188   115.6293    25.1040     0.0530     0.1045     3.1487     2.5313     0.1725    10.7160    78.9524   115.7236     0.2217 
 7640.0000    76.9635    69.3973     0.2087   103.0423    18.4026     0.0548     0.0934     3.0732     2.5504     0.1629    10.7389    79.6630   113.8941     0.2268 
 7640.5000    70.0538    63.9571     0.2140   109.6025    14.3265     0.0565     0.0929     2.9597     2.5511     0.1656    10.7466    79.8571   115.1365     0.2281 
 7641.0000    66.3070    60.5219     0.2175   104.0557    12.3539     0.0534     0.0968     2.9335     2.5445     0.1682    10.7542    79.2035   113.1198     0.2235 
 7641.5000    67.9681    62.1054     0.2017    89.7620    13.0646     0.0457     0.0995     3.0097     2.5398     0.1657    10.7847    77.9546   106.5338     0.2147 
 7642.0000    72.6971    66.6396     0.1789    83.3085    17.5621     0.0373     0.0999     3.0486     2.5391     0.1493    10.8000    75.6786    96.0336     0.1986 
 7642.5000    76.5666    70.4066     0.1744    77.4951    31.4373     0.0289     0.0954     3.0944     2.5468     0.1451    10.7771    73.1835    85.5674     0.1809 
 7643.0000    73.0132    69.3627     0.1593    83.6819    47.2795     0.0251     0.0916     3.3554     2.5533     0.1352    10.7466    71.7699    85.6525     0.1709 
 7643.5000    61.3245    60.2349     0.1550   106.7757    35.4511     0.0280     0.0932     3.6395     2.5506     0.1334    10.7313    71.2737    90.4261     0.1674 
