~Version Information
 VERS.                  2.0:   CWLS log ASCII Standard -VERSION 2.0
 WRAP.                   NO:   One line per depth step
~Well Information Block
#MNEM.UNIT     VALUE/NAME     DESCRIPTION
#---------     -----------    ---------------------------
 STRT.F              8432.0000: START DEPTH
 STOP.F             13842.0000: STOP DEPTH
 STEP.F                 0.5000: STEP DEPTH
 NULL.                 -999.25: NULL VALUE
 LOC .     100' FNL & 990' FEL:  LOCATION
 FL6 .       API  42-109-33163:  LOCATIONLINE6
 FL4 .           ABSTRACT 1006:  LOCATIONLINE4
 FL3 .        T&P RR CO SURVEY:  LOCATIONLINE3
 FL2 .     SECTION 36, BLOCK 59 T2:  LOCATIONLINE2
 FL1 .     100' FNL & 990' FEL:  LOCATIONLINE1
 DMF .                      KB:  DRILL MEAS FROM
 PDAT.                      GL:  PERMANENT DATUM
 CNTY.               CULBERSON:  COUNTY NAME
 FLD .     FORD, WEST (WOLFCAMP):  FIELD NAME
 WELL.         SCOTT FEE 36 2H:  WELL NAME
 COMP.     CAPITAN ENERGY INC.:  COMPANY
 DATE.             11-Oct-2017:  DATE
 SVCO.             Halliburton:  SERVICECONAME
 PROV.                   TEXAS:  PROVINCE
 STAT.                   TEXAS:  STATE NAME
 CTRY.           UNITED STATES:  COUNTRY NAME
 HIDE.                        :  WELLNAMEOPERAT
 BASI.                 PERMIAN:  BASIN
 UWI .            42-109-33163Lat:  UNIQUE WELL IDENTIFIER
 API .            42-109-33163Lat:  API NUMBER
 RANG.                     N/A:  RANGE
 TOWN.                     N/A:  TOWNSHIP
 SECT.                     N/A:  SECTION
 SON .               904352259:  JOB NUMBER
 SRVC.             Halliburton:  SERVICE COMPANY
 LMF .                      KB:  LOG MEASURED FROM
 EGL .ft             3174.0000:  GROUND ELEVATION
 BAP .ft                0.0000:  GL ELEV ONSHORE
 GVFD.g                 1.0000:  GRAVITY FIELD
 EKB .ft             3200.0000:  KB ELEVATION
 EDF .ft             3199.0000:  DF ELEVATION
~Curve Information Block
#MNEM.UNIT                 API CODE     Curve Description
#---------               -----------    ---------------------------
 DEPT.F                 00 000 000 000:  Depth
 CCL .V                 00 000 000 000:  Casing Collar Locator
 NPHI_OH.pu             00 000 000 000:  NPHI_OH
 NPHI_CHI.pu            00 000 000 000:  NPHI_CHI
 GR_CHI.api             00 000 000 000:  GR_CHI
 GR_OH.api              00 000 000 000:  GR_OH
 RHOB_OH.g/cc           00 000 000 000:  RHOB_OH
 RHOB_CHI.g/cc          00 000 000 000:  RHOB_CHI
 PE_CHI.b/e             00 000 000 000:  PE_CHI
 PE_OH.b/e              00 000 000 000:  PE_OH
 MSFL_OH.ohmm           00 000 000 000:  MSFL_OH
 MSFL_CHI.ohmm          00 000 000 000:  MSFL_CHI
 LLS_OH.ohmm            00 000 000 000:  LLS_OH
 LLS_CHI.ohmm           00 000 000 000:  LLS_CHI
 LLD_OH.ohmm            00 000 000 000:  LLD_OH
 LLD_CHI.ohmm           00 000 000 000:  LLD_CHI
 DTC_OH.uspf            00 000 000 000:  DTC_OH
 DTC_CHI.uspf           00 000 000 000:  DTC_CHI
 SPHI_CHI.pu            00 000 000 000:  SPHI_CHI
 SGF .cu                00 000 000 000:  Formation Sigma
 CRNF.NONE              00 000 000 000:  CM GrsCaptRatio
 RIN .NONE              00 000 000 000:  CM GrsInelRatio
~A    DEPT      CCL   NPHI_OH NPHI_CHI  GR_CHI   GR_OH   RHOB_OH RHOB_CHI PE_CHI  PE_OH   MSFL_OH  MSFL_CHI  LLS_OH   LLS_CHI   LLD_OH  LLD_CHI  DTC_OH  DTC_CHI SPHI_CHI   SGF    CRNF   RIN   
# ...
   12758.0000  0.0000 -999.25  12.3500  75.7999  -999.25 -999.25   2.5717 3.9684 -999.25   -999.25  60.5266   -999.25  77.6814  -999.25  78.7567 -999.25 67.4757  14.0000 18.9817 0.9128 1.0059
   12758.5000  0.0000 -999.25  12.5491  77.9559  -999.25 -999.25   2.5695 3.9251 -999.25   -999.25  58.7727   -999.25  75.1235  -999.25  76.1464 -999.25 67.5962  14.1200 18.8447 0.9083 1.0043
   12759.0000  0.0000 -999.25  12.6728  79.6632  -999.25 -999.25   2.5682 3.9049 -999.25   -999.25  58.0889   -999.25  74.1292  -999.25  75.1318 -999.25 67.7325  14.2100 18.4380 0.9013 1.0005
   12759.5000  0.0000 -999.25  11.9462  71.4195  -999.25 -999.25   2.5765 3.9748 -999.25   -999.25  58.7589   -999.25  75.1035  -999.25  76.1259 -999.25 67.2703  14.0100 18.1773 0.8922 0.9957
   12760.0000  0.0000 -999.25  12.0601  74.5845  -999.25 -999.25   2.5748 3.9794 -999.25   -999.25  60.7937   -999.25  78.0718  -999.25  79.1552 -999.25 67.4267  13.9900 17.8707 0.8855 0.9915
   12760.5000  0.0000 -999.25  12.2658  78.7341  -999.25 -999.25   2.5718 3.9629 -999.25   -999.25  62.1350   -999.25  80.0360  -999.25  81.1601 -999.25 67.5863  14.1000 17.5308 0.8806 0.9890
   12761.0000  0.0000 -999.25  12.3189  80.8457  -999.25 -999.25   2.5703 3.9631 -999.25   -999.25  63.7503   -999.25  82.4092  -999.25  83.5831 -999.25 67.5789  14.1300 17.2801 0.8811 0.9903
   12761.5000  0.0000 -999.25  12.7921  88.2421  -999.25 -999.25   2.5642 3.9358 -999.25   -999.25  65.5902   -999.25  85.1227  -999.25  86.3539 -999.25 67.8981  14.2900 17.0481 0.8836 0.9927
   12762.0000  0.0000 -999.25  12.6831  87.4526  -999.25 -999.25   2.5650 3.9564 -999.25   -999.25  66.9812   -999.25  87.1810  -999.25  88.4563 -999.25 67.7800  14.3000 17.3132 0.8952 0.9953
   12762.5000  0.0000 -999.25  12.2064  81.3933  -999.25 -999.25   2.5703 4.0123 -999.25   -999.25  68.2947   -999.25  89.1302  -999.25  90.4474 -999.25 67.4469  14.1100 17.7039 0.9003 0.9965
   12763.0000  0.0000 -999.25  11.9116  76.7636  -999.25 -999.25   2.5739 4.0267 -999.25   -999.25  66.7958   -999.25  86.9064  -999.25  88.1758 -999.25 67.2002  13.9100 18.0708 0.9054 0.9978
   12763.5000  0.0000 -999.25  11.9870  75.3992  -999.25 -999.25   2.5742 4.0211 -999.25   -999.25  64.6467   -999.25  83.7298  -999.25  84.9316 -999.25 67.2560  13.8900 18.3703 0.9072 1.0002
   12764.0000  0.0000 -999.25  12.7330  83.3993  -999.25 -999.25   2.5662 3.9431 -999.25   -999.25  62.6914   -999.25  80.8525  -999.25  81.9937 -999.25 67.7691  14.1500 18.4247 0.9056 1.0026
   12764.5000  0.0000 -999.25  13.0462  86.6113  -999.25 -999.25   2.5630 3.8993 -999.25   -999.25  61.1392   -999.25  78.5772  -999.25  79.6711 -999.25 68.0259  14.3900 18.4513 0.9081 1.0020
   12765.0000  0.0000 -999.25  12.2180  75.9327  -999.25 -999.25   2.5728 3.9725 -999.25   -999.25  60.8615   -999.25  78.1708  -999.25  79.2563 -999.25 67.4534  14.1600 18.4559 0.9076 0.9976
   12765.5000  0.0000 -999.25  12.2851  77.6506  -999.25 -999.25   2.5720 3.9560 -999.25   -999.25  60.7261   -999.25  77.9729  -999.25  79.0543 -999.25 67.5629  14.0900 18.4627 0.9053 0.9917
   12766.0000  0.0000 -999.25  12.2947  78.0601  -999.25 -999.25   2.5722 3.9522 -999.25   -999.25  60.7027   -999.25  77.9387  -999.25  79.0194 -999.25 67.6474  14.1600 18.3564 0.9049 0.9871
   12766.5000  0.0000 -999.25  12.5147  81.0356  -999.25 -999.25   2.5696 3.9312 -999.25   -999.25  60.6682   -999.25  77.8882  -999.25  78.9678 -999.25 67.8130  14.2600 18.3291 0.9013 0.9863
   12767.0000  0.0000 -999.25  12.5497  81.8393  -999.25 -999.25   2.5690 3.9322 -999.25   -999.25  61.2104   -999.25  78.6814  -999.25  79.7774 -999.25 67.8240  14.3000 18.2077 0.9006 0.9872
   12767.5000  0.0000 -999.25  12.3015  78.6279  -999.25 -999.25   2.5717 3.9553 -999.25   -999.25  61.3504   -999.25  78.8864  -999.25  79.9866 -999.25 67.6326  14.2100 18.1940 0.8989 0.9880
   12768.0000  0.0000 -999.25  12.2251  78.2007  -999.25 -999.25   2.5723 3.9638 -999.25   -999.25  61.9771   -999.25  79.8044  -999.25  80.9238 -999.25 67.5565  14.1300 18.2647 0.8948 0.9887
   12768.5000  0.0000 -999.25  12.2344  78.4351  -999.25 -999.25   2.5721 3.9624 -999.25   -999.25  62.0482   -999.25  79.9087  -999.25  81.0302 -999.25 67.5608  14.1200 18.4817 0.8921 0.9886
   12769.0000  0.0000 -999.25  12.9681  87.9499  -999.25 -999.25   2.5634 3.8948 -999.25   -999.25  61.6821   -999.25  79.3720  -999.25  80.4824 -999.25 68.0594  14.3600 18.6233 0.8817 0.9911
   12769.5000  0.0000 -999.25  13.2621  92.0033  -999.25 -999.25   2.5594 3.8469 -999.25   -999.25  60.5717   -999.25  77.7473  -999.25  78.8240 -999.25 68.2068  14.5400 18.6287 0.8714 0.9939
   12770.0000  0.0000 -999.25  12.8609  85.9568  -999.25 -999.25   2.5640 3.8761 -999.25   -999.25  59.8580   -999.25  76.7051  -999.25  77.7603 -999.25 67.8109  14.3800 18.3649 0.8560 0.9964
   12770.5000  0.0000 -999.25  12.4258  81.0255  -999.25 -999.25   2.5680 3.9014 -999.25   -999.25  59.8310   -999.25  76.6656  -999.25  77.7201 -999.25 67.3684  14.0700 18.1325 0.8402 0.9985
   12771.0000  0.0000 -999.25  12.4751  83.1913  -999.25 -999.25   2.5665 3.8985 -999.25   -999.25  61.1669   -999.25  78.6176  -999.25  79.7123 -999.25 67.3466  13.9700 18.0676 0.8289 0.9999
   12771.5000  0.0000 -999.25  12.6921  87.9869  -999.25 -999.25   2.5625 3.8719 -999.25   -999.25  62.3684   -999.25  80.3784  -999.25  81.5098 -999.25 67.3893  13.9900 18.0118 0.8186 1.0035
   12772.0000  0.0000 -999.25  11.6073  75.6135  -999.25 -999.25   2.5734 3.9398 -999.25   -999.25  62.7082   -999.25  80.8772  -999.25  82.0189 -999.25 66.4849  13.5500 17.9727 0.8217 1.0035
   12772.5000  0.0000 -999.25  11.4714  75.3753  -999.25 -999.25   2.5739 3.9299 -999.25   -999.25  63.0018   -999.25  81.3084  -999.25  82.4592 -999.25 66.3355  13.2800 17.8437 0.8343 1.0025
   12773.0000  0.0000 -999.25  11.9316  83.0105  -999.25 -999.25   2.5678 3.8676 -999.25   -999.25  63.2083   -999.25  81.6120  -999.25  82.7691 -999.25 66.6516  13.4100 17.7256 0.8534 0.9985
   12773.5000  0.1000 -999.25  12.5311  91.8112  -999.25 -999.25   2.5614 3.8185 -999.25   -999.25  63.8945   -999.25  82.6216  -999.25  83.7999 -999.25 67.1965  13.7400 17.5781 0.8678 0.9935
   12774.0000  0.0000 -999.25  13.1187  99.8901  -999.25 -999.25   2.5557 3.7855 -999.25   -999.25  64.5293   -999.25  83.5568  -999.25  84.7549 -999.25 67.8065  14.1600 17.4294 0.8710 0.9895
   12774.5000  0.0000 -999.25  13.1550  98.5045  -999.25 -999.25   2.5571 3.8224 -999.25   -999.25  65.3310   -999.25  84.7398  -999.25  85.9629 -999.25 68.0152  14.3900 17.4017 0.8702 0.9864
   12775.0000  0.0000 -999.25  12.5004  87.7297  -999.25 -999.25   2.5661 3.9106 -999.25   -999.25  66.1493   -999.25  85.9493  -999.25  87.1982 -999.25 67.6638  14.2600 17.3569 0.8647 0.9838
   12775.5000  0.0000 -999.25  12.2041  83.7764  -999.25 -999.25   2.5697 3.9338 -999.25   -999.25  66.3028   -999.25  86.1765  -999.25  87.4303 -999.25 67.5070  14.1100 17.4864 0.8625 0.9814
   12776.0000  0.0000 -999.25  12.4976  87.8693  -999.25 -999.25   2.5663 3.9119 -999.25   -999.25  66.5519   -999.25  86.5452  -999.25  87.8069 -999.25 67.7187  14.1800 17.5665 0.8570 0.9812
   12776.5000  0.0000 -999.25  13.0088  95.9149  -999.25 -999.25   2.5600 3.8443 -999.25   -999.25  65.8344   -999.25  85.4836  -999.25  86.7226 -999.25 68.0643  14.4000 17.7171 0.8510 0.9789
   12777.0000  0.0000 -999.25  12.6626  91.2642  -999.25 -999.25   2.5638 3.8588 -999.25   -999.25  65.3945   -999.25  84.8335  -999.25  86.0587 -999.25 67.7967  14.3400 17.9242 0.8454 0.9770
   12777.5000  0.0000 -999.25  12.1273  85.1743  -999.25 -999.25   2.5695 3.8576 -999.25   -999.25  64.5752   -999.25  83.6245  -999.25  84.8241 -999.25 67.4229  14.1000 17.9794 0.8421 0.9707
   12778.0000  0.0000 -999.25  12.3088  88.8861  -999.25 -999.25   2.5670 3.7955 -999.25   -999.25  63.4654   -999.25  81.9901  -999.25  83.1552 -999.25 67.5413  14.0800 17.8888 0.8417 0.9634
   12778.5000  0.0000 -999.25  12.3864  91.1310  -999.25 -999.25   2.5657 3.7582 -999.25   -999.25  63.1729   -999.25  81.5599  -999.25  82.7159 -999.25 67.5794  14.1200 17.7469 0.8468 0.9589
