~Version Information
 VERS.                  2.0:   CWLS log ASCII Standard -VERSION 2.0
 WRAP.                   NO:   One line per depth step
~Well Information Block
#MNEM.UNIT     VALUE/NAME     DESCRIPTION
#---------     -----------    ---------------------------
 STRT.F              8400.0000: START DEPTH
 STOP.F             13890.0000: STOP DEPTH
 STEP.F                 0.5000: STEP DEPTH
 NULL.                 -999.25: NULL VALUE
 LOC .     506' FEL & 344' FSL:  LOCATION
 FL6 .       API  42-109-33224:  LOCATIONLINE6
 FL4 .           ABSTRACT 4479:  LOCATIONLINE4
 FL3 .        T&P RR CO SURVEY:  LOCATIONLINE3
 FL2 .     SECTION 30, BLOCK 58 T2:  LOCATIONLINE2
 FL1 .     506' FEL & 344' FSL:  LOCATIONLINE1
 DMF .                      KB:  DRILL MEAS FROM
 PDAT.                      GL:  PERMANENT DATUM
 CNTY.               CULBERSON:  COUNTY NAME
 FLD .     FORD, WEST (WOLFCAMP):  FIELD NAME
 WELL.      LAUREN STATE 30 2H:  WELL NAME
 COMP.     CAPITAN ENERGY, INC.:  COMPANY
 DATE.             19-Feb-2018:  DATE
 SVCO.             Halliburton:  SERVICECONAME
 PROV.                   TEXAS:  PROVINCE
 STAT.                   TEXAS:  STATE NAME
 CTRY.                     USA:  COUNTRY NAME
 HIDE.                        :  WELLNAMEOPERAT
 BASI.                 PERMIAN:  BASIN
 UWI .            42-109-33224:  UNIQUE WELL IDENTIFIER
 API .            42-109-33224:  API NUMBER
 RANG.                     N/A:  RANGE
 TOWN.                     N/A:  TOWNSHIP
 SECT.                     N/A:  SECTION
 SON .               904646015:  JOB NUMBER
 SRVC.             Halliburton:  SERVICE COMPANY
 LMF .                      KB:  LOG MEASURED FROM
 EGL .ft             3168.0000:  GROUND ELEVATION
 BAP .ft                0.0000:  GL ELEV ONSHORE
 GVFD.g                 1.0000:  GRAVITY FIELD
 EKB .ft             3194.0000:  KB ELEVATION
 EDF .ft             3193.0000:  DF ELEVATION
~Curve Information Block
#MNEM.UNIT                 API CODE     Curve Description
#---------               -----------    ---------------------------
 DEPT.F                 00 000 000 000:  Depth
 CCL .V                 00 000 000 000:  Casing Collar Locator
 NPHI_OH.pu             00 000 000 000:  NPHI_OH
 NPHI_CHI.pu            00 000 000 000:  NPHI_CHI
 GR_OH.api              00 000 000 000:  GR_OH
 GR_CHI.api             00 000 000 000:  GR_CHI
 RHOB_OH.g/cc           00 000 000 000:  RHOB_OH
 RHOB_CHI.g/cc          00 000 000 000:  RHOB_CHI
 PE_OH.b/e              00 000 000 000:  PE_OH
 PE_CHI.b/e             00 000 000 000:  PE_CHI
 RT10_OH.ohmm           00 000 000 000:  RT10_OH
 RT10_CHI.ohmm          00 000 000 000:  RT10_CHI
 RT30_OH.ohmm           00 000 000 000:  RT30_OH
 RT30_CHI.ohmm          00 000 000 000:  RT30_CHI
 RT90_OH.ohmm           00 000 000 000:  RT90_OH
 RT90_CHI.ohmm          00 000 000 000:  RT90_CHI
 DTC_OH.uspf            00 000 000 000:  DTC_OH
 DTC_CHI.uspf           00 000 000 000:  DTC_CHI
 SPHI_CHI.pu            00 000 000 000:  SPHI_CHI
 SGF .cu                00 000 000 000:  Formation Sigma
 CRNF.NONE              00 000 000 000:  CM GrsCaptRatio
 RIN .NONE              00 000 000 000:  CM GrsInelRatio
#Other Information
#
#WARRANTY: Halliburton will use its best efforts to furnish customers with 
#accurate information and interpretations that are part of, and incident to, the services 
#provided.  However, Halliburton cannot and does not warrant the accuracy 
#or correctness of such information and interpretations.  Under no circumstances should any 
#such information or interpretation be relied upon as the sole basis for any drilling, 
#completion, production, or financial decision or any procedure involving any risk to the 
#safety of any drilling venture, drilling rig or its crew or any other third party.  The 
#Customer has full responsibility for all drilling, completion and production operation.  
#Halliburton makes no representations or warranties, either expressed or 
#implied, including, but not limited to, the implied warranties of merchantability or fitness 
#for a particular purpose, with respect to the services rendered.  In no event will 
#Halliburton be liable for failure to obtain any particular results or for 
#any damages, including, but not limited to, indirect, special or consequential damages, 
#resulting from the use of any information or interpretation provided by Halliburton.
#
~A    DEPT      CCL   NPHI_OH NPHI_CHI  GR_OH    GR_CHI  RHOB_OH RHOB_CHI  PE_OH  PE_CHI  RT10_OH  RT10_CHI RT30_OH  RT30_CHI RT90_OH  RT90_CHI DTC_OH  DTC_CHI SPHI_CHI   SGF    CRNF   RIN   
# ...
   11319.0000  0.0000 -999.25  10.8397  -999.25  93.6729 -999.25   2.5757 -999.25  4.0253  -999.25  50.7354  -999.25  49.0062  -999.25  53.7080 -999.25 69.4315  15.4400 20.4333 0.9418 1.0227
   11319.5000  0.0000 -999.25  10.7450  -999.25  92.9242 -999.25   2.5771 -999.25  4.0226  -999.25  51.4072  -999.25  49.7834  -999.25  54.4477 -999.25 69.3519  15.3800 20.3036 0.9440 1.0225
   11320.0000  0.0000 -999.25  11.0680  -999.25  97.5847 -999.25   2.5722 -999.25  4.0112  -999.25  53.7015  -999.25  51.9465  -999.25  56.6867 -999.25 69.8228  15.7200 20.1901 0.9411 1.0211
   11320.5000  0.0000 -999.25  10.3687  -999.25  85.6694 -999.25   2.5819 -999.25  4.0021  -999.25  56.6760  -999.25  55.4150  -999.25  60.4432 -999.25 68.9953  15.1300 20.1234 0.9383 1.0198
   11321.0000  0.0000 -999.25  10.5266  -999.25  87.6617 -999.25   2.5792 -999.25  3.9903  -999.25  59.9910  -999.25  58.7492  -999.25  63.9451 -999.25 69.2953  15.3400 20.1553 0.9391 1.0195
   11321.5000  0.0000 -999.25  10.8328  -999.25  93.5728 -999.25   2.5744 -999.25  3.9982  -999.25  60.9211  -999.25  59.5226  -999.25  64.7062 -999.25 69.7408  15.6600 20.2114 0.9363 1.0192
   11322.0000  0.0000 -999.25  10.8969  -999.25  95.4130 -999.25   2.5735 -999.25  4.0035  -999.25  60.5462  -999.25  59.1095  -999.25  64.2183 -999.25 69.8294  15.7200 20.3196 0.9367 1.0181
   11322.5000  0.0000 -999.25  10.3816  -999.25  86.6813 -999.25   2.5813 -999.25  4.0115  -999.25  57.2970  -999.25  56.0494  -999.25  61.1299 -999.25 69.0504  15.1700 20.3241 0.9340 1.0173
   11323.0000  0.0000 -999.25  10.3433  -999.25  86.8056 -999.25   2.5821 -999.25  4.0156  -999.25  55.9087  -999.25  54.6655  -999.25  59.6094 -999.25 68.9775  15.1200 20.3002 0.9361 1.0168
   11323.5000  0.0000 -999.25  10.2934  -999.25  85.8744 -999.25   2.5829 -999.25  4.0181  -999.25  55.1403  -999.25  53.8944  -999.25  58.8253 -999.25 68.8831  15.0500 20.2489 0.9384 1.0178
   11324.0000  0.0000 -999.25  10.3028  -999.25  86.8108 -999.25   2.5826 -999.25  4.0266  -999.25  54.8785  -999.25  53.6271  -999.25  58.5389 -999.25 68.9076  15.0700 20.1310 0.9397 1.0196
   11324.5000  0.0000 -999.25  10.2515  -999.25  85.3845 -999.25   2.5834 -999.25  4.0248  -999.25  55.1554  -999.25  53.9229  -999.25  58.9060 -999.25 68.8308  15.0100 19.9799 0.9382 1.0197
   11325.0000  0.0000 -999.25   9.9820  -999.25  80.3161 -999.25   2.5873 -999.25  4.0345  -999.25  53.8604  -999.25  52.7022  -999.25  57.7844 -999.25 68.4034  14.7100 19.8418 0.9357 1.0206
   11325.5000  0.0000 -999.25   9.9198  -999.25  78.9887 -999.25   2.5879 -999.25  4.0438  -999.25  53.6392  -999.25  52.4701  -999.25  57.6623 -999.25 68.3005  14.6400 19.7213 0.9383 1.0212
   11326.0000  0.0000 -999.25  10.0420  -999.25  81.5247 -999.25   2.5858 -999.25  4.0549  -999.25  54.0981  -999.25  52.8497  -999.25  58.1150 -999.25 68.4966  14.7800 19.6552 0.9411 1.0212
   11326.5000  0.0000 -999.25  10.0600  -999.25  82.5825 -999.25   2.5851 -999.25  4.0663  -999.25  54.5939  -999.25  53.3423  -999.25  58.6792 -999.25 68.5560  14.8200 19.6267 0.9391 1.0203
   11327.0000  0.0000 -999.25   9.9650  -999.25  80.2721 -999.25   2.5864 -999.25  4.0614  -999.25  55.4585  -999.25  54.2768  -999.25  59.7302 -999.25 68.4320  14.7300 19.6141 0.9364 1.0175
   11327.5000  0.0000 -999.25   9.6254  -999.25  73.7747 -999.25   2.5914 -999.25  4.0571  -999.25  55.3457  -999.25  54.3614  -999.25  59.9116 -999.25 67.9300  14.3800 19.5242 0.9280 1.0140
   11328.0000  0.0000 -999.25   9.6184  -999.25  74.2623 -999.25   2.5916 -999.25  4.0709  -999.25  53.5304  -999.25  52.4731  -999.25  57.9338 -999.25 67.8811  14.3400 19.3357 0.9246 1.0147
   11328.5000  0.0000 -999.25   9.9599  -999.25  80.8775 -999.25   2.5865 -999.25  4.0950  -999.25  51.1043  -999.25  49.7301  -999.25  55.0514 -999.25 68.3130  14.6500 19.0659 0.9227 1.0193
   11329.0000  0.0000 -999.25   9.9931  -999.25  83.9256 -999.25   2.5853 -999.25  4.1319  -999.25  49.6855  -999.25  48.2436  -999.25  53.5327 -999.25 68.3859  14.7000 18.8207 0.9234 1.0259
   11329.5000  0.0000 -999.25   9.4918  -999.25  76.6164 -999.25   2.5922 -999.25  4.1746  -999.25  46.0685  -999.25  44.7513  -999.25  50.0299 -999.25 67.6110  14.1500 18.7209 0.9263 1.0350
   11330.0000  0.0000 -999.25   9.5301  -999.25  77.9851 -999.25   2.5913 -999.25  4.2106  -999.25  43.0158  -999.25  41.5335  -999.25  46.7074 -999.25 67.5979  14.1400 18.7403 0.9268 1.0405
   11330.5000  0.0000 -999.25   9.2241  -999.25  72.6476 -999.25   2.5958 -999.25  4.2248  -999.25  41.3825  -999.25  39.9916  -999.25  45.1339 -999.25 67.1032  13.7900 18.9214 0.9286 1.0409
   11331.0000  0.0585 -999.25   9.1495  -999.25  70.5334 -999.25   2.5970 -999.25  4.2148  -999.25  41.8751  -999.25  40.5322  -999.25  45.7274 -999.25 66.9842  13.7100 19.2379 0.9292 1.0367
   11331.5000  0.0000 -999.25   9.6147  -999.25  78.1567 -999.25   2.5902 -999.25  4.1802  -999.25  45.9719  -999.25  44.5403  -999.25  49.8776 -999.25 67.7717  14.2700 19.5672 0.9328 1.0289
   11332.0000  0.0000 -999.25   9.9145  -999.25  82.4537 -999.25   2.5862 -999.25  4.1302  -999.25  51.2025  -999.25  49.8390  -999.25  55.2784 -999.25 68.3196  14.6500 19.7563 0.9399 1.0229
   11332.5000  0.0000 -999.25   9.7914  -999.25  79.9636 -999.25   2.5883 -999.25  4.0871  -999.25  55.2244  -999.25  54.1770  -999.25  59.6288 -999.25 68.2527  14.6100 19.8840 0.9444 1.0203
   11333.0000  0.0000 -999.25  10.4428  -999.25  89.7608 -999.25   2.5794 -999.25  4.0667  -999.25  55.4134  -999.25  53.9804  -999.25  59.2362 -999.25 69.1177  15.2200 19.8989 0.9497 1.0214
   11333.5000  0.0000 -999.25  10.3290  -999.25  85.8419 -999.25   2.5818 -999.25  4.0532  -999.25  53.2156  -999.25  51.7571  -999.25  56.9293 -999.25 68.8485  15.0300 19.9831 0.9526 1.0241
   11334.0000  0.0000 -999.25   9.7336  -999.25  74.5793 -999.25   2.5907 -999.25  4.0415  -999.25  53.2097  -999.25  52.0976  -999.25  57.3931 -999.25 67.9895  14.4200 20.0445 0.9583 1.0242
   11334.5000  0.0000 -999.25  10.4246  -999.25  84.6291 -999.25   2.5811 -999.25  4.0287  -999.25  52.7055  -999.25  51.1470  -999.25  56.3081 -999.25 68.8900  15.0600 20.0093 0.9641 1.0238
   11335.0000  0.0000 -999.25  10.1043  -999.25  78.4405 -999.25   2.5861 -999.25  4.0189  -999.25  52.4202  -999.25  51.0394  -999.25  56.2251 -999.25 68.4202  14.7200 19.9690 0.9629 1.0231
   11335.5000  0.0000 -999.25   9.9898  -999.25  75.0111 -999.25   2.5882 -999.25  4.0270  -999.25  48.8877  -999.25  47.4165  -999.25  52.5201 -999.25 68.1039  14.5000 19.8583 0.9570 1.0246
   11336.0000  0.0000 -999.25  10.0584  -999.25  74.6030 -999.25   2.5876 -999.25  4.0308  -999.25  46.3667  -999.25  44.7534  -999.25  49.7770 -999.25 68.0731  14.4800 19.7473 0.9467 1.0252
   11336.5000  0.0000 -999.25  10.1870  -999.25  77.1557 -999.25   2.5855 -999.25  4.0426  -999.25  46.0509  -999.25  44.3467  -999.25  49.3818 -999.25 68.2567  14.6100 19.5429 0.9384 1.0232
   11337.0000  0.0000 -999.25  10.4548  -999.25  83.2776 -999.25   2.5808 -999.25  4.0484  -999.25  48.8674  -999.25  47.0986  -999.25  52.2652 -999.25 68.7654  14.9700 19.2996 0.9328 1.0185
   11337.5000  0.0000 -999.25  10.7461  -999.25  91.0157 -999.25   2.5753 -999.25  4.0598  -999.25  54.0539  -999.25  52.2839  -999.25  57.6866 -999.25 69.3883  15.4100 19.1483 0.9315 1.0147
   11338.0000  0.0000 -999.25  10.0810  -999.25  82.3153 -999.25   2.5837 -999.25  4.0735  -999.25  58.3498  -999.25  57.1492  -999.25  62.9365 -999.25 68.6800  14.9100 19.1042 0.9347 1.0135
   11338.5000  0.0000 -999.25   9.7009  -999.25  77.4798 -999.25   2.5884 -999.25  4.0738  -999.25  62.9791  -999.25  62.2965  -999.25  68.4011 -999.25 68.3257  14.6600 19.0769 0.9347 1.0115
   11339.0000  0.0000 -999.25   9.7513  -999.25  78.6621 -999.25   2.5872 -999.25  4.0664  -999.25  65.8649  -999.25  65.3320  -999.25  71.5510 -999.25 68.4914  14.7700 19.0056 0.9327 1.0101
   11339.5000  0.0000 -999.25  10.3235  -999.25  87.3434 -999.25   2.5789 -999.25  4.0558  -999.25  67.7091  -999.25  66.8420  -999.25  73.0487 -999.25 69.3045  15.3500 18.9217 0.9280 1.0075
