~Version Information Block
 VERS.                2.00:     CWLS LOG ASCII STANDARD - VERSION 2.000000
 WRAP.                  NO:     One Line Per Depth Step
#
~Well Information Block
#MNEM.UNIT                     Data                         Information
#----------   ------------------------------------------   ----------------
 STRT.FT                                     4210.0000:     START DEPTH
 STOP.FT                                    10370.0000:     STOP DEPTH
 STEP.FT                                        0.5000:     STEP
 NULL.                                       -999.2500:     NULL VALUE
 COMP.                       CHESAPEAKE OPERATING INC.:     COMPANY
 WELL.                         UNIVERSITY_LANDS_4627-1:     WELL
 FLD .                                         WILDCAT:     FIELD
 LOC .   1200' FNL & 1995' FEL|Section: 27, Block: 46, Abstract: 2860|University Lands Survey:     LOCATION
 SEC .                                              27:     SECTION
 CNTY.                                       CULBERSON:     COUNTY
 STAT.                                           TEXAS:     STATE
 CTRY.                                             USA:     COUNTRY
 SRVC.                                    SCHLUMBERGER:     SERVICE COMPANY
 DATE.                                      11/15/2016:     DATE
 API .                                  42109322870000:     API NUMBER
 UWI .                                  42109322870000:     UWI NUMBER
 TVD .                                              NO:     TVD flag
 WSTA.                                             LOC:     Well status
#
~Curve Information Block
#MNEM.UNIT       API CODE      Curve Description
#----------    -------------   -------------------
 DEPT.FT                   :   Depth in Feet
 RM_HRLT.OHMM                 :   HRLTB Mud Resistivity
 RXOZ.OHMM                 :   Stan Res MicroCFL Resistivity
 RLA5.OHMM                 :   HRLTB Resistivity 5
 RLA4.OHMM                 :   HRLTB Resistivity 4
 RLA3.OHMM                 :   HRLTB Resistivity 3
 DTCO.US/F                 :   Delta-T Compressional
 DTSM.US/F                 :   Delta-T Shear Measurement
 SPHI.V/V                  :   Sonic Porosity [47.6]
 HSGR.GAPI                 :   HNGS Spectroscopy Gamma Ray
 HCGR.GAPI                 :   HNGS Computed Gamma Ray
 HCAL.IN                   :   HILT Caliper
 DPHI.V/V                  :   Density Porosity
 PEFZ.                     :   Std. Res. Formation PE
 HDRA.G/C3                 :   Density Correction
 RHOB.G/C3                 :   Std. Res. Formation Density
 APLC.V/V                  :   APS Near/Array Corrected Limestone Porosity
 PXND.V/V                  :   Crossplot Porosity For Neutron-Density
#
~Parameter Information Block
#MNEM.UNIT            Value               Description
#----------    --------------------    -------------------
 DATE.                 07-Jun-2007:    Date As Month-Day-Year
 RUN .                         ONE:    Run Number
 PDAT.                         UNK:    Permanent Datum
 EPD .FT                -9999.5000:    Elevation Of Perm. Datum
 LMF .                          KB:    Log Measured From
 FAPD.FT                   40.0000:    Feet Above Perm. Datum
 EKB .FT                 4323.0000:    Elevation Of Kelly Bushing
 TD  .FT                10370.0000:    Total Depth
 DFT .                   Fresh Mud:    Drilling Fluid Type
 DFD .LB/G                  8.6000:    Drilling Fluid Density
 RMS .OHMM                  0.4210:    Resistivity Of Mud Sample
 MST .DEGF                 97.0000:    Mud Sample Temperature
 RMF .OHMM                  0.4210:    Mud Filtrate Resistivity
 MFST.DEGF                 97.0000:    Mud Filtrate Sample Temperature
 MFSS.                        CALC:    Mud Filtrate Sample Source
 MCSS.                        CALC:    Mud Cake Sample Source
 RMB .OHMM                  0.2280:    Mud Resistivity At Bht
 BHT .DEGF                185.0000:    Bottom Hole Temperature
 MRT .DEGF                185.0000:    Maximum Recorded Temperature
 WSTA.                         LOC:    
 LATB.FT                    0.0000:    
 LONB.FT                    0.0000:    
#
~Other Information Block
<DescLogPlotStart>   NEURALOG PLOT DEFINITION
PLOTDEFVERSION: 3
LASFILE: E:\nds\projects\Texas Standard Oil LLC\pdf\42109322870000 D\42-109-322
DEPTHSCALE: 240.000000
RESOLUTION: 196
DEPTHLABELFREQ: 100.000000
HEAVYGRIDFREQ: 100.000000
MEDIUMGRIDFREQ: 50.000000
LIGHTGRIDFREQ: 10.000000
#
#   TRACK 1
#
STARTTRACK: 
 LEFTX: 0.500000 inch
 RIGHTX: 3.000000 inch
 SCALETYPE: Linear
 NUMCHARTDIVISIONS: 10
CURVE: RXOZ  0.200000   2000.000000 (0,0,255)      Solid             2     Y   
BACKUP: 2000.000000 20000000.000000 (0,0,255)      Solid             2    
CURVE: RLA5  0.200000   2000.000000 (0,131,131)    Dot               2     Y   
BACKUP: 2000.000000 20000000.000000 (0,131,131)    Dot               2    
CURVE: RLA4  0.200000   2000.000000 (255,0,255)    Short_Dash        2     Y   
BACKUP: 2000.000000 20000000.000000 (255,0,255)    Short_Dash        2    
CURVE: RLA3  0.200000   2000.000000 (255,0,0)      Medium_Dash       2     Y   
BACKUP: 2000.000000 20000000.000000 (255,0,0)      Medium_Dash       2    
CURVE: DTCO  240.000000 40.000000  (0,0,255)      Solid             2     N    
CURVE: DTSM  240.000000 40.000000  (0,131,131)    Dot               2     Y    
BACKUP: 440.000000 240.000000 (0,131,131)    Dot               2    
CURVE: SPHI  0.300000   -0.100000  (255,0,255)    Short_Dash        2     Y    
BACKUP: 0.700000   0.300000   (255,0,255)    Short_Dash        2    
CURVE: HSGR  0.000000   150.000000 (0,0,255)      Solid             2     Y    
BACKUP: 150.000000 300.000000 (0,0,255)      Solid             2    
CURVE: HCGR  0.000000   150.000000 (0,131,131)    Dot               2     N    
CURVE: HCAL  6.000000   16.000000  (255,0,255)    Short_Dash        2     Y    
BACKUP: -4.000000  6.000000   (255,0,255)    Short_Dash        2    
BACKUP: 16.000000  26.000000  (255,0,255)    Short_Dash        2    
ENDTRACK: 
#
#   TRACK 2
#
STARTTRACK: 
 LEFTX: 3.500000 inch
 RIGHTX: 8.500000 inch
 SCALETYPE: Linear
 NUMCHARTDIVISIONS: 10
CURVE: RM_HRLT 0.020000   200.000000 (255,131,0)    Solid             2     N  
CURVE: DPHI  0.300000   -0.100000  (255,0,0)      Solid             2     Y    
BACKUP: 0.700000   0.300000   (255,0,0)      Solid             2    
BACKUP: -0.100000  -0.500000  (255,0,0)      Solid             2    
CURVE: APLC  0.300000   -0.100000  (255,131,0)    Dot               2     Y    
BACKUP: 0.700000   0.300000   (255,131,0)    Dot               2    
BACKUP: 1.100000   0.700000   (255,131,0)    Dot               2    
CURVE: PXND  0.300000   -0.100000  (255,255,0)    Short_Dash        2     Y    
BACKUP: 0.700000   0.300000   (255,255,0)    Short_Dash        2    
ENDTRACK: 
#
#   TRACK 3
#
STARTTRACK: 
 LEFTX: 0.500000 inch
 RIGHTX: 5.500000 inch
 SCALETYPE: Linear
 NUMCHARTDIVISIONS: 10
ENDTRACK: 
#
#   TRACK 4
#
STARTTRACK: 
 LEFTX: 3.500000 inch
 RIGHTX: 6.000000 inch
 SCALETYPE: Linear
 NUMCHARTDIVISIONS: 10
CURVE: PEFZ  0.000000   10.000000  (0,0,255)      Solid             2     N    
ENDTRACK: 
#
#   TRACK 5
#
STARTTRACK: 
 LEFTX: 3.500000 inch
 RIGHTX: 4.750000 inch
 SCALETYPE: Linear
 NUMCHARTDIVISIONS: 10
CURVE: HDRA  -0.050000  0.200000   (0,131,131)    Solid             2     N    
ENDTRACK: 
#
#   TRACK 6
#
STARTTRACK: 
 LEFTX: 3.500000 inch
 RIGHTX: 8.500000 inch
 SCALETYPE: Linear
 NUMCHARTDIVISIONS: 10
CURVE: RHOB  2.000000   3.000000   (255,0,255)    Solid             2     Y    
BACKUP: 1.000000   2.000000   (255,0,255)    Solid             2    
ENDTRACK: 
<DescLogPlotEnd>
~A DEPTH     RM_HRLT             RXOZ             RLA5             RLA4             RLA3             DTCO             DTSM             SPHI             HSGR             HCGR             HCAL             DPHI             PEFZ             HDRA             RHOB             APLC             PXND            
# ...
   10352.500 0.53619253       3.35166813       22.48849831      23.95435878      25.05935772      84.65161923      136.56862745     0.26604514       100.53983290     37.64763366      7.46620407       0.21947671       3.19380009       0.14126419       2.33729579       0.12464044       0.18506876      
   10353.000 0.53619253       3.35214230       22.48832987      23.95435878      25.05954542      84.65161923      136.56862745     0.26604514       100.45483498     37.73539097      7.46651496       0.21793608       3.17771645       0.14048476       2.33716878       0.11728428       0.18349705      
   10353.500 0.53619253       3.35191950       22.49025050      23.95435878      25.05947997      84.65161923      136.56862745     0.26604514       100.55418726     37.63253554      7.46655293       0.21599676       3.17381442       0.14152216       2.33980813       0.11374259       0.17917485      
   10354.000 0.53619253       3.35303757       22.49217327      23.95415497      25.06183953      84.65161923      136.56862745     0.26604514       100.54424870     37.65507986      7.46653543       0.21439765       3.17901339       0.14423247       2.34260790       0.11392157       0.17799607      
   10354.500 0.53619253       3.35529833       22.46721408      23.95471966      25.05202456      84.65161923      136.56862745     0.26604514       100.56916292     38.01258016      7.46653543       0.21283056       3.18587117       0.14719671       2.34514531       0.12450980       0.17681729      
   10355.000 0.53619253       3.31887539       22.71378007      23.95834279      25.03337160      84.65161923      136.56862745     0.26604514       100.56888992     37.86807177      7.46653543       0.21243879       3.19308423       0.14625656       2.34866009       0.11784314       0.17937132      
   10355.500 0.53619253       3.32111312       22.69847582      23.96378292      25.30367709      84.65161923      136.56862745     0.26604514       100.54896702     37.65141139      7.46653543       0.21243879       3.19309045       0.14503691       2.35062213       0.14882353       0.18310413      
   10356.000 0.53619253       3.32222091       22.69463598      24.17819066      25.51576796      84.65161923      136.56880328     0.26604514       100.56936420     37.64616692      7.46653543       0.21400588       3.17381207       0.14339204       2.34700008       0.16081185       0.19174853      
   10356.500 0.53619253       3.32199464       22.69234188      24.17486238      25.51576796      84.65161923      136.56794423     0.26604514       100.46980434     37.64721095      7.46653543       0.21557297       3.17733189       0.14193190       2.35215182       0.16939774       0.19528487      
   10357.000 0.53619253       3.32201952       22.69228261      24.17819066      25.51576796      84.65161923      136.76275818     0.26604514       100.54709480     37.65070370      7.46653687       0.21674829       3.20484969       0.14144927       2.34705850       0.17044044       0.19842829      
   10357.500 0.53619253       3.32201952       22.69228261      23.94649282      25.51576796      84.65161923      136.95874134     0.26604514       100.52523684     37.80332977      7.46653638       0.21831538       3.20835341       0.14142942       2.34175146       0.17152980       0.20157171      
   10358.000 0.53619983       3.32210079       22.69232366      23.94982743      25.74698451      84.65161923      137.12128852     0.26604514       100.36037865     38.20758812      7.46651660       0.22031685       3.20137686       0.14082640       2.33890934       0.17451380       0.20353635      
   10358.500 0.53619375       3.32171920       22.69390978      23.95431318      25.74698451      84.65161923      137.40994398     0.26604514       100.52553142     37.67316591      7.46650798       0.22013221       3.19248256       0.13726267       2.33673650       0.18650599       0.20667976      
   10359.000 0.53610097       3.32287423       22.69609041      23.95593532      25.74698451      84.65161923      137.54901961     0.26604514       100.54321414     37.64218098      7.46327490       0.22097553       3.17350862       0.13389695       2.33771082       0.19435722       0.21335953      
   10359.500 0.53635750       3.32201952       22.68313871      23.95348183      25.30534976      84.65161923      137.54872887     0.26604514       100.45591934     37.73299822      7.45644689       0.22394809       3.14235940       0.12998610       2.33292353       0.19204767       0.22082515      
   10360.000 0.50962847       2.96433223       22.89791355      23.95691620      24.82356839      84.65161923      137.54911232     0.26604514       100.51620048     37.52466196      7.45822603       0.21991976       3.02160697       0.13394493       2.27009804       0.18901961       0.25697446      
   10360.500 0.48102703       2.37928384       22.69228261      23.53115406      24.38743701      84.65161923      137.54907575     0.26604514       99.50023228      36.99398849      7.46643954       0.39069540       2.84073745       0.08068926       2.00049020       0.18725490       0.30530452      
   10361.000 0.41998172       1.89890423       22.28654406      23.09354269      23.52173780      84.65161923      137.54901961     0.26604514       95.33817158      34.95685099      6.54809373       0.53290891       2.65491626       0.06896233       1.73088235       0.18568627       0.35442043      
   10361.500 0.31364364       1.64368813       21.69149800      22.48849831      23.52997033      84.65161923      137.54901961     0.26604514       88.72737275      32.94576964      2.64560510       0.56895201       2.46290418       0.07549299       1.73970588       0.17549020       0.40235756      
   10362.000 0.22315757       1.64368813       20.92274366      22.08640342      22.48849831      84.65161923      137.54901961     0.26604514       82.33974989      30.59312866      2.94037874       0.55641528       2.27047709       0.20308554       1.78774510       0.15726797       0.39607073      
   10362.500 0.18105394       1.64368813       20.92274366      21.69149800      22.28654406      84.65161923      137.54901961     0.26604514       78.67969476      29.34358593      2.95160084       0.50979432       2.08471990       0.19782038       1.82500000       0.14372549       0.38467583      
   10363.000 0.18105394       1.64368813       20.92274366      21.69149800      22.48849831      84.65161923      137.54901961     0.26604514       78.41071232      29.37895254      2.94495321       0.50352595       2.06008049       0.19896616       1.85245098       0.14450980       0.37721022      
   10363.500 0.18105394       1.64368813       20.73485041      21.69149800      22.48849831      84.65161923      137.54901961     0.26604514       78.43326434      29.69497554      2.93943583       0.50274241       2.06050296       0.19831775       1.85343137       0.14607843       0.37406680      
   10364.000 0.18105394       1.64368813       20.73485041      21.49670108      22.48849831      84.65161923      137.54901961     0.26604514       78.42369134      29.43029761      2.93869960       0.50274241       2.06254946       0.19856757       1.85345970       0.14725490       0.37524558      
   10364.500 0.18105394       1.64368813       20.73485041      21.49670108      22.48849831      84.65161923      137.54901961     0.26604514       78.39830091      29.14120962      2.93917048       0.50274241       2.04093138       0.19931718       1.85344307       0.14725490       0.37563851      
   10365.000 0.18269946       1.64368813       20.73485041      21.49670108      22.48849831      84.65161923      137.67306923     0.26604514       78.40851797      29.01915986      2.94086738       0.50274241       2.04144092       0.19952916       1.85343057       0.14686275       0.37524558      
   10365.500 0.18272629       1.64368813       21.11233955      21.49669999      22.48830697      84.65161923      137.87605042     0.26604514       78.30895810      28.78864223      2.92000359       0.50195886       2.04176837       0.19953867       1.85348008       0.14254902       0.37445972      
