~VERSION INFORMATION
VERS. 2.0 : CWLS Log ASCII Standard - version 2.0
WRAP.  NO : One line per depth step
#--------------------------------------------------#
#----------------DRILLING INFO, INC.---------------#
#---------------WWW.DRILLINGINFO.COM---------------#
#------------------COPYRIGHT 2015------------------#
#--------------------------------------------------#
#THIS FILE MAY BE USED ONLY IN ACCORDANCE WITH A CURRENT SUBSCRIPTION AGREEMENT BETWEEN
#THE USER AND DRILLING INFO, INC. NO PART OF THIS FILE MAY BE REPRODUCED, USED, COPIED,
#MODIFIED, PROPAGATED, OR DISTRIBUTED EXCEPT IN ACCORDANCE WITH THE SUBSCRIPTION
#AGREEMENT. UNAUTHORIZED USE OR DISTRIBUTION OF ALL OR ANY PART OF THIS FILE MAY VIOLATE
#COPYRIGHT, TRADEMARK, AND/OR OTHER LAWS AND IS SUBJECT TO CIVIL AS WELL AS CRIMINAL
#SANCTIONS.
#--------------------------------------------------#
#THIS FILE IS PROVIDED "AS-IS" AND ALL WARRANTIES ARE EXPRESSLY DISCLAIMED, WHETHER
#EXPRESS, ORAL, IMPLIED, STATUTORY OR OTHERWISE, INCLUDING ANY IMPLIED WARRANTY OF FITNESS
#FOR A PARTICULAR PURPOSE, MERCHANTABILITY, TITLE OR NON-INFRINGEMENT, AND ANY WARRANTIES
#ARISING BY VIRTUE OF CUSTOM OF TRADE OR COURSE OF DEALING.  FURTHER, DRILLING INFO,
#INC. AND ITS LICENSORS DO NOT REPRESENT OR WARRANT THAT THIS FILE WILL MEET USER'S
#REQUIREMENTS OR ARE SUITABLE FOR USER'S NEEDS OR THAT THE DATA OR RESULTS PROVIDED IN
#CONJUNCTION THEREWITH ARE CORRECT, ACCURATE, TIMELY OR RELIABLE. THESE DISCLAIMERS SHALL
#APPLY REGARDLESS OF ANY FAILURE OF ESSENTIAL PURPOSE OF ANY LIMITED REMEDY.  SOME
#JURISDICTIONS DO NOT ALLOW THE EXCLUSION OF CERTAIN WARRANTIES SO SOME OF THE ABOVE
#EXCLUSIONS MAY NOT APPLY. IN NO EVENT SHALL DRILLING INFO, INC. OR ANY OF ITS AFFILIATES
#BE LIABLE UNDER ANY LEGAL THEORY, WHETHER IN TORT (INCLUDING WITHOUT LIMITATION
#NEGLIGENCE), CONTRACT, STRICT LIABILITY, STATUTORY OR OTHERWISE, FOR ANY SPECIAL,
#INCIDENTAL, CONSEQUENTIAL, EXEMPLARY, PUNITIVE OR INDIRECT DAMAGE OF ANY KIND, INCLUDING
#WITHOUT LIMITATION LOSS OF REVENUE, PROFITS, GOODWILL, USE, AND/OR DATA OR THE COST OF
#PROCUREMENT OF SUBSTITUTE GOODS OR SERVICES, EVEN IF APPRISED OF THE POSSIBILITY OF SUCH
#DAMAGES IN ADVANCE.
#--------------------------------------------------#
~WELL INFORMATION
#MNEMONIC     .UNIT              VALUE :DESCRIPTION
#--------------------------------------------------#
STRT       .FT                4 :START DEPTH
STOP       .FT                10042 :STOP DEPTH
STEP       .FT                   0.500 :STEP
NULL       .                  -999.250 :NULL
API        .                421093139500 :API NUMBER
COMP       .         MOBIL OIL CORPORATION :COMPANY
WELL       .        MADERA-BROMAN  1 :WELL
DATE       .                27-Jun-1979 :LOG DATE
~CURVE INFORMATION
#MNEMONIC     .UNIT      API CODE :CURVE DESCRIPTION
#--------------------------------------------------#
DEPTH       .FT                      :Measured Depth
DT.US/FT        UNKNOWN   :DT
GR.API        UNKNOWN   :GR
CAL.INCH        UNKNOWN   :CAL
~A    DEPTH    DT    GR    CAL
# ...
 4524.5     51.058   35.012   13.231
 4525     57.806   41.712   13.232
 4525.5     62.991   49.405   13.232
 4526     66.781   60.198   13.232
 4526.5     68.686   70.991   13.232
 4527     68.5   80.31   13.232
 4527.5     68.313   83.575   13.232
 4528     68.129   83.86   13.232
 4528.5     67.949   84.144   13.232
 4529     67.77   84.429   13.233
 4529.5     67.59   84.713   13.233
 4530     58.117   75.346   13.233
 4530.5     55.822   60.813   13.233
 4531     54.356   46.279   13.233
 4531.5     56.273   38.56   13.233
 4532     58.781   43.453   13.233
 4532.5     61.009   48.346   13.233
 4533     59.972   53.238   13.233
 4533.5     58.935   58.131   13.234
 4534     57.898   63.024   13.234
 4534.5     56.861   57.989   13.234
 4535     55.824   51.08   13.234
 4535.5     55.258   45.894   13.234
 4536     55.69   47.117   13.234
 4536.5     56.122   48.341   13.234
 4537     56.13   49.564   13.234
 4537.5     55.424   50.788   13.235
 4538     54.718   50.603   13.235
 4538.5     54.012   47.734   13.235
 4539     53.306   43.593   13.235
 4539.5     52.6   38.466   13.235
 4540     51.894   33.339   13.235
 4540.5     51.188   28.212   13.235
 4541     50.532   27.958   13.235
 4541.5     50.083   28.936   13.236
 4542     49.635   29.914   13.236
 4542.5     49.673   30.891   13.236
 4543     49.764   32.223   13.236
 4543.5     49.855   33.992   13.236
 4544     49.946   35.761   13.236
 4544.5     50.037   37.529   13.236
 4545     50.128   39.298   13.236
 4545.5     50.219   38.695   13.236
 4546     50.31   36.739   13.237
 4546.5     50.401   34.784   13.237
 4547     50.491   32.828   13.237
 4547.5     50.582   32.702   13.237
 4548     50.545   33.947   13.237
 4548.5     50.405   35.193   13.236
 4549     50.266   36.438   13.235
 4549.5     50.127   36.842   13.235
 4550     49.988   34.654   13.234
 4550.5     49.848   32.466   13.234
 4551     49.709   30.277   13.233
 4551.5     49.57   28.089   13.232
 4552     49.431   27.421   13.232
 4552.5     49.322   27.879   13.231
 4553     49.539   28.337   13.231
 4553.5     49.756   28.794   13.23
 4554     49.973   29.252   13.229
 4554.5     50.19   29.108   13.229
 4555     50.272   28.602   13.228
 4555.5     50.252   28.096   13.228
 4556     50.245   27.697   13.227
 4556.5     50.3   27.611   13.226
 4557     50.355   27.525   13.226
 4557.5     50.409   27.439   13.225
 4558     50.464   28.264   13.225
 4558.5     50.519   29.174   13.224
 4559     50.574   28.681   13.223
 4559.5     50.629   27.681   13.223
 4560     50.679   26.681   13.222
 4560.5     50.679   25.681   13.222
 4561     50.679   24.68   13.221
 4561.5     50.679   23.68   13.22
 4562     50.353   23.585   13.22
 4562.5     49.986   24.443   13.219
 4563     49.619   25.3   13.219
 4563.5     49.459   26.158   13.218
 4564     49.58   27.016   13.217
 4564.5     49.7   27.873   13.217
 4565     49.821   28.731   13.216
 4565.5     49.942   29.589   13.216
 4566     50.063   30.446   13.215
 4566.5     50.066   31.304   13.214
 4567     49.828   32.162   13.214
 4567.5     49.59   31.87   13.213
 4568     49.352   30.748   13.213
 4568.5     49.215   29.626   13.212
 4569     49.215   28.504   13.211
 4569.5     49.216   27.461   13.211
 4570     49.349   29.519   13.21
 4570.5     49.963   31.576   13.21
 4571     50.834   33.634   13.209
 4571.5     55.441   43.311   13.208
 4572     60.048   70.505   13.208
 4572.5     70.633   83.418   13.207
 4573     69.971   85.139   13.207
 4573.5     69.308   85.585   13.206
 4574     68.645   84.262   13.205
 4574.5     67.983   82.939   13.205
 4575     67.32   81.616   13.204
 4575.5     67.054   80.292   13.203
 4576     66.889   78.969   13.203
 4576.5     66.731   77.646   13.202
 4577     66.584   76.823   13.202
 4577.5     66.437   76.408   13.201
 4578     66.29   75.993   13.2
 4578.5     66.143   75.578   13.2
 4579     65.996   75.163   13.199
 4579.5     65.843   74.748   13.199
 4580     65.647   75.046   13.199
 4580.5     65.451   76.493   13.205
 4581     65.043   76.301   13.211
 4581.5     64.282   70.538   13.218
 4582     61.464   64.774   13.224
 4582.5     58.411   59.01   13.23
 4583     55.753   53.246   13.236
 4583.5     54.641   47.483   13.242
 4584     53.528   41.719   13.249
 4584.5     52.416   38.387   13.255
 4585     54.024   35.4   13.261
 4585.5     57.165   40.469   13.267
 4586     60.575   53.583   13.273
 4586.5     64.06   66.696   13.28
 4587     66.846   72.426   13.286
 4587.5     66.248   77.373   13.288
 4588     65.649   76.621   13.288
 4588.5     65.05   75.218   13.289
 4589     65.628   73.815   13.29
 4589.5     67.895   75.592   13.29
 4590     70.162   81.141   13.291
 4590.5     72.428   86.691   13.292
 4591     72.022   92.24   13.292
 4591.5     70.319   97.789   13.293
 4592     68.617   97.254   13.294
 4592.5     62.866   90.612   13.294
 4593     56.994   83.971   13.295
 4593.5     53.655   73.248   13.296
 4594     52.432   50.417   13.296
 4594.5     51.209   28.858   13.297
 4595     50.009   25.647   13.298
 4595.5     49.774   22.435   13.298
 4596     49.539   21.3   13.299
 4596.5     49.304   21.146   13.3
 4597     49.069   20.993   13.3
 4597.5     48.834   20.839   13.301
 4598     48.599   20.686   13.302
 4598.5     48.538   20.693   13.302
 4599     48.526   22.058   13.303
 4599.5     48.514   23.424   13.304
 4600     48.502   24.815   13.304
 4600.5     48.926   26.243   13.305
 4601     49.476   27.671   13.306
 4601.5     49.462   29.099   13.306
 4602     49.128   28.796   13.307
 4602.5     48.794   27.497   13.307
 4603     48.46   26.197   13.306
 4603.5     48.252   24.897   13.305
 4604     48.242   23.598   13.303
 4604.5     48.231   22.298   13.302
 4605     48.22   20.998   13.3
 4605.5     48.209   20.004   13.298
 4606     48.348   20.174   13.297
 4606.5     48.488   20.344   13.295
 4607     48.629   20.514   13.294
 4607.5     48.77   23.966   13.292
 4608     48.91   27.834   13.291
 4608.5     49.051   31.702   13.289
 4609     49.191   35.571   13.288
 4609.5     49.936   39.439   13.286
 4610     50.995   38.907   13.285
 4610.5     52.055   43.949   13.283
 4611     62.215   53.735   13.282
 4611.5     60.749   63.521   13.28
 4612     59.282   70.098   13.279
 4612.5     57.815   68.44   13.277
 4613     56.348   59.778   13.276
 4613.5     54.881   51.117   13.274
 4614     56.799   42.456   13.273
 4614.5     58.997   44.781   13.271
 4615     57.72   48.45   13.27
 4615.5     56.443   52.12   13.268
 4616     55.166   48.682   13.267
 4616.5     53.889   44.798   13.265
 4617     52.784   42.009   13.264
 4617.5     51.949   39.221   13.262
 4618     50.797   35.593   13.261
 4618.5     49.619   31.401   13.259
 4619     48.56   27.21   13.258
 4619.5     48.56   24.78   13.256
 4620     49.178   23.779   13.254
 4620.5     55.545   37.804   13.253
 4621     65.104   54.473   13.251
 4621.5     63.324   71.142   13.25
 4622     61.544   76.53   13.248
 4622.5     59.763   81.622   13.247
 4623     57.983   77.601   13.245
 4623.5     54.493   63.233   13.244
 4624     50.701   48.866   13.242
 4624.5     49.841   34.498   13.241
 4625     49.351   25.642   13.239
 4625.5     49.371   22.762   13.238
 4626     49.396   22.304   13.236
 4626.5     49.421   22.852   13.237
 4627     49.445   23.4   13.238
 4627.5     49.381   23.948   13.24
 4628     49.314   24.496   13.241
 4628.5     49.247   25.044   13.242
 4629     49.18   25.592   13.243
 4629.5     49.203   26.14   13.245
 4630     49.286   26.688   13.246
 4630.5     49.369   28.955   13.247
 4631     49.453   31.368   13.249
 4631.5     49.536   31.477   13.25
 4632     49.619   31.033   13.251
 4632.5     49.702   30.589   13.253
 4633     49.785   30.145   13.254
 4633.5     50.363   30.715   13.255
 4634     50.987   33.412   13.257
 4634.5     52.738   36.109   13.258
 4635     56.827   42.343   13.259
 4635.5     60.915   66.044   13.26
 4636     65.004   79.772   13.262
 4636.5     65.976   88.903   13.263
