~Version Information
 VERS.                  2.0:   CWLS log ASCII Standard -VERSION 2.0
 WRAP.                   NO:   One line per depth step
~Well Information Block
#MNEM.UNIT     VALUE/NAME     DESCRIPTION
#---------     -----------    ---------------------------
 STRT.F              8580.0000: START DEPTH
 STOP.F             14491.0000: STOP DEPTH
 STEP.F                 0.5000: STEP DEPTH
 NULL.               -999.2500: NULL VALUE
 LOC .     1072' FWL & 424' FNL:  LOCATION
 FL2 .     A2085 SEC 12 BLK 113:  LOCATIONLINE2
 FL1 .     1072' FWL & 424' FNL:  LOCATIONLINE1
 CNTY.               CULBERSON:  COUNTY NAME
 FLD .              WOLFCAMP B:  FIELD NAME
 WELL.           DALE STATE 2H:  WELL NAME
 COMP.     CAPITAN ENERGY INC.:  COMPANY
 DMF .                      KB:  DRILL MEAS FROM
 PDAT.                      GL:  PERMANENT DATUM
 DATE.             11-Feb-2020:  DATE
 SVCO.             Halliburton:  SERVICECONAME
 PROV.                      TX:  PROVINCE
 STAT.                      TX:  STATE NAME
 CTRY.                     USA:  COUNTRY NAME
 HIDE.                        :  WELLNAMEOPERAT
 UWI .            42-109-33544:  UNIQUE WELL IDENTIFIER
 API .            42-109-33544:  API NUMBER
 RANG.                     N/A:  RANGE
 TOWN.                     N/A:  TOWNSHIP
 SECT.                     N/A:  SECTION
 SON .               906290231:  JOB NUMBER
 SRVC.             Halliburton:  SERVICE COMPANY
 LMF .                      KB:  LOG MEASURED FROM
 TVDS.ft           3291.000000:  TVDSS CORRECTN
 EGL .ft           3266.000000:  GROUND ELEVATION
 APD .ft             25.000000:  DEPTH ABOVE PD
 EPD .ft           3266.000000:  ELEVATION
 BAP .ft              0.000000:  GL ELEV ONSHORE
 GVFD.g               1.000000:  GRAVITY FIELD
 EKB .ft           3291.000000:  KB ELEVATION
 EDF .ft           3291.000000:  DF ELEVATION
~Parameter Information Block
#MNEM.UNIT       Value        Description
#---------     -----------    ---------------------------
 BARI.                     OFF:  BARITE CORR 
 BRMP.                      No:  BromidePresent 
 CSF5.        Conductor Casing:  Casing Func5 
 CSF6.        Conductor Casing:  Casing Func6 
 DATE.               07-Feb-20:  Run Date 
 DCS .               07-Feb-20:  DateCircEndT 
 DLAB.               07-Feb-20:  LogStartDateT 
 ENGI.                John Doe:  Engineer Name 
 LSRV.             OH WIRELINE:  NameOfService 
 LSTM.ucts  09.26.51 07-Feb-20:  Log Start Time 
 LTYP.                     RAW:  LogDataType 
 LUL .                  ODESSA:  LoggingUnitLoc 
 LUN .                12100315:  LoggingUnitNum 
 SCT1.               07-Feb-20:  StartDateRun1 
 TCS .                   09 26:  Time Ciculation Ended 
 TDCE.ucts  09.26.51 07-Feb-20:  Time Circ End 
 TLAB.                   09 26:  LogStartTimeT 
~Curve Information Block
#MNEM.UNIT                 API CODE     Curve Description
#---------               -----------    ---------------------------
 DEPT.F                 00 000 000 000:  Depth
 CCL .V                 00 000 000 000:  Casing Collar Locator
 NPHI_OH.pu             00 000 000 000:  NPHI_OH
 NPHI_CHI.decp          00 000 000 000:  NPHI_CHI
 GR  .api               00 000 000 000:  Gamma API
 GR_CHI.api             00 000 000 000:  GR_CHI
 RHOB_OH.g/cc           00 000 000 000:  RHOB_OH
 RHOB_CHI.g/cc          00 000 000 000:  RHOB_CHI
 PE_OH.b/e              00 000 000 000:  PE_OH
 PE_CHI.b/e             00 000 000 000:  PE_CHI
 LLS_CHI.ohmm           00 000 000 000:  LLS_CHI
 LLS_OH.ohmm            00 000 000 000:  LLS_OH
 LLD_OH.ohmm            00 000 000 000:  LLD_OH
 LLD_CHI.ohmm           00 000 000 000:  LLD_CHI
 DTC_OH.uspf            00 000 000 000:  DTC_OH
 DTC_CHI.uspf           00 000 000 000:  DTC_CHI
 SPHW_CHI.decp          00 000 000 000:  SPHW_CHI
#Other Information
#
#WARRANTY: Halliburton will use its best efforts to furnish customers with 
#accurate information and interpretations that are part of, and incident to, the services 
#provided.  However, Halliburton cannot and does not warrant the accuracy 
#or correctness of such information and interpretations.  Under no circumstances should any 
#such information or interpretation be relied upon as the sole basis for any drilling, 
#completion, production, or financial decision or any procedure involving any risk to the 
#safety of any drilling venture, drilling rig or its crew or any other third party.  The 
#Customer has full responsibility for all drilling, completion and production operation.  
#Halliburton makes no representations or warranties, either expressed or 
#implied, including, but not limited to, the implied warranties of merchantability or fitness 
#for a particular purpose, with respect to the services rendered.  In no event will 
#Halliburton be liable for failure to obtain any particular results or for 
#any damages, including, but not limited to, indirect, special or consequential damages, 
#resulting from the use of any information or interpretation provided by Halliburton.
#
~A    DEPT       CCL     NPHI_OH  NPHI_CHI    GR      GR_CHI   RHOB_OH  RHOB_CHI   PE_OH   PE_CHI LLS_CHI   LLS_OH     LLD_OH   LLD_CHI   DTC_OH   DTC_CHI SPHW_CHI 
# ...
   11330.0000    0.0000 -999.2500   0.0851 -999.2500  91.3198 -999.2500   2.6052 -999.2500 3.0907  21.1886 -999.2500  -999.2500  24.7616 -999.2500 71.3004 0.1676
   11330.5000    0.0000 -999.2500   0.0844 -999.2500  83.2045 -999.2500   2.6078 -999.2500 3.0260  16.6467 -999.2500  -999.2500  19.4610 -999.2500 70.5734 0.1625
   11331.0000    0.0000 -999.2500   0.0850 -999.2500  81.8109 -999.2500   2.6080 -999.2500 3.0006  15.2104 -999.2500  -999.2500  17.7910 -999.2500 70.5414 0.1622
   11331.5000    0.0000 -999.2500   0.0891 -999.2500  96.2251 -999.2500   2.6009 -999.2500 3.0533  20.1686 -999.2500  -999.2500  23.5413 -999.2500 71.9120 0.1719
   11332.0000  -34.5075 -999.2500   0.0821 -999.2500  85.1049 -999.2500   2.6115 -999.2500 3.0822  18.2192 -999.2500  -999.2500  21.4274 -999.2500 71.0179 0.1656
   11332.5000    0.0000 -999.2500   0.0790 -999.2500  83.9655 -999.2500   2.6151 -999.2500 3.1380  20.2384 -999.2500  -999.2500  23.8755 -999.2500 70.9184 0.1649
   11333.0000    0.0000 -999.2500   0.0811 -999.2500  92.3012 -999.2500   2.6101 -999.2500 3.1973  26.8519 -999.2500  -999.2500  31.6493 -999.2500 71.5114 0.1691
   11333.5000   37.8167 -999.2500   0.0813 -999.2500  91.6897 -999.2500   2.6089 -999.2500 3.1998  27.6144 -999.2500  -999.2500  32.5187 -999.2500 71.2856 0.1675
   11334.0000    0.0000 -999.2500   0.0774 -999.2500  78.1505 -999.2500   2.6153 -999.2500 3.1659  22.1990 -999.2500  -999.2500  26.2762 -999.2500 69.8920 0.1577
   11334.5000    0.0000 -999.2500   0.0815 -999.2500  84.0961 -999.2500   2.6079 -999.2500 3.1473  23.9711 -999.2500  -999.2500  28.1012 -999.2500 70.1725 0.1596
   11335.0000    0.0000 -999.2500   0.0831 -999.2500  85.1611 -999.2500   2.6043 -999.2500 3.1343  24.4592 -999.2500  -999.2500  28.4543 -999.2500 70.0130 0.1585
   11335.5000   40.3690 -999.2500   0.0829 -999.2500  86.9826 -999.2500   2.6031 -999.2500 3.1344  25.5048 -999.2500  -999.2500  29.4570 -999.2500 69.9756 0.1582
   11336.0000   15.9959 -999.2500   0.0804 -999.2500  83.0078 -999.2500   2.6060 -999.2500 3.1271  23.9618 -999.2500  -999.2500  27.5789 -999.2500 69.4935 0.1548
   11336.5000    0.0000 -999.2500   0.0831 -999.2500  94.3407 -999.2500   2.6003 -999.2500 3.1265  27.8221 -999.2500  -999.2500  31.6748 -999.2500 70.4032 0.1613
   11337.0000    0.0000 -999.2500   0.0787 -999.2500  91.4899 -999.2500   2.6057 -999.2500 3.1370  27.4217 -999.2500  -999.2500  31.2585 -999.2500 70.0879 0.1590
   11337.5000  -13.1389 -999.2500   0.0715 -999.2500  82.1925 -999.2500   2.6157 -999.2500 3.1571  25.8419 -999.2500  -999.2500  29.6944 -999.2500 69.1961 0.1527
   11338.0000  -63.2899 -999.2500   0.0677 -999.2500  81.7269 -999.2500   2.6193 -999.2500 3.2071  28.9599 -999.2500  -999.2500  33.3641 -999.2500 68.9849 0.1512
   11338.5000  -14.0089 -999.2500   0.0652 -999.2500  82.0347 -999.2500   2.6212 -999.2500 3.2576  32.5157 -999.2500  -999.2500  37.4960 -999.2500 68.8319 0.1502
   11339.0000   26.5158 -999.2500   0.0634 -999.2500  76.3678 -999.2500   2.6231 -999.2500 3.3000  32.9604 -999.2500  -999.2500  38.1167 -999.2500 68.2076 0.1457
   11339.5000   23.9197 -999.2500   0.0647 -999.2500  72.6871 -999.2500   2.6216 -999.2500 3.3116  32.2036 -999.2500  -999.2500  37.2334 -999.2500 67.8187 0.1430
   11340.0000   19.9523 -999.2500   0.0713 -999.2500  76.4350 -999.2500   2.6129 -999.2500 3.2586  30.7277 -999.2500  -999.2500  35.1685 -999.2500 68.1039 0.1450
   11340.5000  -20.2952 -999.2500   0.0780 -999.2500  82.6867 -999.2500   2.6040 -999.2500 3.1936  29.7236 -999.2500  -999.2500  33.6666 -999.2500 68.6420 0.1488
   11341.0000  -42.7579 -999.2500   0.0833 -999.2500  90.2582 -999.2500   2.5966 -999.2500 3.1403  30.0794 -999.2500  -999.2500  33.7679 -999.2500 69.2889 0.1534
   11341.5000    0.0000 -999.2500   0.0817 -999.2500  83.1805 -999.2500   2.6003 -999.2500 3.1031  25.8400 -999.2500  -999.2500  29.1214 -999.2500 68.7031 0.1492
   11342.0000    0.0000 -999.2500   0.0771 -999.2500  73.7615 -999.2500   2.6074 -999.2500 3.1126  23.8409 -999.2500  -999.2500  27.1258 -999.2500 67.8992 0.1436
   11342.5000    0.0000 -999.2500   0.0794 -999.2500  83.1959 -999.2500   2.6032 -999.2500 3.1234  27.1619 -999.2500  -999.2500  30.7954 -999.2500 68.7184 0.1494
   11343.0000  -44.9587 -999.2500   0.0787 -999.2500  81.6414 -999.2500   2.6041 -999.2500 3.1303  27.0902 -999.2500  -999.2500  30.7355 -999.2500 68.5501 0.1482
   11343.5000  -16.9062 -999.2500   0.0793 -999.2500  85.2437 -999.2500   2.6022 -999.2500 3.1639  29.9534 -999.2500  -999.2500  33.8950 -999.2500 68.8129 0.1500
   11344.0000    0.0000 -999.2500   0.0717 -999.2500  70.6387 -999.2500   2.6130 -999.2500 3.2183  27.5826 -999.2500  -999.2500  31.5641 -999.2500 67.5089 0.1408
   11344.5000   30.0342 -999.2500   0.0684 -999.2500  75.5115 -999.2500   2.6153 -999.2500 3.3113  33.9377 -999.2500  -999.2500  38.8605 -999.2500 67.8218 0.1430
   11345.0000   48.9539 -999.2500   0.0647 -999.2500  74.7458 -999.2500   2.6194 -999.2500 3.3738  37.4462 -999.2500  -999.2500  43.1130 -999.2500 67.6942 0.1421
   11345.5000  -13.8115 -999.2500   0.0624 -999.2500  70.0439 -999.2500   2.6225 -999.2500 3.3860  36.6611 -999.2500  -999.2500  42.3695 -999.2500 67.2236 0.1388
   11346.0000    0.0000 -999.2500   0.0626 -999.2500  63.2668 -999.2500   2.6231 -999.2500 3.3618  33.2658 -999.2500  -999.2500  38.5216 -999.2500 66.6129 0.1345
   11346.5000    0.0000 -999.2500   0.0684 -999.2500  69.8557 -999.2500   2.6148 -999.2500 3.3009  32.5532 -999.2500  -999.2500  37.1821 -999.2500 67.0841 0.1378
   11347.0000   16.3838 -999.2500   0.0687 -999.2500  71.7298 -999.2500   2.6137 -999.2500 3.2843  32.3557 -999.2500  -999.2500  36.6793 -999.2500 67.1849 0.1385
   11347.5000   10.4391 -999.2500   0.0664 -999.2500  66.5273 -999.2500   2.6168 -999.2500 3.2876  30.9655 -999.2500  -999.2500  35.1542 -999.2500 66.7248 0.1353
   11348.0000   18.3734 -999.2500   0.0731 -999.2500  89.6391 -999.2500   2.6052 -999.2500 3.2685  38.8421 -999.2500  -999.2500  43.2597 -999.2500 68.6336 0.1488
   11348.5000    0.0000 -999.2500   0.0686 -999.2500  78.7211 -999.2500   2.6125 -999.2500 3.2705  34.9975 -999.2500  -999.2500  39.4597 -999.2500 67.6736 0.1420
   11349.0000  -34.1128 -999.2500   0.0654 -999.2500  68.3022 -999.2500   2.6175 -999.2500 3.3032  33.9058 -999.2500  -999.2500  38.6874 -999.2500 66.6965 0.1351
   11349.5000    0.0000 -999.2500   0.0655 -999.2500  67.8567 -999.2500   2.6168 -999.2500 3.3157  35.1161 -999.2500  -999.2500  40.0338 -999.2500 66.5210 0.1338
   11350.0000   24.9171 -999.2500   0.0638 -999.2500  58.7681 -999.2500   2.6190 -999.2500 3.3481  34.5716 -999.2500  -999.2500  39.5555 -999.2500 65.6296 0.1275
   11350.5000  -21.0154 -999.2500   0.0657 -999.2500  55.3730 -999.2500   2.6160 -999.2500 3.3389  33.6159 -999.2500  -999.2500  38.1932 -999.2500 65.2131 0.1246
   11351.0000  -27.3063 -999.2500   0.0684 -999.2500  56.2575 -999.2500   2.6122 -999.2500 3.3089  32.7929 -999.2500  -999.2500  36.9923 -999.2500 65.1852 0.1244
   11351.5000    0.0000 -999.2500   0.0713 -999.2500  66.5634 -999.2500   2.6076 -999.2500 3.2939  35.1697 -999.2500  -999.2500  39.4435 -999.2500 65.9697 0.1299
   11352.0000   46.2303 -999.2500   0.0680 -999.2500  60.8298 -999.2500   2.6124 -999.2500 3.3352  36.1519 -999.2500  -999.2500  41.0512 -999.2500 65.4799 0.1264
   11352.5000   59.4699 -999.2500   0.0601 -999.2500  44.0357 -999.2500   2.6239 -999.2500 3.4451  37.6491 -999.2500  -999.2500  43.9505 -999.2500 64.2059 0.1174
   11353.0000    0.0000 -999.2500   0.0583 -999.2500  51.7992 -999.2500   2.6251 -999.2500 3.5005  42.8188 -999.2500  -999.2500  50.0224 -999.2500 64.7671 0.1214
   11353.5000    0.0000 -999.2500   0.0586 -999.2500  57.5642 -999.2500   2.6241 -999.2500 3.5283  46.1399 -999.2500  -999.2500  53.8336 -999.2500 65.2356 0.1247
   11354.0000   20.9427 -999.2500   0.0576 -999.2500  60.9998 -999.2500   2.6248 -999.2500 3.5795  50.7073 -999.2500  -999.2500  59.3033 -999.2500 65.5161 0.1267
   11354.5000   21.6740 -999.2500   0.0576 -999.2500  61.6252 -999.2500   2.6246 -999.2500 3.5722  50.2737 -999.2500  -999.2500  58.6204 -999.2500 65.5747 0.1271
