~VERSION INFORMATION
 VERS.                2.0:   CWLS LOG ASCII STANDARD - VERSION 2.0
 WRAP.                 NO:   ONE LINE PER DEPTH STEP
~WELL INFORMATION
#MNEM.UNIT      DATA TYPE    INFORMATION
#----------   ------------   ------------------------------
 STRT.FT        8672.0000:   START DEPTH
 STOP.FT       14432.0000:   STOP DEPTH
 STEP.FT           0.5000:   STEP LENGTH
 NULL.          -999.2500:   NULL VALUE
 COMP. CAPITAN ENERGY, INCORPORATED:   COMPANY
 WELL.  MOTHER FEE 28 #1H:   WELL
 FLD . FORD, WEST (WOLFCAMP)	:   FIELD
 LOC .                   :   LOCATION
 CNTY.          CULBERSON:   COUNTY
 STAT.              TEXAS:   STATE
 CTRY. UNITED STATES OF AMERICA:   COUNTRY
 SRVC.        HALLIBURTON:   SERVICE COMPANY
 DATE.        16-Nov-2015:   LOGDATE
 API .     42109328880000:   API NUMBER
~CURVE INFORMATION
#MNEM.UNIT       API CODE    CURVE DESCRIPTION
#----------   ------------   ------------------------------
 DEPT.FT                 :   
 CALD_C.IN   45 280 60 00:   CALIPER FROM DENSITY COMPOSITE LOG
 DCOR.G/C3   45 356 01 00:   DENSITY CORRECTION
 DPHI_LS.DEC 45 890 10 00:   DENSITY POROSITY LIMESTONE
 DT_CH.US/F  60 501 00 00:   DELTA FROM THE FULL WAVE SONIC IN CASED HOLE
 GRD .GAPI   45 310 01 00:   GAMMA RAY FROM DENSITY LOG
 LLDC.OHMM   11 220 10 00:   CORRECTED LATEROLOG DEEP RESISTIVITY
 LLSC.OHMM   11 220 09 00:   CORRECTED LATEROLOG SHALLOW RESISTIVITY
 MSFLC.OHMM  11 270 04 00:   CORRECTED MICRO SPHERICALLY FOCUSED RESISTIVITY
 NPHI_LS.DEC 42 890 01 00:   NEUTRON POROSITY LIMESTONE
 PE  .B/E    45 358 01 00:   PHOTO ELECTRIC CROSS SECTION
 RHOB_CH.G/C3 45 350 01 00:   
~PARAMETER INFORMATION
#MNEM.UNIT          VALUE    DESCRIPTION
#----------   ------------   ------------------------------
 DATE.           11/16/15:   RUN DATE
 RUN .                  1:   RUN NUMBER
 BLI .FT            14432:   BOTTOM LOG INTERVAL
 TLI .FT             8672:   TOP LOG INTERVAL
 ORIG.     1" 2" 5" PRINT:   ORIGIN OF DATA
 UWI .     42109328880000:   UNIQUE WELL ID
~OTHER INFORMATION
~A   DEPT         CALD_C      DCOR       DPHI_LS      DT_CH       GRD        LLDC        LLSC        MSFLC       NPHI_LS         PE      RHOB_CH
# ...
 13264.0000   -999.2500   -999.2500      0.0933     71.6115    113.3768     45.3975     35.4552     21.6853      0.1577      3.4364      2.5653
 13264.5000   -999.2500   -999.2500      0.0921     72.0427    110.2974     42.6172     34.0973     19.8971      0.1586      3.4358      2.5654
 13265.0000   -999.2500   -999.2500      0.0975     72.5434    122.9729     47.1018     36.5613     22.5723      0.1615      3.3958      2.5543
 13265.5000   -999.2500   -999.2500      0.1036     72.5474    138.3006     53.7540     42.0584     25.7376      0.1646      3.3944      2.5442
 13266.0000   -999.2500   -999.2500      0.1036     72.5515    136.5737     53.2410     38.7404     25.9543      0.1629      3.3765      2.5433
 13266.5000   -999.2500   -999.2500      0.1016     72.5555    133.6541     51.7848     39.8176     25.1281      0.1594      3.3934      2.5451
 13267.0000   -999.2500   -999.2500      0.1005     72.5596    131.2183     52.4765     41.0143     25.1284      0.1574      3.3922      2.5469
 13267.5000   -999.2500   -999.2500      0.1003     72.5636    133.2918     54.0619     42.2110     25.6222      0.1585      3.4321      2.5488
 13268.0000   -999.2500   -999.2500      0.1002     72.5677    133.3955     55.2364     41.0149     25.7899      0.1600      3.4321      2.5506
 13268.5000   -999.2500   -999.2500      0.0996     72.5717    131.1516     51.3864     39.2142     24.3002      0.1622      3.4066      2.5520
 13269.0000   -999.2500   -999.2500      0.0999     72.5758    131.8189     49.5746     38.8694     23.7987      0.1640      3.3921      2.5506
 13269.5000   -999.2500   -999.2500      0.1000     72.5798    133.1202     48.2881     37.7693     23.3060      0.1649      3.3892      2.5481
 13270.0000   -999.2500   -999.2500      0.0964     72.5839    123.4107     44.9882     36.5423     21.9133      0.1633      3.4210      2.5541
 13270.5000   -999.2500   -999.2500      0.0979     72.5879    127.5149     46.7082     36.9867     22.8073      0.1625      3.4210      2.5583
 13271.0000   -999.2500   -999.2500      0.1011     72.5920    133.3207     49.6661     39.4637     24.3664      0.1615      3.4210      2.5501
 13271.5000   -999.2500   -999.2500      0.1002     72.5960    129.0831     49.6148     38.5564     24.6600      0.1571      3.4377      2.5516
 13272.0000   -999.2500   -999.2500      0.0987     72.6001    127.4348     45.2788     35.6402     21.8326      0.1564      3.4453      2.5609
 13272.5000   -999.2500   -999.2500      0.1018     72.4386    137.2246     52.7662     43.0373     26.0994      0.1569      3.4617      2.5493
 13273.0000   -999.2500   -999.2500      0.0993     72.1669    129.5822     54.0569     42.2563     25.8852      0.1578      3.4629      2.5488
 13273.5000   -999.2500   -999.2500      0.0962     72.0555    124.8951     52.8161     41.4464     25.1119      0.1585      3.5020      2.5543
 13274.0000   -999.2500   -999.2500      0.0962     72.1911    125.0676     52.7516     40.5825     24.8324      0.1591      3.5020      2.5566
 13274.5000   -999.2500   -999.2500      0.0972     72.3035    127.6668     54.0392     42.1470     25.6165      0.1604      3.5020      2.5556
 13275.0000   -999.2500   -999.2500      0.0978     72.3338    129.1417     55.1955     43.0383     26.0973      0.1594      3.5155      2.5565
 13275.5000   -999.2500   -999.2500      0.0983     72.2287    130.1515     55.7613     43.2892     26.5774      0.1585      3.5175      2.5574
 13276.0000   -999.2500   -999.2500      0.0981     72.0511    126.0723     55.5037     43.4397     25.5687      0.1566      3.5020      2.5583
 13276.5000   -999.2500   -999.2500      0.0952     71.8735    118.5862     50.4445     39.2269     23.8747      0.1542      3.5021      2.5630
 13277.0000   -999.2500   -999.2500      0.0947     71.8024    116.5167     48.2219     37.7985     22.7433      0.1535      3.5022      2.5631
 13277.5000   -999.2500   -999.2500      0.0946     71.8024    116.0817     49.4793     38.6288     23.6030      0.1525      3.5023      2.5610
 13278.0000   -999.2500   -999.2500      0.0956     71.8024    121.7720     51.3744     39.5930     24.7693      0.1520      3.5257      2.5583
 13278.5000   -999.2500   -999.2500      0.0996     71.8024    127.4393     57.9844     44.8047     26.8761      0.1512      3.5141      2.5562
 13279.0000   -999.2500   -999.2500      0.0978     71.8024    124.2945     56.8057     44.1175     26.7387      0.1504      3.5023      2.5571
 13279.5000   -999.2500   -999.2500      0.0978     71.7225    127.4033     57.1170     43.8460     26.6077      0.1504      3.5031      2.5585
 13280.0000   -999.2500   -999.2500      0.0986     71.5893    117.2052     56.2415     43.3090     26.7961      0.1508      3.5039      2.5599
 13280.5000   -999.2500   -999.2500      0.0945     71.5360    116.9049     51.8968     39.4716     24.5058      0.1504      3.5047      2.5611
 13281.0000   -999.2500   -999.2500      0.0941     71.7425    122.7608     53.2726     42.2898     24.5219      0.1515      3.5174      2.5621
 13281.5000   -999.2500   -999.2500      0.0965     71.5360    124.1623     57.1638     43.5765     26.7721      0.1536      3.5544      2.5629
 13282.0000   -999.2500   -999.2500      0.0901     71.3457    108.8969     52.6830     41.8516     24.7561      0.1524      3.5711      2.5636
 13282.5000   -999.2500   -999.2500      0.0868     71.2696    109.8228     49.5286     39.2341     22.8292      0.1528      3.5811      2.5643
 13283.0000   -999.2500   -999.2500      0.0919     71.2696    121.9600     53.7560     41.6701     24.7707      0.1544      3.5724      2.5651
 13283.5000   -999.2500   -999.2500      0.0957     71.2696    122.0852     53.2350     42.9089     26.2856      0.1537      3.5397      2.5657
 13284.0000   -999.2500   -999.2500      0.0898     71.2696    107.8959     44.9988     34.6666     20.9625      0.1516      3.5289      2.5709
 13284.5000   -999.2500   -999.2500      0.0892     71.1603    110.6987     45.9026     35.8409     21.5369      0.1502      3.5390      2.5722
 13285.0000   -999.2500   -999.2500      0.0900     70.9783    113.3013     51.1658     39.8412     23.5394      0.1489      3.5519      2.5726
 13285.5000   -999.2500   -999.2500      0.0892     70.7962    109.2472     52.7973     41.8501     24.2037      0.1467      3.5740      2.5731
 13286.0000   -999.2500   -999.2500      0.0876     70.7234    104.4924     50.8257     41.7174     23.3224      0.1456      3.5784      2.5736
 13286.5000   -999.2500   -999.2500      0.0876     70.8589    104.0920     49.4539     39.0446     22.9153      0.1448      3.5784      2.5738
 13287.0000   -999.2500   -999.2500      0.0889     70.9295    109.0785     49.6388     38.4655     23.0664      0.1440      3.5515      2.5734
 13287.5000   -999.2500   -999.2500      0.0900     70.8966    109.4496     51.8819     38.4757     23.8762      0.1432      3.5414      2.5722
 13288.0000   -999.2500   -999.2500      0.0885     70.8638    104.6327     46.5619     38.3828     23.9542      0.1423      3.5612      2.5739
 13288.5000   -999.2500   -999.2500      0.0865     70.8309    100.4345     47.8903     37.8778     22.3697      0.1408      3.5762      2.5776
 13289.0000   -999.2500   -999.2500      0.0860     70.7980    101.0145     49.3872     38.4992     22.8945      0.1397      3.5762      2.5781
 13289.5000   -999.2500   -999.2500      0.0868     70.7724    101.9546     51.2459     39.3039     23.4174      0.1388      3.5955      2.5765
 13290.0000   -999.2500   -999.2500      0.0860     70.7467     97.5198     48.1070     37.8489     22.6546      0.1377      3.6156      2.5811
 13290.5000   -999.2500   -999.2500      0.0827     70.7211     86.2223     44.0719     34.3418     20.0653      0.1372      3.6156      2.5872
 13291.0000   -999.2500   -999.2500      0.0807     70.6955     84.6507     39.7717     31.3069     18.7854      0.1378      3.6234      2.5876
 13291.5000   -999.2500   -999.2500      0.0822     70.6699     90.6267     43.2764     34.0965     19.8297      0.1400      3.6639      2.5847
