~VERSION INFORMATION
 VERS.                2.0:   CWLS LOG ASCII STANDARD - VERSION 2.0
 WRAP.                 NO:   ONE LINE PER DEPTH STEP
~WELL INFORMATION
#MNEM.UNIT      DATA TYPE    INFORMATION
#----------   ------------   ------------------------------
 STRT.FT          68.0000:   START DEPTH
 STOP.FT        1517.0000:   STOP DEPTH
 STEP.FT           0.5000:   STEP LENGTH
 NULL.          -999.2500:   NULL VALUE
 COMP. LINCOLN ROCK CORPORATION:   COMPANY
 WELL.        HOLLER #602:   WELL
 FLD .            UNNAMED:   FIELD
 LOC .                   :   LOCATION
 CNTY.          CULBERSON:   COUNTY
 STAT.              TEXAS:   STATE
 CTRY. UNITED STATES OF AMERICA:   COUNTRY
 SRVC.           Gearhart:   SERVICE COMPANY
 DATE.        24-Jun-1984:   LOGDATE
 API .     42109317410000:   API NUMBER
~CURVE INFORMATION
#MNEM.UNIT       API CODE    CURVE DESCRIPTION
#----------   ------------   ------------------------------
 DEPT.F                  :   
 CALXS.IN    60 280 13 00:   CALIPER FROM X AXIS OF X-Y CALIPER(S) FROM SONIC LOG
 GRD .GAPI   45 310 01 00:   GAMMA RAY FROM DENSITY LOG
 GRS .GAPI   60 310 01 00:   GAMMA RAY FROM SONIC LOG
 TEND.LB     45 635 00 00:   TENSION FROM DENSITY LOG
 TENR.LB     11 635 00 00:   TENSION FROM RESISTIVITY LOG
 TENS.LB     60 635 00 00:   TENSION FROM SONIC LOG
 CALYD.IN    45 280 24 00:   CALIPER FROM X AXIS OF X-Y CALIPER(S) FROM DENSITY LOG
 CNS_LS.DEC  42 890 01 00:   COMPENSATED NEUTRON POROSITY
 CDL_LS.DEC  45 890 10 00:   COMPENSATED DENSITY POROSITY LIMESTONE
 RHOB.G/C3   45 350 01 00:   BULK DENSITY
 DRHO.G/C3   45 356 01 00:   BULK DENSITY CORRECTION
 GRR .GAPI   11 310 01 00:   GAMMA RAY FROM RESISTIVITY LOG
 RLLD.OHMM   11 220 10 00:   RAW LATEROLOG DEEP RESISTIVITY
 RLLS.OHMM   11 220 09 00:   RAW LATEROLOG SHALLOW RESISTIVITY
 DT  .US/F   60 500 00 00:   DELTA-T (INTERVAL TRANSIT TIME)
 SPHI.DEC    60 890 00 00:   SONIC POROSITY
~PARAMETER INFORMATION
#MNEM.UNIT          VALUE    DESCRIPTION
#----------   ------------   ------------------------------
 PD  .                 GL:   PERMANENT DATUM
 EPD .FT             3532:   ELEVATION PERMANENT DATUM
 LMF .                 GL:   LOG MEASURED FROM
 DMF .                RKB:   DRILLING MEASURED FROM
 EKB .FT             3544:   KELLY BUSHING
 EDF .FT             3543:   DRILLING FLOOR
 EGL .FT             3532:   GROUND LEVEL
 DATE.           06/24/84:   RUN DATE
 RUN .                  1:   RUN NUMBER
 DD  .FT             1502:   DEPTH DRILLER
 DL  .FT             1506:   DEPTH LOGGER
 BLI .FT             1505:   BOTTOM LOG INTERVAL
 TLI .FT               90:   TOP LOG INTERVAL
 CS  .IN              4.5:   CASING SIZE
 CBD .FT              101:   CASING BOTTOM DRILLER
 CBL .FT             1502:   CASING BOTTOM LOGGER
 BS  .IN            7.875:   BIT SIZE
 BSD .FT             1502:   BIT SIZE AT DEPTH
 DFT .          FRESH H2O:   DRILLING FLUID TYPE
 DFD .                8.4:   DRILLING FLUID DENSITY
 DFV .                 27:   DRILLING FLUID VISCOSITY
 DFPH.                 12:   DRILLING FLUID PH
 MSS .                PIT:   MUD SAMPLE SOURCE
 RMS .OHMM           2.32:   RESISTIVITY MUD SAMPLE
 MST .DEGF             77:   MUD SAMPLE TEMPERATURE
 RMF .OHMM           2.32:   RESISTIVITY MUD FILTRATE SAMPLE
 MFST.DEGF             77:   MUD FILTRATE SAMPLE TEMPERATURE
 MFSS.               MEAS:   MUD FILTRATE SAMPLE SOURCE
 TCS .HRS            0940:   TIME CIRCULATED STOPPED
 TLAB.HRS            1319:   TIME LOGGER AT BOTTOM
 MRT .DEGF            770:   MAXIMUM RECORDED TEMPERATURE
 LUN .               7583:   LOGGING UNIT NUMBER
 LUL .              HOBBS:   LOGGING UNIT LOCATION
 ENGI.             BRYANT:   RECORDING ENGINEER
 WITN.             BURROW:   WITNESSED BY
 CLNT.            :   CLIENT CODE
 ORIG.      1" 2.5" PRINT:   ORIGIN OF DATA
 UWI .     42109317410000:   UNIQUE WELL ID
 
~OTHER INFORMATION
~A   DEPT    CALXS        GRD        GRS       TEND       TENR       TENS      CALYD      CNS_LS     CDL_LS      RHOB       DRHO          GRR     RLLD       RLLS         DT       SPHI   
# ...
  304.5000     8.7615     5.1831     4.7380   950.7813   545.2009   726.8471     7.9943    -0.0027     0.2678     2.9439    -0.0381     4.1482 31249.4375 60442.9648    50.0879    -0.0123
  305.0000     8.7432     5.4145     4.9418   951.4298   544.2456   727.1089     7.9938    -0.0028     0.2719     2.9379    -0.0388     3.4413 30983.3027 64371.8594    50.1936    -0.0126
  305.5000     8.7857     5.0712     4.4193   965.9773   543.2901   727.3719     7.9929    -0.0028     0.2711     2.9318    -0.0388     3.2704 29590.0332 69649.5000    50.2994    -0.0131
  306.0000     8.8449     4.7288     3.8969   973.6261   542.3348   727.6336     7.9924    -0.0028     0.2637     2.9297    -0.0345     3.0672 29064.9082 67040.2109    50.2819    -0.0137
  306.5000     8.7828     4.3161     3.6106   967.6835   541.3793   727.8966     7.9915    -0.0028     0.2641     2.9344    -0.0303     2.8640 31186.9492 63215.7656    49.7860    -0.0159
  307.0000     8.7703     4.3584     3.6788   961.7436   540.4227   728.1584     7.9906    -0.0032     0.2645     2.9404    -0.0272     2.6316 36130.6602 63764.3398    49.5129    -0.0184
  307.5000     8.7702     4.5033     3.8172   953.9589   551.7940   728.4201     7.9901    -0.0038     0.2650     2.9436    -0.0245     3.1538 41074.3672 58668.5078    49.2000    -0.0204
  308.0000     8.7700     4.8377     3.5555   946.1705   543.5579   728.6831     7.9896    -0.0045     0.2654     2.9423    -0.0268     3.7636 46018.0781 55839.6953    49.1727    -0.0215
  308.5000     8.7699     4.6445     3.3652   940.2266   535.3219   728.9449     7.9886    -0.0049     0.2658     2.9416    -0.0292     4.3733 47035.0234 59084.0547    49.3018    -0.0191
  309.0000     8.7901     4.3034     3.5253   934.2830   550.0625   729.2078     7.9877    -0.0054     0.2662     2.9403    -0.0317     5.0607 43319.6641 63964.3672    49.6343    -0.0169
  309.5000     8.7732     4.0663     3.6596   926.4909   570.4320   722.8959     7.9872    -0.0059     0.2666     2.9397    -0.0311     4.6667 38666.6406 65186.2227    49.8141    -0.0151
  310.0000     8.7768     3.8673     3.6282   920.1962   570.0858   731.1853     7.9895    -0.0055     0.2670     2.9383    -0.0286     4.2150 35976.2930 73031.6094    50.0183    -0.0147
  310.5000     8.7857     4.3867     3.2537   898.3724   557.7492   726.8397     7.9935    -0.0043     0.2674     2.9356    -0.0275     3.7634 33285.9453 79783.8828    50.0579    -0.0143
  311.0000     8.7945     4.9245     3.5797   899.3312   544.2555   722.4953     7.9947    -0.0032     0.2678     2.9266    -0.0264     3.5870 33012.4102 77705.7500    49.9667    -0.0146
  311.5000     8.8033     5.2292     4.0978   902.6630   531.8579   718.1496     7.9907     0.0004     0.2702     2.9176    -0.0253     4.0951 34390.1484 65816.3672    50.0730    -0.0143
  312.0000     8.8132     5.5794     4.7861   905.9950   528.0363   727.2689     7.9864     0.0222     0.3004     2.9086    -0.0225     4.0162 35345.5781 58317.1406    50.5880    -0.0119
  312.5000     8.8026     5.3678     5.2659   904.9275   528.0662   709.5426     8.0192     0.0480     0.3139     2.8801    -0.0143     4.0302 39480.9375 51001.7773    50.9726    -0.0082
  313.0000     8.7923     5.2430     4.8978   903.8602   528.0974   698.5687     8.0317     0.0533     0.3271     2.8160    -0.0061     4.3997 44472.7031 43091.1563    51.2931    -0.0050
  313.5000     8.8033     5.3865     4.4329   907.1896   524.2759   714.6028     8.0556     0.0457     0.3402     2.8210    -0.0059     4.7692 47684.9609 38687.7656    51.4378    -0.0037
  314.0000     8.7849     5.5300     3.9681   910.5202   520.4568   714.1066     8.0823     0.0343     0.3324     2.8260    -0.0112     5.1388 50234.9102 51074.5547    51.5543    -0.0023
  314.5000     8.7941     5.4387     3.6835   909.4504   527.4709   702.5894     8.0852     0.0231     0.3264     2.8310    -0.0165     5.4656 44799.8359 65024.8867    51.5754    -0.0012
  315.0000     8.8033     5.3475     4.0156   899.8266   562.3817   691.0720     8.0890     0.0136     0.3256     2.8350    -0.0218     5.2834 38311.9258 67315.8203    51.5656    -0.0012
  315.5000     8.8062     5.1776     4.3477   894.6045   561.0876   678.0029     8.0827     0.0088     0.3250     2.8362    -0.0271     5.0607 33279.2383 64462.4023    51.4718    -0.0016
  316.0000     8.7850     5.0866     4.4638   884.9893   542.0670   669.6180     8.0836     0.0040     0.3183     2.8370    -0.0324     5.0607 28246.5488 58317.1133    50.5010    -0.0060
  316.5000     8.7639     4.9918     4.3803   884.2024   519.2111   689.2782     8.0775    -0.0009     0.2971     2.8820    -0.0347     4.9190 29273.1602 55322.6172    50.1480    -0.0121
  317.0000     8.7426     4.9155     4.3344   886.3693   519.2846   708.9372     8.0713    -0.0032     0.2808     2.9201    -0.0331     4.6516 36855.3555 60275.3125    49.8742    -0.0157
  317.5000     8.7610     4.9182     4.4388   884.1468   520.2151   710.6343     8.0723    -0.0034     0.2645     2.9524    -0.0318     4.3842 43393.9375 70275.4375    49.7192    -0.0172
  318.0000     8.7707     4.9211     4.2804   881.9231   515.3311   707.8406     8.0733    -0.0025     0.2578     2.9423    -0.0305     4.1168 37393.7031 79521.0625    49.5642    -0.0161
  318.5000     8.7524     4.8449     3.9470   884.0900   506.5943   705.0456     8.0671    -0.0017     0.2634     2.9336    -0.0291     3.8494 32689.6816 76207.1016    50.0193    -0.0137
  319.0000     8.7343     4.7687     3.8160   878.0636   538.9829   702.2519     8.0609    -0.0009     0.2709     2.9248    -0.0231     3.5819 32419.0723 69879.1094    50.6080    -0.0111
  319.5000     8.7375     5.2343     4.4951   876.9716   552.2785   699.4582     8.0619     0.0000     0.2783     2.9160    -0.0141     3.3145 34442.1445 63551.1211    50.8535    -0.0089
  320.0000     8.7571     5.6221     5.1733   884.8917   602.3416   697.5488     8.0602    -0.0005     0.2857     2.9073    -0.0061     3.0364 36363.0938 61238.0430    50.8173    -0.0084
  320.5000     8.7776     5.5833     5.2657   938.1799   614.0832   716.0370     8.0451     0.0013     0.2923     2.8985    -0.0111     3.7334 35267.8945 63801.4102    50.6644    -0.0088
  321.0000     8.7973     5.3987     5.2104   949.1404   625.8333   725.8263     8.0424     0.0140     0.2963     2.8897    -0.0154     4.4592 35332.7305 64412.9531    50.8934    -0.0078
  321.5000     8.8047     5.2131     5.1561   961.9527   636.2954   717.8667     8.0393     0.0235     0.3059     2.8816    -0.0198     5.0607 38039.1953 66569.3281    51.0635    -0.0061
  322.0000     8.8030     5.1324     4.9808   974.7640   621.3227   711.7904     8.0362     0.0500     0.3195     2.8544    -0.0191     5.0607 43097.3086 75503.1563    51.6513    -0.0027
  322.5000     8.7916     5.4728     4.7768   985.7356   627.6779   703.6958     8.0336     0.0431     0.3331     2.8290    -0.0122     4.9825 62439.9063 71678.9688    52.0907     0.0001
  323.0000     8.7919     5.8135     4.5726   991.5137   624.0109   695.0602     8.0309     0.0302     0.3515     2.8047    -0.0122     4.8470 81782.5000 59042.6133    52.1969     0.0022
  323.5000     8.7919     6.0540     4.4426   978.3454   613.2062   688.3128     8.0278     0.0173     0.3470     2.7966    -0.0237     4.7115 90361.3828 46406.2500    52.0332     0.0005
  324.0000     8.7919     5.9547     4.3636   968.2324   616.8958   691.4576     8.0247     0.0044     0.3361     2.7945    -0.0360     4.5760 73069.1641 45262.2930    51.6384    -0.0015
  324.5000     8.7913     5.7571     4.4727   968.4955   616.2543   699.4345     8.0243    -0.0028     0.2980     2.8610    -0.0399     4.4405 52017.0195 45262.2930    51.4387    -0.0036
  325.0000     8.7725     5.2665     4.4650   968.7586   643.7232   707.4088     8.0240    -0.0028     0.2817     2.9261    -0.0333     4.3050 45660.5195 45262.2930    51.4800    -0.0032
  325.5000     8.7728     4.4349     3.6647   970.8638   618.5338   713.4963     8.0228     0.0003     0.2686     2.9261    -0.0265     4.0982 37117.6484 48664.1016    51.8079    -0.0013
