# Exported from Transform Software 5.2.0 on 17-Oct-2019 by user kathryn.gehrke
# DI Transform - A Product of Drillinginfo, Inc. - www.drillinginfo.com
#
~VERSION INFORMATION
 VERS.        2.0 : LAS ASCII STANDARD - VERSION 2.0
 WRAP.         NO : ONE LINE PER DEPTH STEP

~WELL INFORMATION
#MNEM.UNIT       DATA TYPE       INFORMATION
#---------       ---------       -----------
 STRT.ft                 100 : Start Depth
 STOP.ft               10126 : Stop Depth
 STEP.ft                 0.5 : Step Length
 NULL.               -999.25 : Null Value
 COMP.                       : Company
 WELL.  42109329790000_API14 : Well Name
 FLD.                        : Field Name
 LOC.                        : Well Location
 CNTY.                       : County
 STAT.                       : State or Province
 CTRY.                       : Country
 SRVC.                       : Service Company
 DATE.                       : Date
 API.         42109329790000 : Well Identifier

~CURVE INFORMATION
#MNEM.UNIT       API CODE       CURVE DESCRIPTION
#---------       --------       -----------------
 DEPT.ft        : <Measured Depth>
 DT.us/ft       : Sonic
 GR.gAPI        : Gamma Ray

~PARAMETER INFORMATION
#MNEM.UNIT       VALUE       DESCRIPTION
#---------       -----       -----------
 EKB.ft      3282 : Elevation above MSL

~A      DEPT          DT          GR
# ...
        4657      266.84     32.2229
      4657.5    268.3473     32.7731
        4658    268.3473     32.5665
      4658.5    268.3473      31.978
        4659    268.3473     33.0702
      4659.5    268.3473     33.9048
        4660    267.2795     33.6134
      4660.5     265.263     33.1933
        4661     264.986     34.0336
      4661.5     264.986     33.6134
        4662     264.986     34.6453
      4662.5     264.986     36.9341
        4663     264.986     39.1824
      4663.5     264.986     41.0795
        4664     264.986      39.894
      4664.5     264.986     37.3521
        4665     264.986     34.9367
      4665.5     264.986     32.9832
        4666     264.986     31.5543
      4666.5     264.986     33.0667
        4667     264.986     34.8739
      4667.5     264.986     35.6713
        4668     264.986     36.7635
      4668.5     264.986      37.395
        4669     264.986     36.6824
      4669.5     264.986     36.1345
        4670     264.986     34.9181
      4670.5     264.986     32.6717
        4671     264.986     31.9722
      4671.5     264.986     32.0617
        4672     264.986     30.6723
      4672.5     264.986     31.4673
        4673     264.986     33.3998
      4673.5     264.986     32.4675
        4674     264.986     30.2521
      4674.5     264.986     30.5505
        4675     264.986     29.8319
      4675.5     264.986     28.7862
        4676     264.986     28.1883
      4676.5     264.986     30.6198
        4677     264.986     32.8937
      4677.5     264.986     35.4088
        4678     264.986     39.1659
      4678.5     264.986     41.5966
        4679     264.986     41.3089
      4679.5     264.986     40.8757
        4680    265.1654     42.0168
      4680.5     264.986     45.8573
        4681     264.986     52.8005
      4681.5     264.986     54.9084
        4682     264.986     57.9178
      4682.5     264.986     63.9005
        4683     264.986     68.7819
      4683.5     264.986     77.7803
        4684     264.986     95.4336
      4684.5     264.986    107.6112
        4685     264.986    112.8972
      4685.5     264.986    112.6333
        4686     264.986     103.959
      4686.5     264.986     91.1518
        4687     264.986     77.9483
      4687.5     264.986     63.3128
        4688     264.986     51.1034
      4688.5     264.986     43.1682
        4689     264.986     39.6329
      4689.5     264.986     38.1206
        4690     264.986     38.9685
      4690.5     264.986     40.9546
        4691     264.986     43.1422
      4691.5     264.986       45.66
        4692     264.986     46.2185
      4692.5     264.986     45.8531
        4693     264.986     46.4156
      4693.5     264.986     50.3687
        4694     264.986     56.5841
      4694.5     264.986     60.9953
        4695     264.986     63.3895
      4695.5     264.986     62.4091
        4696     264.986     58.6991
      4696.5    265.3587     52.5922
        4697     266.815     48.0845
      4697.5    269.8519     42.2451
        4698    268.3473      39.301
      4698.5    268.3473     38.6555
        4699    268.3473     37.9569
      4699.5    268.3473     38.5104
        4700    267.3046     41.5384
      4700.5    265.8483     41.8232
        4701     264.986     39.6553
      4701.5     264.986     37.5379
        4702     264.986     36.0256
      4702.5     264.986     34.1525
        4703     264.986     32.3529
      4703.5     264.986     33.8718
        4704     264.986     37.4547
      4704.5     264.986     43.2394
        4705     264.986     53.5068
      4705.5     264.986     63.4657
        4706     264.986     66.3636
      4706.5     264.986     64.7138
        4707     264.986     60.9717
      4707.5     264.986     53.9421
        4708     264.986     49.1597
      4708.5     264.986     50.2428
        4709     264.986     51.6807
      4709.5     264.986     51.5753
        4710     264.986     53.0254
      4710.5     264.986     53.5926
        4711     264.986     51.0092
      4711.5     264.986      48.467
        4712     264.986     47.3748
      4712.5     264.986     45.5064
        4713     264.986     42.6694
      4713.5     264.986     43.3356
        4714     264.986     47.8728
      4714.5     264.986     51.3635
        4715     264.986      52.521
      4715.5     264.986     52.3344
        4716     264.986     49.2967
      4716.5     264.986     43.3072
        4717     264.986      38.821
      4717.5     264.986       34.83
        4718     264.986     32.7731
      4718.5    265.5462     33.6305
        4719    265.5462     35.1429
      4719.5    265.5462     35.8149
        4720    265.5462     37.3273
      4720.5    265.5462     38.4712
        4721    265.5462     38.2194
      4721.5    265.5462      39.535
        4722    265.5462     45.6158
      4722.5    265.5462     50.6683
        4723    265.5462     54.0291
      4723.5    265.5462     58.2449
        4724    265.5462      61.191
      4724.5    265.5462     61.7647
        4725    265.5462     60.9944
      4725.5    265.5462     59.6639
        4726    265.5462     59.6503
      4726.5    265.5462     58.8235
        4727    265.5462     57.9832
      4727.5    265.5462     58.3322
        4728    265.5462     57.3823
      4728.5    265.5462     56.7227
        4729    265.5462     56.4584
      4729.5    265.5462      55.042
        4730    265.5462     55.3899
      4730.5     264.986     59.1807
        4731     264.986     63.4341
      4731.5     264.986     61.9218
        4732     264.986     58.4443
      4732.5     264.986     51.7646
        4733     264.986     44.2188
      4733.5     264.986     35.2438
        4734     264.986     29.9383
      4734.5     264.986     28.1513
        4735     264.986     28.6695
      4735.5     264.986      30.938
        4736     264.986      32.782
      4736.5     264.986     34.2944
        4737     264.986     36.9958
      4737.5    264.5269     40.7768
        4738    264.4258     44.6457
      4738.5    264.4258      48.327
        4739    264.4258     48.9001
      4739.5    264.5475     47.0864
        4740     266.564     43.4699
      4740.5    268.5805     39.2519
        4741    271.3938     33.5938
      4741.5     268.563     29.6061
        4742    268.3473     28.2414
      4742.5    268.3473     30.8969
        4743    268.3473     33.7871
      4743.5    267.4963     38.2782
        4744    265.2032     46.9902
      4744.5     264.986          50
        4745     264.986     49.0686
      4745.5     264.986     47.6515
        4746     264.986     46.6282
      4746.5     264.986     44.2818
        4747     264.986     42.5154
      4747.5     264.986     41.9363
        4748     264.986     42.6858
      4748.5     264.986     42.8602
        4749     264.986     43.6975
      4749.5     264.986     42.9437
        4750     264.986     43.2773
      4750.5     264.986      42.687
        4751     264.986     40.5416
      4751.5     264.986     36.8043
        4752     264.986     36.9355
      4752.5     264.986     39.4129
        4753     264.986     41.4733
      4753.5     264.986     46.6407
        4754     264.986     49.5798
      4754.5     264.986     49.5798
        4755     264.986     48.4034
      4755.5     264.986      46.093
        4756     264.986     42.2281
      4756.5     264.986     41.9737
        4757     264.986     44.6209
      4757.5     264.986     47.7257
        4758     264.986     53.8612
      4758.5     264.986     60.4925
        4759     264.986     70.6188
      4759.5     264.986     81.8294
        4760     264.986     88.1489
      4760.5     264.986     87.2295
        4761     264.986     84.6696
      4761.5     264.986     78.9681
        4762     264.986     68.4316
      4762.5     264.986      59.629
        4763     264.986     58.5676
      4763.5     264.986     59.2437
        4764     264.986     59.0714
      4764.5     264.986     62.8834
        4765     264.986     66.2978
