~Version Information
 VERS.                  2.0:   CWLS log ASCII Standard -VERSION 2.0
 WRAP.                   NO:   One line per depth step
~Well Information Block
#MNEM.UNIT     VALUE/NAME     DESCRIPTION
#---------     -----------    ---------------------------
 STRT.F              8650.0000: START DEPTH
 STOP.F             14150.0000: STOP DEPTH
 STEP.F                 0.5000: STEP DEPTH
 NULL.                 -999.25: NULL VALUE
 LOC .     A1759-SEC34-BLK58-T2-:  LOCATION
 FL4 .        API 42-109-33169:  LOCATIONLINE4
 FL2 .     T&P RR CO-337FSL-25:  LOCATIONLINE2
 FL1 .     A1759-SEC34-BLK58-T2-:  LOCATIONLINE1
 DMF .                      KB:  DRILL MEAS FROM
 PDAT.                      GL:  PERMANENT DATUM
 CNTY.               CULBERSON:  COUNTY NAME
 FLD .     FORD, WEST (WOLFCAMP):  FIELD NAME
 WELL.         ALICE FEE 34 2H:  WELL NAME
 COMP.     CAPITAN ENERGY INC.:  COMPANY
 DATE.             27-Mar-2018:  DATE
 SVCO.             Halliburton:  SERVICECONAME
 PROV.                   TEXAS:  PROVINCE
 STAT.                   TEXAS:  STATE NAME
 CTRY.                     USA:  COUNTRY NAME
 HIDE.                        :  WELLNAMEOPERAT
 BASI.                 PERMIAN:  BASIN
 UWI .            42-109-33169LAT:  UNIQUE WELL IDENTIFIER
 API .            42-109-33169LAT:  API NUMBER
 RANG.                     N/A:  RANGE
 TOWN.                     N/A:  TOWNSHIP
 SECT.                     N/A:  SECTION
 SRVC.             Halliburton:  SERVICE COMPANY
 LMF .                      KB:  LOG MEASURED FROM
 TVDS.ft             3088.0000:  TVDSS CORRECTN
 EGL .ft             3063.0000:  GROUND ELEVATION
 APD .ft               25.0000:  DEPTH ABOVE PD
 EPD .ft             3063.0000:  ELEVATION
 BAP .ft                0.0000:  GL ELEV ONSHORE
 GVFD.g                 1.0000:  GRAVITY FIELD
 EKB .ft             3088.0000:  KB ELEVATION
 EDF .ft             3087.0000:  DF ELEVATION
~Curve Information Block
#MNEM.UNIT                 API CODE     Curve Description
#---------               -----------    ---------------------------
 DEPT.F                 00 000 000 000:  Depth
 CCL .mV                00 000 000 000:  Casing Collar Locator
 NPHI_OH.pu             00 000 000 000:  NPHI_OH
 NPHI_CHI.pu            00 000 000 000:  NPHI_CHI
 GR_OH.api              00 000 000 000:  GR_OH
 GR_CHI.api             00 000 000 000:  GR_CHI
 RHOB_OH.g/cc           00 000 000 000:  RHOB_OH
 RHOB_CHI.g/cc          00 000 000 000:  RHOB_CHI
 PE_OH.b/e              00 000 000 000:  PE_OH
 PE_CHI.b/e             00 000 000 000:  PE_CHI
 MSFL_OH.ohmm           00 000 000 000:  MSFL_OH
 MSFL_CHI.ohmm          00 000 000 000:  MSFL_CHI
 LLS_OH.ohmm            00 000 000 000:  LLS_OH
 LLS_CHI.ohmm           00 000 000 000:  LLS_CHI
 LLD_OH.ohmm            00 000 000 000:  LLD_OH
 LLD_CHI.ohmm           00 000 000 000:  LLD_CHI
 DTC_OH.uspf            00 000 000 000:  DTC_OH
 DTC_CHI.uspf           00 000 000 000:  DTC_CHI
 SPHI_CHI.pu            00 000 000 000:  SPHI_CHI
 SGF .cu                00 000 000 000:  Formation Sigma
 CRNF.NONE              00 000 000 000:  CM GrsCaptRatio
 RIN .NONE              00 000 000 000:  CM GrsInelRatio
#Other Information
#
#WARRANTY: Halliburton will use its best efforts to furnish customers with 
#accurate information and interpretations that are part of, and incident to, the services 
#provided.  However, Halliburton cannot and does not warrant the accuracy 
#or correctness of such information and interpretations.  Under no circumstances should any 
#such information or interpretation be relied upon as the sole basis for any drilling, 
#completion, production, or financial decision or any procedure involving any risk to the 
#safety of any drilling venture, drilling rig or its crew or any other third party.  The 
#Customer has full responsibility for all drilling, completion and production operation.  
#Halliburton makes no representations or warranties, either expressed or 
#implied, including, but not limited to, the implied warranties of merchantability or fitness 
#for a particular purpose, with respect to the services rendered.  In no event will 
#Halliburton be liable for failure to obtain any particular results or for 
#any damages, including, but not limited to, indirect, special or consequential damages, 
#resulting from the use of any information or interpretation provided by Halliburton.
#
~A    DEPT       CCL    NPHI_OH NPHI_CHI  GR_OH    GR_CHI  RHOB_OH RHOB_CHI  PE_OH  PE_CHI  MSFL_OH   MSFL_CHI  LLS_OH   LLS_CHI   LLD_OH   LLD_CHI  DTC_OH  DTC_CHI SPHI_CHI   SGF    CRNF   RIN   
# ...
   13037.0000    0.0000 -999.25  13.0756  -999.25 107.7358 -999.25   2.5581 -999.25 3.3341    -999.25  21.4977   -999.25  31.4229   -999.25  36.6026 -999.25 70.0896  15.9000 26.5277 0.8121 1.0591
   13037.5000    0.0000 -999.25  13.7255  -999.25 124.8432 -999.25   2.5491 -999.25 3.3027    -999.25  28.6307   -999.25  39.8099   -999.25  45.7498 -999.25 70.4968  16.1900 26.6614 0.8155 1.0617
   13038.0000    0.0000 -999.25  13.4850  -999.25 117.6334 -999.25   2.5522 -999.25 3.3196    -999.25  25.9165   -999.25  36.9670   -999.25  42.7141 -999.25 70.4038  16.1300 26.8693 0.8167 1.0637
   13038.5000    0.0000 -999.25  13.1555  -999.25 106.1154 -999.25   2.5565 -999.25 3.3390    -999.25  21.3705   -999.25  31.4443   -999.25  36.8238 -999.25 70.2576  16.0200 27.1023 0.8141 1.0658
   13039.0000    0.0000 -999.25  13.5970  -999.25 115.4066 -999.25   2.5502 -999.25 3.3144    -999.25  25.0843   -999.25  35.7234   -999.25  41.6977 -999.25 70.6154  16.2800 27.3902 0.8167 1.0667
   13039.5000    0.0000 -999.25  13.4428  -999.25 110.9192 -999.25   2.5524 -999.25 3.3118    -999.25  22.2899   -999.25  31.8995   -999.25  37.4697 -999.25 70.4870  16.1900 27.6508 0.8201 1.0663
   13040.0000    0.0000 -999.25  13.2760  -999.25 107.7496 -999.25   2.5551 -999.25 3.3040    -999.25  19.7400   -999.25  28.2268   -999.25  33.2730 -999.25 70.2973  16.0500 27.6556 0.8263 1.0662
   13040.5000    0.0000 -999.25  12.8329  -999.25  97.1538 -999.25   2.5615 -999.25 3.3154    -999.25  15.1108   -999.25  22.0621   -999.25  26.2305 -999.25 69.9192  15.7800 27.5678 0.8310 1.0686
   13041.0000    0.0000 -999.25  13.2346  -999.25 105.5940 -999.25   2.5559 -999.25 3.2871    -999.25  17.4984   -999.25  24.8941   -999.25  29.4753 -999.25 70.3305  16.0800 27.3550 0.8308 1.0692
   13041.5000    0.0000 -999.25  13.3896  -999.25 108.2648 -999.25   2.5535 -999.25 3.2876    -999.25  19.0023   -999.25  26.8998   -999.25  31.8262 -999.25 70.4738  16.1800 27.0829 0.8264 1.0695
   13042.0000    0.0000 -999.25  13.3976  -999.25 105.8888 -999.25   2.5531 -999.25 3.3025    -999.25  19.2350   -999.25  27.8118   -999.25  32.9056 -999.25 70.6930  16.3300 26.9725 0.8144 1.0650
   13042.5000   40.3320 -999.25  13.6952  -999.25 114.4890 -999.25   2.5490 -999.25 3.2969    -999.25  23.3986   -999.25  33.4066   -999.25  39.0634 -999.25 70.9849  16.5400 26.8558 0.8048 1.0586
   13043.0000    0.0000 -999.25  13.5588  -999.25 112.4458 -999.25   2.5509 -999.25 3.3068    -999.25  22.8616   -999.25  32.9198   -999.25  38.4816 -999.25 70.8174  16.4200 26.8930 0.7989 1.0540
   13043.5000    0.0000 -999.25  13.8142  -999.25 123.3050 -999.25   2.5478 -999.25 3.2907    -999.25  27.0933   -999.25  37.7416   -999.25  43.5734 -999.25 70.7937  16.4000 26.8777 0.7945 1.0508
   13044.0000    0.0000 -999.25  13.0632  -999.25 106.6276 -999.25   2.5582 -999.25 3.3269    -999.25  20.4590   -999.25  29.7502   -999.25  34.8102 -999.25 70.0439  15.8700 26.9419 0.7890 1.0511
   13044.5000    0.0000 -999.25  13.5313  -999.25 118.6554 -999.25   2.5517 -999.25 3.3006    -999.25  25.3052   -999.25  35.3676   -999.25  41.0867 -999.25 70.2993  16.0500 27.0855 0.7873 1.0529
   13045.0000    0.0000 -999.25  13.1642  -999.25 110.6756 -999.25   2.5569 -999.25 3.3187    -999.25  21.8906   -999.25  31.2260   -999.25  36.5014 -999.25 69.9244  15.7900 27.3081 0.7967 1.0556
   13045.5000    0.0000 -999.25  13.4401  -999.25 120.6388 -999.25   2.5536 -999.25 3.2895    -999.25  24.9919   -999.25  34.5360   -999.25  39.9237 -999.25 70.0513  15.8800 27.5431 0.8175 1.0546
   13046.0000    0.0000 -999.25  12.7411  -999.25 106.1456 -999.25   2.5637 -999.25 3.3137    -999.25  18.5978   -999.25  26.5955   -999.25  30.9794 -999.25 69.5042  15.4900 27.7470 0.8339 1.0514
   13046.5000    0.0000 -999.25  12.4509  -999.25  99.5542 -999.25   2.5682 -999.25 3.3102    -999.25  15.4457   -999.25  22.1209   -999.25  25.9026 -999.25 69.3565  15.3900 27.9290 0.8366 1.0477
   13047.0000   31.4084 -999.25  13.2062  -999.25 110.8060 -999.25   2.5575 -999.25 3.2684    -999.25  18.5533   -999.25  26.1678   -999.25  30.4376 -999.25 70.4396  16.1500 28.1213 0.8256 1.0457
   13047.5000    0.0000 -999.25  13.8303  -999.25 121.3958 -999.25   2.5487 -999.25 3.2378    -999.25  21.7596   -999.25  29.9276   -999.25  34.6659 -999.25 71.1634  16.6600 28.0910 0.8095 1.0467
   13048.0000    0.0000 -999.25  13.7638  -999.25 117.9626 -999.25   2.5494 -999.25 3.2353    -999.25  20.2422   -999.25  27.9018   -999.25  32.5608 -999.25 71.1179  16.6300 27.9147 0.8064 1.0512
   13048.5000    0.0000 -999.25  13.6457  -999.25 117.2180 -999.25   2.5511 -999.25 3.2396    -999.25  19.9952   -999.25  27.4169   -999.25  32.0674 -999.25 70.7847  16.4000 27.4774 0.8105 1.0584
   13049.0000    0.0000 -999.25  13.3278  -999.25 112.7436 -999.25   2.5554 -999.25 3.2594    -999.25  18.7418   -999.25  25.8794   -999.25  30.3772 -999.25 70.2251  16.0000 27.1664 0.8206 1.0638
   13049.5000    0.0000 -999.25  13.4848  -999.25 117.2896 -999.25   2.5531 -999.25 3.2606    -999.25  21.1924   -999.25  29.0320   -999.25  33.9244 -999.25 70.2872  16.0400 27.0485 0.8265 1.0680
   13050.0000    0.0000 -999.25  14.1416  -999.25 133.3082 -999.25   2.5437 -999.25 3.2523    -999.25  29.9430   -999.25  39.6598   -999.25  45.6674 -999.25 70.8133  16.4200 27.1786 0.8291 1.0703
   13050.5000    0.0000 -999.25  13.7576  -999.25 120.6030 -999.25   2.5484 -999.25 3.2855    -999.25  25.6033   -999.25  35.5363   -999.25  41.3470 -999.25 70.6948  16.3300 27.5797 0.8296 1.0725
   13051.0000  -34.2717 -999.25  13.3834  -999.25 107.6666 -999.25   2.5532 -999.25 3.3144    -999.25  20.8669   -999.25  30.2772   -999.25  35.6335 -999.25 70.6051  16.2700 27.8482 0.8277 1.0733
   13051.5000    0.0000 -999.25  13.1530  -999.25 100.8204 -999.25   2.5567 -999.25 3.3024    -999.25  16.5045   -999.25  23.9888   -999.25  28.5148 -999.25 70.4233  16.1400 28.0551 0.8258 1.0718
   13052.0000    0.0000 -999.25  13.4112  -999.25 107.2446 -999.25   2.5534 -999.25 3.2740    -999.25  17.7435   -999.25  25.0992   -999.25  29.7497 -999.25 70.6346  16.2900 28.0209 0.8203 1.0682
   13052.5000    0.0000 -999.25  13.6758  -999.25 115.7118 -999.25   2.5502 -999.25 3.2457    -999.25  19.8790   -999.25  27.2962   -999.25  32.1106 -999.25 70.8007  16.4100 28.0510 0.8150 1.0621
   13053.0000    0.0000 -999.25  14.1442  -999.25 128.9950 -999.25   2.5439 -999.25 3.2237    -999.25  25.1939   -999.25  33.3166   -999.25  38.7367 -999.25 71.0879  16.6100 28.2448 0.8119 1.0589
   13053.5000   31.8915 -999.25  14.4973  -999.25 140.6102 -999.25   2.5395 -999.25 3.2048    -999.25  29.8128   -999.25  37.9930   -999.25  43.7200 -999.25 71.2090  16.7000 28.4003 0.8146 1.0560
   13054.0000    0.0000 -999.25  13.7917  -999.25 124.2478 -999.25   2.5495 -999.25 3.2200    -999.25  21.7353   -999.25  28.8869   -999.25  33.6245 -999.25 70.6398  16.2900 28.6443 0.8183 1.0567
   13054.5000    0.0000 -999.25  13.1108  -999.25 107.1038 -999.25   2.5587 -999.25 3.2529    -999.25  15.5942   -999.25  21.6093   -999.25  25.5238 -999.25 70.0845  15.9000 28.7687 0.8221 1.0605
   13055.0000    0.0000 -999.25  13.4250  -999.25 114.4550 -999.25   2.5545 -999.25 3.2248    -999.25  17.0446   -999.25  22.8997   -999.25  27.0029 -999.25 70.2715  16.0300 28.9255 0.8252 1.0651
   13055.5000    0.0000 -999.25  13.9408  -999.25 125.8466 -999.25   2.5473 -999.25 3.1971    -999.25  20.8415   -999.25  26.9019   -999.25  31.5944 -999.25 70.6506  16.3000 28.9516 0.8265 1.0692
   13056.0000    0.0000 -999.25  14.2870  -999.25 133.7782 -999.25   2.5426 -999.25 3.1793    -999.25  23.8181   -999.25  29.9002   -999.25  34.9923 -999.25 70.9170  16.4900 28.8952 0.8266 1.0685
   13056.5000    0.0000 -999.25  14.0895  -999.25 128.2950 -999.25   2.5454 -999.25 3.1826    -999.25  21.0618   -999.25  26.8937   -999.25  31.5785 -999.25 70.8559  16.4500 28.5049 0.8283 1.0660
   13057.0000    0.0000 -999.25  14.3065  -999.25 133.2564 -999.25   2.5424 -999.25 3.1771    -999.25  23.4040   -999.25  29.5111   -999.25  34.5336 -999.25 71.0433  16.5800 28.0097 0.8258 1.0656
