~VERSION INFORMATION
VERS. 2.0 : CWLS Log ASCII Standard - version 2.0
WRAP.  NO : One line per depth step
#--------------------------------------------------#
#----------------DRILLING INFO, INC.---------------#
#---------------WWW.DRILLINGINFO.COM---------------#
#------------------COPYRIGHT 2015------------------#
#--------------------------------------------------#
#THIS FILE MAY BE USED ONLY IN ACCORDANCE WITH A CURRENT SUBSCRIPTION AGREEMENT BETWEEN
#THE USER AND DRILLING INFO, INC. NO PART OF THIS FILE MAY BE REPRODUCED, USED, COPIED,
#MODIFIED, PROPAGATED, OR DISTRIBUTED EXCEPT IN ACCORDANCE WITH THE SUBSCRIPTION
#AGREEMENT. UNAUTHORIZED USE OR DISTRIBUTION OF ALL OR ANY PART OF THIS FILE MAY VIOLATE
#COPYRIGHT, TRADEMARK, AND/OR OTHER LAWS AND IS SUBJECT TO CIVIL AS WELL AS CRIMINAL
#SANCTIONS.
#--------------------------------------------------#
#THIS FILE IS PROVIDED "AS-IS" AND ALL WARRANTIES ARE EXPRESSLY DISCLAIMED, WHETHER
#EXPRESS, ORAL, IMPLIED, STATUTORY OR OTHERWISE, INCLUDING ANY IMPLIED WARRANTY OF FITNESS
#FOR A PARTICULAR PURPOSE, MERCHANTABILITY, TITLE OR NON-INFRINGEMENT, AND ANY WARRANTIES
#ARISING BY VIRTUE OF CUSTOM OF TRADE OR COURSE OF DEALING.  FURTHER, DRILLING INFO,
#INC. AND ITS LICENSORS DO NOT REPRESENT OR WARRANT THAT THIS FILE WILL MEET USER'S
#REQUIREMENTS OR ARE SUITABLE FOR USER'S NEEDS OR THAT THE DATA OR RESULTS PROVIDED IN
#CONJUNCTION THEREWITH ARE CORRECT, ACCURATE, TIMELY OR RELIABLE. THESE DISCLAIMERS SHALL
#APPLY REGARDLESS OF ANY FAILURE OF ESSENTIAL PURPOSE OF ANY LIMITED REMEDY.  SOME
#JURISDICTIONS DO NOT ALLOW THE EXCLUSION OF CERTAIN WARRANTIES SO SOME OF THE ABOVE
#EXCLUSIONS MAY NOT APPLY. IN NO EVENT SHALL DRILLING INFO, INC. OR ANY OF ITS AFFILIATES
#BE LIABLE UNDER ANY LEGAL THEORY, WHETHER IN TORT (INCLUDING WITHOUT LIMITATION
#NEGLIGENCE), CONTRACT, STRICT LIABILITY, STATUTORY OR OTHERWISE, FOR ANY SPECIAL,
#INCIDENTAL, CONSEQUENTIAL, EXEMPLARY, PUNITIVE OR INDIRECT DAMAGE OF ANY KIND, INCLUDING
#WITHOUT LIMITATION LOSS OF REVENUE, PROFITS, GOODWILL, USE, AND/OR DATA OR THE COST OF
#PROCUREMENT OF SUBSTITUTE GOODS OR SERVICES, EVEN IF APPRISED OF THE POSSIBILITY OF SUCH
#DAMAGES IN ADVANCE.
#--------------------------------------------------#
~WELL INFORMATION
#MNEMONIC     .UNIT              VALUE :DESCRIPTION
#--------------------------------------------------#
STRT       .FT                0 :START DEPTH
STOP       .FT                10142 :STOP DEPTH
STEP       .FT                   0.500 :STEP
NULL       .                  -999.250 :NULL
API        .                421093138200 :API NUMBER
COMP       .         SHELL OIL COMPANY :COMPANY
WELL       .        SIBLEY  1 :WELL
DATE       .                08-Aug-1978 :LOG DATE
~CURVE INFORMATION
#MNEMONIC     .UNIT      API CODE :CURVE DESCRIPTION
#--------------------------------------------------#
DEPTH       .FT                      :Measured Depth
CAL.INCH        UNKNOWN   :CAL
DT.US/FT        UNKNOWN   :DT
GR.API        UNKNOWN   :GR
~A    DEPTH    CAL    DT    GR
# ...
 1378     13.194   71.115   30.857
 1378.5     13.193   71.878   30.435
 1379     13.191   72.211   30.013
 1379.5     13.19   72.544   30.324
 1380     13.188   72.877   32.197
 1380.5     13.187   72.943   34.07
 1381     13.185   72.916   35.944
 1381.5     13.184   72.888   37.151
 1382     13.182   72.564   35.449
 1382.5     13.181   72.228   33.748
 1383     13.179   71.891   32.046
 1383.5     13.178   71.554   30.344
 1384     13.176   71.218   28.643
 1384.5     13.175   70.694   29.505
 1385     13.174   69.625   36.237
 1385.5     13.172   69.404   42.969
 1386     13.171   69.259   49.701
 1386.5     13.169   69.115   56.433
 1387     13.168   68.971   58.794
 1387.5     13.166   68.446   59.893
 1388     13.165   67.649   60.993
 1388.5     13.163   66.852   62.092
 1389     13.173   66.867   63.192
 1389.5     13.188   67.14   60.923
 1390     13.202   67.413   53.094
 1390.5     13.217   67.686   45.266
 1391     13.232   68.188   37.682
 1391.5     13.246   68.866   35.058
 1392     13.261   68.901   34.301
 1392.5     13.276   68.446   33.543
 1393     13.29   67.991   32.786
 1393.5     13.305   67.536   32.503
 1394     13.32   67.08   36.849
 1394.5     13.334   66.637   38.996
 1395     13.349   68.097   37.882
 1395.5     13.363   69.558   36.769
 1396     13.378   71.019   35.882
 1396.5     13.393   72.479   37.495
 1397     13.407   72.566   39.108
 1397.5     13.422   72.146   40.721
 1398     13.437   71.726   42.335
 1398.5     13.442   71.306   43.75
 1399     13.447   71.791   41.285
 1399.5     13.451   72.751   38.82
 1400     13.456   73.711   36.355
 1400.5     13.46   72.902   33.89
 1401     13.465   71.534   31.425
 1401.5     13.469   70.165   31.253
 1402     13.474   68.796   31.262
 1402.5     13.478   69.169   31.271
 1403     13.483   71.101   31.281
 1403.5     13.487   73.033   33.745
 1404     13.492   74.965   36.427
 1404.5     13.493   75.643   39.11
 1405     13.488   74.555   38.791
 1405.5     13.484   73.467   37.515
 1406     13.479   72.38   36.238
 1406.5     13.475   71.709   34.962
 1407     13.471   71.654   33.685
 1407.5     13.466   71.599   32.409
 1408     13.462   71.543   31.384
 1408.5     13.457   70.894   30.77
 1409     13.453   70.894   30.155
 1409.5     13.448   71.501   29.541
 1410     13.444   72.108   28.926
 1410.5     13.44   72.716   28.312
 1411     13.435   73.24   29.533
 1411.5     13.431   72.887   31.96
 1412     13.426   72.888   34.386
 1412.5     13.422   73.198   36.813
 1413     13.418   73.508   36.625
 1413.5     13.413   73.819   34.66
 1414     13.409   74.129   32.695
 1414.5     13.404   74.312   30.877
 1415     13.4   73.362   30.967
 1415.5     13.395   72.412   31.057
 1416     13.388   71.462   31.151
 1416.5     13.369   71.045   31.833
 1417     13.349   71.308   32.514
 1417.5     13.329   71.65   33.196
 1418     13.31   72.034   33.878
 1418.5     13.29   72.418   32.91
 1419     13.271   72.802   30.709
 1419.5     13.251   72.727   28.509
 1420     13.231   72.631   29.59
 1420.5     13.212   71.624   32.043
 1421     13.192   70.339   32.012
 1421.5     13.173   69.054   30.109
 1422     13.153   67.769   28.206
 1422.5     13.133   68.359   26.569
 1423     13.114   69.168   28.918
 1423.5     13.094   69.697   31.267
 1424     13.074   68.374   33.616
 1424.5     13.055   67.051   35.966
 1425     13.035   65.727   37.753
 1425.5     13.016   64.404   37.682
 1426     12.996   65.135   37.611
 1426.5     12.976   66.206   37.54
 1427     12.957   67.276   37.469
 1427.5     12.937   68.191   39.202
 1428     12.917   67.976   42.209
 1428.5     12.898   67.761   42.062
 1429     12.878   67.545   38.939
 1429.5     12.864   68.498   35.816
 1430     12.849   68.419   32.693
 1430.5     12.835   66.892   35.694
 1431     12.821   65.364   41.738
 1431.5     12.807   63.837   47.782
 1432     12.792   62.309   53.827
 1432.5     12.778   62.913   59.871
 1433     12.764   65.742   60.802
 1433.5     12.75   68.571   57.438
 1434     12.736   70.972   54.074
 1434.5     12.721   71.373   50.709
 1435     12.707   71.269   47.345
 1435.5     12.693   70.109   43.981
 1436     12.679   68.948   40.616
 1436.5     12.665   67.787   37.252
 1437     12.65   66.975   37.105
 1437.5     12.636   66.249   38.329
 1438     12.622   65.524   39.553
 1438.5     12.608   64.798   43.682
 1439     12.594   64.073   48.371
 1439.5     12.579   63.841   53.059
 1440     12.565   64.041   57.747
 1440.5     12.551   64.499   62.436
 1441     12.537   66.096   63.385
 1441.5     12.523   67.693   63.667
 1442     12.508   68.283   63.95
 1442.5     12.494   67.894   64.232
 1443     12.48   67.505   64.515
 1443.5     12.466   67.116   62.113
 1444     12.479   66.727   55.62
 1444.5     12.494   66.338   49.127
 1445     12.509   66.385   42.633
 1445.5     12.524   67.254   36.14
 1446     12.539   67.445   35.752
 1446.5     12.554   65.502   38.258
 1447     12.569   63.56   40.764
 1447.5     12.584   62.925   43.27
 1448     12.6   63.392   45.777
 1448.5     12.615   64.864   45.199
 1449     12.63   66.857   39.055
 1449.5     12.644   68.851   35.042
 1450     12.648   69.562   35.204
 1450.5     12.652   69.116   35.366
 1451     12.655   68.67   35.528
 1451.5     12.659   68.224   35.69
 1452     12.663   67.778   35.603
 1452.5     12.667   67.332   35.219
 1453     12.67   66.886   34.835
 1453.5     12.674   67.082   34.451
 1454     12.678   67.325   36.049
 1454.5     12.682   67.567   36.804
 1455     12.685   67.81   35.532
 1455.5     12.689   67.201   34.26
 1456     12.693   66.35   32.987
 1456.5     12.697   65.499   31.715
 1457     12.7   65.653   30.443
 1457.5     12.704   65.833   29.171
 1458     12.708   66.013   27.898
 1458.5     12.712   66.193   27.451
 1459     12.715   65.405   29.355
 1459.5     12.719   64.489   32.559
 1460     12.723   63.574   35.934
 1460.5     12.727   62.659   39.31
 1461     12.73   62.631   42.685
 1461.5     12.734   65.049   46.061
 1462     12.738   67.466   49.436
 1462.5     12.742   69.883   52.705
 1463     12.745   71.091   51.152
 1463.5     12.749   70.799   49.6
 1464     12.753   70.507   48.047
 1464.5     12.756   70.215   46.942
 1465     12.76   69.923   46.132
 1465.5     12.764   69.632   44.317
 1466     12.768   69.34   40.444
 1466.5     12.771   69.23   36.571
 1467     12.775   69.227   33.017
 1467.5     12.779   69.225   34.04
 1468     12.783   67.963   35.062
 1468.5     12.786   66.448   36.085
 1469     12.79   64.933   40.799
 1469.5     12.799   63.721   46.021
 1470     12.81   65.171   51.243
 1470.5     12.822   66.622   52.636
 1471     12.834   68.072   48.316
 1471.5     12.846   69.522   43.995
 1472     12.858   70.973   39.675
 1472.5     12.87   71.998   37.847
 1473     12.882   71.409   37.776
 1473.5     12.894   70.821   37.705
 1474     12.906   70.232   37.634
 1474.5     12.918   69.605   37.563
 1475     12.93   68.876   36.481
 1475.5     12.941   68.146   35.337
 1476     12.953   67.416   34.194
 1476.5     12.965   66.838   33.05
 1477     12.977   66.458   36.644
 1477.5     12.989   66.078   40.454
 1478     13.001   65.698   44.265
 1478.5     13.013   64.855   48.076
 1479     13.022   63.917   51.54
 1479.5     13.022   63.276   54.629
 1480     13.022   66.669   57.719
 1480.5     13.021   70.061   60.808
 1481     13.021   71.809   63.735
 1481.5     13.02   71.953   66.559
 1482     13.02   72.277   69.383
 1482.5     13.019   73.367   72.207
 1483     13.019   74.456   65.64
 1483.5     13.018   75.546   54.787
 1484     13.018   76.229   48.56
 1484.5     13.017   76.429   44.027
 1485     13.017   76.223   39.493
 1485.5     13.016   72.796   34.96
 1486     13.016   69.37   34.616
 1486.5     13.016   66.776   35.009
 1487     13.015   66.187   35.401
 1487.5     13.015   65.599   35.793
 1488     13.014   65.01   36.778
 1488.5     13.014   65.2   38.095
 1489     13.013   66.838   45.278
 1489.5     13.013   68.476   52.891
 1490     13.012   69.113   60.504
