~Version Information
 VERS.                  2.0:   CWLS log ASCII Standard -VERSION 2.0
 WRAP.                   NO:   One line per depth step
~Well Information Block
#MNEM.UNIT     VALUE/NAME     DESCRIPTION
#---------     -----------    ---------------------------
 STRT.F              8432.0000: START DEPTH
 STOP.F             13842.0000: STOP DEPTH
 STEP.F                 0.5000: STEP DEPTH
 NULL.                 -999.25: NULL VALUE
 LOC .     100' FNL & 990' FEL:  LOCATION
 FL6 .       API  42-109-33163:  LOCATIONLINE6
 FL4 .           ABSTRACT 1006:  LOCATIONLINE4
 FL3 .        T&P RR CO SURVEY:  LOCATIONLINE3
 FL2 .     SECTION 36, BLOCK 59 T2:  LOCATIONLINE2
 FL1 .     100' FNL & 990' FEL:  LOCATIONLINE1
 DMF .                      KB:  DRILL MEAS FROM
 PDAT.                      GL:  PERMANENT DATUM
 CNTY.               CULBERSON:  COUNTY NAME
 FLD .     FORD, WEST (WOLFCAMP):  FIELD NAME
 WELL.         SCOTT FEE 36 2H:  WELL NAME
 COMP.     CAPITAN ENERGY INC.:  COMPANY
 DATE.             11-Oct-2017:  DATE
 SVCO.             Halliburton:  SERVICECONAME
 PROV.                   TEXAS:  PROVINCE
 STAT.                   TEXAS:  STATE NAME
 CTRY.           UNITED STATES:  COUNTRY NAME
 HIDE.                        :  WELLNAMEOPERAT
 BASI.                 PERMIAN:  BASIN
 UWI .            42-109-33163Lat:  UNIQUE WELL IDENTIFIER
 API .            42-109-33163Lat:  API NUMBER
 RANG.                     N/A:  RANGE
 TOWN.                     N/A:  TOWNSHIP
 SECT.                     N/A:  SECTION
 SON .               904352259:  JOB NUMBER
 SRVC.             Halliburton:  SERVICE COMPANY
 LMF .                      KB:  LOG MEASURED FROM
 EGL .ft             3174.0000:  GROUND ELEVATION
 BAP .ft                0.0000:  GL ELEV ONSHORE
 GVFD.g                 1.0000:  GRAVITY FIELD
 EKB .ft             3200.0000:  KB ELEVATION
 EDF .ft             3199.0000:  DF ELEVATION
~Curve Information Block
#MNEM.UNIT                 API CODE     Curve Description
#---------               -----------    ---------------------------
 DEPT.F                 00 000 000 000:  Depth
 CCL .V                 00 000 000 000:  Casing Collar Locator
 NPHI_OH.pu             00 000 000 000:  NPHI_OH
 NPHI_CHI.pu            00 000 000 000:  NPHI_CHI
 GR_CHI.api             00 000 000 000:  GR_CHI
 GR_OH.api              00 000 000 000:  GR_OH
 RHOB_OH.g/cc           00 000 000 000:  RHOB_OH
 RHOB_CHI.g/cc          00 000 000 000:  RHOB_CHI
 PE_CHI.b/e             00 000 000 000:  PE_CHI
 PE_OH.b/e              00 000 000 000:  PE_OH
 MSFL_OH.ohmm           00 000 000 000:  MSFL_OH
 MSFL_CHI.ohmm          00 000 000 000:  MSFL_CHI
 LLS_OH.ohmm            00 000 000 000:  LLS_OH
 LLS_CHI.ohmm           00 000 000 000:  LLS_CHI
 LLD_OH.ohmm            00 000 000 000:  LLD_OH
 LLD_CHI.ohmm           00 000 000 000:  LLD_CHI
 DTC_OH.uspf            00 000 000 000:  DTC_OH
 DTC_CHI.uspf           00 000 000 000:  DTC_CHI
 SPHI_CHI.pu            00 000 000 000:  SPHI_CHI
 SGF .cu                00 000 000 000:  Formation Sigma
 CRNF.NONE              00 000 000 000:  CM GrsCaptRatio
 RIN .NONE              00 000 000 000:  CM GrsInelRatio
~A    DEPT      CCL   NPHI_OH NPHI_CHI  GR_CHI   GR_OH   RHOB_OH RHOB_CHI PE_CHI  PE_OH   MSFL_OH  MSFL_CHI  LLS_OH   LLS_CHI   LLD_OH  LLD_CHI  DTC_OH  DTC_CHI SPHI_CHI   SGF    CRNF   RIN   
# ...
   11666.0000  0.0000 -999.25  12.7233  93.2224  -999.25 -999.25   2.5615 3.9325 -999.25   -999.25  71.0625   -999.25  93.2545  -999.25  94.6613 -999.25 67.6488  14.1700 16.5830 0.8963 0.9967
   11666.5000  0.0000 -999.25  12.9919  94.2896  -999.25 -999.25   2.5594 3.9505 -999.25   -999.25  70.9763   -999.25  93.1257  -999.25  94.5297 -999.25 67.8427  14.2700 16.7369 0.9090 1.0053
   11667.0000  0.0000 -999.25  13.5398  99.7611  -999.25 -999.25   2.5547 3.9302 -999.25   -999.25  71.0060   -999.25  93.1701  -999.25  94.5751 -999.25 68.4175  14.6000 16.7845 0.9052 1.0075
   11667.5000  0.0000 -999.25  13.3158  94.2803  -999.25 -999.25   2.5590 3.9690 -999.25   -999.25  70.0971   -999.25  91.8134  -999.25  93.1888 -999.25 68.3732  14.7000 16.9089 0.8934 1.0037
   11668.0000  0.0000 -999.25  13.0754  90.0851  -999.25 -999.25   2.5631 4.0031 -999.25   -999.25  69.8184   -999.25  91.3978  -999.25  92.7642 -999.25 68.3552  14.6800 17.0627 0.8761 0.9966
   11668.5000  0.0000 -999.25  13.2517  93.7533  -999.25 -999.25   2.5608 3.9622 -999.25   -999.25  69.0951   -999.25  90.3206  -999.25  91.6635 -999.25 68.5279  14.7600 17.1440 0.8636 0.9898
   11669.0000  0.0000 -999.25  12.6332  87.2574  -999.25 -999.25   2.5669 3.9685 -999.25   -999.25  68.2113   -999.25  89.0063  -999.25  90.3208 -999.25 68.0193  14.5500 17.1430 0.8573 0.9827
   11669.5000  0.0000 -999.25  13.0738  96.0593  -999.25 -999.25   2.5603 3.8794 -999.25   -999.25  67.7486   -999.25  88.3193  -999.25  89.6190 -999.25 68.2495  14.5500 17.0605 0.8548 0.9783
   11670.0000  0.0000 -999.25  13.3937 103.3246  -999.25 -999.25   2.5552 3.8116 -999.25   -999.25  67.7543   -999.25  88.3277  -999.25  89.6276 -999.25 68.4366  14.7000 16.9106 0.8522 0.9748
   11670.5000  0.0000 -999.25  12.6846  93.6969  -999.25 -999.25   2.5632 3.8555 -999.25   -999.25  68.2238   -999.25  89.0250  -999.25  90.3399 -999.25 67.8836  14.4600 16.8001 0.8473 0.9726
   11671.0000  0.0000 -999.25  12.1749  87.3159  -999.25 -999.25   2.5687 3.8916 -999.25   -999.25  69.0853   -999.25  90.3060  -999.25  91.6485 -999.25 67.5343  14.1700 16.7254 0.8408 0.9723
   11671.5000  0.0000 -999.25  12.4315  91.1127  -999.25 -999.25   2.5656 3.8783 -999.25   -999.25  69.7272   -999.25  91.2620  -999.25  92.6254 -999.25 67.6935  14.1800 16.7450 0.8362 0.9736
   11672.0000  0.0000 -999.25  12.1422  87.9167  -999.25 -999.25   2.5683 3.8906 -999.25   -999.25  70.1646   -999.25  91.9141  -999.25  93.2917 -999.25 67.4685  14.1000 16.7679 0.8354 0.9737
   11672.5000  0.0000 -999.25  12.0016  86.6802  -999.25 -999.25   2.5693 3.8875 -999.25   -999.25  70.0496   -999.25  91.7426  -999.25  93.1164 -999.25 67.3155  13.9800 16.8222 0.8383 0.9745
   11673.0000  0.0000 -999.25  12.8765  99.3785  -999.25 -999.25   2.5591 3.8176 -999.25   -999.25  69.9154   -999.25  91.5425  -999.25  92.9120 -999.25 67.8840  14.2200 16.8621 0.8432 0.9755
   11673.5000  0.0000 -999.25  12.8138  98.3419  -999.25 -999.25   2.5597 3.8210 -999.25   -999.25  69.5984   -999.25  91.0700  -999.25  92.4292 -999.25 67.8189  14.3100 16.7934 0.8457 0.9762
   11674.0000  0.0000 -999.25  12.9517  99.7797  -999.25 -999.25   2.5584 3.8200 -999.25   -999.25  69.3663   -999.25  90.7243  -999.25  92.0760 -999.25 67.9230  14.3500 16.7827 0.8438 0.9778
   11674.5000  0.0000 -999.25  13.1080 101.9095  -999.25 -999.25   2.5570 3.8151 -999.25   -999.25  69.7664   -999.25  91.3203  -999.25  92.6850 -999.25 68.0989  14.4600 16.6495 0.8376 0.9762
   11675.0000  0.0000 -999.25  12.5971  94.2995  -999.25 -999.25   2.5632 3.8515 -999.25   -999.25  69.8289   -999.25  91.4135  -999.25  92.7802 -999.25 67.7673  14.3300 16.5236 0.8319 0.9733
   11675.5000  0.0000 -999.25  12.5893  95.4629  -999.25 -999.25   2.5632 3.8290 -999.25   -999.25  70.6118   -999.25  92.5814  -999.25  93.9735 -999.25 67.8183  14.2900 16.2288 0.8237 0.9672
   11676.0000  0.0000 -999.25  12.5129  96.1431  -999.25 -999.25   2.5636 3.7997 -999.25   -999.25  71.3599   -999.25  93.6990  -999.25  95.1156 -999.25 67.7822  14.2800 15.9782 0.8212 0.9613
   11676.5000  0.0000 -999.25  12.6545  99.8716  -999.25 -999.25   2.5616 3.7736 -999.25   -999.25  73.1428   -999.25  96.3690  -999.25  97.8444 -999.25 67.8915  14.3300 15.8456 0.8209 0.9581
   11677.0000  0.0000 -999.25  12.6155 101.0149  -999.25 -999.25   2.5614 3.7581 -999.25   -999.25  74.6933   -999.25  98.6984  -999.25 100.2256 -999.25 67.8473  14.3300 15.9411 0.8236 0.9564
   11677.5000  0.0000 -999.25  11.7736  89.8260  -999.25 -999.25   2.5703 3.8068 -999.25   -999.25  75.5270   -999.25  99.9537  -999.25 101.5088 -999.25 67.3252  14.0600 16.1998 0.8256 0.9567
   11678.0000  0.0000 -999.25  11.7105  88.5638  -999.25 -999.25   2.5709 3.8181 -999.25   -999.25  74.9256   -999.25  99.0480  -999.25 100.5830 -999.25 67.2510  13.9100 16.4798 0.8268 0.9591
   11678.5000  0.0000 -999.25  12.1051  92.6006  -999.25 -999.25   2.5668 3.8096 -999.25   -999.25  73.3205   -999.25  96.6357  -999.25  98.1170 -999.25 67.4520  14.0000 16.5973 0.8295 0.9624
   11679.0000  0.0000 -999.25  12.3588  95.0639  -999.25 -999.25   2.5642 3.7994 -999.25   -999.25  71.6220   -999.25  94.0910  -999.25  95.5162 -999.25 67.5729  14.1000 16.5794 0.8303 0.9648
   11679.5000  0.0000 -999.25  12.0393  90.4253  -999.25 -999.25   2.5678 3.8138 -999.25   -999.25  70.9210   -999.25  93.0432  -999.25  94.4454 -999.25 67.3648  14.0200 16.5365 0.8330 0.9639
   11680.0000  0.0000 -999.25  11.4819  83.2278  -999.25 -999.25   2.5742 3.8404 -999.25   -999.25  71.0274   -999.25  93.2020  -999.25  94.6077 -999.25 67.0595  13.8300 16.4789 0.8317 0.9614
   11680.5000  0.0000 -999.25  12.4295  96.1960  -999.25 -999.25   2.5640 3.7761 -999.25   -999.25  71.2829   -999.25  93.5839  -999.25  94.9979 -999.25 67.6903  14.0700 16.5487 0.8323 0.9586
   11681.0000  0.0000 -999.25  12.8938 102.9954  -999.25 -999.25   2.5590 3.7488 -999.25   -999.25  71.6274   -999.25  94.0991  -999.25  95.5244 -999.25 68.0259  14.3700 16.5449 0.8306 0.9578
   11681.5000  0.0000 -999.25  12.7616 100.8402  -999.25 -999.25   2.5604 3.7580 -999.25   -999.25  71.2101   -999.25  93.4751  -999.25  94.8868 -999.25 67.9134  14.3900 16.5526 0.8293 0.9590
   11682.0000  0.0000 -999.25  12.5874  98.2015  -999.25 -999.25   2.5624 3.7704 -999.25   -999.25  71.2328   -999.25  93.5090  -999.25  94.9214 -999.25 67.8056  14.3100 16.4441 0.8280 0.9587
   11682.5000  0.0000 -999.25  12.4870  97.0609  -999.25 -999.25   2.5634 3.7690 -999.25   -999.25  71.1869   -999.25  93.4404  -999.25  94.8513 -999.25 67.7324  14.2500 16.2306 0.8239 0.9578
   11683.0000  0.0000 -999.25  12.1961  93.7407  -999.25 -999.25   2.5665 3.7730 -999.25   -999.25  71.8364   -999.25  94.4117  -999.25  95.8439 -999.25 67.5754  14.1600 16.1857 0.8223 0.9545
   11683.5000  0.0000 -999.25  12.3571  96.5923  -999.25 -999.25   2.5647 3.7650 -999.25   -999.25  73.1317   -999.25  96.3525  -999.25  97.8275 -999.25 67.6970  14.1900 16.0600 0.8189 0.9540
   11684.0000  0.0000 -999.25  12.7376 102.3734  -999.25 -999.25   2.5600 3.7469 -999.25   -999.25  73.4071   -999.25  96.7657  -999.25  98.2499 -999.25 67.8960  14.3100 16.1261 0.8212 0.9572
   11684.5000  0.0000 -999.25  13.7300 120.1671  -999.25 -999.25   2.5466 3.6806 -999.25   -999.25  74.1836   -999.25  97.9319  -999.25  99.4420 -999.25 68.5907  14.7000 16.0466 0.8218 0.9619
   11685.0000  0.0000 -999.25  13.5279 115.3326  -999.25 -999.25   2.5495 3.7172 -999.25   -999.25  73.7743   -999.25  97.3169  -999.25  98.8133 -999.25 68.3879  14.7400 15.8542 0.8178 0.9680
   11685.5000  0.0000 -999.25  13.0468 105.7635  -999.25 -999.25   2.5560 3.7892 -999.25   -999.25  74.2669   -999.25  98.0571  -999.25  99.5699 -999.25 68.0223  14.5200 15.7913 0.8170 0.9725
   11686.0000  0.0000 -999.25  13.3424 110.8054  -999.25 -999.25   2.5524 3.7801 -999.25   -999.25  75.4726   -999.25  99.8718  -999.25 101.4251 -999.25 68.2657  14.5600 15.9094 0.8169 0.9742
   11686.5000  0.0000 -999.25  13.3467 111.6864  -999.25 -999.25   2.5520 3.7703 -999.25   -999.25  75.8711   -999.25 100.4723  -999.25 102.0391 -999.25 68.2531  14.6100 16.3421 0.8201 0.9736
