~VERSION INFORMATION
VERS. 2.0 : CWLS Log ASCII Standard - version 2.0
WRAP.  NO : One line per depth step
#--------------------------------------------------#
#----------------DRILLING INFO, INC.---------------#
#---------------WWW.DRILLINGINFO.COM---------------#
#------------------COPYRIGHT 2015------------------#
#--------------------------------------------------#
#THIS FILE MAY BE USED ONLY IN ACCORDANCE WITH A CURRENT SUBSCRIPTION AGREEMENT BETWEEN
#THE USER AND DRILLING INFO, INC. NO PART OF THIS FILE MAY BE REPRODUCED, USED, COPIED,
#MODIFIED, PROPAGATED, OR DISTRIBUTED EXCEPT IN ACCORDANCE WITH THE SUBSCRIPTION
#AGREEMENT. UNAUTHORIZED USE OR DISTRIBUTION OF ALL OR ANY PART OF THIS FILE MAY VIOLATE
#COPYRIGHT, TRADEMARK, AND/OR OTHER LAWS AND IS SUBJECT TO CIVIL AS WELL AS CRIMINAL
#SANCTIONS.
#--------------------------------------------------#
#THIS FILE IS PROVIDED "AS-IS" AND ALL WARRANTIES ARE EXPRESSLY DISCLAIMED, WHETHER
#EXPRESS, ORAL, IMPLIED, STATUTORY OR OTHERWISE, INCLUDING ANY IMPLIED WARRANTY OF FITNESS
#FOR A PARTICULAR PURPOSE, MERCHANTABILITY, TITLE OR NON-INFRINGEMENT, AND ANY WARRANTIES
#ARISING BY VIRTUE OF CUSTOM OF TRADE OR COURSE OF DEALING.  FURTHER, DRILLING INFO,
#INC. AND ITS LICENSORS DO NOT REPRESENT OR WARRANT THAT THIS FILE WILL MEET USER'S
#REQUIREMENTS OR ARE SUITABLE FOR USER'S NEEDS OR THAT THE DATA OR RESULTS PROVIDED IN
#CONJUNCTION THEREWITH ARE CORRECT, ACCURATE, TIMELY OR RELIABLE. THESE DISCLAIMERS SHALL
#APPLY REGARDLESS OF ANY FAILURE OF ESSENTIAL PURPOSE OF ANY LIMITED REMEDY.  SOME
#JURISDICTIONS DO NOT ALLOW THE EXCLUSION OF CERTAIN WARRANTIES SO SOME OF THE ABOVE
#EXCLUSIONS MAY NOT APPLY. IN NO EVENT SHALL DRILLING INFO, INC. OR ANY OF ITS AFFILIATES
#BE LIABLE UNDER ANY LEGAL THEORY, WHETHER IN TORT (INCLUDING WITHOUT LIMITATION
#NEGLIGENCE), CONTRACT, STRICT LIABILITY, STATUTORY OR OTHERWISE, FOR ANY SPECIAL,
#INCIDENTAL, CONSEQUENTIAL, EXEMPLARY, PUNITIVE OR INDIRECT DAMAGE OF ANY KIND, INCLUDING
#WITHOUT LIMITATION LOSS OF REVENUE, PROFITS, GOODWILL, USE, AND/OR DATA OR THE COST OF
#PROCUREMENT OF SUBSTITUTE GOODS OR SERVICES, EVEN IF APPRISED OF THE POSSIBILITY OF SUCH
#DAMAGES IN ADVANCE.
#--------------------------------------------------#
~WELL INFORMATION
#MNEMONIC     .UNIT              VALUE :DESCRIPTION
#--------------------------------------------------#
STRT       .FT                181 :START DEPTH
STOP       .FT                12231 :STOP DEPTH
STEP       .FT                   0.500 :STEP
NULL       .                  -999.250 :NULL
API        .                421093228700 :API NUMBER
COMP       .         CHESAPEAKE OPERATING  INC. :COMPANY
WELL       .        UNIVERSITY LANDS 4627  1 :WELL
DATE       .                06-May-2007 :LOG DATE
~CURVE INFORMATION
#MNEMONIC     .UNIT      API CODE :CURVE DESCRIPTION
#--------------------------------------------------#
DEPTH       .FT                      :Measured Depth
ILS.OHM        UNKNOWN   :ILS
GR.API        UNKNOWN   :GR
ILD.OHM        UNKNOWN   :ILD
CAL.INCH        UNKNOWN   :CAL
DT.US/FT        UNKNOWN   :DT
~A    DEPTH    ILS    GR    ILD    CAL    DT
 181     -999.250   -999.250   -999.250   -999.250   68.145
 181.5     -999.250   -999.250   -999.250   -999.250   68.145
 182     -999.250   48.77   0.283   12.707   68.145
 182.5     -999.250   49.091   0.284   12.706   68.145
 183     -999.250   48.818   0.286   12.705   68.145
 183.5     -999.250   47.632   0.287   12.704   68.145
 184     -999.250   45.323   0.288   12.703   68.145
 184.5     -999.250   43.693   0.285   12.702   68.404
 185     -999.250   44.675   0.279   12.701   68.996
 185.5     -999.250   49.584   0.283   12.7   69.588
 186     -999.250   52.075   0.28   12.699   70.18
 186.5     -999.250   54.567   0.309   12.698   71.034
 187     -999.250   57.388   0.28   12.701   72.8
 187.5     -999.250   60.473   0.281   12.709   74.391
 188     -999.250   67.413   0.281   12.717   74.907
 188.5     -999.250   67.631   0.283   12.725   75.423
 189     -999.250   63.93   0.286   12.732   75.319
 189.5     -999.250   57.656   0.294   12.74   74.414
 190     -999.250   53.606   0.298   12.748   75.281
 190.5     -999.250   56.037   0.29   12.755   77.262
 191     -999.250   67.183   0.282   12.763   77.838
 191.5     -999.250   70.256   0.274   12.771   76.256
 192     -999.250   64.633   0.261   12.779   74.674
 192.5     -999.250   51.565   0.26   12.782   73.093
 193     -999.250   44.33   0.273   12.784   72.16
 193.5     -999.250   42.529   0.277   12.786   71.872
 194     -999.250   41.962   0.276   12.789   74.434
 194.5     -999.250   41.596   0.275   12.791   74.9
 195     -999.250   41.083   0.284   12.793   75.247
 195.5     -999.250   40.564   0.293   12.796   75.593
 196     -999.250   39.999   0.289   12.798   75.578
 196.5     -999.250   37.531   0.284   12.8   75.245
 197     -999.250   34.341   0.262   12.802   74.913
 197.5     -999.250   30.492   0.269   12.807   75.231
 198     -999.250   28.339   0.28   12.819   76.735
 198.5     -999.250   28.207   0.294   12.88   77.547
 199     -999.250   33.055   0.505   13.084   77.383
 199.5     -999.250   41.011   2.798   12.957   77.218
 200     -999.250   48.13   12.984   12.839   77.054
 200.5     -999.250   52.33   28.472   12.834   76.759
 201     -999.250   54.851   47.539   12.829   76.362
 201.5     -999.250   56.026   69.818   12.834   75.964
 202     -999.250   56.477   81.494   12.843   76.143
 202.5     -999.250   56.928   92.065   12.852   77.847
 203     -999.250   55.94   94.465   12.862   79.626
 203.5     -999.250   53.82   94.871   12.871   80.472
 204     -999.250   52.972   91.473   12.88   81.148
 204.5     -999.250   53.408   88.074   12.894   80.659
 205     -999.250   53.844   91.924   12.922   80.171
 205.5     -999.250   54.28   98.407   12.95   79.683
 206     -999.250   54.716   105.73   12.978   79.552
 206.5     -999.250   54.836   113.054   12.993   79.451
 207     -999.250   54.608   120.397   12.993   79.077
 207.5     -999.250   54.379   127.767   12.993   78.646
 208     -999.250   54.15   131.738   12.993   78.215
 208.5     -999.250   57.222   126.378   13.004   78.713
 209     -999.250   62.285   116.496   13.026   79.227
 209.5     -999.250   68.161   112.724   13.047   79.605
 210     -999.250   74.007   109.629   13.069   79.615
 210.5     -999.250   75.162   113.128   13.09   79.625
 211     -999.250   74.688   116.337   13.112   79.635
 211.5     -999.250   72.414   116.679   13.139   79.663
 212     -999.250   72.414   117.02   13.165   79.845
 212.5     -999.250   72.901   116.207   13.191   80.026
 213     -999.250   74.213   113.823   13.207   80.208
 213.5     -999.250   75.526   111.439   13.221   80.39
 214     -999.250   76.838   109.055   13.235   80.572
 214.5     -999.250   76.914   107.716   13.249   80.754
 215     -999.250   76.84   106.721   13.263   80.936
 215.5     -999.250   77.019   105.726   13.277   81.117
 216     -999.250   78.276   105.017   13.287   81.704
 216.5     -999.250   78.961   104.712   13.298   82.244
 217     -999.250   79.474   104.408   13.309   82.602
 217.5     -999.250   79.987   100.793   13.319   82.707
 218     -999.250   82.546   101.794   13.312   82.812
 218.5     -999.250   86.072   103.388   13.319   82.916
 219     -999.250   89.599   104.697   13.325   84.823
 219.5     -999.250   87.718   105.59   13.332   84.222
 220     -999.250   84.277   105.814   13.338   83.622
 220.5     -999.250   77.53   105.542   13.345   83.022
 221     -999.250   70.783   105.269   13.351   82.627
 221.5     -999.250   64.036   116.843   13.357   83.974
 222     -999.250   57.289   137.321   13.364   85.321
 222.5     -999.250   50.542   132.882   13.37   86.668
 223     -999.250   47.029   111.002   13.377   88.015
 223.5     -999.250   46.673   109.694   13.394   89.362
 224     -999.250   46.613   113.199   13.414   90.625
 224.5     -999.250   46.613   111.313   13.433   91.812
 225     -999.250   47.706   105.965   13.453   92.998
 225.5     -999.250   50.56   95.473   13.472   94.185
 226     -999.250   53.414   93.031   13.492   95.371
 226.5     -999.250   56.268   93.57   13.511   96.317
 227     -999.250   53.458   91.557   13.531   96.987
 227.5     -999.250   50.055   83.314   13.55   97.658
 228     -999.250   46.652   75.924   13.57   98.329
 228.5     -999.250   43.836   75.426   13.589   98.834
 229     -999.250   43.836   74.929   13.609   98.452
 229.5     -999.250   44.571   77.112   13.601   98.071
 230     -999.250   45.544   84.13   13.588   97.801
 230.5     -999.250   46.774   90.616   13.575   98.29
 231     -999.250   48.584   94.769   13.562   98.779
 231.5     -999.250   50.394   91.449   13.549   99.268
 232     -999.250   50.988   88.129   13.536   92.199
 232.5     -999.250   49.282   87.242   13.523   91.988
 233     -999.250   47.576   89.065   13.51   91.777
 233.5     -999.250   45.87   99.889   13.497   91.297
 234     -999.250   45.281   104.594   13.484   90.195
 234.5     -999.250   46.136   100.838   13.471   89.093
 235     -999.250   47.42   97.083   13.457   87.992
 235.5     -999.250   48.704   105.071   13.444   86.89
 236     -999.250   49.988   121.34   13.431   86.769
 236.5     -999.250   54.989   119.485   13.418   86.75
 237     -999.250   60.675   94.892   13.405   86.731
 237.5     -999.250   65.094   99.626   13.392   86.631
 238     -999.250   67.615   101.653   13.379   84.501
 238.5     -999.250   67.83   97.291   13.366   82.474
 239     -999.250   68.008   98.772   13.353   82.284
 239.5     -999.250   68.187   107.193   13.34   82.093
 240     -999.250   68.62   108.844   13.327   81.902
 240.5     -999.250   69.2   110.494   13.313   81.711
 241     -999.250   69.779   112.145   13.3   81.272
 241.5     -999.250   69.123   113.795   13.287   80.833
 242     -999.250   67.435   115.446   13.274   80.394
 242.5     -999.250   65.748   117.096   13.261   79.955
 243     -999.250   66.017   118.747   13.248   79.515
 243.5     -999.250   66.667   120.397   13.235   79.076
 244     -999.250   67.316   121.04   13.222   78.637
 244.5     -999.250   67.966   120.723   13.215   78.198
 245     -999.250   68.615   120.405   13.208   78.062
 245.5     -999.250   68.834   120.088   13.201   77.937
 246     -999.250   69.027   119.771   13.194   77.812
 246.5     -999.250   69.22   119.454   13.186   77.687
 247     -999.250   70.399   119.137   13.179   77.562
 247.5     -999.250   71.747   115.961   13.172   77.437
 248     -999.250   73.096   111.15   13.165   77.312
 248.5     -999.250   73.825   109.413   13.158   77.187
 249     -999.250   74.363   111.133   13.151   77.062
 249.5     -999.250   74.901   108.931   13.144   77.536
 250     -999.250   76.69   107.196   13.137   78.01
 250.5     -999.250   86.129   105.657   13.13   78.485
 251     -999.250   107.257   104.118   13.123   78.96
 251.5     -999.250   126.051   113.324   13.116   78.694
 252     -999.250   140.071   125.741   13.108   78.314
 252.5     -999.250   141.529   131.105   13.101   78.449
 253     -999.250   134.305   132.192   13.094   78.583
 253.5     -999.250   127.081   133.278   13.087   78.58
