~VERSION INFORMATION
VERS. 2.0 : CWLS Log ASCII Standard - version 2.0
WRAP.  NO : One line per depth step
#--------------------------------------------------#
#----------------DRILLING INFO, INC.---------------#
#---------------WWW.DRILLINGINFO.COM---------------#
#------------------COPYRIGHT 2015------------------#
#--------------------------------------------------#
#THIS FILE MAY BE USED ONLY IN ACCORDANCE WITH A CURRENT SUBSCRIPTION AGREEMENT BETWEEN
#THE USER AND DRILLING INFO, INC. NO PART OF THIS FILE MAY BE REPRODUCED, USED, COPIED,
#MODIFIED, PROPAGATED, OR DISTRIBUTED EXCEPT IN ACCORDANCE WITH THE SUBSCRIPTION
#AGREEMENT. UNAUTHORIZED USE OR DISTRIBUTION OF ALL OR ANY PART OF THIS FILE MAY VIOLATE
#COPYRIGHT, TRADEMARK, AND/OR OTHER LAWS AND IS SUBJECT TO CIVIL AS WELL AS CRIMINAL
#SANCTIONS.
#--------------------------------------------------#
#THIS FILE IS PROVIDED "AS-IS" AND ALL WARRANTIES ARE EXPRESSLY DISCLAIMED, WHETHER
#EXPRESS, ORAL, IMPLIED, STATUTORY OR OTHERWISE, INCLUDING ANY IMPLIED WARRANTY OF FITNESS
#FOR A PARTICULAR PURPOSE, MERCHANTABILITY, TITLE OR NON-INFRINGEMENT, AND ANY WARRANTIES
#ARISING BY VIRTUE OF CUSTOM OF TRADE OR COURSE OF DEALING.  FURTHER, DRILLING INFO,
#INC. AND ITS LICENSORS DO NOT REPRESENT OR WARRANT THAT THIS FILE WILL MEET USER'S
#REQUIREMENTS OR ARE SUITABLE FOR USER'S NEEDS OR THAT THE DATA OR RESULTS PROVIDED IN
#CONJUNCTION THEREWITH ARE CORRECT, ACCURATE, TIMELY OR RELIABLE. THESE DISCLAIMERS SHALL
#APPLY REGARDLESS OF ANY FAILURE OF ESSENTIAL PURPOSE OF ANY LIMITED REMEDY.  SOME
#JURISDICTIONS DO NOT ALLOW THE EXCLUSION OF CERTAIN WARRANTIES SO SOME OF THE ABOVE
#EXCLUSIONS MAY NOT APPLY. IN NO EVENT SHALL DRILLING INFO, INC. OR ANY OF ITS AFFILIATES
#BE LIABLE UNDER ANY LEGAL THEORY, WHETHER IN TORT (INCLUDING WITHOUT LIMITATION
#NEGLIGENCE), CONTRACT, STRICT LIABILITY, STATUTORY OR OTHERWISE, FOR ANY SPECIAL,
#INCIDENTAL, CONSEQUENTIAL, EXEMPLARY, PUNITIVE OR INDIRECT DAMAGE OF ANY KIND, INCLUDING
#WITHOUT LIMITATION LOSS OF REVENUE, PROFITS, GOODWILL, USE, AND/OR DATA OR THE COST OF
#PROCUREMENT OF SUBSTITUTE GOODS OR SERVICES, EVEN IF APPRISED OF THE POSSIBILITY OF SUCH
#DAMAGES IN ADVANCE.
#--------------------------------------------------#
~WELL INFORMATION
#MNEMONIC     .UNIT              VALUE :DESCRIPTION
#--------------------------------------------------#
STRT       .FT                181 :START DEPTH
STOP       .FT                12231 :STOP DEPTH
STEP       .FT                   0.500 :STEP
NULL       .                  -999.250 :NULL
API        .                421093228700 :API NUMBER
COMP       .         CHESAPEAKE OPERATING  INC. :COMPANY
WELL       .        UNIVERSITY LANDS 4627  1 :WELL
DATE       .                06-May-2007 :LOG DATE
~CURVE INFORMATION
#MNEMONIC     .UNIT      API CODE :CURVE DESCRIPTION
#--------------------------------------------------#
DEPTH       .FT                      :Measured Depth
ILS.OHM        UNKNOWN   :ILS
GR.API        UNKNOWN   :GR
ILD.OHM        UNKNOWN   :ILD
CAL.INCH        UNKNOWN   :CAL
DT.US/FT        UNKNOWN   :DT
~A    DEPTH    ILS    GR    ILD    CAL    DT
# ...
 8983     387.168   64.831   333.226   10.869   -999.250
 8983.5     401.518   72.388   466.674   10.808   -999.250
 8984     171.371   86.55   240.811   10.793   -999.250
 8984.5     58.093   100.712   95.433   10.777   -999.250
 8985     38.111   114.984   33.93   10.761   -999.250
 8985.5     45.15   109.327   36.682   10.929   -999.250
 8986     67.991   92.061   55.886   11.134   -999.250
 8986.5     124.091   77.526   84.023   11.339   -999.250
 8987     217.557   73.311   171.817   11.311   -999.250
 8987.5     158.264   73.359   139.101   11.224   -999.250
 8988     129.637   75.96   98.091   11.31   -999.250
 8988.5     120.931   85.131   97.665   11.932   -999.250
 8989     54.332   96.286   55.064   12.981   -999.250
 8989.5     25.345   103.706   26.259   13.204   -999.250
 8990     32.044   102.304   18.793   13.261   -999.250
 8990.5     84.511   98.627   65.879   12.027   -999.250
 8991     87.894   97.494   65.907   12.077   -999.250
 8991.5     50.268   101.917   42.424   14.041   -999.250
 8992     64.349   106.341   46.068   14.595   -999.250
 8992.5     99.447   106.215   72.089   14.732   -999.250
 8993     127.944   99.77   91.004   13.413   -999.250
 8993.5     90.853   93.325   74.602   12.105   -999.250
 8994     116.14   87.076   93.254   12.059   -999.250
 8994.5     122.174   81.064   117.593   12.096   -999.250
 8995     101.497   75.325   103.636   12.132   -999.250
 8995.5     89.598   70.99   79.823   12.169   -999.250
 8996     90.248   69.313   82.947   12.206   -999.250
 8996.5     89.408   68.446   81.191   12.242   -999.250
 8997     81.328   67.938   79.435   12.279   -999.250
 8997.5     72.207   67.663   70.78   12.316   -999.250
 8998     67.876   66.674   59.087   12.342   -999.250
 8998.5     69.287   65.684   67.178   12.264   -999.250
 8999     63.364   64.565   62.194   12.418   -999.250
 8999.5     60.896   64.447   57.237   12.855   -999.250
 9000     59.959   67.904   57.779   13.293   -999.250
 9000.5     66.379   71.828   61.802   13.288   -999.250
 9001     94.375   75.751   80.701   13.264   -999.250
 9001.5     70.356   76.896   71.612   12.728   -999.250
 9002     48.238   77.183   53.511   16.432   -999.250
 9002.5     41.398   77.249   35.411   17.055   -999.250
 9003     44.558   77.045   35.589   17.087   -999.250
 9003.5     47.718   76.276   36.598   17.284   -999.250
 9004     50.799   73.922   37.959   17.676   -999.250
 9004.5     53.692   70.881   39.32   16.574   -999.250
 9005     54.184   67.975   40.681   15.154   -999.250
 9005.5     53.268   65.751   42.11   14.35   -999.250
 9006     50.79   65.598   43.874   13.075   -999.250
 9006.5     48.242   65.555   42.964   13.012   -999.250
 9007     45.833   66.265   41   12.983   -999.250
 9007.5     45.407   67.961   40.325   12.955   -999.250
 9008     47.989   71.575   41.137   12.926   -999.250
 9008.5     54.587   75.236   47.729   12.897   -999.250
 9009     56.416   72.934   55.541   12.868   -999.250
 9009.5     51.706   70.464   47.765   12.839   -999.250
 9010     48.851   67.993   47.093   12.824   -999.250
 9010.5     47.834   65.523   46.653   12.824   -999.250
 9011     48.434   63.551   44.326   12.824   -999.250
 9011.5     49.996   62.786   44.849   12.824   -999.250
 9012     54.395   62.215   48.88   12.822   -999.250
 9012.5     63.04   61.805   57.243   12.819   -999.250
 9013     73.07   61.945   65.606   12.817   -999.250
 9013.5     73.443   63.024   69.551   12.815   -999.250
 9014     59.152   64.102   61.005   12.813   -999.250
 9014.5     51.772   65.18   49.643   12.81   -999.250
 9015     49.396   66.234   46.518   12.775   -999.250
 9015.5     50.03   66.671   45.937   12.74   -999.250
 9016     51.981   67.107   48.39   12.705   -999.250
 9016.5     54.829   67.544   51.747   12.67   -999.250
 9017     60.464   65.199   59.272   12.635   -999.250
 9017.5     72.884   62.764   66.797   12.6   -999.250
 9018     113.833   60.192   110.149   12.565   -999.250
 9018.5     232.049   57.62   191.848   12.53   -999.250
 9019     258.183   55.048   231.283   12.507   -999.250
 9019.5     208.431   55.393   190.901   12.525   -999.250
 9020     91.014   58.003   117.715   12.543   -999.250
 9020.5     56.457   61.102   54.658   12.56   -999.250
 9021     39.809   64.202   39.676   12.578   -999.250
 9021.5     37.648   67.301   36.73   12.596   -999.250
 9022     40.172   69.694   36.633   12.614   -999.250
 9022.5     59.748   71.963   49.023   12.631   -999.250
 9023     78.825   73.055   65.84   12.631   -999.250
 9023.5     79.057   70.941   69   12.631   -999.250
 9024     72.206   66.504   66.738   12.631   -999.250
 9024.5     72.582   62.152   62.893   12.631   -999.250
 9025     77.074   60.454   67.959   12.631   -999.250
 9025.5     83.072   59.508   73.025   12.631   -999.250
 9026     88.184   60.429   80.954   12.631   -999.250
 9026.5     83.447   62.015   76.7   12.635   -999.250
 9027     74.699   63.602   74.391   12.646   -999.250
 9027.5     79.109   65.188   76.843   12.656   -999.250
 9028     68.582   66.775   60.707   12.667   -999.250
 9028.5     59.269   66.692   55.727   12.678   -999.250
 9029     58.893   66.195   54.946   12.688   -999.250
 9029.5     54.597   65.698   48.403   12.699   -999.250
 9030     54.917   65.201   47.584   12.71   -999.250
 9030.5     55.509   64.704   51.803   12.72   -999.250
 9031     60.483   65.004   56.571   12.731   -999.250
 9031.5     65.595   68.21   58.988   12.742   -999.250
 9032     68.865   83.829   59.451   12.941   -999.250
 9032.5     71.922   99.448   63.183   13.28   -999.250
 9033     80.289   103.88   72.58   13.465   -999.250
 9033.5     87.591   98.992   81.368   13.465   -999.250
 9034     71.732   92.035   59.712   13.315   -999.250
 9034.5     56.583   83.71   50.569   13.325   -999.250
 9035     43.032   77.13   44.557   12.965   -999.250
 9035.5     36.882   71.144   36.1   13.215   -999.250
 9036     34.684   67.604   28.142   13.38   -999.250
 9036.5     34.954   65.526   30.576   13.294   -999.250
 9037     42.122   68.299   37.843   13.209   -999.250
 9037.5     51.409   70.665   45.109   13.164   -999.250
 9038     48.346   72.982   45.498   13.18   -999.250
 9038.5     41.784   74.649   37.297   13.197   -999.250
 9039     47.988   75.263   39.83   13.214   -999.250
 9039.5     52.943   75.876   55.204   13.236   -999.250
 9040     45.967   75.872   48.521   13.26   -999.250
 9040.5     41.107   74.451   36.632   13.285   -999.250
 9041     38.038   72.168   33.909   13.309   -999.250
 9041.5     37.238   69.885   33.645   13.334   -999.250
 9042     36.529   68.213   32.638   13.358   -999.250
 9042.5     35.591   68.308   31.146   13.382   -999.250
 9043     33.872   68.403   30.483   13.407   -999.250
 9043.5     32.65   67.333   30.376   13.423   -999.250
 9044     32.802   66.188   30.844   13.405   -999.250
 9044.5     35.908   66.325   33.195   13.388   -999.250
 9045     40.018   70.251   42.065   13.37   -999.250
 9045.5     52.802   80.322   55.161   13.353   -999.250
 9046     67.779   87.168   68.257   13.324   -999.250
 9046.5     63.442   84.315   68.897   13.294   -999.250
 9047     42.976   78.516   48.902   13.263   -999.250
 9047.5     33.098   73.248   33.479   13.232   -999.250
 9048     31.402   69.444   29.669   13.201   -999.250
 9048.5     30.393   68.074   29.392   13.17   -999.250
 9049     29.884   67.96   28.336   13.14   -999.250
 9049.5     30.86   67.211   26.748   13.109   -999.250
 9050     32.43   66.325   28.501   13.078   -999.250
 9050.5     34.427   67.245   32.231   13.047   -999.250
 9051     35.329   71.914   33.306   13.016   -999.250
 9051.5     35.271   78.095   43.45   12.986   -999.250
 9052     57.348   84.18   62.272   12.955   -999.250
 9052.5     61.68   83.988   58.943   12.924   -999.250
 9053     50.168   79.903   47.547   12.893   -999.250
 9053.5     49.569   75.424   52.098   12.863   -999.250
 9054     45.031   71.002   45.364   12.832   -999.250
 9054.5     39.62   69.588   38.501   12.801   -999.250
