~Version Information
 VERS.                  2.0:   CWLS log ASCII Standard -VERSION 2.0
 WRAP.                   NO:   One line per depth step
~Well Information Block
#MNEM.UNIT     VALUE/NAME     DESCRIPTION
#---------     -----------    ---------------------------
 STRT.F              8830.0000: START DEPTH
 STOP.F             14230.0000: STOP DEPTH
 STEP.F                 0.5000: STEP DEPTH
 NULL.                 -999.25: NULL VALUE
 LOC .       API  42-109-33374Lat:  LOCATION
 FL1 .       API  42-109-33374Lat:  LOCATIONLINE1
 DMF .                      KB:  DRILL MEAS FROM
 PDAT.                      GL:  PERMANENT DATUM
 CTRY.                     USA:  COUNTRY NAME
 CNTY.               CULBERSON:  COUNTY NAME
 FLD .     FORD, WEST (WOLFCAMP):  FIELD NAME
 WELL.        MOTHER FEE 28 4H:  WELL NAME
 COMP.          CAPITAN ENERGY:  COMPANY
 DATE.             02-May-2019:  DATE
 SVCO.             Halliburton:  SERVICECONAME
 PROV.                   TEXAS:  PROVINCE
 STAT.                   TEXAS:  STATE NAME
 HIDE.                        :  WELLNAMEOPERAT
 BASI.                 PERMIAN:  BASIN
 UWI .            42-109-33374Lat:  UNIQUE WELL IDENTIFIER
 API .            42-109-33374Lat:  API NUMBER
 RANG.                     N/A:  RANGE
 TOWN.                     N/A:  TOWNSHIP
 SECT.                     N/A:  SECTION
 SON .               905631317:  JOB NUMBER
 SRVC.             Halliburton:  SERVICE COMPANY
 LMF .                      KB:  LOG MEASURED FROM
 BAP .ft                0.0000:  GL ELEV ONSHORE
 GVFD.g                 1.0000:  GRAVITY FIELD
~Curve Information Block
#MNEM.UNIT                 API CODE     Curve Description
#---------               -----------    ---------------------------
 DEPT.F                 00 000 000 000:  Depth
 CCL .V                 00 000 000 000:  Casing Collar Locator
 NPHI_OH.pu             00 000 000 000:  NPHI_OH
 NPHI_CHI.pu            00 000 000 000:  NPHI_CHI
 GR_OH.api              00 000 000 000:  GR_OH
 GR_CHI.api             00 000 000 000:  GR_CHI
 RHOB_OH.g/cc           00 000 000 000:  RHOB_OH
 RHOB_CHI.g/cc          00 000 000 000:  RHOB_CHI
 PE_OH.b/e              00 000 000 000:  PE_OH
 PE_CHI.b/e             00 000 000 000:  PE_CHI
 RT10_OH.ohmm           00 000 000 000:  RT10_OH
 RT10_CHI.ohmm          00 000 000 000:  RT10_CHI
 RT30_OH.ohmm           00 000 000 000:  RT30_OH
 RT30_CHI.ohmm          00 000 000 000:  RT30_CHI
 RT90_OH.ohmm           00 000 000 000:  RT90_OH
 RT90_CHI.ohmm          00 000 000 000:  RT90_CHI
 SPHI_CHI.pu            00 000 000 000:  SPHI_CHI
 DTC_CHI.uspf           00 000 000 000:  DTC_CHI
 DTC_OH.uspf            00 000 000 000:  DTC_OH
 SGF .cu                00 000 000 000:  Formation Sigma
 CRNF.NONE              00 000 000 000:  CM GrsCaptRatio
 RIN .NONE              00 000 000 000:  CM GrsInelRatio
#Other Information
#
#WARRANTY: Halliburton will use its best efforts to furnish customers with 
#accurate information and interpretations that are part of, and incident to, the services 
#provided.  However, Halliburton cannot and does not warrant the accuracy 
#or correctness of such information and interpretations.  Under no circumstances should any 
#such information or interpretation be relied upon as the sole basis for any drilling, 
#completion, production, or financial decision or any procedure involving any risk to the 
#safety of any drilling venture, drilling rig or its crew or any other third party.  The 
#Customer has full responsibility for all drilling, completion and production operation.  
#Halliburton makes no representations or warranties, either expressed or 
#implied, including, but not limited to, the implied warranties of merchantability or fitness 
#for a particular purpose, with respect to the services rendered.  In no event will 
#Halliburton be liable for failure to obtain any particular results or for 
#any damages, including, but not limited to, indirect, special or consequential damages, 
#resulting from the use of any information or interpretation provided by Halliburton.
#
~A    DEPT      CCL   NPHI_OH NPHI_CHI  GR_OH    GR_CHI  RHOB_OH RHOB_CHI  PE_OH  PE_CHI RT10_OH RT10_CHI RT30_OH RT30_CHI RT90_OH  RT90_CHI SPHI_CHI DTC_CHI DTC_OH    SGF    CRNF   RIN   
# ...
    9905.0000 17.3821 -999.25  15.5315  -999.25  82.2093 -999.25   2.5340 -999.25 2.8867 -999.25  35.2701 -999.25  36.2337  -999.25  38.5465  20.5800 76.6985 -999.25 31.6363 1.2655 1.0950
    9905.5000 17.4479 -999.25  16.0410  -999.25  82.1080 -999.25   2.5251 -999.25 2.8637 -999.25  35.0058 -999.25  35.9623  -999.25  38.2577  21.2200 77.6056 -999.25 31.6923 1.2573 1.0983
    9906.0000 17.4114 -999.25  16.3305  -999.25  81.1103 -999.25   2.5184 -999.25 2.8445 -999.25  34.8126 -999.25  35.7638  -999.25  38.0466  21.6200 78.1649 -999.25 31.6945 1.2433 1.1003
    9906.5000 17.4540 -999.25  16.3616  -999.25  80.1610 -999.25   2.5168 -999.25 2.8390 -999.25  34.7282 -999.25  35.6771  -999.25  37.9543  21.6700 78.2461 -999.25 31.6089 1.2290 1.0998
    9907.0000 17.4645 -999.25  16.3450  -999.25  79.9339 -999.25   2.5146 -999.25 2.8304 -999.25  34.8104 -999.25  35.7615  -999.25  38.0441  21.7000 78.2892 -999.25 31.3712 1.2121 1.0976
    9907.5000 17.4367 -999.25  16.2356  -999.25  80.7155 -999.25   2.5137 -999.25 2.8248 -999.25  35.0846 -999.25  36.0432  -999.25  38.3438  21.6300 78.1818 -999.25 31.0154 1.1941 1.0951
    9908.0000 17.4495 -999.25  16.2281  -999.25  82.1879 -999.25   2.5125 -999.25 2.8236 -999.25  35.6769 -999.25  36.6516  -999.25  38.9911  21.6600 78.2328 -999.25 30.7788 1.1789 1.0924
    9908.5000 17.4312 -999.25  16.0124  -999.25  84.1314 -999.25   2.5144 -999.25 2.8302 -999.25  36.4852 -999.25  37.4821  -999.25  39.8745  21.4500 77.9290 -999.25 30.2782 1.1695 1.0875
    9909.0000 17.4334 -999.25  15.7041  -999.25  86.2515 -999.25   2.5200 -999.25 2.8502 -999.25  37.4451 -999.25  38.4682  -999.25  40.9236  21.0800 77.4098 -999.25 29.9141 1.1594 1.0841
    9909.5000 17.4381 -999.25  15.4131  -999.25  88.2461 -999.25   2.5237 -999.25 2.8643 -999.25  38.5469 -999.25  39.6001  -999.25  42.1278  20.7700 76.9661 -999.25 29.6468 1.1625 1.0817
    9910.0000 17.3997 -999.25  15.2537  -999.25  89.9880 -999.25   2.5250 -999.25 2.8710 -999.25  39.5426 -999.25  40.6230  -999.25  43.2160  20.6200 76.7613 -999.25 29.6756 1.1726 1.0822
    9910.5000 17.4525 -999.25  15.1776  -999.25  91.7913 -999.25   2.5237 -999.25 2.8662 -999.25  40.2365 -999.25  41.3358  -999.25  43.9743  20.6000 76.7245 -999.25 29.7382 1.1794 1.0840
    9911.0000 17.4195 -999.25  15.2884  -999.25  93.2383 -999.25   2.5225 -999.25 2.8672 -999.25  40.5611 -999.25  41.6693  -999.25  44.3290  20.7300 76.9178 -999.25 29.6815 1.1883 1.0856
    9911.5000 17.4345 -999.25  15.4623  -999.25  93.1849 -999.25   2.5208 -999.25 2.8683 -999.25  40.7658 -999.25  41.8796  -999.25  44.5528  20.9400 77.2034 -999.25 29.5108 1.1967 1.0881
    9912.0000 17.4549 -999.25  15.4816  -999.25  91.2467 -999.25   2.5210 -999.25 2.8743 -999.25  41.0467 -999.25  42.1682  -999.25  44.8597  20.9500 77.2296 -999.25 29.1886 1.1998 1.0903
    9912.5000 17.4021 -999.25  15.5575  -999.25  88.3970 -999.25   2.5195 -999.25 2.8768 -999.25  41.4801 -999.25  42.6134  -999.25  45.3334  21.0600 77.3825 -999.25 29.0496 1.2029 1.0943
    9913.0000 17.4355 -999.25  15.6091  -999.25  86.4485 -999.25   2.5180 -999.25 2.8795 -999.25  42.1303 -999.25  43.2814  -999.25  46.0441  21.1500 77.5104 -999.25 28.8638 1.1909 1.0942
    9913.5000 17.4204 -999.25  15.7681  -999.25  86.3752 -999.25   2.5142 -999.25 2.8734 -999.25  42.7160 -999.25  43.8831  -999.25  46.6842  21.3900 77.8465 -999.25 28.8120 1.1808 1.0944
    9914.0000 17.4114 -999.25  15.8860  -999.25  87.3843 -999.25   2.5135 -999.25 2.8774 -999.25  43.1547 -999.25  44.3338  -999.25  47.1636  21.5300 78.0386 -999.25 28.9994 1.1719 1.0897
    9914.5000 17.4692 -999.25  15.8529  -999.25  88.3889 -999.25   2.5141 -999.25 2.8797 -999.25  43.3382 -999.25  44.5223  -999.25  47.3641  21.4900 77.9843 -999.25 28.9629 1.1660 1.0852
    9915.0000 17.4119 -999.25  15.5952  -999.25  88.5879 -999.25   2.5164 -999.25 2.8789 -999.25  43.2437 -999.25  44.4252  -999.25  47.2609  21.2000 77.5797 -999.25 29.1912 1.1693 1.0837
    9915.5000 17.4490 -999.25  15.4391  -999.25  87.6954 -999.25   2.5161 -999.25 2.8710 -999.25  43.1547 -999.25  44.3338  -999.25  47.1636  21.0600 77.3768 -999.25 28.9690 1.1601 1.0826
    9916.0000 17.4439 -999.25  15.3502  -999.25  85.7752 -999.25   2.5150 -999.25 2.8629 -999.25  43.0930 -999.25  44.2704  -999.25  47.0962  20.9900 77.2839 -999.25 28.8622 1.1566 1.0839
    9916.5000 17.4486 -999.25  15.3446  -999.25  83.7141 -999.25   2.5146 -999.25 2.8644 -999.25  43.2783 -999.25  44.4608  -999.25  47.2987  21.0000 77.2896 -999.25 28.8411 1.1500 1.0837
    9917.0000 17.4125 -999.25  15.0860  -999.25  81.7200 -999.25   2.5175 -999.25 2.8697 -999.25  43.4797 -999.25  44.6677  -999.25  47.5188  20.7000 76.8700 -999.25 28.7956 1.1489 1.0836
    9917.5000 17.4395 -999.25  14.9044  -999.25  79.9464 -999.25   2.5203 -999.25 2.8776 -999.25  43.6000 -999.25  44.7913  -999.25  47.6503  20.4700 76.5513 -999.25 28.8466 1.1538 1.0855
    9918.0000 17.4611 -999.25  14.7192  -999.25  78.5752 -999.25   2.5225 -999.25 2.8802 -999.25  43.5886 -999.25  44.7796  -999.25  47.6378  20.2600 76.2422 -999.25 28.9496 1.1656 1.0907
    9918.5000 17.4238 -999.25  14.7167  -999.25  77.9700 -999.25   2.5217 -999.25 2.8745 -999.25  43.3523 -999.25  44.5368  -999.25  47.3796  20.2600 76.2509 -999.25 29.2329 1.1762 1.0981
    9919.0000 17.4495 -999.25  14.9515  -999.25  78.7574 -999.25   2.5160 -999.25 2.8522 -999.25  42.8149 -999.25  43.9847  -999.25  46.7923  20.5800 76.7024 -999.25 29.6187 1.1931 1.1055
    9919.5000 17.4455 -999.25  15.1410  -999.25  80.7572 -999.25   2.5144 -999.25 2.8442 -999.25  41.8948 -999.25  43.0394  -999.25  45.7866  20.7700 76.9687 -999.25 30.0828 1.2073 1.1076
    9920.0000 17.4345 -999.25  15.3207  -999.25  82.5709 -999.25   2.5161 -999.25 2.8482 -999.25  40.6311 -999.25  41.7412  -999.25  44.4055  20.8800 77.1213 -999.25 30.6825 1.2130 1.1048
    9920.5000 17.4231 -999.25  15.3984  -999.25  83.0747 -999.25   2.5222 -999.25 2.8668 -999.25  39.1221 -999.25  40.1910  -999.25  42.7564  20.7900 77.0008 -999.25 31.1866 1.2155 1.0986
    9921.0000 17.4826 -999.25  15.3508  -999.25  82.4177 -999.25   2.5282 -999.25 2.8776 -999.25  37.5070 -999.25  38.5317  -999.25  40.9912  20.5900 76.7106 -999.25 31.7407 1.2131 1.0935
    9921.5000 17.4320 -999.25  15.4624  -999.25  82.0886 -999.25   2.5270 -999.25 2.8622 -999.25  36.0120 -999.25  36.9960  -999.25  39.3574  20.6700 76.8331 -999.25 32.1846 1.2048 1.0929
    9922.0000 17.4463 -999.25  15.5673  -999.25  83.1821 -999.25   2.5259 -999.25 2.8475 -999.25  34.7251 -999.25  35.6739  -999.25  37.9509  20.7600 76.9510 -999.25 32.0983 1.1989 1.0943
    9922.5000 17.4363 -999.25  15.8554  -999.25  85.9214 -999.25   2.5190 -999.25 2.8179 -999.25  33.9930 -999.25  34.9217  -999.25  37.1508  21.1400 77.4957 -999.25 31.8749 1.2009 1.0982
    9923.0000 17.4315 -999.25  16.0875  -999.25  89.0712 -999.25   2.5116 -999.25 2.7887 -999.25  33.8220 -999.25  34.7461  -999.25  36.9639  21.5000 78.0055 -999.25 31.6537 1.2030 1.1016
    9923.5000 17.4375 -999.25  16.2564  -999.25  91.1602 -999.25   2.5069 -999.25 2.7738 -999.25  33.9585 -999.25  34.8863  -999.25  37.1131  21.7600 78.3676 -999.25 31.7335 1.2038 1.1047
    9924.0000 17.4413 -999.25  16.3961  -999.25  91.6163 -999.25   2.5027 -999.25 2.7612 -999.25  34.0995 -999.25  35.0312  -999.25  37.2673  21.9800 78.6768 -999.25 32.0662 1.1963 1.1073
    9924.5000 17.4859 -999.25  16.4786  -999.25  90.9021 -999.25   2.4999 -999.25 2.7506 -999.25  33.9330 -999.25  34.8601  -999.25  37.0852  22.1000 78.8558 -999.25 32.4197 1.1876 1.1094
    9925.0000 17.4726 -999.25  16.4391  -999.25  89.9877 -999.25   2.5006 -999.25 2.7473 -999.25  33.4215 -999.25  34.3347  -999.25  36.5263  22.0400 78.7612 -999.25 32.6961 1.1902 1.1109
    9925.5000 17.4132 -999.25  16.4336  -999.25  89.0979 -999.25   2.4999 -999.25 2.7375 -999.25  32.7964 -999.25  33.6925  -999.25  35.8431  22.0300 78.7457 -999.25 32.7635 1.1869 1.1132
    9926.0000 17.4378 -999.25  16.1647  -999.25  88.1891 -999.25   2.5018 -999.25 2.7294 -999.25  32.3171 -999.25  33.2001  -999.25  35.3193  21.7200 78.3092 -999.25 32.6975 1.1934 1.1154
