~VERSION INFORMATION
VERS. 2.0 : CWLS Log ASCII Standard - version 2.0
WRAP.  NO : One line per depth step
#--------------------------------------------------#
#----------------DRILLING INFO, INC.---------------#
#---------------WWW.DRILLINGINFO.COM---------------#
#------------------COPYRIGHT 2015------------------#
#--------------------------------------------------#
#THIS FILE MAY BE USED ONLY IN ACCORDANCE WITH A CURRENT SUBSCRIPTION AGREEMENT BETWEEN
#THE USER AND DRILLING INFO, INC. NO PART OF THIS FILE MAY BE REPRODUCED, USED, COPIED,
#MODIFIED, PROPAGATED, OR DISTRIBUTED EXCEPT IN ACCORDANCE WITH THE SUBSCRIPTION
#AGREEMENT. UNAUTHORIZED USE OR DISTRIBUTION OF ALL OR ANY PART OF THIS FILE MAY VIOLATE
#COPYRIGHT, TRADEMARK, AND/OR OTHER LAWS AND IS SUBJECT TO CIVIL AS WELL AS CRIMINAL
#SANCTIONS.
#--------------------------------------------------#
#THIS FILE IS PROVIDED "AS-IS" AND ALL WARRANTIES ARE EXPRESSLY DISCLAIMED, WHETHER
#EXPRESS, ORAL, IMPLIED, STATUTORY OR OTHERWISE, INCLUDING ANY IMPLIED WARRANTY OF FITNESS
#FOR A PARTICULAR PURPOSE, MERCHANTABILITY, TITLE OR NON-INFRINGEMENT, AND ANY WARRANTIES
#ARISING BY VIRTUE OF CUSTOM OF TRADE OR COURSE OF DEALING.  FURTHER, DRILLING INFO,
#INC. AND ITS LICENSORS DO NOT REPRESENT OR WARRANT THAT THIS FILE WILL MEET USER'S
#REQUIREMENTS OR ARE SUITABLE FOR USER'S NEEDS OR THAT THE DATA OR RESULTS PROVIDED IN
#CONJUNCTION THEREWITH ARE CORRECT, ACCURATE, TIMELY OR RELIABLE. THESE DISCLAIMERS SHALL
#APPLY REGARDLESS OF ANY FAILURE OF ESSENTIAL PURPOSE OF ANY LIMITED REMEDY.  SOME
#JURISDICTIONS DO NOT ALLOW THE EXCLUSION OF CERTAIN WARRANTIES SO SOME OF THE ABOVE
#EXCLUSIONS MAY NOT APPLY. IN NO EVENT SHALL DRILLING INFO, INC. OR ANY OF ITS AFFILIATES
#BE LIABLE UNDER ANY LEGAL THEORY, WHETHER IN TORT (INCLUDING WITHOUT LIMITATION
#NEGLIGENCE), CONTRACT, STRICT LIABILITY, STATUTORY OR OTHERWISE, FOR ANY SPECIAL,
#INCIDENTAL, CONSEQUENTIAL, EXEMPLARY, PUNITIVE OR INDIRECT DAMAGE OF ANY KIND, INCLUDING
#WITHOUT LIMITATION LOSS OF REVENUE, PROFITS, GOODWILL, USE, AND/OR DATA OR THE COST OF
#PROCUREMENT OF SUBSTITUTE GOODS OR SERVICES, EVEN IF APPRISED OF THE POSSIBILITY OF SUCH
#DAMAGES IN ADVANCE.
#--------------------------------------------------#
~WELL INFORMATION
#MNEMONIC     .UNIT              VALUE :DESCRIPTION
#--------------------------------------------------#
STRT       .FT                35 :START DEPTH
STOP       .FT                15948 :STOP DEPTH
STEP       .FT                   0.500 :STEP
NULL       .                  -999.250 :NULL
API        .                421093136200 :API NUMBER
COMP       .         ARRINGTON DAVID H. OIL & GAS INC :COMPANY
WELL       .        SCOTT UNIT  1 :WELL
DATE       .                17-Jun-1991 :LOG DATE
~CURVE INFORMATION
#MNEMONIC     .UNIT      API CODE :CURVE DESCRIPTION
#--------------------------------------------------#
DEPTH       .FT                      :Measured Depth
CAL.INCH        UNKNOWN   :CAL
DT.US/FT        UNKNOWN   :DT
GR.API        UNKNOWN   :GR
~A    DEPTH    CAL    DT    GR
# ...
 2762     14.39   90.877   42.166
 2762.5     14.331   90.767   41.654
 2763     14.272   90.657   39.667
 2763.5     14.213   90.314   37.681
 2764     14.154   87.989   35.695
 2764.5     14.127   86.373   35.384
 2765     14.132   84.775   35.173
 2765.5     14.136   83.859   34.962
 2766     14.141   85.821   36.286
 2766.5     14.146   87.782   42.893
 2767     14.151   89.215   48.067
 2767.5     14.155   90.085   49.741
 2768     14.16   89.086   44.249
 2768.5     14.165   88.696   38.029
 2769     14.168   88.983   35.112
 2769.5     14.171   89.27   33.219
 2770     14.175   89.19   32.73
 2770.5     14.178   88.704   31.541
 2771     14.181   87.193   31.411
 2771.5     14.184   85.998   33.651
 2772     14.188   85.252   38.209
 2772.5     14.186   84.506   41.225
 2773     14.181   84.34   44.154
 2773.5     14.176   84.688   45.694
 2774     14.171   84.696   46.775
 2774.5     14.166   83.762   46.786
 2775     14.161   82.827   46.797
 2775.5     14.157   81.892   46.808
 2776     14.152   82.163   48.463
 2776.5     14.147   83.157   50.83
 2777     14.18   85.175   53.82
 2777.5     14.222   87.193   56.811
 2778     14.264   89.047   55.883
 2778.5     14.306   89.896   52.405
 2779     14.347   89.714   49.031
 2779.5     14.37   89.532   45.658
 2780     14.372   89.241   39.606
 2780.5     14.374   88.939   37.773
 2781     14.377   88.637   37.471
 2781.5     14.379   87.763   37.297
 2782     14.382   86.672   38.073
 2782.5     14.384   85.58   38.85
 2783     14.387   86.6   39.855
 2783.5     14.389   87.906   41.164
 2784     14.391   88.165   45.063
 2784.5     14.394   83.756   47.833
 2785     14.395   82.674   47.844
 2785.5     14.396   80.743   47.619
 2786     14.397   79.448   45.561
 2786.5     14.398   79.914   43.503
 2787     14.399   82.791   41.437
 2787.5     14.4   84.867   39.303
 2788     14.4   86.942   37.891
 2788.5     14.401   88.173   37.699
 2789     14.402   89.326   40.624
 2789.5     14.403   90.821   46.987
 2790     14.351   91.949   49.445
 2790.5     14.229   92.949   44.043
 2791     14.107   93.949   40.341
 2791.5     14.041   94.61   39.298
 2792     14.018   95.23   40.284
 2792.5     13.995   94.642   40.024
 2793     13.971   93.249   38.644
 2793.5     13.948   90.782   37.265
 2794     13.925   86.347   36.217
 2794.5     13.901   85.133   35.313
 2795     13.894   83.918   35.092
 2795.5     13.897   82.21   35.223
 2796     13.899   82.931   40.179
 2796.5     13.902   83.652   44.902
 2797     13.905   84.373   47.026
 2797.5     13.907   85.094   49.15
 2798     13.91   85.053   49.989
 2798.5     13.912   84.547   50.295
 2799     13.915   84.041   50.602
 2799.5     13.918   83.843   50.72
 2800     13.92   84   50.821
 2800.5     13.923   83.968   52.37
 2801     13.925   83.723   54.874
 2801.5     13.928   82.595   55.05
 2802     13.93   80.596   52.942
 2802.5     13.933   80.49   51.323
 2803     13.936   81.299   52.691
 2803.5     13.938   83.4   55.697
 2804     13.941   86.296   58.022
 2804.5     13.943   86.221   55.043
 2805     13.947   85.688   49.971
 2805.5     13.951   84.376   44.314
 2806     13.955   83.279   40.056
 2806.5     13.959   82.618   38.965
 2807     13.963   83.144   38.285
 2807.5     13.967   83.828   39.797
 2808     13.97   84.512   42.966
 2808.5     13.974   85.196   43.111
 2809     13.978   85.801   41.888
 2809.5     13.982   83.631   39.631
 2810     13.986   81.863   38.077
 2810.5     13.959   80.242   39.435
 2811     13.931   80.812   41.076
 2811.5     13.903   81.798   43.252
 2812     13.875   83.172   45.427
 2812.5     13.847   83.761   47.056
 2813     13.821   83.97   47.334
 2813.5     13.807   84.398   47.612
 2814     13.792   85.131   47.902
 2814.5     13.778   85.865   48.247
 2815     13.763   86.598   45.448
 2815.5     13.749   86.634   42.449
 2816     13.734   85.198   40.614
 2816.5     13.719   83.713   40.574
 2817     13.705   82.051   40.534
 2817.5     13.69   80.389   40.493
 2818     13.677   79.488   40.897
 2818.5     13.665   79.723   42.127
 2819     13.654   80.763   45.337
 2819.5     13.642   82.85   49.594
 2820     13.631   83.546   49.789
 2820.5     13.619   83.897   47.516
 2821     13.607   82.735   44.438
 2821.5     13.539   79.724   38.047
 2822     13.435   76.88   37.615
 2822.5     13.33   74.851   37.184
 2823     13.225   72.822   36.752
 2823.5     13.206   73.75   36.593
 2824     13.207   75.339   37.155
 2824.5     13.209   76.927   37.716
 2825     13.211   77.373   39.445
 2825.5     13.213   77.136   41.825
 2826     13.214   76.898   44.142
 2826.5     13.216   76.491   46.443
 2827     13.218   76.07   47.487
 2827.5     13.219   75.648   48.251
 2828     13.221   75.408   49.764
 2828.5     13.223   75.342   52.702
 2829     13.225   75.258   56.262
 2829.5     13.226   74.742   60.905
 2830     13.228   74.552   62.828
 2830.5     13.23   75.003   60.335
 2831     13.232   75.557   58.391
 2831.5     13.233   77.848   59.746
 2832     13.235   80.631   67.98
 2832.5     13.237   83.415   79.194
 2833     13.27   86.12   89.376
 2833.5     13.305   88.824   88.415
 2834     13.341   89.824   76.935
 2834.5     13.376   88.92   62.078
 2835     13.412   88.016   48.96
 2835.5     13.444   87.239   42.955
 2836     13.452   87.343   40.032
 2836.5     13.461   86.964   41.615
 2837     13.47   86.303   42.528
 2837.5     13.478   87.036   41.935
 2838     13.487   87.97   40.836
 2838.5     13.495   88.283   40.712
 2839     13.495   88.596   42.664
 2839.5     13.491   87.296   44.36
 2840     13.487   85.698   43.354
 2840.5     13.483   86.011   39.14
 2841     13.479   86.324   37.268
 2841.5     13.475   86.226   37.097
 2842     13.471   84.873   39.428
 2842.5     13.467   84.892   41.758
 2843     13.463   85.179   42.141
 2843.5     13.459   85.466   41.197
 2844     13.315   83.692   38.101
 2844.5     13.005   81.474   35.839
 2845     12.778   79.256   35.849
 2845.5     12.608   77.038   35.947
 2846     12.652   75.072   36.114
 2846.5     12.696   77.159   36.282
 2847     12.709   79.51   34.86
 2847.5     12.711   82.214   34.007
 2848     12.713   84.919   34.532
 2848.5     12.715   84.979   35.684
 2849     12.717   84.761   38.131
 2849.5     12.719   84.543   39.169
 2850     12.721   84.095   39.736
 2850.5     12.723   83.636   39.968
 2851     12.725   82.919   40.201
 2851.5     12.727   81.966   39.902
 2852     12.73   80.119   38.967
 2852.5     12.732   78.115   38.408
 2853     12.734   76.112   38.905
 2853.5     12.734   75.909   38.462
 2854     12.692   75.419   37.272
 2854.5     12.65   75.095   37.97
 2855     12.609   74.867   38.99
 2855.5     12.567   74.283   39.853
 2856     12.525   73.281   40.139
 2856.5     12.484   72.765   39.975
 2857     12.442   73.31   38.406
 2857.5     12.4   73.854   36.837
 2858     12.359   74.399   35.268
 2858.5     12.317   74.754   36.808
 2859     12.276   74.55   39.916
 2859.5     12.269   73.375   44.168
 2860     12.262   72.372   45.416
 2860.5     12.256   72.04   45.485
 2861     12.249   71.796   45.495
 2861.5     12.242   72.466   44.256
 2862     12.236   73.084   42.861
 2862.5     12.231   72.79   42.211
 2863     12.232   72.495   42.221
 2863.5     12.233   71.85   44.995
 2864     12.233   71.036   49.776
 2864.5     12.234   70.24   54.506
 2865     12.235   69.941   58.802
 2865.5     12.236   69.641   59.521
 2866     12.237   69.325   58.318
 2866.5     12.237   68.845   55.592
 2867     12.238   68.366   52.866
 2867.5     12.239   67.887   50.518
 2868     12.24   67.872   50.054
 2868.5     12.241   67.891   49.59
 2869     12.241   67.91   50.492
 2869.5     12.242   68.091   51.418
 2870     12.243   68.892   52.4
 2870.5     12.244   69.827   54.544
 2871     12.245   70.772   56.688
 2871.5     12.245   71.725   59.328
 2872     12.246   72.763   65.205
 2872.5     12.247   72.415   71.082
 2873     12.248   71.68   78.166
 2873.5     12.239   70.896   85.103
 2874     12.225   70.082   86.233
