###############################################
##         ENVERUS                           ##
##         ESS - Open Hole                   ##
##         PERMIAN / DELAWARE                ##
##         Nov 03 2023  V4.0                 ##
##         42-109-32538-90-00                ##
###############################################
## Copyright 2017-2023  ENVERUS.  All Rights Reserved. 
## Confidential - Property of ENVERUS, use governed by terms and 
## conditions found within the existing Information Services Subscription Agreement 
## (as may be amended, the “ISSA”) between Customer and ENVERUS. 
## 
~VERSION INFORMATION
# MNEM.UNIT                               DATA : DESCRIPTION OF MNEMONIC
#-----.-----     ----------------------------- : -----------------------------
VERS.                                     2.00 : CWLS LOG ASCII STANDARD - VERSION 2.00
WRAP.                                       NO : MULTIPLE LINES PER DEPTH STEP
VEND.                                  ENVERUS : VENDOR
TYPE.                          ESS - OPEN HOLE : ENVERUS ESSENTIAL CURVES – ACCESSIBLE THROUGH ENVERUS PRISM(TM)
DOC.                                  51093252 : ENVERUS HEADER RAW DOCUMENT ID
#___________________________________________________________________________________________________ 
~WELL INFORMATION 
# oCCetX3e+0pvkDd8h//i1tmWwvIHyfHqsQII3M49Y6eU5HggNAlLoqtwY+vCuZvzOG9Fr+Tv1xe2vto6NUMufQ== 
# MNEM.UNIT                                              DATA : DESCRIPTION OF MNEMONIC 
#-----.-----                    ----------------------------- : ----------------------------- 
CNTY.                                               CULBERSON : COUNTY 
STATE.                                                  TEXAS : STATE 
CNTRY.                                                    USA : COUNTRY 
API.                                             42-109-32538 : API (10 Digit) 
API_14.                                    42-109-32538-90-00 : API (14 Digits) 
API_14_std.                                 42-109-32538-9000 : API (14 Digits Standard) 
UWI.                                           42109325389000 : UNIQUE WELL ID 
WELL.                                                  DRD_55 : WELL NAME
STRT.FT                                                2546.5 : START DEPTH
STOP.FT                                               11260.0 : STOP DEPTH
STEP.FT                                                   0.5 : STEP BETWEEN DEPTHS
NULL.                                                 -999.25 : NULL VALUE
PREV_APII.                                     42109325380000 : WELL IDENTIFIER
#___________________________________________________________________________________________________ 
~PARAMETER INFORMATION 
# MNEM.UNIT                                              DATA : DESCRIPTION OF MNEMONIC 
#-----.-----                    ----------------------------- : ----------------------------- 
EKB.FT                                                   3182 : ELEVATION ABOVE MSL
#___________________________________________________________________________________________________ 
~CURVE INFORMATION 
# MNEM.UNIT           : CURVE DESCRIPTION 
#-----.-----          : ----------------------------- 
 DEPT.FT               : MEASURED DEPTH 
 CALI.IN               : CALIPER (CAL - CALIPER) 
 GR.API                : GAMMA RAY (GAMMA RAY) 
 DT.US/FT              : SONIC DELTA TRANSIT TIME (SONIC) 
 RESS.OHMM             : SHALLOW INDUCTION RESISTIVITY (ILS - SHALLOW RESISTIVITY) 
 RESD.OHMM             : DEEP INDUCTION RESISTIVITY (ILD - DEEP RESISTIVITY) 
 DPHI.V/V              : DENSITY POROSITY (DENSITY POROSITY) 
 NPHI.V/V              : NEUTRON POROSITY (NEUTRON POROSITY) 
 RHOB.G/CC             : BULK DENSITY (DENSITY) 
 #___________________________________________________________________________________________________ 
~A         DEPT           CALI             GR             DT           RESS           RESD           DPHI           NPHI           RHOB
# ...
        10924.5          6.147        106.094         77.288         86.255         66.492        0.10081        0.15161         2.5590
        10925.0          6.146        100.190         75.841         73.257         59.754        0.09300        0.16197         2.5667
        10925.5          6.146         91.363         73.445         62.164         54.382        0.08706        0.14991         2.5741
        10926.0          6.145         91.000         70.773         61.475         54.382        0.08700        0.15084         2.5667
        10926.5          6.145         87.714         68.715         62.624         60.267        0.09397        0.14834         2.5589
        10927.0          6.144         71.863         66.945         65.308         74.849        0.09367        0.11585         2.5649
        10927.5          6.144         60.399         65.796        120.257        130.926        0.08545        0.09252         2.5711
        10928.0          6.143         55.169         65.358        177.559        217.825        0.08489        0.09623         2.5773
        10928.5          6.142         50.718         65.358        285.769        328.696        0.08871        0.09226         2.5834
        10929.0          6.142         75.119         65.963        323.877        401.670        0.07817        0.08197         2.5832
        10929.5          6.141        103.514         66.583        189.486        220.174        0.08489        0.07373         2.5732
        10930.0          6.141        114.096         67.612         95.580        150.688        0.09100        0.12465         2.5634
        10930.5          6.140        112.114         68.221         87.403        125.932        0.08514        0.18902         2.5612
        10931.0          6.140        111.531         68.221         80.584        102.187        0.09263        0.20105         2.5488
        10931.5          6.139        109.070         67.812         79.056         93.057        0.10081        0.19545         2.5500
        10932.0          6.139        106.410         67.167         77.874         86.136        0.09067        0.20013         2.5703
        10932.5          6.138        113.096         66.547         75.291         66.694        0.08227        0.20239         2.5890
        10933.0          6.138        104.259         65.767         65.501         49.850        0.07292        0.17419         2.5884
        10933.5          6.138         83.825         66.227         41.062         37.225        0.07998        0.13662         2.5822
        10934.0          6.135         65.285         67.257         35.319         33.818        0.07871        0.11183         2.5972
        10934.5          6.132         64.362         68.286         40.462         37.819        0.07019        0.10998         2.6108
        10935.0          6.130         69.278         69.796         49.563         48.314        0.06279        0.09881         2.6093
        10935.5          6.127         70.432         71.162         45.802         43.829        0.06772        0.10616         2.5861
        10936.0          6.124         75.746         72.191         34.747         33.148        0.07820        0.14864         2.5701
        10936.5          6.122         84.617         71.810         25.633         24.074        0.08525        0.14969         2.5610
        10937.0          6.119         84.745         70.781         23.392         19.338        0.09272        0.15207         2.5728
        10937.5          6.116         79.140         69.699         24.091         19.975        0.08485        0.15693         2.5796
        10938.0          6.114         78.761         68.314         28.500         25.164        0.07678        0.13433         2.5775
        10938.5          6.111         76.800         67.284         34.814         30.055        0.08202        0.09249         2.5791
        10939.0          6.108         73.678         66.255         40.546         35.910        0.07793        0.08590         2.6009
        10939.5          6.106         71.854         66.176         46.577         40.789        0.06655        0.09142         2.6275
        10940.0          6.103         69.359         65.424         43.678         39.255        0.04900        0.09512         2.6460
        10940.5          6.107         60.909         64.804         40.852         37.436        0.03608        0.08700         2.6521
        10941.0          6.125         56.813         63.774         41.034         40.028        0.03804        0.08237         2.6445
        10941.5          6.138         56.543         63.154         45.408         45.770        0.03804        0.08780         2.6354
        10942.0          6.138         55.167         62.904         55.798         57.243        0.04549        0.09088         2.6311
        10942.5          6.138         43.099         63.894         71.917         74.299        0.04954        0.09397         2.6426
        10943.0          6.147         52.634         65.115        100.709        124.461        0.04425        0.06395         2.6582
        10943.5          6.147         88.581         66.659        164.830        216.701        0.02938        0.09117         2.6721
        10944.0          6.145         92.749         67.800        212.465        302.163        0.02248        0.16264         2.6690
        10944.5          6.143         95.382         68.829        157.927        203.184        0.02163        0.16267         2.6376
        10945.0          6.142         97.556         68.629         70.928         76.416        0.05229        0.17202         2.6016
        10945.5          6.140         98.678         67.600         41.797         39.713        0.07938        0.16524         2.5933
        10946.0          6.138         52.148         65.738         27.879         29.333        0.07080        0.15465         2.6341
        10946.5          6.137         39.378         63.884         25.852         27.566        0.04984        0.09601         2.6652
        10947.0          6.135         41.383         61.840         35.668         36.839        0.02231        0.06568         2.6842
        10947.5          6.133         39.247         60.620         59.562         58.417        0.01507        0.06994         2.6902
        10948.0          6.131         38.853         59.591         90.466        115.451        0.01076        0.06749         2.6923
        10948.5          6.130         35.349         59.223         87.926        138.395        0.00950        0.06749         2.6930
        10949.0          6.128         32.537         59.278         82.892        126.497        0.01259        0.06749         2.6957
        10949.5          6.126         31.326         60.041         78.331        128.510        0.00929        0.06626         2.7008
        10950.0          6.125         30.886         60.927         90.396        152.122        0.00456        0.06503         2.7063
        10950.5          6.123         32.741         61.547         98.522        172.362        0.00120        0.06503         2.7052
        10951.0          6.121         32.906         62.577        101.204        186.736        0.00351        0.06626         2.6970
        10951.5          6.120         31.986         63.606        109.682        196.913        0.00642        0.06850         2.6863
        10952.0          6.123         36.807         65.044        118.362        218.589        0.01292        0.06913         2.6746
        10952.5          6.147         52.891         66.073        120.337        236.525        0.02049        0.07274         2.6574
        10953.0          6.147         55.605         67.102        111.645        193.045        0.03482        0.08221         2.6343
        10953.5          6.115         56.545         68.131         80.937        116.014        0.05316        0.07630         2.6228
