###############################################
##         ENVERUS                           ##
##         ESS - Open Hole                   ##
##         PERMIAN / DELAWARE                ##
##         Nov 03 2023  V4.0                 ##
##         42-109-32620-90-00                ##
###############################################
## Copyright 2017-2023  ENVERUS.  All Rights Reserved. 
## Confidential - Property of ENVERUS, use governed by terms and 
## conditions found within the existing Information Services Subscription Agreement 
## (as may be amended, the “ISSA”) between Customer and ENVERUS. 
## 
~VERSION INFORMATION
# MNEM.UNIT                               DATA : DESCRIPTION OF MNEMONIC
#-----.-----     ----------------------------- : -----------------------------
VERS.                                     2.00 : CWLS LOG ASCII STANDARD - VERSION 2.00
WRAP.                                       NO : MULTIPLE LINES PER DEPTH STEP
VEND.                                  ENVERUS : VENDOR
TYPE.                          ESS - OPEN HOLE : ENVERUS ESSENTIAL CURVES – ACCESSIBLE THROUGH ENVERUS PRISM(TM)
DOC.                                  51092896 : ENVERUS HEADER RAW DOCUMENT ID
#___________________________________________________________________________________________________ 
~WELL INFORMATION 
# mS4wxE9S4ErBCd3MEwtzWWb7vaBLyBp2a6hoNdhJ+t1pinRta8/5SsS3wr5CrR4pTncMCKeAGTUU45xlgh6yRQ== 
# MNEM.UNIT                                              DATA : DESCRIPTION OF MNEMONIC 
#-----.-----                    ----------------------------- : ----------------------------- 
CNTY.                                               CULBERSON : COUNTY 
STATE.                                                  TEXAS : STATE 
CNTRY.                                                    USA : COUNTRY 
API.                                             42-109-32620 : API (10 Digit) 
API_14.                                    42-109-32620-90-00 : API (14 Digits) 
API_14_std.                                 42-109-32620-9000 : API (14 Digits Standard) 
UWI.                                           42109326209000 : UNIQUE WELL ID 
WELL.                               42109326200000_PREV_API14 : WELL NAME
STRT.FT                                                2338.5 : START DEPTH
STOP.FT                                               10866.0 : STOP DEPTH
STEP.FT                                                   0.5 : STEP BETWEEN DEPTHS
NULL.                                                 -999.25 : NULL VALUE
PREV_APII.                                     42109326200000 : WELL IDENTIFIER
#___________________________________________________________________________________________________ 
~PARAMETER INFORMATION 
# MNEM.UNIT                                              DATA : DESCRIPTION OF MNEMONIC 
#-----.-----                    ----------------------------- : ----------------------------- 
EKB.FT                                                   3330 : ELEVATION ABOVE MSL
#___________________________________________________________________________________________________ 
~CURVE INFORMATION 
# MNEM.UNIT           : CURVE DESCRIPTION 
#-----.-----          : ----------------------------- 
 DEPT.FT               : MEASURED DEPTH 
 CALI.IN               : CALIPER (CAL - CALIPER) 
 GR.API                : GAMMA RAY (GAMMA RAY) 
 DT.US/FT              : SONIC DELTA TRANSIT TIME (PRESSURE WAVE SONIC) 
 #___________________________________________________________________________________________________ 
~A         DEPT           CALI             GR             DT
# ...
         7948.5          9.333         38.323         59.162
         7949.0          9.333         41.110         58.722
         7949.5          9.353         47.502         59.152
         7950.0          9.353         45.417         59.632
         7950.5          9.353         37.863         59.965
         7951.0          9.353         36.991         61.113
         7951.5          9.353         38.000         60.337
         7952.0          9.353         39.009         59.880
         7952.5          9.353         41.363         59.679
         7953.0          9.353         44.931         60.375
         7953.5          9.353         55.621         63.195
         7954.0          9.353         63.851         65.751
         7954.5          9.353         88.550         71.091
         7955.0          9.353        105.474         74.442
         7955.5          9.333        119.721         75.514
         7956.0          9.333        126.197         77.491
         7956.5          9.333        119.926         76.139
         7957.0          9.333        109.595         73.915
         7957.5          9.333        101.759         72.297
         7958.0          9.333         95.699         70.690
         7958.5          9.313         85.849         69.539
         7959.0          9.293         86.919         69.168
         7959.5          9.293         94.592         68.887
         7960.0          9.267         95.609         69.007
         7960.5          9.254         94.497         69.463
         7961.0          9.254         91.355         69.569
         7961.5          9.254         85.836         69.309
         7962.0          9.234         83.668         67.444
         7962.5          9.202         77.854         61.289
         7963.0          9.194         59.782         58.298
         7963.5          9.194         30.907         56.128
         7964.0          9.194         22.557         55.420
         7964.5          9.174         22.720         55.122
         7965.0          9.174         23.929         54.744
         7965.5          9.174         23.172         54.925
         7966.0          9.174         22.355         54.925
         7966.5          9.174         23.976         55.469
         7967.0          9.174         26.079         55.520
         7967.5          9.174         27.792         54.494
         7968.0          9.174         30.055         54.882
         7968.5          9.174         36.442         57.145
         7969.0          9.174         49.766         59.923
         7969.5          9.181         73.473         65.078
         7970.0          9.203         79.386         67.844
         7970.5          9.192         78.198         65.611
         7971.0          9.179         69.658         62.070
         7971.5          9.174         46.839         57.352
         7972.0          9.174         37.158         55.500
         7972.5          9.174         28.571         55.591
         7973.0          9.174         28.543         56.055
         7973.5          9.174         28.577         56.018
         7974.0          9.174         27.968         55.477
         7974.5          9.174         28.144         54.628
         7975.0          9.174         28.741         54.744
         7975.5          9.175         29.142         55.117
         7976.0          9.214         28.722         55.346
         7976.5          9.214         26.930         55.096
         7977.0          9.214         26.790         54.815
         7977.5          9.194         27.799         54.504
         7978.0          9.194         27.944         54.913
         7978.5          9.194         28.743         55.682
         7979.0          9.194         30.627         55.988
         7979.5          9.194         30.739         56.399
         7980.0          9.194         28.723         56.276
         7980.5          9.194         25.268         56.128
         7981.0          9.194         24.883         55.848
         7981.5          9.194         25.605         55.604
         7982.0          9.158         24.596         55.367
         7982.5          9.174         24.517         55.582
         7983.0          9.174         27.352         55.941
         7983.5          9.174         29.417         56.125
         7984.0          9.174         29.143         56.008
         7984.5          9.174         29.986         56.071
         7985.0          9.174         33.197         56.255
         7985.5          9.174         33.884         56.309
         7986.0          9.174         31.472         56.246
         7986.5          9.174         28.534         56.057
         7987.0          9.174         26.316         55.860
         7987.5          9.174         24.336         55.707
         7988.0          9.174         24.240         55.707
         7988.5          9.174         25.398         55.828
         7989.0          9.174         26.457         56.208
         7989.5          9.162         27.345         56.490
         7990.0          9.154         28.276         56.269
         7990.5          9.154         28.998         55.831
         7991.0          9.154         27.935         55.360
         7991.5          9.154         26.381         55.406
         7992.0          9.171         26.413         55.580
         7992.5          9.174         27.733         55.912
         7993.0          9.134         26.549         56.129
         7993.5          9.134         25.964         55.948
         7994.0          9.154         28.197         56.075
         7994.5          9.154         28.095         56.369
         7995.0          9.154         26.747         56.175
         7995.5          9.154         27.482         55.931
         7996.0          9.154         27.280         55.567
         7996.5          9.154         25.871         55.647
         7997.0          9.174         25.837         55.767
         7997.5          9.174         27.294         55.828
         7998.0          9.174         28.254         56.041
         7998.5          9.174         29.263         55.682
         7999.0          9.174         30.539         55.627
         7999.5          9.174         28.256         55.811
         8000.0          9.174         27.146         55.767
         8000.5          9.194         27.910         56.178
         8001.0          9.194         27.180         56.256
         8001.5          9.194         27.345         56.249
         8002.0          9.174         27.345         56.189
         8002.5          9.174         27.261         56.252
         8003.0          9.176         29.949         56.490
         8003.5          9.214         31.504         56.429
         8004.0          9.214         30.108         56.356
         8004.5          9.214         28.161         56.112
         8005.0          9.214         25.550         55.858
         8005.5          9.234         23.830         55.707
         8006.0          9.234         25.869         55.914
         8006.5          9.234         27.594         56.038
         8007.0          9.234         27.435         56.189
         8007.5          9.234         26.946         56.189
         8008.0          9.234         28.143         56.189
         8008.5          9.234         28.327         56.145
         8009.0          9.254         25.638         56.249
         8009.5          9.254         23.986         56.128
         8010.0          9.236         23.753         56.189
         8010.5          9.234         23.365         56.249
         8011.0          9.234         23.353         56.249
         8011.5          9.234         24.605         56.214
         8012.0          9.234         29.939         59.489
         8012.5          9.254         67.314         66.854
         8013.0          9.254        118.855         71.912
         8013.5          9.293        120.950         72.676
         8014.0          9.293        111.116         70.624
