~VERSION INFORMATION
VERS. 2.0 : CWLS Log ASCII Standard - version 2.0
WRAP.  NO : One line per depth step
#--------------------------------------------------#
#----------------DRILLING INFO, INC.---------------#
#---------------WWW.DRILLINGINFO.COM---------------#
#------------------COPYRIGHT 2015------------------#
#--------------------------------------------------#
#THIS FILE MAY BE USED ONLY IN ACCORDANCE WITH A CURRENT SUBSCRIPTION AGREEMENT BETWEEN
#THE USER AND DRILLING INFO, INC. NO PART OF THIS FILE MAY BE REPRODUCED, USED, COPIED,
#MODIFIED, PROPAGATED, OR DISTRIBUTED EXCEPT IN ACCORDANCE WITH THE SUBSCRIPTION
#AGREEMENT. UNAUTHORIZED USE OR DISTRIBUTION OF ALL OR ANY PART OF THIS FILE MAY VIOLATE
#COPYRIGHT, TRADEMARK, AND/OR OTHER LAWS AND IS SUBJECT TO CIVIL AS WELL AS CRIMINAL
#SANCTIONS.
#--------------------------------------------------#
#THIS FILE IS PROVIDED "AS-IS" AND ALL WARRANTIES ARE EXPRESSLY DISCLAIMED, WHETHER
#EXPRESS, ORAL, IMPLIED, STATUTORY OR OTHERWISE, INCLUDING ANY IMPLIED WARRANTY OF FITNESS
#FOR A PARTICULAR PURPOSE, MERCHANTABILITY, TITLE OR NON-INFRINGEMENT, AND ANY WARRANTIES
#ARISING BY VIRTUE OF CUSTOM OF TRADE OR COURSE OF DEALING.  FURTHER, DRILLING INFO,
#INC. AND ITS LICENSORS DO NOT REPRESENT OR WARRANT THAT THIS FILE WILL MEET USER'S
#REQUIREMENTS OR ARE SUITABLE FOR USER'S NEEDS OR THAT THE DATA OR RESULTS PROVIDED IN
#CONJUNCTION THEREWITH ARE CORRECT, ACCURATE, TIMELY OR RELIABLE. THESE DISCLAIMERS SHALL
#APPLY REGARDLESS OF ANY FAILURE OF ESSENTIAL PURPOSE OF ANY LIMITED REMEDY.  SOME
#JURISDICTIONS DO NOT ALLOW THE EXCLUSION OF CERTAIN WARRANTIES SO SOME OF THE ABOVE
#EXCLUSIONS MAY NOT APPLY. IN NO EVENT SHALL DRILLING INFO, INC. OR ANY OF ITS AFFILIATES
#BE LIABLE UNDER ANY LEGAL THEORY, WHETHER IN TORT (INCLUDING WITHOUT LIMITATION
#NEGLIGENCE), CONTRACT, STRICT LIABILITY, STATUTORY OR OTHERWISE, FOR ANY SPECIAL,
#INCIDENTAL, CONSEQUENTIAL, EXEMPLARY, PUNITIVE OR INDIRECT DAMAGE OF ANY KIND, INCLUDING
#WITHOUT LIMITATION LOSS OF REVENUE, PROFITS, GOODWILL, USE, AND/OR DATA OR THE COST OF
#PROCUREMENT OF SUBSTITUTE GOODS OR SERVICES, EVEN IF APPRISED OF THE POSSIBILITY OF SUCH
#DAMAGES IN ADVANCE.
#--------------------------------------------------#
~WELL INFORMATION
#MNEMONIC     .UNIT              VALUE :DESCRIPTION
#--------------------------------------------------#
STRT       .FT                0 :START DEPTH
STOP       .FT                10142 :STOP DEPTH
STEP       .FT                   0.500 :STEP
NULL       .                  -999.250 :NULL
API        .                421093138200 :API NUMBER
COMP       .         SHELL OIL COMPANY :COMPANY
WELL       .        SIBLEY  1 :WELL
DATE       .                08-Aug-1978 :LOG DATE
~CURVE INFORMATION
#MNEMONIC     .UNIT      API CODE :CURVE DESCRIPTION
#--------------------------------------------------#
DEPTH       .FT                      :Measured Depth
CAL.INCH        UNKNOWN   :CAL
DT.US/FT        UNKNOWN   :DT
GR.API        UNKNOWN   :GR
~A    DEPTH    CAL    DT    GR
# ...
 6674     9.747   53.09   48.161
 6674.5     9.754   53.392   42.55
 6675     9.761   53.694   37.216
 6675.5     9.768   53.996   37.483
 6676     9.775   55.716   40.022
 6676.5     9.782   57.608   43.313
 6677     9.786   59.499   45.24
 6677.5     9.787   61.35   47.166
 6678     9.787   59.638   50.645
 6678.5     9.787   57.925   55.325
 6679     9.788   56.212   60.006
 6679.5     9.788   54.499   60.728
 6680     9.788   52.787   52.79
 6680.5     9.789   52.371   44.851
 6681     9.789   52.643   40.407
 6681.5     9.79   52.915   38.38
 6682     9.79   53.35   36.352
 6682.5     9.79   54.661   38.081
 6683     9.791   55.972   40.764
 6683.5     9.791   57.283   43.448
 6684     9.791   57.497   46.132
 6684.5     9.792   57.201   48.815
 6685     9.792   56.905   48.831
 6685.5     9.792   56.609   48.587
 6686     9.793   56.313   48.343
 6686.5     9.793   56.128   49.648
 6687     9.793   55.809   52.731
 6687.5     9.794   54.953   55.545
 6688     9.794   54.24   53.205
 6688.5     9.795   53.988   50.865
 6689     9.795   53.736   48.525
 6689.5     9.795   53.484   46.185
 6690     9.796   53.345   43.968
 6690.5     9.796   53.336   42.116
 6691     9.796   53.328   40.264
 6691.5     9.797   53.32   38.769
 6692     9.795   53.312   38.769
 6692.5     9.791   53.304   38.769
 6693     9.788   53.296   39.69
 6693.5     9.784   53.288   41.33
 6694     9.78   53.296   42.971
 6694.5     9.777   53.481   44.514
 6695     9.773   53.667   43.991
 6695.5     9.77   53.853   43.467
 6696     9.766   54.023   42.944
 6696.5     9.762   53.931   44.258
 6697     9.759   53.838   46.457
 6697.5     9.755   53.746   45.025
 6698     9.752   53.653   43.593
 6698.5     9.748   53.607   42.16
 6699     9.744   53.587   40.728
 6699.5     9.741   53.566   40.461
 6700     9.737   53.381   41.7
 6700.5     9.734   52.799   42.94
 6701     9.73   52.218   44.18
 6701.5     9.731   52.226   45.419
 6702     9.733   52.46   45.285
 6702.5     9.736   52.695   44.282
 6703     9.738   52.929   43.28
 6703.5     9.741   55.6   42.278
 6704     9.743   59.508   41.275
 6704.5     9.745   63.416   40.273
 6705     9.748   67.324   44.24
 6705.5     9.75   71.232   59.041
 6706     9.775   74.811   80.526
 6706.5     9.822   74.631   107.012
 6707     9.87   74.451   106.601
 6707.5     9.917   74.271   106.19
 6708     9.964   74.091   105.779
 6708.5     9.977   73.947   105.368
 6709     9.959   73.977   104.957
 6709.5     9.941   74.007   104.546
 6710     9.923   74.037   102.664
 6710.5     9.905   74.067   100.78
 6711     9.887   70.061   98.441
 6711.5     9.869   64.049   94.431
 6712     9.852   58.546   84.48
 6712.5     9.834   61.513   72.245
 6713     9.836   64.48   60.009
 6713.5     9.845   67.447   47.773
 6714     9.854   70.415   52.665
 6714.5     9.863   73.382   70.82
 6715     9.871   76.349   89.647
 6715.5     9.88   76.453   100.72
 6716     9.889   75.956   102.933
 6716.5     9.898   75.46   105.113
 6717     9.906   74.964   106.939
 6717.5     9.915   74.467   105.276
 6718     9.924   71.554   101.173
 6718.5     9.923   67.185   95.377
 6719     9.9   62.145   78.193
 6719.5     9.876   57.768   61.546
 6720     9.853   61.091   55.486
 6720.5     9.829   64.415   49.425
 6721     9.806   67.739   43.364
 6721.5     9.782   71.062   46.88
 6722     9.759   72.28   59.981
 6722.5     9.735   70.591   73.082
 6723     9.712   68.903   81.14
 6723.5     9.688   67.215   77.69
 6724     9.665   65.527   74.239
 6724.5     9.641   63.838   70.789
 6725     9.618   63.25   70.766
 6725.5     9.595   63.22   71.724
 6726     9.572   62.735   71.362
 6726.5     9.583   61.66   69.561
 6727     9.594   60.586   67.761
 6727.5     9.604   59.631   67.119
 6728     9.615   60.003   66.51
 6728.5     9.626   60.374   65.901
 6729     9.637   60.212   65.292
 6729.5     9.647   59.825   64.839
 6730     9.622   59.516   65.28
 6730.5     9.585   60.303   65.721
 6731     9.549   61.09   66.602
 6731.5     9.512   61.877   68.534
 6732     9.475   61.395   70.467
 6732.5     9.439   60.723   72.399
 6733     9.402   59.482   69.1
 6733.5     9.365   58.136   64.655
 6734     9.36   56.789   60.211
 6734.5     9.383   56.874   55.766
 6735     9.406   57.859   55.958
 6735.5     9.429   58.843   56.938
 6736     9.452   60.449   57.918
 6736.5     9.475   63.503   60.913
 6737     9.498   66.556   65.652
 6737.5     9.521   69.476   70.39
 6738     9.544   67.857   75.128
 6738.5     9.568   66.238   79.867
 6739     9.591   64.62   81.058
 6739.5     9.602   63.001   72.499
 6740     9.596   63.206   63.939
 6740.5     9.589   64.74   55.379
 6741     9.583   66.275   57.201
 6741.5     9.576   65.673   64.012
 6742     9.57   63.71   70.822
 6742.5     9.563   61.748   71.159
 6743     9.557   59.785   67.866
 6743.5     9.55   57.822   64.574
 6744     9.544   56.136   63.004
 6744.5     9.537   58.124   62.142
 6745     9.531   60.113   57.911
 6745.5     9.524   62.101   52.049
 6746     9.518   62.432   58.077
 6746.5     9.511   62.319   63.329
 6747     9.505   62.206   64.746
 6747.5     9.522   62.092   66.163
 6748     9.542   61.979   66.203
 6748.5     9.562   61.866   65.506
 6749     9.582   61.593   64.81
 6749.5     9.603   60.635   64.113
 6750     9.623   59.678   61.611
 6750.5     9.636   59.075   58.879
 6751     9.626   59.392   56.182
 6751.5     9.617   59.709   58.674
 6752     9.607   60.026   61.167
 6752.5     9.597   60.343   63.659
 6753     9.587   60.021   66.151
 6753.5     9.578   59.195   67.641
 6754     9.568   58.413   67.471
 6754.5     9.558   58.081   64.689
 6755     9.548   57.748   59.559
 6755.5     9.539   57.668   54.429
 6756     9.529   57.917   49.298
 6756.5     9.519   58.167   48.061
 6757     9.51   58.417   51.849
 6757.5     9.511   58.886   55.636
 6758     9.526   59.763   59.424
 6758.5     9.542   60.641   63.211
 6759     9.558   61.518   66.999
 6759.5     9.574   62.396   70.786
 6760     9.59   62.063   73.333
 6760.5     9.606   61.39   74.026
 6761     9.622   60.914   74.72
 6761.5     9.638   61.009   71.223
 6762     9.654   61.105   66.864
 6762.5     9.67   61.201   68.65
 6763     9.686   61.296   68.686
 6763.5     9.702   61.392   67.377
 6764     9.718   61.487   66.067
 6764.5     9.733   61.583   64.757
 6765     9.749   61.678   66.22
 6765.5     9.765   60.606   67.903
 6766     9.781   59.091   68.521
 6766.5     9.797   57.665   64.412
 6767     9.813   58.821   60.303
 6767.5     9.829   59.978   58.342
 6768     9.845   60.762   58.987
 6768.5     9.861   60.547   59.632
 6769     9.879   60.331   58.975
 6769.5     9.904   60.116   56.02
 6770     9.93   60.407   53.064
 6770.5     9.955   61.235   56.882
 6771     9.981   62.062   67.665
 6771.5     10.006   62.89   69.8
 6772     10.031   63.718   71.258
 6772.5     10.057   64.545   72.36
 6773     10.082   65.373   73.574
 6773.5     10.107   65.492   74.978
 6774     10.133   65.611   76.382
 6774.5     10.158   65.73   77.293
 6775     10.183   65.85   77.885
 6775.5     10.209   66.825   78.476
 6776     10.234   67.8   80.826
 6776.5     10.259   68.775   83.703
 6777     10.285   68.966   86.58
 6777.5     10.31   68.746   85.438
 6778     10.329   68.526   83.791
 6778.5     10.315   68.306   82.144
 6779     10.3   68.299   83.508
 6779.5     10.285   68.722   85.487
 6780     10.255   69.145   87.466
 6780.5     10.226   69.567   89.446
 6781     10.196   69.99   91.425
 6781.5     10.167   70.091   93.404
 6782     10.137   69.882   93.967
 6782.5     10.107   69.673   92.54
 6783     10.078   69.463   91.357
 6783.5     10.05   69.254   91.093
 6784     10.039   69.045   90.83
 6784.5     10.028   68.842   89.713
 6785     10.018   69.163   88.414
 6785.5     10.007   69.485   87.586
 6786     9.996   69.906   92.365
 6786.5     9.985   72.16   97.144
 6787     9.974   73.844   101.406
 6787.5     9.963   73.752   101.607
 6788     9.952   73.659   101.808
 6788.5     9.941   73.567   102.009
