~Version Information
 VERS.                  2.0:   CWLS log ASCII Standard -VERSION 2.0
 WRAP.                   NO:   One line per depth step
~Well Information Block
#MNEM.UNIT     VALUE/NAME     DESCRIPTION
#---------     -----------    ---------------------------
 STRT.F              8400.0000: START DEPTH
 STOP.F             14661.0000: STOP DEPTH
 STEP.F                 0.5000: STEP DEPTH
 NULL.                 -999.25: NULL VALUE
 LOC .            42-109-33545:  LOCATION
 FL1 .            42-109-33545:  LOCATIONLINE1
 DMF .             Drill Floor:  DRILL MEAS FROM
 PDAT.                      GL:  PERMANENT DATUM
 CNTY.               CULBERSON:  COUNTY NAME
 FLD .              WOLFCAMP B:  FIELD NAME
 WELL.           DALE STATE 3H:  WELL NAME
 COMP.     CAPITAN ENERGY INC.:  COMPANY
 DATE.             12-Feb-2020:  DATE
 SVCO.             Halliburton:  SERVICECONAME
 PROV.                      TX:  PROVINCE
 STAT.                      TX:  STATE NAME
 HIDE.                        :  WELLNAMEOPERAT
 BASI.                 PERMIAN:  BASIN
 UWI .            42-109-33545:  UNIQUE WELL IDENTIFIER
 API .            42-109-33545:  API NUMBER
 RANG.                     N/A:  RANGE
 TOWN.                     N/A:  TOWNSHIP
 SECT.                     N/A:  SECTION
 SON .               906290460:  JOB NUMBER
 CTRY.                        :  COUNTRY
 SRVC.             Halliburton:  SERVICE COMPANY
 LMF .             Drill Floor:  LOG MEASURED FROM
 TVDS.ft             3291.0000:  TVDSS CORRECTN
 EGL .ft             3266.0000:  GROUND ELEVATION
 APD .ft               25.0000:  DEPTH ABOVE PD
 EPD .ft             3266.0000:  ELEVATION
 BAP .ft                0.0000:  GL ELEV ONSHORE
 GVFD.g                 1.0000:  GRAVITY FIELD
 EKB .ft             3291.0000:  KB ELEVATION
 EDF .ft             3291.0000:  DF ELEVATION
~Curve Information Block
#MNEM.UNIT                 API CODE     Curve Description
#---------               -----------    ---------------------------
 DEPT.F                 00 000 000 000:  Depth
 CCL .V                 00 000 000 000:  Casing Collar Locator
 NPHI_OH.pu             00 000 000 000:  NPHI_OH
 NPHI_CHI.decp          00 000 000 000:  NPHI_CHI
 GR_OH.api              00 000 000 000:  GR_OH
 GR_CHI.api             00 000 000 000:  GR_CHI
 RHOB_OH.g/cc           00 000 000 000:  RHOB_OH
 RHOB_CHI.g/cc          00 000 000 000:  RHOB_CHI
 PE_OH.NONE             00 000 000 000:  PE_OH
 PE_CHI.NONE            00 000 000 000:  PE_CHI
 LLS_CHI.ohmm           00 000 000 000:  LLS_CHI
 LLS_OH.ohmm            00 000 000 000:  LLS_OH
 LLD_OH.ohmm            00 000 000 000:  LLD_OH
 LLD_CHI.ohmm           00 000 000 000:  LLD_CHI
 DTC_OH.uspf            00 000 000 000:  DTC_OH
 DTC_CHI.uspf           00 000 000 000:  DTC_CHI
 SPHW_CHI.decp          00 000 000 000:  SPHW_CHI
#Other Information
#
#WARRANTY: Halliburton will use its best efforts to furnish customers with 
#accurate information and interpretations that are part of, and incident to, the services 
#provided.  However, Halliburton cannot and does not warrant the accuracy 
#or correctness of such information and interpretations.  Under no circumstances should any 
#such information or interpretation be relied upon as the sole basis for any drilling, 
#completion, production, or financial decision or any procedure involving any risk to the 
#safety of any drilling venture, drilling rig or its crew or any other third party.  The 
#Customer has full responsibility for all drilling, completion and production operation.  
#Halliburton makes no representations or warranties, either expressed or 
#implied, including, but not limited to, the implied warranties of merchantability or fitness 
#for a particular purpose, with respect to the services rendered.  In no event will 
#Halliburton be liable for failure to obtain any particular results or for 
#any damages, including, but not limited to, indirect, special or consequential damages, 
#resulting from the use of any information or interpretation provided by Halliburton.
#
~A    DEPT      CCL   NPHI_OH NPHI_CHI  GR_OH    GR_CHI  RHOB_OH RHOB_CHI  PE_OH  PE_CHI  LLS_CHI   LLS_OH    LLD_OH    LLD_CHI  DTC_OH  DTC_CHI SPHW_CHI 
# ...
   10891.0000  0.0000 -999.25   0.0747  -999.25  42.4151 -999.25   2.6131 -999.25 4.4419  259.5284   -999.25   -999.25  330.4780 -999.25 65.5343 0.1268
   10891.5000  0.0000 -999.25   0.0777  -999.25  40.1397 -999.25   2.6091 -999.25 4.3637  243.7094   -999.25   -999.25  307.9115 -999.25 64.4794 0.1194
   10892.0000  0.0000 -999.25   0.0813  -999.25  46.4947 -999.25   2.6045 -999.25 4.2769  226.0536   -999.25   -999.25  280.8621 -999.25 65.0867 0.1237
   10892.5000  0.0174 -999.25   0.0839  -999.25  51.1636 -999.25   2.6022 -999.25 4.2031  211.0848   -999.25   -999.25  260.0098 -999.25 65.4755 0.1264
   10893.0000  0.0000 -999.25   0.0820  -999.25  49.1116 -999.25   2.6081 -999.25 4.1717  191.8958   -999.25   -999.25  239.2540 -999.25 64.5308 0.1197
   10893.5000 -0.0136 -999.25   0.0811  -999.25  56.1498 -999.25   2.6129 -999.25 4.1352  174.7294   -999.25   -999.25  218.6447 -999.25 64.9759 0.1229
   10894.0000  0.0000 -999.25   0.0804  -999.25  61.2856 -999.25   2.6176 -999.25 4.1154  161.7276   -999.25   -999.25  203.8676 -999.25 65.7963 0.1287
   10894.5000  0.0297 -999.25   0.0800  -999.25  63.1964 -999.25   2.6213 -999.25 4.1068  150.8778   -999.25   -999.25  191.7439 -999.25 66.9314 0.1367
   10895.0000 -0.0125 -999.25   0.0820  -999.25  70.9249 -999.25   2.6203 -999.25 4.0782  143.1639   -999.25   -999.25  181.0254 -999.25 68.6572 0.1489
   10895.5000  0.0000 -999.25   0.0814  -999.25  69.3346 -999.25   2.6225 -999.25 4.0704  132.3950   -999.25   -999.25  168.3148 -999.25 69.0769 0.1519
   10896.0000  0.0415 -999.25   0.0826  -999.25  72.1151 -999.25   2.6214 -999.25 4.0347  121.0055   -999.25   -999.25  153.0550 -999.25 69.5276 0.1551
   10896.5000  0.0316 -999.25   0.0821  -999.25  60.2164 -999.25   2.6219 -999.25 4.0023  108.5127   -999.25   -999.25  137.9784 -999.25 68.0712 0.1448
   10897.0000  0.0172 -999.25   0.0852  -999.25  63.5510 -999.25   2.6183 -999.25 3.9344   97.8891   -999.25   -999.25  123.2825 -999.25 68.5362 0.1481
   10897.5000  0.0204 -999.25   0.0886  -999.25  61.8433 -999.25   2.6144 -999.25 3.8644   89.5199   -999.25   -999.25  112.0281 -999.25 68.6541 0.1489
   10898.0000  0.0000 -999.25   0.0929  -999.25  61.3527 -999.25   2.6102 -999.25 3.7753   80.1273   -999.25   -999.25   99.8031 -999.25 68.9409 0.1509
   10898.5000  0.0000 -999.25   0.0978  -999.25  63.7376 -999.25   2.6054 -999.25 3.6859   72.9156   -999.25   -999.25   90.3186 -999.25 69.5840 0.1555
   10899.0000 -0.0194 -999.25   0.1014  -999.25  62.5018 -999.25   2.6016 -999.25 3.6152   68.1446   -999.25   -999.25   84.1936 -999.25 69.5767 0.1554
   10899.5000  0.0280 -999.25   0.1043  -999.25  64.9735 -999.25   2.5977 -999.25 3.5629   66.4172   -999.25   -999.25   81.6579 -999.25 69.6212 0.1557
   10900.0000  0.0000 -999.25   0.1044  -999.25  63.8578 -999.25   2.5970 -999.25 3.5465   65.0154   -999.25   -999.25   79.9035 -999.25 69.3442 0.1538
   10900.5000  0.0120 -999.25   0.1031  -999.25  57.6713 -999.25   2.5972 -999.25 3.5453   63.8394   -999.25   -999.25   78.3970 -999.25 68.5497 0.1482
   10901.0000 -0.0398 -999.25   0.1029  -999.25  62.0974 -999.25   2.5963 -999.25 3.5578   66.6226   -999.25   -999.25   81.4795 -999.25 68.8075 0.1500
   10901.5000  0.0000 -999.25   0.1026  -999.25  59.8393 -999.25   2.5952 -999.25 3.5756   69.8326   -999.25   -999.25   85.0116 -999.25 68.6447 0.1488
   10902.0000  0.0428 -999.25   0.1025  -999.25  54.0634 -999.25   2.5942 -999.25 3.6011   74.3788   -999.25   -999.25   90.3287 -999.25 68.2465 0.1460
   10902.5000 -0.0202 -999.25   0.1056  -999.25  60.3921 -999.25   2.5895 -999.25 3.6002   82.3685   -999.25   -999.25   99.0743 -999.25 69.1728 0.1526
   10903.0000  0.0000 -999.25   0.1087  -999.25  64.2235 -999.25   2.5848 -999.25 3.5893   88.4602   -999.25   -999.25  105.4998 -999.25 69.8097 0.1571
   10903.5000  0.0336 -999.25   0.1067  -999.25  53.4555 -999.25   2.5876 -999.25 3.6141   87.5789   -999.25   -999.25  104.9740 -999.25 68.9676 0.1511
   10904.0000 -0.0269 -999.25   0.1078  -999.25  53.5550 -999.25   2.5867 -999.25 3.5969   86.3306   -999.25   -999.25  103.4096 -999.25 69.1168 0.1522
   10904.5000  0.0000 -999.25   0.1107  -999.25  64.7123 -999.25   2.5833 -999.25 3.5622   87.7877   -999.25   -999.25  104.8354 -999.25 69.9705 0.1582
   10905.0000  0.0664 -999.25   0.1112  -999.25  66.4450 -999.25   2.5823 -999.25 3.5475   86.7373   -999.25   -999.25  103.4674 -999.25 70.0167 0.1585
   10905.5000 -0.1303 -999.25   0.1090  -999.25  57.9196 -999.25   2.5843 -999.25 3.5663   85.1144   -999.25   -999.25  101.7842 -999.25 69.2259 0.1529
   10906.0000  0.0000 -999.25   0.1088  -999.25  63.6208 -999.25   2.5835 -999.25 3.5624   84.6751   -999.25   -999.25  100.8581 -999.25 69.5169 0.1550
   10906.5000  0.0168 -999.25   0.1066  -999.25  58.2171 -999.25   2.5868 -999.25 3.5814   81.5892   -999.25   -999.25   97.5809 -999.25 69.0238 0.1515
   10907.0000  0.0964 -999.25   0.1043  -999.25  55.3853 -999.25   2.5912 -999.25 3.5872   75.9333   -999.25   -999.25   91.5407 -999.25 68.6315 0.1487
   10907.5000  0.0000 -999.25   0.1049  -999.25  62.5969 -999.25   2.5928 -999.25 3.5673   72.3801   -999.25   -999.25   87.7160 -999.25 69.3006 0.1535
   10908.0000  0.0340 -999.25   0.1030  -999.25  57.6126 -999.25   2.5979 -999.25 3.5794   67.8245   -999.25   -999.25   83.2583 -999.25 68.8978 0.1506
   10908.5000  0.0392 -999.25   0.1024  -999.25  55.7848 -999.25   2.6007 -999.25 3.5852   65.5686   -999.25   -999.25   81.2150 -999.25 68.9268 0.1508
   10909.0000  0.0000 -999.25   0.1056  -999.25  64.5205 -999.25   2.5971 -999.25 3.5605   68.2227   -999.25   -999.25   84.2720 -999.25 69.7208 0.1564
   10909.5000  0.0163 -999.25   0.1044  -999.25  52.2277 -999.25   2.5976 -999.25 3.5605   67.8642   -999.25   -999.25   84.0846 -999.25 68.4481 0.1474
   10910.0000  0.0866 -999.25   0.1083  -999.25  63.5012 -999.25   2.5906 -999.25 3.5223   73.1219   -999.25   -999.25   89.4846 -999.25 69.1082 0.1521
   10910.5000 -0.0743 -999.25   0.1074  -999.25  59.2743 -999.25   2.5893 -999.25 3.5326   76.2445   -999.25   -999.25   93.0664 -999.25 68.5305 0.1480
   10911.0000  0.0000 -999.25   0.1068  -999.25  62.1819 -999.25   2.5892 -999.25 3.5457   79.1427   -999.25   -999.25   96.6555 -999.25 68.4713 0.1476
   10911.5000 -0.0497 -999.25   0.1055  -999.25  69.4515 -999.25   2.5907 -999.25 3.5695   81.9184   -999.25   -999.25  100.1715 -999.25 68.6950 0.1492
   10912.0000 -0.0316 -999.25   0.1018  -999.25  63.5463 -999.25   2.5957 -999.25 3.6216   82.6015   -999.25   -999.25  101.8365 -999.25 68.0395 0.1446
   10912.5000  0.0251 -999.25   0.0976  -999.25  56.7846 -999.25   2.6013 -999.25 3.6728   81.3240   -999.25   -999.25  101.2097 -999.25 67.1788 0.1385
   10913.0000  0.0155 -999.25   0.0951  -999.25  54.1653 -999.25   2.6046 -999.25 3.7088   81.3965   -999.25   -999.25  101.7684 -999.25 66.7749 0.1356
   10913.5000  0.0000 -999.25   0.0963  -999.25  58.4108 -999.25   2.6024 -999.25 3.7019   83.8307   -999.25   -999.25  104.1792 -999.25 67.2377 0.1389
   10914.0000  0.0000 -999.25   0.0966  -999.25  56.3875 -999.25   2.6012 -999.25 3.7005   84.7930   -999.25   -999.25  105.1445 -999.25 67.0596 0.1376
   10914.5000  0.0000 -999.25   0.1001  -999.25  62.3212 -999.25   2.5956 -999.25 3.6683   88.4072   -999.25   -999.25  108.2859 -999.25 67.9473 0.1439
   10915.0000 -0.0494 -999.25   0.1006  -999.25  57.9247 -999.25   2.5942 -999.25 3.6709   89.8553   -999.25   -999.25  109.7391 -999.25 67.7319 0.1424
   10915.5000 -0.0561 -999.25   0.1005  -999.25  52.1153 -999.25   2.5936 -999.25 3.6860   91.9504   -999.25   -999.25  112.0339 -999.25 67.3838 0.1399
   10916.0000  0.0000 -999.25   0.1023  -999.25  56.8275 -999.25   2.5900 -999.25 3.6792   95.6933   -999.25   -999.25  115.3768 -999.25 68.0731 0.1448
   10916.5000 -0.0312 -999.25   0.1025  -999.25  54.2669 -999.25   2.5896 -999.25 3.6777   94.8585   -999.25   -999.25  114.1943 -999.25 67.9451 0.1439
   10917.0000  0.0000 -999.25   0.1026  -999.25  52.9043 -999.25   2.5906 -999.25 3.6604   90.2932   -999.25   -999.25  108.9885 -999.25 67.9416 0.1439
