###############################################
##         ENVERUS                           ##
##         ESS - Open Hole                   ##
##         PERMIAN / DELAWARE                ##
##         Nov 02 2023  V4.0                 ##
##         42-109-32255-00-00                ##
###############################################
## Copyright 2017-2023  ENVERUS.  All Rights Reserved. 
## Confidential - Property of ENVERUS, use governed by terms and 
## conditions found within the existing Information Services Subscription Agreement 
## (as may be amended, the “ISSA”) between Customer and ENVERUS. 
## 
~VERSION INFORMATION
# MNEM.UNIT                               DATA : DESCRIPTION OF MNEMONIC
#-----.-----     ----------------------------- : -----------------------------
VERS.                                     2.00 : CWLS LOG ASCII STANDARD - VERSION 2.00
WRAP.                                       NO : MULTIPLE LINES PER DEPTH STEP
VEND.                                  ENVERUS : VENDOR
TYPE.                          ESS - OPEN HOLE : ENVERUS ESSENTIAL CURVES – ACCESSIBLE THROUGH ENVERUS PRISM(TM)
DOC.                                  22531479 : ENVERUS HEADER RAW DOCUMENT ID
#___________________________________________________________________________________________________ 
~WELL INFORMATION 
# hWe/832LbRsDOXT7erJRLf+k/AYA64twV/RtTeeHm/CkPExvlrAQ0qJE/El28xU0WYmlktkqeCNHArF5iUyCGg== 
# MNEM.UNIT                                              DATA : DESCRIPTION OF MNEMONIC 
#-----.-----                    ----------------------------- : ----------------------------- 
CNTY.                                               CULBERSON : COUNTY 
STATE.                                                  TEXAS : STATE 
CNTRY.                                                    USA : COUNTRY 
API.                                             42-109-32255 : API (10 Digit) 
API_14.                                    42-109-32255-00-00 : API (14 Digits) 
API_14_std.                                 42-109-32255-0000 : API (14 Digits Standard) 
UWI.                                           42109322550000 : UNIQUE WELL ID 
WELL.                               MELISSA TAYLOR STATE 27-1 : WELL NAME
STRT.FT                                                7612.0 : START DEPTH
STOP.FT                                               13645.5 : STOP DEPTH
STEP.FT                                                   0.5 : STEP BETWEEN DEPTHS
NULL.                                                 -999.25 : NULL VALUE
COMP.                                         PETRO-HUNT,LLC. : COMPANY 
FLD.                                                  WILDCAT : FIELD 
SRVC.                                            SCHLUMBERGER : SERVICE COMPANY 
DATE.                                              04/06/2006 : DATE 
TVD.                                                       NO : TVD FLAG
#___________________________________________________________________________________________________ 
~PARAMETER INFORMATION 
# MNEM.UNIT                                              DATA : DESCRIPTION OF MNEMONIC 
#-----.-----                    ----------------------------- : ----------------------------- 
RUN.                                                      ONE : RUN NUMBER 
PDAT.                                                      GL : PERMANENT DATUM 
EPD.FT                                               000.0000 : ELEVATION OF PERM. DATUM 
LMF.                                            KELLY BUSHING : LOG MEASURED FROM 
EKB.FT                                                 3796.6 : ELEVATION OF KELLY BUSHING 
DF.FT                                                  3773.0 : ELEVATION OF DERRICK FLOOR 
GL.FT                                                  3795.6 : ELEVATION OF GROUND LEVEL 
TD.FT                                              13716.0000 : TOTAL DEPTH 
BHT.DEGF                                               224.00 : BOTTOM HOLE TEMPERATURE 
BLI.FT                                             13716.0000 : BOTTOM LOG INTERVAL 
CSGSIZE.IN                                             9.6250 : CASING SIZE 
BITSIZE.IN                                              8.750 : BITSIZE 
CSGD.FT                                               12804.0 : CASING BOTTOM (DRILLER) 1 
CSGL.FT                                               12802.0 : CASING BOTTOM (LOGGER) 1 
MUD.                                                    BRINE : DRILLING FLUID TYPE 
MUDV.CP                                                  45.0 : DRILLING FLUID VISCOSITY 
MUDD.LB/USG                                               9.5 : DRILLING FLUID DENSITY 
PH.                                                      10.0 : DRILLING FLUID PH 
FL.ML/30MIN                                               5.0 : DRILLING FLUID LOSS 
MUDS.                                               CIRC TANK : MUD SAMPLE SOURCE 
RM.OHMM                                                 0.064 : RESISTIVITY OF MUD SAMPLE 
RMT.DEGF                                                66.00 : MUD SAMPLE TEMPERATURE 
RMF.OHMM                                                0.048 : MUD FILTRATE RESISTIVITY 
RMFT.DEGF                                               66.00 : MUD FILTRATE SAMPLE TEMPERATURE 
RMC.OHMM                                                0.095 : MUD CAKE RESISTIVITY 
RMCT.DEGF                                               66.00 : MUD CAKE SAMPLE TEMPERATURE 
RMB.OHMM                                                0.015 : MUD RESISTIVITY AT BHT 
TMAX.DEGF                                              224.00 : BOTTOM HOLE TEMPERATURE
#___________________________________________________________________________________________________ 
~CURVE INFORMATION 
# MNEM.UNIT           : CURVE DESCRIPTION 
#-----.-----          : ----------------------------- 
 DEPT.FT               : MEASURED DEPTH 
 DT__A.US/FT           : SONIC DELTA TRANSIT TIME (DELTA T COMP) 
 SPHI__A.V/V           : SONIC POROSITY (SONIC POROSITY) 
 #___________________________________________________________________________________________________ 
~A         DEPT          DT__A        SPHI__A
# ...
         9613.0         60.251        0.08900
         9613.5         59.667        0.08600
         9614.0         59.083        0.08200
         9614.5         58.499        0.07900
         9615.0         58.293        0.07600
         9615.5         57.892        0.07300
         9616.0         57.410        0.07000
         9616.5         57.410        0.07300
         9617.0         59.578        0.09300
         9617.5         63.460        0.11900
         9618.0         67.059        0.15600
         9618.5         69.936        0.16200
         9619.0         71.145        0.16500
         9619.5         70.542        0.15600
         9620.0         68.928        0.14400
         9620.5         67.281        0.13300
         9621.0         65.964        0.12600
         9621.5         63.330        0.11500
         9622.0         61.136        0.09800
         9622.5         59.096        0.08100
         9623.0         57.651        0.07000
         9623.5         58.012        0.07400
         9624.0         59.096        0.08500
         9624.5         60.283        0.09600
         9625.0         61.766        0.10700
         9625.5         63.248        0.11800
         9626.0         64.731        0.12800
         9626.5         66.214        0.13500
         9627.0         66.561        0.13400
         9627.5         66.106        0.13200
         9628.0         66.250        0.13000
         9628.5         66.051        0.12800
         9629.0         65.480        0.12500
         9629.5         64.569        0.12100
         9630.0         64.204        0.11900
         9630.5         64.103        0.11700
         9631.0         64.036        0.11600
         9631.5         63.795        0.11300
         9632.0         63.042        0.10900
         9632.5         62.289        0.10400
         9633.0         61.536        0.10000
         9633.5         60.783        0.09500
         9634.0         60.602        0.09000
         9634.5         60.443        0.09000
         9635.0         60.566        0.09500
         9635.5         61.444        0.10000
         9636.0         62.574        0.10600
         9636.5         62.317        0.10600
         9637.0         61.588        0.10100
         9637.5         61.013        0.09500
         9638.0         60.667        0.09200
         9638.5         60.324        0.09000
         9639.0         59.871        0.08800
         9639.5         59.346        0.08500
         9640.0         59.421        0.08300
         9640.5         59.708        0.09000
         9641.0         60.996        0.09800
         9641.5         62.284        0.10700
         9642.0         63.572        0.11500
         9642.5         64.860        0.12400
         9643.0         65.254        0.12200
         9643.5         64.341        0.11900
         9644.0         63.199        0.10800
         9644.5         62.056        0.09700
         9645.0         61.023        0.09200
         9645.5         61.084        0.10000
         9646.0         61.883        0.10600
         9646.5         63.313        0.11000
         9647.0         62.771        0.11000
         9647.5         61.867        0.10100
         9648.0         60.964        0.09400
         9648.5         60.060        0.08700
         9649.0         59.940        0.08800
         9649.5         60.281        0.09400
         9650.0         61.142        0.10100
         9650.5         61.972        0.10100
         9651.0         61.308        0.09500
         9651.5         60.147        0.08400
         9652.0         58.749        0.08000
         9652.5         58.864        0.08000
         9653.0         59.218        0.08200
         9653.5         59.552        0.08700
         9654.0         60.412        0.09200
         9654.5         61.265        0.09600
         9655.0         61.807        0.10000
         9655.5         62.349        0.10400
         9656.0         62.349        0.10100
         9656.5         61.265        0.09500
         9657.0         60.361        0.08700
         9657.5         59.940        0.08900
         9658.0         60.482        0.09300
         9658.5         61.024        0.09600
         9659.0         62.892        0.11000
         9659.5         64.759        0.12300
         9660.0         65.964        0.12900
         9660.5         65.843        0.12900
         9661.0         65.072        0.12600
         9661.5         63.843        0.11600
         9662.0         62.614        0.10700
         9662.5         61.024        0.09800
         9663.0         61.345        0.09900
         9663.5         62.229        0.10300
         9664.0         62.718        0.10700
         9664.5         63.072        0.10900
         9665.0         61.482        0.10000
         9665.5         59.819        0.08900
         9666.0         58.892        0.07800
         9666.5         57.765        0.07000
         9667.0         56.807        0.06500
         9667.5         56.566        0.06300
         9668.0         57.398        0.07200
         9668.5         58.319        0.07800
         9669.0         59.072        0.08300
         9669.5         59.699        0.08800
         9670.0         61.539        0.10500
         9670.5         63.415        0.12200
         9671.0         65.292        0.13600
         9671.5         67.169        0.14100
         9672.0         67.651        0.14200
         9672.5         67.784        0.14300
         9673.0         67.952        0.14400
         9673.5         68.116        0.14500
         9674.0         68.192        0.14100
         9674.5         67.066        0.13300
         9675.0         65.733        0.12500
         9675.5         64.401        0.11700
         9676.0         63.070        0.11000
         9676.5         61.739        0.10200
         9677.0         60.675        0.09500
         9677.5         61.090        0.09500
         9678.0         61.434        0.09600
         9678.5         61.344        0.09600
         9679.0         60.602        0.09300
         9679.5         59.860        0.08900
         9680.0         59.117        0.08500
         9680.5         58.375        0.08100
         9681.0         58.494        0.07800
         9681.5         58.855        0.08300
         9682.0         59.458        0.08800
         9682.5         60.060        0.08800
         9683.0         59.985        0.08800
         9683.5         59.970        0.08800
         9684.0         60.060        0.08700
         9684.5         60.060        0.08600
         9685.0         59.759        0.08600
         9685.5         59.458        0.08500
         9686.0         59.578        0.08600
         9686.5         59.699        0.08600
         9687.0         59.613        0.08500
         9687.5         59.527        0.08500
         9688.0         59.578        0.08600
         9688.5         59.716        0.08700
         9689.0         59.767        0.08700
         9689.5         59.812        0.08800
         9690.0         59.590        0.08700
         9690.5         59.472        0.08400
         9691.0         59.323        0.08200
         9691.5         59.033        0.08000
         9692.0         58.630        0.08400
         9692.5         59.454        0.08700
         9693.0         60.129        0.09000
         9693.5         60.783        0.09400
         9694.0         61.265        0.09600
         9694.5         60.361        0.09100
         9695.0         59.458        0.08500
         9695.5         59.137        0.08000
         9696.0         58.735        0.07900
         9696.5         58.253        0.07900
         9697.0         58.253        0.07900
         9697.5         58.574        0.08000
         9698.0         58.842        0.08100
         9698.5         59.110        0.08300
         9699.0         59.985        0.09000
         9699.5         61.265        0.10000
