~VERSION INFORMATION
 VERS.                2.0:   CWLS LOG ASCII STANDARD - VERSION 2.0
 WRAP.                 NO:   ONE LINE PER DEPTH STEP
~WELL INFORMATION
#MNEM.UNIT      DATA TYPE    INFORMATION
#----------   ------------   ------------------------------
 STRT.FT          68.0000:   START DEPTH
 STOP.FT        1517.0000:   STOP DEPTH
 STEP.FT           0.5000:   STEP LENGTH
 NULL.          -999.2500:   NULL VALUE
 COMP. LINCOLN ROCK CORPORATION:   COMPANY
 WELL.        HOLLER #602:   WELL
 FLD .            UNNAMED:   FIELD
 LOC .                   :   LOCATION
 CNTY.          CULBERSON:   COUNTY
 STAT.              TEXAS:   STATE
 CTRY. UNITED STATES OF AMERICA:   COUNTRY
 SRVC.           Gearhart:   SERVICE COMPANY
 DATE.        24-Jun-1984:   LOGDATE
 API .     42109317410000:   API NUMBER
~CURVE INFORMATION
#MNEM.UNIT       API CODE    CURVE DESCRIPTION
#----------   ------------   ------------------------------
 DEPT.F                  :   
 CALXS.IN    60 280 13 00:   CALIPER FROM X AXIS OF X-Y CALIPER(S) FROM SONIC LOG
 GRD .GAPI   45 310 01 00:   GAMMA RAY FROM DENSITY LOG
 GRS .GAPI   60 310 01 00:   GAMMA RAY FROM SONIC LOG
 TEND.LB     45 635 00 00:   TENSION FROM DENSITY LOG
 TENR.LB     11 635 00 00:   TENSION FROM RESISTIVITY LOG
 TENS.LB     60 635 00 00:   TENSION FROM SONIC LOG
 CALYD.IN    45 280 24 00:   CALIPER FROM X AXIS OF X-Y CALIPER(S) FROM DENSITY LOG
 CNS_LS.DEC  42 890 01 00:   COMPENSATED NEUTRON POROSITY
 CDL_LS.DEC  45 890 10 00:   COMPENSATED DENSITY POROSITY LIMESTONE
 RHOB.G/C3   45 350 01 00:   BULK DENSITY
 DRHO.G/C3   45 356 01 00:   BULK DENSITY CORRECTION
 GRR .GAPI   11 310 01 00:   GAMMA RAY FROM RESISTIVITY LOG
 RLLD.OHMM   11 220 10 00:   RAW LATEROLOG DEEP RESISTIVITY
 RLLS.OHMM   11 220 09 00:   RAW LATEROLOG SHALLOW RESISTIVITY
 DT  .US/F   60 500 00 00:   DELTA-T (INTERVAL TRANSIT TIME)
 SPHI.DEC    60 890 00 00:   SONIC POROSITY
~PARAMETER INFORMATION
#MNEM.UNIT          VALUE    DESCRIPTION
#----------   ------------   ------------------------------
 PD  .                 GL:   PERMANENT DATUM
 EPD .FT             3532:   ELEVATION PERMANENT DATUM
 LMF .                 GL:   LOG MEASURED FROM
 DMF .                RKB:   DRILLING MEASURED FROM
 EKB .FT             3544:   KELLY BUSHING
 EDF .FT             3543:   DRILLING FLOOR
 EGL .FT             3532:   GROUND LEVEL
 DATE.           06/24/84:   RUN DATE
 RUN .                  1:   RUN NUMBER
 DD  .FT             1502:   DEPTH DRILLER
 DL  .FT             1506:   DEPTH LOGGER
 BLI .FT             1505:   BOTTOM LOG INTERVAL
 TLI .FT               90:   TOP LOG INTERVAL
 CS  .IN              4.5:   CASING SIZE
 CBD .FT              101:   CASING BOTTOM DRILLER
 CBL .FT             1502:   CASING BOTTOM LOGGER
 BS  .IN            7.875:   BIT SIZE
 BSD .FT             1502:   BIT SIZE AT DEPTH
 DFT .          FRESH H2O:   DRILLING FLUID TYPE
 DFD .                8.4:   DRILLING FLUID DENSITY
 DFV .                 27:   DRILLING FLUID VISCOSITY
 DFPH.                 12:   DRILLING FLUID PH
 MSS .                PIT:   MUD SAMPLE SOURCE
 RMS .OHMM           2.32:   RESISTIVITY MUD SAMPLE
 MST .DEGF             77:   MUD SAMPLE TEMPERATURE
 RMF .OHMM           2.32:   RESISTIVITY MUD FILTRATE SAMPLE
 MFST.DEGF             77:   MUD FILTRATE SAMPLE TEMPERATURE
 MFSS.               MEAS:   MUD FILTRATE SAMPLE SOURCE
 TCS .HRS            0940:   TIME CIRCULATED STOPPED
 TLAB.HRS            1319:   TIME LOGGER AT BOTTOM
 MRT .DEGF            770:   MAXIMUM RECORDED TEMPERATURE
 LUN .               7583:   LOGGING UNIT NUMBER
 LUL .              HOBBS:   LOGGING UNIT LOCATION
 ENGI.             BRYANT:   RECORDING ENGINEER
 WITN.             BURROW:   WITNESSED BY
 CLNT.            :   CLIENT CODE
 ORIG.      1" 2.5" PRINT:   ORIGIN OF DATA
 UWI .     42109317410000:   UNIQUE WELL ID
 
~OTHER INFORMATION
~A   DEPT    CALXS        GRD        GRS       TEND       TENR       TENS      CALYD      CNS_LS     CDL_LS      RHOB       DRHO          GRR     RLLD       RLLS         DT       SPHI   
# ...
 1121.5000     8.1252    11.2141     9.1782  1084.3640   771.7241   879.3934     8.2345    -0.0061     0.2742     2.9287    -0.0245    10.3239  4514.5522  4487.9956    49.2309    -0.0209
 1122.0000     8.1251     9.6443     6.2646  1083.7129   766.0444   882.6786     8.2372    -0.0067     0.2696     2.9241    -0.0245     8.8589  2209.9905 16979.4141    49.4673    -0.0190
 1122.5000     8.1254     7.6332     4.8306  1083.0619   760.3638   878.4854     8.2248    -0.0074     0.2651     2.9241    -0.0245     7.6082  4129.6406 47181.5625    49.9862    -0.0148
 1123.0000     8.1253     6.4684     3.7833  1082.4109   765.6605   876.1492     8.2329    -0.0077     0.2606     2.9477    -0.0245     6.3575 13303.3730 77383.7188    50.3993    -0.0115
 1123.5000     8.1268     5.4162     4.6457  1069.6124   770.0133   871.9575     8.2282    -0.0084     0.2567     2.9580    -0.0265     5.1068 45188.3672 92884.1328    50.6388    -0.0095
 1124.0000     8.1066     4.8143     6.3465  1048.2368   762.7590   869.6213     8.2171    -0.0079     0.2578     2.9558    -0.0324     3.8462 54604.3320 90619.2656    50.7541    -0.0086
 1124.5000     8.1066     4.8860     6.9727  1069.9707   759.4670   865.4306     8.2296    -0.0074     0.2616     2.9521    -0.0364     3.3421 48388.7383 72072.9297    50.7707    -0.0085
 1125.0000     8.1058     4.8816     7.0895  1087.4128   772.0230   863.0960     8.2311    -0.0069     0.2646     2.9485    -0.0388     2.8340 41250.8398 53526.5938    50.7874    -0.0084
 1125.5000     8.1053     4.5801     7.1780  1088.1998   767.1909   858.9053     8.2190    -0.0069     0.2654     2.9448    -0.0347     2.5672 34112.9453 41879.5586    50.8034    -0.0081
 1126.0000     8.1045     4.3214     7.8996  1088.9855   760.0997   856.5740     8.2203    -0.0071     0.2562     2.9412    -0.0333     2.4603 29917.9063 37473.6484    50.8167    -0.0075
 1126.5000     8.1041     4.3449     6.1829  1089.7725   767.0078   856.3445     8.2216    -0.0074     0.2555     2.9403    -0.0296     2.3533 28424.3926 33067.7344    50.7570    -0.0082
 1127.0000     8.1032     3.9894     4.0355  1090.5593   773.9165   860.6122     8.2229    -0.0076     0.2548     2.9590    -0.0258     2.2463 33014.8867 32665.3164    50.6281    -0.0093
 1127.5000     8.1028     3.9228     2.3552  1091.3463   776.6636   863.0228     8.2242    -0.0079     0.2540     2.9627    -0.0224     2.1394 40660.4531 33945.4453    50.5666    -0.0101
 1128.0000     8.1018     4.0490     1.9164  1092.1320   776.6368   867.3785     8.2255    -0.0081     0.2540     2.9603    -0.0237     2.0324 48306.0234 35442.8516    50.4868    -0.0100
 1128.5000     8.1014     4.1750     3.5333  1092.9189   776.6106   870.0133     8.2268    -0.0083     0.2549     2.9578    -0.0248     1.9254 50313.1133 31987.2090    50.7121    -0.0091
 1129.0000     8.1006     3.8085     4.9507  1093.7058   776.5838   874.5030     8.2281    -0.0084     0.2561     2.9554    -0.0259     1.8219 43338.3320 27127.4238    50.7288    -0.0085
 1129.5000     8.1001     3.1136     6.3689  1094.4927   776.5577   877.1369     8.2293    -0.0081     0.2572     2.9524    -0.0306     1.9172 60999.2578 37182.9492    50.7455    -0.0087
 1130.0000     8.0965     2.4186     6.8597  1095.2784   776.6928   880.1290     8.2294    -0.0077     0.2560     2.9550    -0.0288     2.0096 89064.2109 57341.0117    50.7598    -0.0088
 1130.5000     8.0911     2.5529     5.5940  1096.0837   776.6667   904.0970     8.2247    -0.0073     0.2526     2.9583    -0.0269     2.1020 89482.1406 58059.5391    50.7647    -0.0089
 1131.0000     8.0918     3.7555     4.6622  1096.8707   776.8024   907.7478     8.2290    -0.0069     0.2509     2.9615    -0.0251     2.1943 69705.9375 42163.1367    50.7697    -0.0086
 1131.5000     8.0913     5.1746     6.4219  1097.6576   775.7555   931.6080     8.2251    -0.0065     0.2491     2.9648    -0.0233     2.6316 45508.0938 41174.1406    50.8456    -0.0083
 1132.0000     8.0867     6.3984     8.3841  1096.7855   768.7908   950.2552     8.2241    -0.0061     0.2545     2.9686    -0.0216     4.0756 21310.2500 28111.4863    51.0279    -0.0075
 1132.5000     8.0895     7.4356    10.4148  1089.2831   763.4727   949.4526     8.2325    -0.0058     0.2602     2.9614    -0.0219     5.7692  1951.9750 15048.8350    51.2103    -0.0056
 1133.0000     8.0922     8.1933    10.8229  1081.7794   769.4391   948.6488     8.2052    -0.0054     0.2659     2.9526    -0.0269     7.4629  1088.7646  1986.1823    51.3980    -0.0037
 1133.5000     8.0885     8.6871     9.4137  1074.2758   773.2053   952.2912     8.2156    -0.0050     0.2719     2.9423    -0.0319     8.5107   992.0660  1617.2218    51.4714    -0.0020
 1134.0000     8.0852     8.7515     8.1112  1066.7734   778.3668   955.6865     8.2219    -0.0046     0.2743     2.9364    -0.0369     7.7848  1378.3463  2100.6797    51.4542    -0.0017
 1134.5000     8.0908     8.4910     8.7010  1063.8123   778.0959   953.6545     8.2222    -0.0047     0.2749     2.9281    -0.0429     7.0590  1975.1564  5737.1016    51.4370    -0.0035
 1135.0000     8.0899     8.6909    11.0129  1079.0233   780.0293   956.0676     8.2225    -0.0049     0.2768     2.9244    -0.0427     6.6802  3022.7520  7344.6382    51.2813    -0.0038
 1135.5000     8.0962     9.4726    13.5559  1090.6938   779.7584   954.0354     8.2228    -0.0052     0.2808     2.9200    -0.0423     6.8792  3852.9514  7344.6382    51.1076    -0.0050
 1136.0000     8.1025    10.6026    13.2016  1088.2021   781.6915   952.0034     8.2231    -0.0055     0.2849     2.9156    -0.0419     7.5827  2462.2361  7344.6382    51.0982    -0.0062
 1136.5000     8.1015    11.5313    10.9337  1085.7104   781.4212   954.1234     8.2234    -0.0058     0.2882     2.9112    -0.0415     8.2862  1992.9132  4716.1387    50.9841    -0.0060
 1137.0000     8.1006    11.9350     8.9383  1083.2188   796.0731   956.1718     8.2237    -0.0061     0.2879     2.9068    -0.0412     8.9897  1353.9237  2087.6394    51.0078    -0.0057
 1137.5000     8.1069    12.2410     9.2202  1080.7269   779.4831   953.7736     8.2365    -0.0060     0.2852     2.9018    -0.0408     9.6932  1192.2426  2061.7986    51.0660    -0.0060
 1138.0000     8.1132    12.5470     9.9524  1078.2352   777.8120   951.1534     8.2327    -0.0059     0.2809     2.9027    -0.0385    10.3239  1272.8060  2061.7986    51.1241    -0.0052
 1138.5000     8.1123    12.8530    11.0768  1075.7434   773.9383   952.6410     8.2290    -0.0058     0.2766     2.9038    -0.0363     9.6510  2011.6165  4291.5918    51.0776    -0.0054
 1139.0000     8.1113    12.3093    11.2890  1073.2517   772.2659   954.1272     8.2253    -0.0057     0.2766     2.9111    -0.0357     9.1093  2970.6340  7013.8315    50.7577    -0.0084
 1139.5000     8.1176    11.7655    10.2642  1072.5933   768.3910   951.1707     8.2215    -0.0056     0.2789     2.9200    -0.0400     9.6741  5413.0098  9736.0713    50.2493    -0.0113
 1140.0000     8.1233    11.2217     8.9704  1074.6823   744.3071   948.8051     8.2288    -0.0055     0.2811     2.9182    -0.0443     9.6935  7855.3853 15771.8682    49.6124    -0.0143
 1140.5000     8.1348    10.6777     8.4396  1077.6731   744.2535   911.5396     8.2086    -0.0054     0.2812     2.9160    -0.0450     9.2580 11769.5723 22636.0547    49.4946    -0.0162
 1141.0000     8.1375    10.1339     9.2846  1080.6650   740.3804   911.4437     8.2035    -0.0053     0.2778     2.9119    -0.0414     8.8224 16691.1309 24320.2852    49.7228    -0.0168
 1141.5000     8.1407     9.5893    10.5581  1081.8425   748.0407   909.5036     8.2135    -0.0053     0.2744     2.9161    -0.0389     8.7045 18113.5742 24330.7422    49.7252    -0.0161
 1142.0000     8.1434     9.1656    11.7919  1084.8308   731.1924   909.4056     8.2230    -0.0052     0.2710     2.9207    -0.0364     8.7045 17954.4844 24344.7344    49.6146    -0.0155
 1142.5000     8.1466     8.7740    12.8868  1086.0081   740.9453   907.4654     8.2260    -0.0051     0.2686     2.9253    -0.0339     8.7045 17012.1563 21269.6816    49.3880    -0.0171
