~Version Information
 VERS.                  2.0:   CWLS log ASCII Standard -VERSION 2.0
 WRAP.                   NO:   One line per depth step
~Well Information Block
#MNEM.UNIT     VALUE/NAME     DESCRIPTION
#---------     -----------    ---------------------------
 STRT.F              8400.0000: START DEPTH
 STOP.F             13890.0000: STOP DEPTH
 STEP.F                 0.5000: STEP DEPTH
 NULL.                 -999.25: NULL VALUE
 LOC .     506' FEL & 344' FSL:  LOCATION
 FL6 .       API  42-109-33224:  LOCATIONLINE6
 FL4 .           ABSTRACT 4479:  LOCATIONLINE4
 FL3 .        T&P RR CO SURVEY:  LOCATIONLINE3
 FL2 .     SECTION 30, BLOCK 58 T2:  LOCATIONLINE2
 FL1 .     506' FEL & 344' FSL:  LOCATIONLINE1
 DMF .                      KB:  DRILL MEAS FROM
 PDAT.                      GL:  PERMANENT DATUM
 CNTY.               CULBERSON:  COUNTY NAME
 FLD .     FORD, WEST (WOLFCAMP):  FIELD NAME
 WELL.      LAUREN STATE 30 2H:  WELL NAME
 COMP.     CAPITAN ENERGY, INC.:  COMPANY
 DATE.             19-Feb-2018:  DATE
 SVCO.             Halliburton:  SERVICECONAME
 PROV.                   TEXAS:  PROVINCE
 STAT.                   TEXAS:  STATE NAME
 CTRY.                     USA:  COUNTRY NAME
 HIDE.                        :  WELLNAMEOPERAT
 BASI.                 PERMIAN:  BASIN
 UWI .            42-109-33224:  UNIQUE WELL IDENTIFIER
 API .            42-109-33224:  API NUMBER
 RANG.                     N/A:  RANGE
 TOWN.                     N/A:  TOWNSHIP
 SECT.                     N/A:  SECTION
 SON .               904646015:  JOB NUMBER
 SRVC.             Halliburton:  SERVICE COMPANY
 LMF .                      KB:  LOG MEASURED FROM
 EGL .ft             3168.0000:  GROUND ELEVATION
 BAP .ft                0.0000:  GL ELEV ONSHORE
 GVFD.g                 1.0000:  GRAVITY FIELD
 EKB .ft             3194.0000:  KB ELEVATION
 EDF .ft             3193.0000:  DF ELEVATION
~Curve Information Block
#MNEM.UNIT                 API CODE     Curve Description
#---------               -----------    ---------------------------
 DEPT.F                 00 000 000 000:  Depth
 CCL .V                 00 000 000 000:  Casing Collar Locator
 NPHI_OH.pu             00 000 000 000:  NPHI_OH
 NPHI_CHI.pu            00 000 000 000:  NPHI_CHI
 GR_OH.api              00 000 000 000:  GR_OH
 GR_CHI.api             00 000 000 000:  GR_CHI
 RHOB_OH.g/cc           00 000 000 000:  RHOB_OH
 RHOB_CHI.g/cc          00 000 000 000:  RHOB_CHI
 PE_OH.b/e              00 000 000 000:  PE_OH
 PE_CHI.b/e             00 000 000 000:  PE_CHI
 RT10_OH.ohmm           00 000 000 000:  RT10_OH
 RT10_CHI.ohmm          00 000 000 000:  RT10_CHI
 RT30_OH.ohmm           00 000 000 000:  RT30_OH
 RT30_CHI.ohmm          00 000 000 000:  RT30_CHI
 RT90_OH.ohmm           00 000 000 000:  RT90_OH
 RT90_CHI.ohmm          00 000 000 000:  RT90_CHI
 DTC_OH.uspf            00 000 000 000:  DTC_OH
 DTC_CHI.uspf           00 000 000 000:  DTC_CHI
 SPHI_CHI.pu            00 000 000 000:  SPHI_CHI
 SGF .cu                00 000 000 000:  Formation Sigma
 CRNF.NONE              00 000 000 000:  CM GrsCaptRatio
 RIN .NONE              00 000 000 000:  CM GrsInelRatio
#Other Information
#
#WARRANTY: Halliburton will use its best efforts to furnish customers with 
#accurate information and interpretations that are part of, and incident to, the services 
#provided.  However, Halliburton cannot and does not warrant the accuracy 
#or correctness of such information and interpretations.  Under no circumstances should any 
#such information or interpretation be relied upon as the sole basis for any drilling, 
#completion, production, or financial decision or any procedure involving any risk to the 
#safety of any drilling venture, drilling rig or its crew or any other third party.  The 
#Customer has full responsibility for all drilling, completion and production operation.  
#Halliburton makes no representations or warranties, either expressed or 
#implied, including, but not limited to, the implied warranties of merchantability or fitness 
#for a particular purpose, with respect to the services rendered.  In no event will 
#Halliburton be liable for failure to obtain any particular results or for 
#any damages, including, but not limited to, indirect, special or consequential damages, 
#resulting from the use of any information or interpretation provided by Halliburton.
#
~A    DEPT      CCL   NPHI_OH NPHI_CHI  GR_OH    GR_CHI  RHOB_OH RHOB_CHI  PE_OH  PE_CHI  RT10_OH  RT10_CHI RT30_OH  RT30_CHI RT90_OH  RT90_CHI DTC_OH  DTC_CHI SPHI_CHI   SGF    CRNF   RIN   
# ...
   12411.0000  0.0000 -999.25  12.4697  -999.25  94.9765 -999.25   2.5686 -999.25  3.6338  -999.25  31.0947  -999.25  29.1750  -999.25  31.6416 -999.25 69.9493  15.8100 24.8931 1.0173 1.0625
   12411.5000  0.0000 -999.25  12.6712  -999.25  97.8437 -999.25   2.5655 -999.25  3.6600  -999.25  30.1353  -999.25  28.1455  -999.25  30.7111 -999.25 70.1010  15.9100 24.5798 1.0095 1.0636
   12412.0000  0.0000 -999.25  12.3525  -999.25  93.7243 -999.25   2.5694 -999.25  3.6877  -999.25  29.8500  -999.25  27.9207  -999.25  30.5482 -999.25 69.7095  15.6400 24.4031 1.0036 1.0632
   12412.5000  0.0000 -999.25  11.9922  -999.25  89.4662 -999.25   2.5736 -999.25  3.7083  -999.25  31.0364  -999.25  29.1498  -999.25  31.8773 -999.25 69.3855  15.4100 24.2966 1.0097 1.0626
   12413.0000  0.0000 -999.25  12.2995  -999.25  96.7165 -999.25   2.5682 -999.25  3.7296  -999.25  31.6355  -999.25  29.6354  -999.25  32.3752 -999.25 69.8890  15.7600 24.2453 1.0159 1.0635
   12413.5000  0.0000 -999.25  11.9763  -999.25  93.1784 -999.25   2.5723 -999.25  3.7445  -999.25  31.9912  -999.25  30.0789  -999.25  32.8265 -999.25 69.5602  15.5300 24.2583 1.0192 1.0646
   12414.0000  0.0000 -999.25  11.2948  -999.25  80.3600 -999.25   2.5823 -999.25  3.7317  -999.25  32.5883  -999.25  30.8638  -999.25  33.7064 -999.25 68.6503  14.8900 24.1217 1.0122 1.0629
   12414.5000  0.0000 -999.25  11.2207  -999.25  77.3415 -999.25   2.5836 -999.25  3.7082  -999.25  33.8272  -999.25  32.1044  -999.25  35.0191 -999.25 68.5667  14.8300 24.0185 1.0032 1.0585
   12415.0000  0.0000 -999.25  11.3210  -999.25  77.9827 -999.25   2.5815 -999.25  3.6820  -999.25  37.4161  -999.25  35.6171  -999.25  38.6841 -999.25 68.8808  15.0500 23.7484 1.0042 1.0513
   12415.5000  0.0000 -999.25  11.1862  -999.25  77.5780 -999.25   2.5821 -999.25  3.6544  -999.25  43.2404  -999.25  41.5432  -999.25  44.6471 -999.25 69.1025  15.2100 23.6128 1.0127 1.0427
   12416.0000  0.0000 -999.25  11.4199  -999.25  83.9648 -999.25   2.5773 -999.25  3.6672  -999.25  46.8702  -999.25  45.1337  -999.25  48.2872 -999.25 69.6706  15.6100 23.3659 1.0205 1.0401
   12416.5000  0.0000 -999.25  11.0053  -999.25  76.9628 -999.25   2.5830 -999.25  3.6721  -999.25  46.8548  -999.25  45.2982  -999.25  48.5669 -999.25 69.1196  15.2200 23.1361 1.0246 1.0408
   12417.0000  0.0000 -999.25  11.2500  -999.25  78.8122 -999.25   2.5797 -999.25  3.6957  -999.25  44.8722  -999.25  43.0801  -999.25  46.5847 -999.25 69.2286  15.3000 22.9638 1.0216 1.0433
   12417.5000  0.0000 -999.25  11.3654  -999.25  78.7132 -999.25   2.5783 -999.25  3.7157  -999.25  42.5294  -999.25  40.6039  -999.25  44.2632 -999.25 69.1900  15.2700 22.8346 1.0208 1.0442
   12418.0000  0.0000 -999.25  11.3055  -999.25  76.6792 -999.25   2.5790 -999.25  3.7215  -999.25  42.2761  -999.25  40.3451  -999.25  44.1244 -999.25 69.0660  15.1800 22.8329 1.0200 1.0421
   12418.5000  0.0000 -999.25  11.4522  -999.25  79.9465 -999.25   2.5763 -999.25  3.7274  -999.25  43.7778  -999.25  41.7925  -999.25  45.6427 -999.25 69.3578  15.3900 22.7889 1.0171 1.0392
   12419.0000  0.0000 -999.25  11.3951  -999.25  79.1647 -999.25   2.5768 -999.25  3.7132  -999.25  45.9813  -999.25  44.0684  -999.25  47.9717 -999.25 69.3997  15.4200 22.7796 1.0156 1.0378
   12419.5000  0.0000 -999.25  11.4847  -999.25  80.8208 -999.25   2.5752 -999.25  3.7065  -999.25  47.7055  -999.25  45.7975  -999.25  49.7502 -999.25 69.6097  15.5700 22.8444 1.0144 1.0375
   12420.0000  0.0000 -999.25  11.4969  -999.25  81.8172 -999.25   2.5748 -999.25  3.7076  -999.25  48.5361  -999.25  46.6465  -999.25  50.5876 -999.25 69.6869  15.6200 22.8330 1.0132 1.0385
   12420.5000  0.0000 -999.25  10.7762  -999.25  70.3960 -999.25   2.5853 -999.25  3.7043  -999.25  47.6458  -999.25  46.1068  -999.25  50.0173 -999.25 68.7165  14.9300 22.9585 1.0137 1.0398
   12421.0000  0.0000 -999.25  11.1504  -999.25  76.9247 -999.25   2.5799 -999.25  3.7162  -999.25  47.1849  -999.25  45.4228  -999.25  49.2970 -999.25 69.1873  15.2700 22.9201 1.0143 1.0420
   12421.5000  0.0000 -999.25  10.6893  -999.25  69.6363 -999.25   2.5869 -999.25  3.7125  -999.25  46.1150  -999.25  44.5655  -999.25  48.3592 -999.25 68.5324  14.8000 22.8160 1.0127 1.0433
   12422.0000  0.0000 -999.25  11.0790  -999.25  75.9253 -999.25   2.5812 -999.25  3.7155  -999.25  46.4880  -999.25  44.7505  -999.25  48.5573 -999.25 69.0645  15.1800 22.6681 1.0109 1.0433
   12422.5000  0.0000 -999.25  11.5321  -999.25  83.2043 -999.25   2.5743 -999.25  3.7192  -999.25  47.4520  -999.25  45.5109  -999.25  49.3771 -999.25 69.6948  15.6300 22.4279 1.0069 1.0404
   12423.0000  0.0000 -999.25  11.3610  -999.25  80.9697 -999.25   2.5765 -999.25  3.7380  -999.25  46.7086  -999.25  44.8040  -999.25  48.7316 -999.25 69.4448  15.4500 22.2076 1.0004 1.0381
   12423.5000  0.0000 -999.25  11.5011  -999.25  83.9284 -999.25   2.5740 -999.25  3.7657  -999.25  45.9573  -999.25  43.9375  -999.25  47.9491 -999.25 69.6025  15.5600 22.0615 0.9971 1.0369
   12424.0000  0.0000 -999.25  11.5034  -999.25  85.2572 -999.25   2.5735 -999.25  3.7979  -999.25  44.7124  -999.25  42.6426  -999.25  46.6912 -999.25 69.5808  15.5500 21.9869 0.9973 1.0383
   12424.5000  0.0000 -999.25  11.1829  -999.25  81.9542 -999.25   2.5776 -999.25  3.8262  -999.25  43.8597  -999.25  41.9035  -999.25  45.9594 -999.25 69.1734  15.2600 22.0422 1.0040 1.0425
   12425.0000  0.0000 -999.25  11.3325  -999.25  85.3293 -999.25   2.5749 -999.25  3.8284  -999.25  45.5475  -999.25  43.5468  -999.25  47.6552 -999.25 69.4677  15.4700 22.1913 1.0114 1.0439
   12425.5000  0.0000 -999.25  10.9157  -999.25  78.3902 -999.25   2.5811 -999.25  3.8204  -999.25  45.8865  -999.25  44.0908  -999.25  48.2155 -999.25 68.9275  15.0800 22.3500 1.0138 1.0449
   12426.0000  0.0000 -999.25  11.4324  -999.25  84.8890 -999.25   2.5742 -999.25  3.7972  -999.25  45.9457  -999.25  43.9277  -999.25  48.0001 -999.25 69.5629  15.5300 22.4387 1.0146 1.0452
   12426.5000  0.0000 -999.25  12.0023  -999.25  92.0792 -999.25   2.5669 -999.25  3.7885  -999.25  43.3345  -999.25  41.0646  -999.25  45.0088 -999.25 70.1263  15.9300 22.4844 1.0125 1.0481
   12427.0000  0.0000 -999.25  12.1128  -999.25  93.2189 -999.25   2.5658 -999.25  3.7922  -999.25  40.9899  -999.25  38.6809  -999.25  42.5197 -999.25 70.1428  15.9400 22.4117 1.0147 1.0520
   12427.5000  0.0000 -999.25  11.7903  -999.25  87.7610 -999.25   2.5708 -999.25  3.7943  -999.25  39.8548  -999.25  37.6672  -999.25  41.4682 -999.25 69.6716  15.6100 22.3352 1.0173 1.0536
   12428.0000  0.0000 -999.25  11.2786  -999.25  80.0051 -999.25   2.5778 -999.25  3.7956  -999.25  40.9355  -999.25  38.9385  -999.25  42.8226 -999.25 69.0686  15.1800 22.2413 1.0156 1.0506
   12428.5000  0.0000 -999.25  11.1362  -999.25  77.0394 -999.25   2.5796 -999.25  3.7853  -999.25  42.5414  -999.25  40.6053  -999.25  44.6121 -999.25 68.9372  15.0900 22.1909 1.0132 1.0470
   12429.0000  0.0000 -999.25  11.5226  -999.25  82.6110 -999.25   2.5737 -999.25  3.7739  -999.25  44.6666  -999.25  42.5862  -999.25  46.7139 -999.25 69.5291  15.5100 22.2458 1.0080 1.0437
   12429.5000  0.0000 -999.25  11.9248  -999.25  89.6434 -999.25   2.5676 -999.25  3.7760  -999.25  45.7550  -999.25  43.5174  -999.25  47.6636 -999.25 70.1075  15.9200 22.3338 1.0063 1.0447
   12430.0000  0.0000 -999.25  11.8233  -999.25  88.6079 -999.25   2.5690 -999.25  3.7699  -999.25  46.8710  -999.25  44.7022  -999.25  48.8376 -999.25 70.0424  15.8700 22.4144 1.0066 1.0451
   12430.5000  0.0000 -999.25  11.3395  -999.25  82.0945 -999.25   2.5758 -999.25  3.7645  -999.25  48.0234  -999.25  46.1149  -999.25  50.2139 -999.25 69.5067  15.4900 22.3651 1.0091 1.0438
   12431.0000  0.0000 -999.25  11.0966  -999.25  78.5657 -999.25   2.5794 -999.25  3.7643  -999.25  47.4349  -999.25  45.6395  -999.25  49.6777 -999.25 69.1739  15.2600 22.2227 1.0106 1.0431
   12431.5000  0.0000 -999.25  11.5577  -999.25  86.0825 -999.25   2.5728 -999.25  3.7749  -999.25  46.6949  -999.25  44.6586  -999.25  48.6762 -999.25 69.7390  15.6600 22.0608 1.0087 1.0433
