~Version Information
 VERS.                  2.0:   CWLS log ASCII Standard -VERSION 2.0
 WRAP.                   NO:   One line per depth step
~Well Information Block
#MNEM.UNIT     VALUE/NAME     DESCRIPTION
#---------     -----------    ---------------------------
 STRT.F              8683.0000: START DEPTH
 STOP.F             14089.5000: STOP DEPTH
 STEP.F                 0.5000: STEP DEPTH
 NULL.                 -999.25: NULL VALUE
 LOC .       API  42-109-32906:  LOCATION
 FL1 .       API  42-109-32906:  LOCATIONLINE1
 DMF .                      KB:  DRILL MEAS FROM
 PDAT.                      GL:  PERMANENT DATUM
 PROV.                   TEXAS:  PROVINCE
 STAT.                   TEXAS:  STATE NAME
 CNTY.               CULBERSON:  COUNTY NAME
 LUL .                  ODESSA:  LOGGINGUNITLOC
 FLD .     FORD, WEST (WOLFCAMP):  FIELD NAME
 WELL.     SHELLY FEE 40 No. 2H:  WELL NAME
 COMP.     CAPITAN ENERGY, INC.:  COMPANY
 DATE.             08-Jun-2018:  DATE
 SVCO.             Halliburton:  SERVICECONAME
 HIDE.                        :  WELLNAMEOPERAT
 BASI.                   BACIA:  BASIN
 UWI .            42-109-32906Lat:  UNIQUE WELL IDENTIFIER
 API .            42-109-32906Lat:  API NUMBER
 RANG.                     N/A:  RANGE
 TOWN.                     N/A:  TOWNSHIP
 SECT.                     N/A:  SECTION
 SON .               902848974:  JOB NUMBER
 CTRY.                        :  COUNTRY
 SRVC.             Halliburton:  SERVICE COMPANY
 LMF .                      KB:  LOG MEASURED FROM
 BAP .ft                0.0000:  GL ELEV ONSHORE
 GVFD.g                 1.0000:  GRAVITY FIELD
~Curve Information Block
#MNEM.UNIT                 API CODE     Curve Description
#---------               -----------    ---------------------------
 DEPT.F                 00 000 000 000:  Depth
 CCL .mV                00 000 000 000:  Casing Collar Locator
 DTC_CHI.uspf           00 000 000 000:  DTC_CHI
 DTC_OH.uspf            00 000 000 000:  DTC_OH
 GR_CHI.api             00 000 000 000:  GR_CHI
 GR_OH.api              00 000 000 000:  GR_OH
 LLD_CHI.ohmm           00 000 000 000:  LLD_CHI
 LLD_OH.ohmm            00 000 000 000:  LLD_OH
 LLS_CHI.ohmm           00 000 000 000:  LLS_CHI
 LLS_OH.ohmm            00 000 000 000:  LLS_OH
 MSFL_CHI.ohmm          00 000 000 000:  MSFL_CHI
 MSFL_OH.ohmm           00 000 000 000:  MSFL_OH
 NPHI_CHI.pu            00 000 000 000:  NPHI_CHI
 NPHI_OH.pu             00 000 000 000:  NPHI_OH
 PE_CHI.b/e             00 000 000 000:  PE_CHI
 PE_OH.NONE             00 000 000 000:  Pe_OH
 RHOB_CHI.g/cc          00 000 000 000:  RHOB_CHI
 RHOB_OH.g/cc           00 000 000 000:  RHOB_OH
 SPHI_CHI.pu            00 000 000 000:  SPHI_CHI
#Other Information
#
#WARRANTY: Halliburton will use its best efforts to furnish customers with 
#accurate information and interpretations that are part of, and incident to, the services 
#provided.  However, Halliburton cannot and does not warrant the accuracy 
#or correctness of such information and interpretations.  Under no circumstances should any 
#such information or interpretation be relied upon as the sole basis for any drilling, 
#completion, production, or financial decision or any procedure involving any risk to the 
#safety of any drilling venture, drilling rig or its crew or any other third party.  The 
#Customer has full responsibility for all drilling, completion and production operation.  
#Halliburton makes no representations or warranties, either expressed or 
#implied, including, but not limited to, the implied warranties of merchantability or fitness 
#for a particular purpose, with respect to the services rendered.  In no event will 
#Halliburton be liable for failure to obtain any particular results or for 
#any damages, including, but not limited to, indirect, special or consequential damages, 
#resulting from the use of any information or interpretation provided by Halliburton.
#
~A    DEPT       CCL    DTC_CHI DTC_OH   GR_CHI   GR_OH   LLD_CHI   LLD_OH   LLS_CHI   LLS_OH   MSFL_CHI  MSFL_OH     NPHI_CHI   NPHI_OH   PE_CHI    PE_OH   RHOB_CHI  RHOB_OH SPHI_CHI 
    8683.0000    0.0000 68.8446 70.4733  98.3406  79.4389  65.7784   54.8666  62.3212   47.2199  31.1011    28.3161      10.8281 11.2400     3.3195  3.4358     2.5639  2.5768 15.0200
    8683.5000   24.5361 68.4234 71.3218  63.5075  79.6149  70.6255   54.3397  68.7612   46.7885  33.3419    19.3462      10.3991 11.4600     3.4084  3.2397     2.5756  2.5695 14.7300
    8684.0000 -186.8281 69.3153 74.4742  58.3822  77.9731  68.0221   52.8129  67.4109   46.5017  31.9797    20.3882      10.7894 12.6600     3.3932  3.1429     2.5700  2.5635 15.3600
    8684.5000   52.7932 70.1991 75.8727  67.7677  77.6483  62.1735   64.3182  61.7741   57.7968  29.3178    24.1157      11.2742 12.9900     3.3315  3.2155     2.5611  2.5557 15.9800
    8685.0000  -27.2933 70.8474 75.6656  74.7758  81.1670  57.5933   64.7493  57.2775   57.7390  27.2562    25.6665      11.6344 12.4300     3.2857  3.3108     2.5546  2.5571 16.4400
    8685.5000  -12.0400 71.3903 75.7894  88.3635  85.0176  54.9948   51.3938  54.2953   43.7606  26.0960    15.8372      12.0935 12.7300     3.2384  3.3135     2.5469  2.5596 16.8200
    8686.0000   -2.1583 70.9965 76.0382  94.9810  89.4035  51.9015   51.3402  50.1429   43.6645  24.9533    10.8041      12.1158 12.9800     3.1928  3.1675     2.5474  2.5393 16.5500
    8686.5000   -2.1515 70.1239 73.8236  94.7097  96.4535  49.6835   59.2067  46.8894   47.9025  24.3394     8.0374      11.9126 13.1300     3.1685  2.9114     2.5533  2.5195 15.9300
    8687.0000   -2.1413 69.1944 70.9798  93.1417  96.0759  52.7914   59.7418  49.2352   48.4720  25.9599     8.6759      11.5240 13.6300     3.1982  2.7964     2.5603  2.5261 15.2700
    8687.5000   -2.1311 68.6122 68.0049  85.8768  85.0084  67.4563   66.6700  64.5379   53.6150  32.2158    13.8911      10.7835 12.7100     3.3594  2.9593     2.5688  2.5376 14.8600
    8688.0000   -2.1226 66.7249 66.0111  47.8735  64.4771 105.3686  153.9746 105.2152  128.0499  48.7241    39.0546       9.1632 12.8400     3.8065  3.2585     2.6010  2.5706 13.5300
    8688.5000   -2.1124 65.2818 64.3873  33.1532  48.0897 136.9892  182.2773 134.7559  145.4975  60.4808   174.9639       7.8585 10.8800     4.0296  3.5245     2.6220  2.6271 12.5000
    8689.0000   -2.1022 65.3288 63.7093  35.8655  50.8975 144.9492  180.5607 142.8970  141.9119  63.3610    95.8813       7.7474  8.1200     4.0830  3.5005     2.6230  2.6517 12.5400
    8689.5000   -2.0886 65.7260 63.8199  44.9587  62.9341 136.7195  169.4491 134.6850  126.0804  59.8364    50.7640       7.9423  9.1200     4.0092  3.1762     2.6170  2.6277 12.8200
    8690.0000   -2.0784 66.8557 65.4274  63.8985  69.9277 117.1348  157.6919 115.5057  119.7512  51.4743    57.0948       8.6298  9.5700     3.8249  3.0130     2.6003  2.5836 13.6200
    8690.5000   -2.0682 68.2124 67.3039  76.2412  62.4036 104.5626  134.1015 104.2720  102.5093  46.0333   127.2299       9.5229  9.2100     3.6924  3.2238     2.5828  2.5841 14.5800
    8691.0000   -2.0597 69.5333 68.9606  89.1315  56.3568  84.8439  132.0466  83.8114  101.7488  37.2531   124.2451      10.2675  8.1200     3.4613  3.4757     2.5637  2.6200 15.5100
    8691.5000   -2.0495 71.2358 69.3129 103.0853  73.0059  63.2526  126.6127  62.3049   99.6190  28.5406    29.0314      11.4505 10.7600     3.2564  3.3655     2.5431  2.6095 16.7200
    8692.0000   -2.0393 71.5090 69.6222 100.8025  89.0074  48.9557  112.2925  47.6039   83.9317  23.1368    26.3825      11.9679 13.3500     3.1508  3.0259     2.5410  2.5675 16.9100
    8692.5000   -2.0291 71.8851 71.8226 104.8038  81.6504  42.1466  110.2202  40.4811   94.7897  20.5303    61.0449      12.5835 12.1200     3.0978  2.9745     2.5383  2.5614 17.1700
    8693.0000   -2.0205 71.5155 73.4247 100.3992  72.5716  42.0030  106.1139  40.0429   92.5233  20.7393   125.6836      12.6047 10.8900     3.1078  3.2006     2.5430  2.5840 16.9100
    8693.5000   -2.0103 70.8469 73.1316  91.4658  77.6002  47.1233  104.0150  45.1761   91.9010  23.0943    56.3596      12.1606 10.0600     3.1643  3.2023     2.5499  2.5841 16.4400
    8694.0000   -2.0001 70.0972 72.5607  86.4245  88.6815  56.2352   82.5761  54.2858   70.4484  26.9107    30.3801      11.5139 10.6500     3.2407  2.9422     2.5560  2.5658 15.9100
    8694.5000   -1.9865 69.4991 72.7383  84.6027  95.5274  68.1507   74.1420  66.3557   60.4881  31.6673    23.8948      10.8893 11.7100     3.3425  2.8380     2.5619  2.5558 15.4900
    8695.0000   -1.9763 68.7688 72.2890  81.8220  96.1871  82.5518   81.1749  81.0009   67.2052  37.4776    25.9122      10.2177 12.4700     3.4828  2.9749     2.5713  2.5500 14.9700
    8695.5000   -1.9661 68.2817 71.5983  78.4145  83.9447  94.0507   81.5448  92.9099   67.3879  42.1207    39.8559       9.7530  9.7700     3.6010  3.2010     2.5793  2.5638 14.6300
    8696.0000   -1.9559 67.7205 70.1308  67.2500  62.0849 100.8720   97.2537  99.6002   79.5985  44.7880    95.3700       9.3482  8.9400     3.6604  3.5520     2.5871  2.6125 14.2300
    8696.5000   -1.9474 67.3089 69.3217  58.8903  55.5767 103.5502   94.4215 102.1009   87.3419  46.0442    57.2752       9.1457  8.8000     3.6909  3.9203     2.5922  2.6490 13.9400
    8697.0000   -1.9372 69.2608 69.9977  96.0490  70.4466  87.5368   73.0269  86.7596   61.4111  39.4299    15.5162      10.4193 10.0000     3.5361  3.8883     2.5667  2.6235 15.3200
    8697.5000   -1.9270 70.4070 70.6217 112.5405  93.6051  77.4836   71.4472  76.2844   59.4399  35.0354    10.8367      11.2516 12.9700     3.4103  3.3915     2.5510  2.5653 16.1300
    8698.0000   -1.9185 70.4100 70.7896 102.9500 102.0020  77.3639   68.6868  76.6753   56.9152  35.0498    14.8278      11.2585 12.9800     3.4096  2.9586     2.5524  2.5290 16.1300
    8698.5000   -1.9083 69.5859 70.7318  93.5318  85.9477  86.5662   90.2686  86.2309   82.1195  38.8539    25.7792      10.6043 11.4400     3.5137  2.9324     2.5634  2.5251 15.5500
    8699.0000   -1.8981 67.4177 70.4116  54.8990  64.7725 103.0618   92.2552 101.9336   86.2933  45.7665    24.7941       9.2364  7.3400     3.6806  3.1544     2.5911  2.5618 14.0200
    8699.5000   -1.8845 66.9430 68.9491  49.0618  59.7534 104.6213   91.9706 102.8783   86.1104  46.5452    19.5921       8.9832  6.3600     3.7003  3.2976     2.5964  2.6023 13.6800
    8700.0000   -1.8743 67.7399 69.2377  64.0662  71.2361  94.5286   89.8528  92.9761   84.8599  42.4088    13.8491       9.4833  8.3200     3.6052  3.1473     2.5856  2.5962 14.2400
    8700.5000   -1.8640 68.8914 69.8931  84.8375  83.3926  83.6045   75.0095  82.0954   67.0354  37.6853    19.2649      10.2061 11.6100     3.4847  2.8949     2.5700  2.5779 15.0600
    8701.0000   -1.8538 69.2858 70.0504  90.8163  84.8485  81.1883   71.5964  79.7500   67.3471  36.5552    37.2233      10.4376 12.0300     3.4533  2.9035     2.5650  2.5760 15.3400
    8701.5000   -1.8453 68.4512 70.0256  71.6375  77.2609  86.4619   73.8771  84.9291   68.9029  38.7270    75.6787       9.8618 10.4100     3.5098  3.2538     2.5762  2.5856 14.7500
    8702.0000   -1.8351 67.4918 69.3393  56.4050  70.8715  96.6844   74.0608  94.7054   69.0738  42.8205    40.3713       9.2169  9.6200     3.6051  3.6589     2.5886  2.5901 14.0700
    8702.5000   -1.8249 67.6685 68.8959  66.7072  69.1983  98.7605   78.6393  96.7965   73.9541  43.5374    34.4287       9.2419  9.9100     3.6210  3.8736     2.5867  2.5859 14.1900
    8703.0000   -1.8164 68.2479 68.0034  81.5827  67.6010  96.8578   84.0603  95.2439   79.6532  42.6411    37.4574       9.5294  9.7900     3.6035  4.0045     2.5797  2.5913 14.6000
    8703.5000   -1.8062 68.6123 67.4037  83.9902  66.1474  95.8017   96.3396  94.6606   89.7020  42.0967    37.6215       9.7413  9.3400     3.5879  4.0950     2.5757  2.5970 14.8600
    8704.0000   -1.7960 68.6733 68.1176  76.3408  64.9222  96.0388   96.7508  95.5422   90.2498  42.3530    40.3907       9.8583  8.8100     3.5928  4.1425     2.5758  2.5952 14.9000
    8704.5000   -1.7858 68.2191 68.7904  64.2337  60.5757  95.9148   97.4666  95.0733   97.6653  42.4459    21.7420       9.6487  8.8800     3.5951  4.2869     2.5811  2.5953 14.5800
