~VERSION INFORMATION
VERS. 2.0 : CWLS Log ASCII Standard - version 2.0
WRAP.  NO : One line per depth step
#--------------------------------------------------#
#----------------DRILLING INFO, INC.---------------#
#---------------WWW.DRILLINGINFO.COM---------------#
#------------------COPYRIGHT 2015------------------#
#--------------------------------------------------#
#THIS FILE MAY BE USED ONLY IN ACCORDANCE WITH A CURRENT SUBSCRIPTION AGREEMENT BETWEEN
#THE USER AND DRILLING INFO, INC. NO PART OF THIS FILE MAY BE REPRODUCED, USED, COPIED,
#MODIFIED, PROPAGATED, OR DISTRIBUTED EXCEPT IN ACCORDANCE WITH THE SUBSCRIPTION
#AGREEMENT. UNAUTHORIZED USE OR DISTRIBUTION OF ALL OR ANY PART OF THIS FILE MAY VIOLATE
#COPYRIGHT, TRADEMARK, AND/OR OTHER LAWS AND IS SUBJECT TO CIVIL AS WELL AS CRIMINAL
#SANCTIONS.
#--------------------------------------------------#
#THIS FILE IS PROVIDED "AS-IS" AND ALL WARRANTIES ARE EXPRESSLY DISCLAIMED, WHETHER
#EXPRESS, ORAL, IMPLIED, STATUTORY OR OTHERWISE, INCLUDING ANY IMPLIED WARRANTY OF FITNESS
#FOR A PARTICULAR PURPOSE, MERCHANTABILITY, TITLE OR NON-INFRINGEMENT, AND ANY WARRANTIES
#ARISING BY VIRTUE OF CUSTOM OF TRADE OR COURSE OF DEALING.  FURTHER, DRILLING INFO,
#INC. AND ITS LICENSORS DO NOT REPRESENT OR WARRANT THAT THIS FILE WILL MEET USER'S
#REQUIREMENTS OR ARE SUITABLE FOR USER'S NEEDS OR THAT THE DATA OR RESULTS PROVIDED IN
#CONJUNCTION THEREWITH ARE CORRECT, ACCURATE, TIMELY OR RELIABLE. THESE DISCLAIMERS SHALL
#APPLY REGARDLESS OF ANY FAILURE OF ESSENTIAL PURPOSE OF ANY LIMITED REMEDY.  SOME
#JURISDICTIONS DO NOT ALLOW THE EXCLUSION OF CERTAIN WARRANTIES SO SOME OF THE ABOVE
#EXCLUSIONS MAY NOT APPLY. IN NO EVENT SHALL DRILLING INFO, INC. OR ANY OF ITS AFFILIATES
#BE LIABLE UNDER ANY LEGAL THEORY, WHETHER IN TORT (INCLUDING WITHOUT LIMITATION
#NEGLIGENCE), CONTRACT, STRICT LIABILITY, STATUTORY OR OTHERWISE, FOR ANY SPECIAL,
#INCIDENTAL, CONSEQUENTIAL, EXEMPLARY, PUNITIVE OR INDIRECT DAMAGE OF ANY KIND, INCLUDING
#WITHOUT LIMITATION LOSS OF REVENUE, PROFITS, GOODWILL, USE, AND/OR DATA OR THE COST OF
#PROCUREMENT OF SUBSTITUTE GOODS OR SERVICES, EVEN IF APPRISED OF THE POSSIBILITY OF SUCH
#DAMAGES IN ADVANCE.
#--------------------------------------------------#
~WELL INFORMATION
#MNEMONIC     .UNIT              VALUE :DESCRIPTION
#--------------------------------------------------#
STRT       .FT                181 :START DEPTH
STOP       .FT                12231 :STOP DEPTH
STEP       .FT                   0.500 :STEP
NULL       .                  -999.250 :NULL
API        .                421093228700 :API NUMBER
COMP       .         CHESAPEAKE OPERATING  INC. :COMPANY
WELL       .        UNIVERSITY LANDS 4627  1 :WELL
DATE       .                06-May-2007 :LOG DATE
~CURVE INFORMATION
#MNEMONIC     .UNIT      API CODE :CURVE DESCRIPTION
#--------------------------------------------------#
DEPTH       .FT                      :Measured Depth
ILS.OHM        UNKNOWN   :ILS
GR.API        UNKNOWN   :GR
ILD.OHM        UNKNOWN   :ILD
CAL.INCH        UNKNOWN   :CAL
DT.US/FT        UNKNOWN   :DT
~A    DEPTH    ILS    GR    ILD    CAL    DT
# ...
 8207.5     271.005   69.207   267.946   10.92   -999.250
 8208     281.28   65.186   245.344   10.969   -999.250
 8208.5     342.453   59.968   284.799   11.019   -999.250
 8209     447.848   54.362   366.456   11.068   -999.250
 8209.5     479.733   48.756   424.135   11.118   -999.250
 8210     489.416   44.444   470.726   11.167   -999.250
 8210.5     499.1   44.355   492.448   11.216   -999.250
 8211     508.783   44.265   509.794   11.266   -999.250
 8211.5     518.466   43.848   512.962   11.283   -999.250
 8212     528.15   42.778   516.13   11.227   -999.250
 8212.5     606.56   41.647   541.334   11.171   -999.250
 8213     624.187   40.516   601.085   11.221   -999.250
 8213.5     557.672   39.385   573.973   11.299   -999.250
 8214     485.205   43.635   507.281   11.321   -999.250
 8214.5     480.82   47.996   461.266   11.035   -999.250
 8215     465.473   52.685   474.807   10.866   -999.250
 8215.5     379.684   57.656   390.851   10.872   -999.250
 8216     235.947   61.065   269.114   10.878   -999.250
 8216.5     157.224   63.088   176.882   10.884   -999.250
 8217     147.577   65.111   137.574   10.889   -999.250
 8217.5     159.613   64.16   137.561   10.895   -999.250
 8218     234.458   62.408   203.565   10.901   -999.250
 8218.5     445.248   60.655   292.834   10.907   -999.250
 8219     460.066   61.492   396.035   10.913   -999.250
 8219.5     325.977   63.524   380.795   10.918   -999.250
 8220     228.584   67.674   236.847   10.924   -999.250
 8220.5     138.316   72.96   138.038   10.93   -999.250
 8221     123.01   78.246   117.458   10.936   -999.250
 8221.5     124.168   82.719   99.674   10.942   -999.250
 8222     150.758   81.729   117.384   10.947   -999.250
 8222.5     154.049   80.739   135.095   10.953   -999.250
 8223     140.667   81.32   129.97   10.959   -999.250
 8223.5     167.247   81.401   132.902   10.965   -999.250
 8224     276.368   76.777   190.883   10.97   -999.250
 8224.5     304.634   72.153   281.017   10.976   -999.250
 8225     230.185   69.009   227.397   10.99   -999.250
 8225.5     188.467   67.787   181.555   11.014   -999.250
 8226     154.689   70.947   169.229   11.039   -999.250
 8226.5     86.881   74.292   141.451   11.063   -999.250
 8227     75.075   77.73   75.763   11.087   -999.250
 8227.5     112.974   79.201   76.109   11.112   -999.250
 8228     150.654   79.713   123.986   11.136   -999.250
 8228.5     176.477   80.688   154.989   11.161   -999.250
 8229     169.359   82.122   157.397   11.185   -999.250
 8229.5     167.904   82.095   151.402   11.207   -999.250
 8230     167.906   79.182   151.845   11.228   -999.250
 8230.5     167.907   76.358   152.288   11.25   -999.250
 8231     168.558   73.597   153.548   11.271   -999.250
 8231.5     169.994   71.765   156.132   11.293   -999.250
 8232     170.307   72.654   158.716   11.315   -999.250
 8232.5     148.144   73.543   151.427   11.336   -999.250
 8233     142.675   74.052   142.251   11.358   -999.250
 8233.5     149.407   74.191   139.757   11.379   -999.250
 8234     158.74   76.925   140.836   11.401   -999.250
 8234.5     166.419   79.913   145.57   11.415   -999.250
 8235     173.59   79.97   155.04   11.413   -999.250
 8235.5     180.762   76.685   167.068   11.411   -999.250
 8236     191.04   73.202   179.097   11.409   -999.250
 8236.5     196.097   69.042   186.242   11.407   -999.250
 8237     192.192   66.263   188.311   11.405   -999.250
 8237.5     188.286   67.579   190.379   11.403   -999.250
 8238     183.19   68.03   186.441   11.412   -999.250
 8238.5     178.026   66.857   176.88   11.42   -999.250
 8239     172.862   66.415   174.322   11.428   -999.250
 8239.5     166.277   66.832   164.772   11.436   -999.250
 8240     159.203   68.889   155.222   11.445   -999.250
 8240.5     152.129   70.41   145.673   11.453   -999.250
 8241     150.687   70.873   140.195   11.461   -999.250
 8241.5     151.181   73.901   135.661   11.47   -999.250
 8242     153.765   76.983   136.369   11.478   -999.250
 8242.5     150.767   79.871   137.078   11.486   -999.250
 8243     146.446   78.316   137.787   11.494   -999.250
 8243.5     145.595   74.843   129.594   11.503   -999.250
 8244     169.234   71.686   128.263   11.511   -999.250
 8244.5     192.182   69.585   158.469   11.519   -999.250
 8245     160.019   69.008   162.843   11.528   -999.250
 8245.5     135.481   70.179   126.441   11.536   -999.250
 8246     143.158   71.35   123.88   11.544   -999.250
 8246.5     148.808   72.085   133.068   11.553   -999.250
 8247     143.856   71.575   132.168   11.561   -999.250
 8247.5     140.223   71.064   129.738   11.569   -999.250
 8248     143.348   70.554   129.456   11.569   -999.250
 8248.5     146.473   69.473   137.346   11.568   -999.250
 8249     157.551   67.748   145.235   11.568   -999.250
 8249.5     180.884   63.782   153.125   11.567   -999.250
 8250     318.923   59.816   205.666   11.566   -999.250
 8250.5     540.171   57.685   436.851   11.565   -999.250
 8251     510.744   57.503   632.454   11.564   -999.250
 8251.5     276.497   60.053   317.085   11.564   -999.250
 8252     203.968   62.189   220.222   11.563   -999.250
 8252.5     205.562   63.515   197.591   11.562   -999.250
 8253     219.558   63.362   203.055   11.561   -999.250
 8253.5     242.719   62.448   213.412   11.561   -999.250
 8254     289.928   61.456   234.391   11.56   -999.250
 8254.5     344.143   60.475   287.525   11.559   -999.250
 8255     237.098   71.184   313.015   11.558   -999.250
 8255.5     99.108   88.461   194.103   11.557   -999.250
 8256     56.71   105.737   89.388   11.688   -999.250
 8256.5     43.655   121.381   50.583   11.973   -999.250
 8257     34.356   130.281   34.445   12   -999.250
 8257.5     34.598   129.517   28.995   11.831   -999.250
 8258     39.81   126.553   35.112   11.661   -999.250
 8258.5     49.938   123.405   37.828   11.538   -999.250
 8259     63.447   120.635   49.324   11.519   -999.250
 8259.5     75.279   117.947   60.82   11.499   -999.250
 8260     80.946   115.372   64.679   11.479   -999.250
 8260.5     77.27   113.706   65.633   11.46   -999.250
 8261     82.644   113.216   66.586   11.44   -999.250
 8261.5     74.814   114.018   63.106   11.42   -999.250
 8262     69.643   114.819   58.665   11.401   -999.250
 8262.5     71.853   115.62   62.577   11.381   -999.250
 8263     84.534   110.765   68.424   11.361   -999.250
 8263.5     105.853   105.223   83.976   11.342   -999.250
 8264     177.075   101.018   125.438   11.355   -999.250
 8264.5     135.47   100.817   156.832   11.373   -999.250
 8265     101.515   100.51   120.763   11.391   -999.250
 8265.5     101.921   100.203   99.997   11.408   -999.250
 8266     179.645   86.537   103.302   11.426   -999.250
 8266.5     235.093   78.755   255.286   11.444   -999.250
 8267     205.275   72.517   212.132   11.462   -999.250
 8267.5     179.624   72.048   187.397   11.48   -999.250
 8268     171.557   75.131   177.935   11.497   -999.250
 8268.5     168.578   75.605   168.797   11.515   -999.250
 8269     177.886   71.399   164.769   11.533   -999.250
 8269.5     202.823   67.193   176.248   11.551   -999.250
 8270     230.431   63.696   186.573   11.569   -999.250
 8270.5     265.925   64.522   216.858   11.587   -999.250
 8271     217.898   67.712   232.103   11.604   -999.250
 8271.5     160.037   77.629   170.571   11.619   -999.250
 8272     144.83   79.289   137.351   11.57   -999.250
 8272.5     147.101   82.51   122.525   11.521   -999.250
 8273     152.899   86.562   134.25   11.472   -999.250
 8273.5     127.151   90.593   113.899   11.422   -999.250
 8274     98.482   92.217   84.911   11.373   -999.250
 8274.5     138.919   88.164   110.77   11.324   -999.250
 8275     194.217   77.765   163.985   11.285   -999.250
 8275.5     245.208   68.754   201.941   11.274   -999.250
 8276     299.594   62.387   241.387   11.263   -999.250
 8276.5     373.883   58.921   351.332   11.252   -999.250
 8277     258.706   63.801   300.402   11.242   -999.250
