###############################################
##         ENVERUS                           ##
##         ESS - Open Hole                   ##
##         PERMIAN / DELAWARE                ##
##         Nov 03 2023  V4.0                 ##
##         42-109-33144-00-00                ##
###############################################
## Copyright 2017-2023  ENVERUS.  All Rights Reserved. 
## Confidential - Property of ENVERUS, use governed by terms and 
## conditions found within the existing Information Services Subscription Agreement 
## (as may be amended, the “ISSA”) between Customer and ENVERUS. 
## 
~VERSION INFORMATION
# MNEM.UNIT                               DATA : DESCRIPTION OF MNEMONIC
#-----.-----     ----------------------------- : -----------------------------
VERS.                                     2.00 : CWLS LOG ASCII STANDARD - VERSION 2.00
WRAP.                                       NO : MULTIPLE LINES PER DEPTH STEP
VEND.                                  ENVERUS : VENDOR
TYPE.                          ESS - OPEN HOLE : ENVERUS ESSENTIAL CURVES – ACCESSIBLE THROUGH ENVERUS PRISM(TM)
DOC.                                  44408038 : ENVERUS HEADER RAW DOCUMENT ID
#___________________________________________________________________________________________________ 
~WELL INFORMATION 
# jhvnPe+1QU9E4rmF00QVhgJB4IQXrbTj+4JQBaOQ+xeerJB1ro+a2ny8/YeKPBUHGPa8yPZn1kHe7+9ZkyRs1A== 
# MNEM.UNIT                                              DATA : DESCRIPTION OF MNEMONIC 
#-----.-----                    ----------------------------- : ----------------------------- 
CNTY.                                               CULBERSON : COUNTY 
STATE.                                                  TEXAS : STATE 
CNTRY.                                                    USA : COUNTRY 
API.                                             42-109-33144 : API (10 Digit) 
API_14.                                    42-109-33144-00-00 : API (14 Digits) 
API_14_std.                                 42-109-33144-0000 : API (14 Digits Standard) 
UWI.                                           42109331440000 : UNIQUE WELL ID 
WELL.                                        PAT FEE 4 NO. 3H : WELL NAME
STRT.FT                                                8880.0 : START DEPTH
STOP.FT                                               14320.0 : STOP DEPTH
STEP.FT                                                   0.5 : STEP BETWEEN DEPTHS
NULL.                                                 -999.25 : NULL VALUE
LOC.                                     API  42-109-33144LAT : LOCATION 
FL1.                                     API  42-109-33144LAT : LOCATIONLINE1 
DMF.                                                       KB : DRILL MEAS FROM 
PDAT.                                                      GL : PERMANENT DATUM 
FLD.                                    FORD, WEST (WOLFCAMP) : FIELD NAME 
COMP.                            CAPITAN ENERGY, INCORPORATED : COMPANY 
DATE.                                             21-SEP-2017 : DATE 
SVCO.                                             HALLIBURTON : SERVICECONAME 
PROV.                                                   TEXAS : PROVINCE 
BASI.                                                 PERMIAN : BASIN 
RANG.                                                     N/A : RANGE 
TOWN.                                                     N/A : TOWNSHIP 
SECT.                                                     N/A : SECTION 
SON.                                                      N/A : JOB NUMBER 
SRVC.                                             HALLIBURTON : SERVICE COMPANY 
LMF.                                                       KB : LOG MEASURED FROM 
EGL.FT                                              3093.0000 : GROUND ELEVATION 
BAP.FT                                                 0.0000 : GL ELEV ONSHORE 
GVFD.G                                                 1.0000 : GRAVITY FIELD 
EKB.FT                                              3114.0000 : KB ELEVATION 
EDF.FT                                              3113.0000 : DF ELEVATION
#___________________________________________________________________________________________________ 
~CURVE INFORMATION 
# MNEM.UNIT           : CURVE DESCRIPTION 
#-----.-----          : ----------------------------- 
 DEPT.FT               : MEASURED DEPTH 
 GR.API                : GAMMA RAY (GR_CHI - GR_CHI) 
 GR__01.API            : GAMMA RAY (GR_OH - GR_OH) 
 DT.US/FT              : SONIC DELTA TRANSIT TIME (DTC_CHI - DTC_CHI) 
 DT__01.US/FT          : SONIC DELTA TRANSIT TIME (DTC_OH - DTC_OH) 
 PE.B/E                : PHOTOELECTRIC EFFECT/FACTOR (PE_CHI - PE_CHI) 
 PE__01.B/E            : PHOTOELECTRIC EFFECT/FACTOR (PE_OH - PE_OH) 
 RESS_LL.OHMM          : SHALLOW LATEROLOG (LLS_CHI - LLS_CHI) 
 RESS_LL__01.OHMM      : SHALLOW LATEROLOG (LLS_OH - LLS_OH) 
 RESD_LL.OHMM          : DEEP LATEROLOG (LLD_CHI - LLD_CHI) 
 RESD_LL__01.OHMM      : DEEP LATEROLOG (LLD_OH - LLD_OH) 
 NPHI.V/V              : NEUTRON POROSITY (NPHI_CHI - NPHI_CHI) 
 NPHI__01.V/V          : NEUTRON POROSITY (NPHI_OH - NPHI_OH) 
 SPHI.V/V              : SONIC POROSITY (SPHI_CHI - SPHI_CHI) 
 RHOB.G/CC             : BULK DENSITY (RHOB_CHI - RHOB_CHI) 
 RHOB__01.G/CC         : BULK DENSITY (RHOB_OH - RHOB_OH) 
 #___________________________________________________________________________________________________ 
~A         DEPT             GR         GR__01             DT         DT__01             PE         PE__01        RESS_LL    RESS_LL__01        RESD_LL    RESD_LL__01           NPHI       NPHI__01           SPHI           RHOB       RHOB__01
# ...
        11056.0         86.448       -999.250         67.798       -999.250         3.7758      -999.2500        91.3692      -999.2500       100.4535      -999.2500        0.12884     -999.25000        0.14280         2.5766      -999.2500
        11056.5         80.249       -999.250         67.205       -999.250         3.8142      -999.2500        88.5108      -999.2500        96.8157      -999.2500        0.12623     -999.25000        0.13860         2.5800      -999.2500
        11057.0         75.411       -999.250         66.597       -999.250         3.8594      -999.2500        87.3717      -999.2500        95.0862      -999.2500        0.12291     -999.25000        0.13430         2.5836      -999.2500
        11057.5         68.962       -999.250         65.903       -999.250         3.9201      -999.2500        87.3122      -999.2500        94.4378      -999.2500        0.11923     -999.25000        0.12940         2.5882      -999.2500
        11058.0         84.113       -999.250         66.827       -999.250         3.8567      -999.2500        96.1566      -999.2500       104.6036      -999.2500        0.12176     -999.25000        0.13600         2.5825      -999.2500
        11058.5         97.322       -999.250         67.587       -999.250         3.8054      -999.2500       102.9826      -999.2500       112.9059      -999.2500        0.12337     -999.25000        0.14140         2.5780      -999.2500
        11059.0         85.359       -999.250         66.912       -999.250         3.8799      -999.2500       101.5539      -999.2500       110.8551      -999.2500        0.12028     -999.25000        0.13660         2.5822      -999.2500
        11059.5         86.714       -999.250         67.083       -999.250         3.8743      -999.2500       103.2056      -999.2500       112.9268      -999.2500        0.12076     -999.25000        0.13780         2.5814      -999.2500
        11060.0         82.133       -999.250         66.925       -999.250         3.8890      -999.2500       102.3182      -999.2500       111.6632      -999.2500        0.12113     -999.25000        0.13670         2.5827      -999.2500
        11060.5         81.870       -999.250         66.995       -999.250         3.8722      -999.2500       101.8350      -999.2500       110.8376      -999.2500        0.12301     -999.25000        0.13720         2.5828      -999.2500
        11061.0         81.025       -999.250         66.900       -999.250         3.8708      -999.2500       101.4388      -999.2500       110.0371      -999.2500        0.12342     -999.25000        0.13650         2.5837      -999.2500
        11061.5         91.373       -999.250         67.367       -999.250         3.8247      -999.2500       104.8147      -999.2500       114.0905      -999.2500        0.12469     -999.25000        0.13980         2.5805      -999.2500
        11062.0         92.857       -999.250         67.345       -999.250         3.8276      -999.2500       105.3320      -999.2500       114.7536      -999.2500        0.12370     -999.25000        0.13960         2.5804      -999.2500
        11062.5         89.944       -999.250         67.113       -999.250         3.8531      -999.2500       105.1598      -999.2500       114.4604      -999.2500        0.12206     -999.25000        0.13800         2.5817      -999.2500
        11063.0         83.615       -999.250         66.723       -999.250         3.8921      -999.2500       103.9128      -999.2500       112.7687      -999.2500        0.12036     -999.25000        0.13520         2.5842      -999.2500
        11063.5         79.840       -999.250         66.523       -999.250         3.9151      -999.2500       103.9546      -999.2500       112.6072      -999.2500        0.11967     -999.25000        0.13380         2.5857      -999.2500
        11064.0         80.457       -999.250         66.529       -999.250         3.9192      -999.2500       105.7904      -999.2500       114.5737      -999.2500        0.11943     -999.25000        0.13390         2.5858      -999.2500
        11064.5         86.651       -999.250         66.830       -999.250         3.8953      -999.2500       108.3439      -999.2500       117.7585      -999.2500        0.11976     -999.25000        0.13600         2.5837      -999.2500
        11065.0         83.485       -999.250         66.599       -999.250         3.9195      -999.2500       105.4894      -999.2500       114.7766      -999.2500        0.11792     -999.25000        0.13440         2.5844      -999.2500
        11065.5         85.982       -999.250         66.623       -999.250         3.9119      -999.2500       103.4383      -999.2500       112.8326      -999.2500        0.11700     -999.25000        0.13450         2.5834      -999.2500
        11066.0         84.843       -999.250         66.499       -999.250         3.9184      -999.2500       100.8761      -999.2500       110.0971      -999.2500        0.11617     -999.25000        0.13370         2.5836      -999.2500
        11066.5         80.647       -999.250         66.145       -999.250         3.9354      -999.2500        97.6548      -999.2500       106.1360      -999.2500        0.11538     -999.25000        0.13110         2.5856      -999.2500
        11067.0         90.754       -999.250         66.754       -999.250         3.8710      -999.2500       100.7006      -999.2500       109.7033      -999.2500        0.11819     -999.25000        0.13550         2.5822      -999.2500
        11067.5         92.506       -999.250         66.848       -999.250         3.8520      -999.2500       100.7068      -999.2500       109.5322      -999.2500        0.11941     -999.25000        0.13610         2.5819      -999.2500
        11068.0         87.489       -999.250         66.643       -999.250         3.8691      -999.2500        99.6684      -999.2500       108.0508      -999.2500        0.11963     -999.25000        0.13470         2.5836      -999.2500
        11068.5         89.071       -999.250         66.881       -999.250         3.8541      -999.2500       101.1696      -999.2500       109.8557      -999.2500        0.12107     -999.25000        0.13640         2.5825      -999.2500
        11069.0         94.487       -999.250         67.407       -999.250         3.8177      -999.2500       103.2216      -999.2500       112.7238      -999.2500        0.12339     -999.25000        0.14010         2.5794      -999.2500
        11069.5        107.340       -999.250         68.253       -999.250         3.7456      -999.2500       104.9649      -999.2500       115.7877      -999.2500        0.12650     -999.25000        0.14610         2.5741      -999.2500
        11070.0        103.951       -999.250         67.948       -999.250         3.7674      -999.2500       103.2149      -999.2500       113.5557      -999.2500        0.12476     -999.25000        0.14390         2.5755      -999.2500
        11070.5        100.431       -999.250         67.562       -999.250         3.7938      -999.2500       101.7162      -999.2500       111.4768      -999.2500        0.12269     -999.25000        0.14120         2.5775      -999.2500
        11071.0         93.985       -999.250         66.957       -999.250         3.8400      -999.2500       100.0437      -999.2500       108.9748      -999.2500        0.11985     -999.25000        0.13690         2.5810      -999.2500
        11071.5        104.068       -999.250         67.453       -999.250         3.7863      -999.2500       101.1781      -999.2500       110.6740      -999.2500        0.12145     -999.25000        0.14040         2.5775      -999.2500
        11072.0        100.976       -999.250         67.276       -999.250         3.7928      -999.2500        98.5203      -999.2500       107.5420      -999.2500        0.12133     -999.25000        0.13910         2.5784      -999.2500
        11072.5        109.590       -999.250         67.850       -999.250         3.7369      -999.2500        98.6603      -999.2500       108.2910      -999.2500        0.12388     -999.25000        0.14320         2.5745      -999.2500
