###############################################
##         ENVERUS                           ##
##         ESS - Open Hole                   ##
##         PERMIAN / DELAWARE                ##
##         Nov 02 2023  V4.0                 ##
##         42-109-32297-90-00                ##
###############################################
## Copyright 2017-2023  ENVERUS.  All Rights Reserved. 
## Confidential - Property of ENVERUS, use governed by terms and 
## conditions found within the existing Information Services Subscription Agreement 
## (as may be amended, the “ISSA”) between Customer and ENVERUS. 
## 
~VERSION INFORMATION
# MNEM.UNIT                               DATA : DESCRIPTION OF MNEMONIC
#-----.-----     ----------------------------- : -----------------------------
VERS.                                     2.00 : CWLS LOG ASCII STANDARD - VERSION 2.00
WRAP.                                       NO : MULTIPLE LINES PER DEPTH STEP
VEND.                                  ENVERUS : VENDOR
TYPE.                          ESS - OPEN HOLE : ENVERUS ESSENTIAL CURVES – ACCESSIBLE THROUGH ENVERUS PRISM(TM)
DOC.                                  52921007 : ENVERUS HEADER RAW DOCUMENT ID
#___________________________________________________________________________________________________ 
~WELL INFORMATION 
# EM3SY5Bwx6x9YoJmjxbMXtwK21/gMzSEmeWIZ71LA4UD3Y8PQw/mHJ0IHc4n7dRi3zAL189RIdETacnakexX1Q== 
# MNEM.UNIT                                              DATA : DESCRIPTION OF MNEMONIC 
#-----.-----                    ----------------------------- : ----------------------------- 
CNTY.                                               CULBERSON : COUNTY 
STATE.                                                  TEXAS : STATE 
CNTRY.                                                    USA : COUNTRY 
API.                                             42-109-32297 : API (10 Digit) 
API_14.                                    42-109-32297-90-00 : API (14 Digits) 
API_14_std.                                 42-109-32297-9000 : API (14 Digits Standard) 
UWI.                                           42109322979000 : UNIQUE WELL ID 
WELL.                          MELISSA TAYLOR STATE 105-3  1H : WELL NAME
STRT.FT                                                 200.0 : START DEPTH
STOP.FT                                               10260.0 : STOP DEPTH
STEP.FT                                                   0.5 : STEP BETWEEN DEPTHS
NULL.                                                 -999.25 : NULL VALUE
PREV_API.                                        421093229700 : API NUMBER 
COMP.                              CHESAPEAKE OPERATING  INC. : COMPANY 
DATE.                                             17-JUN-2008 : LOG DATE
#___________________________________________________________________________________________________ 
~CURVE INFORMATION 
# MNEM.UNIT           : CURVE DESCRIPTION 
#-----.-----          : ----------------------------- 
 DEPT.FT               : MEASURED DEPTH 
 CALI.IN               : CALIPER (CAL - CAL) 
 GR.API                : GAMMA RAY (GR) 
 DT.US/FT              : SONIC DELTA TRANSIT TIME (DT) 
 RESS.OHMM             : SHALLOW INDUCTION RESISTIVITY (ILS - ILS) 
 RESD.OHMM             : DEEP INDUCTION RESISTIVITY (ILD - ILD) 
 DPHI.V/V              : DENSITY POROSITY (DPHI) 
 NPHI.V/V              : NEUTRON POROSITY (NPHI) 
 RHOB.G/CC             : BULK DENSITY (RHOB) 
 #___________________________________________________________________________________________________ 
~A         DEPT           CALI             GR             DT           RESS           RESD           DPHI           NPHI           RHOB
# ...
         3061.5         12.774         84.499         71.444        686.802       1115.897        0.08050        0.10456         2.5610
         3062.0         12.783         90.554         72.562        754.740       1266.971        0.10639        0.10936         2.5380
         3062.5         12.793        112.141         76.897        744.686       1230.963        0.14046        0.14274         2.4780
         3063.0         12.802        125.724         80.404        657.532       1177.454        0.15928        0.17613         2.4120
         3063.5         12.811        136.137         83.674        570.378        973.688        0.17752        0.18380         2.4070
         3064.0         12.821        135.336         85.193        483.861        747.066        0.18081        0.18613         2.4120
         3064.5         12.790        131.950         85.357        453.152        644.494        0.17355        0.18846         2.4180
         3065.0         12.703        128.307         85.043        425.753        640.990        0.16773        0.19079         2.4240
         3065.5         12.629        124.300         84.729        392.564        578.962        0.16051        0.19312         2.4310
         3066.0         12.612        120.294         84.230        343.910        506.416        0.15744        0.19544         2.4400
         3066.5         12.594        112.205         83.309        326.509        461.405        0.15549        0.19675         2.4540
         3067.0         12.599        103.457         82.389        315.638        443.773        0.15218        0.18436         2.4530
         3067.5         12.618         98.368         81.468        320.601        476.336        0.14887        0.17060         2.4490
         3068.0         12.637         95.441         80.569        344.038        545.380        0.14747        0.15685         2.4450
         3068.5         12.655         96.695         80.523        367.475        614.424        0.15367        0.15947         2.4410
         3069.0         12.695        100.294         81.303        382.730        642.591        0.15628        0.16496         2.4380
         3069.5         12.747        103.893         82.092        404.423        660.176        0.15815        0.17045         2.4480
         3070.0         12.799        104.363         81.747        442.458        680.763        0.15619        0.16944         2.4620
         3070.5         12.851        100.355         80.596        480.492        898.297        0.14146        0.16297         2.5150
         3071.0         12.883         96.075         78.040        518.527       1115.831        0.12322        0.15037         2.5090
         3071.5         12.870         91.790         76.110        606.949       1223.284        0.10838        0.13777         2.4890
         3072.0         12.858         87.527         75.418        598.942       1262.198        0.11112        0.13683         2.4730
         3072.5         12.845         87.334         76.538        574.986       1213.146        0.12770        0.13922         2.4710
         3073.0         12.833         91.653         78.151        551.030       1164.095        0.13939        0.15121         2.4690
         3073.5         12.837         95.537         80.003        540.353       1115.043        0.13932        0.16321         2.4680
         3074.0         12.856         98.680         81.089        569.859       1131.572        0.13883        0.17521         2.4660
         3074.5         12.875        101.824         81.452        599.366       1119.946        0.14134        0.18142         2.4650
         3075.0         12.878        104.444         81.613        628.872       1083.346        0.14342        0.16811         2.4710
         3075.5         12.851        102.263         80.521        676.404       1346.099        0.14446        0.15479         2.4780
         3076.0         12.834         96.261         78.018        728.948       1697.800        0.13135        0.14148         2.4850
         3076.5         12.890         88.584         75.516        812.105       2049.500        0.12109        0.12817         2.4920
         3077.0         12.946         84.165         73.942        998.262       2152.887        0.12491        0.12502         2.4680
         3077.5         13.002        100.161         74.954       1047.377       2048.728        0.13989        0.13858         2.4420
         3078.0         13.025        117.804         78.791        998.849       1888.399        0.15696        0.15209         2.4260
         3078.5         13.044        129.374         84.038        940.195       1721.159        0.16791        0.16553         2.4290
         3079.0         13.064        132.317         84.902        866.430       1509.334        0.16331        0.17896         2.4310
         3079.5         13.080        130.314         85.023        792.665       1248.522        0.16081        0.18381         2.4340
         3080.0         13.060        127.182         84.748        784.116        987.711        0.16324        0.17986         2.4360
         3080.5         13.040        125.285         84.223        786.777       1267.641        0.16443        0.17591         2.4390
         3081.0         13.069        122.568         82.317        918.824       1635.750        0.15331        0.15515         2.4890
         3081.5         13.106        109.598         77.651       1187.718       2011.362        0.12752        0.12668         2.5280
         3082.0         13.144         96.331         72.986       1456.612       2746.167        0.08960        0.09821         2.5680
         3082.5         13.153         83.091         70.193       1719.594       3511.268        0.06791        0.08728         2.5640
         3083.0         13.147         76.492         69.849       1448.805       2535.719        0.07743        0.09127         2.5030
         3083.5         13.140         90.518         72.567       1178.015       1861.388        0.11878        0.11254         2.4950
         3084.0         13.125        106.276         76.989        979.325       1521.312        0.13513        0.13381         2.4680
         3084.5         13.109        115.375         80.077        958.085       1240.459        0.14195        0.15147         2.4680
         3085.0         13.094        119.033         80.448        979.515       1283.909        0.14255        0.14907         2.4670
         3085.5         13.079        119.293         80.488       1009.493       1311.242        0.14091        0.14668         2.4620
         3086.0         13.064        117.088         80.483       1005.788       1285.112        0.14081        0.14521         2.4650
         3086.5         13.049        114.914         80.243        962.923       1258.981        0.14425        0.14413         2.4690
         3087.0         13.033        113.669         79.051        972.559       1232.851        0.13967        0.14304         2.4740
         3087.5         13.018        111.614         78.197       1117.479       1358.042        0.13452        0.14196         2.4670
         3088.0         13.005        105.536         77.626       1262.399       1766.808        0.14137        0.14180         2.4580
         3088.5         12.998        106.712         78.064       1407.319       2455.483        0.14882        0.14604         2.4490
         3089.0         12.991        116.696         78.977       1544.035       2327.621        0.15626        0.15029         2.4430
         3089.5         12.984        126.681         80.685       1585.521       2321.081        0.15078        0.15453         2.4550
         3090.0         12.977        133.182         81.909       1586.865       2233.229        0.14497        0.15877         2.4670
         3090.5         12.970        130.320         82.035       1472.052       1985.428        0.13916        0.16691         2.4690
