###############################################
##         ENVERUS                           ##
##         ESS - Open Hole                   ##
##         PERMIAN / DELAWARE                ##
##         Nov 02 2023  V4.0                 ##
##         42-109-31550-00-00                ##
###############################################
## Copyright 2017-2023  ENVERUS.  All Rights Reserved. 
## Confidential - Property of ENVERUS, use governed by terms and 
## conditions found within the existing Information Services Subscription Agreement 
## (as may be amended, the “ISSA”) between Customer and ENVERUS. 
## 
~VERSION INFORMATION
# MNEM.UNIT                               DATA : DESCRIPTION OF MNEMONIC
#-----.-----     ----------------------------- : -----------------------------
VERS.                                     2.00 : CWLS LOG ASCII STANDARD - VERSION 2.00
WRAP.                                       NO : MULTIPLE LINES PER DEPTH STEP
VEND.                                  ENVERUS : VENDOR
TYPE.                          ESS - OPEN HOLE : ENVERUS ESSENTIAL CURVES – ACCESSIBLE THROUGH ENVERUS PRISM(TM)
DOC.                                  22584426 : ENVERUS HEADER RAW DOCUMENT ID
#___________________________________________________________________________________________________ 
~WELL INFORMATION 
# ASdzl/zqz3tyMoI2i40d5lqA861uk+/GXWRvioHJ4uiq1sQ7a4yIDDt4z64Puw3+ifUTTkKIB4eyCaXtXAsvCw== 
# MNEM.UNIT                                              DATA : DESCRIPTION OF MNEMONIC 
#-----.-----                    ----------------------------- : ----------------------------- 
CNTY.                                               CULBERSON : COUNTY 
STATE.                                                  TEXAS : STATE 
CNTRY.                                                    USA : COUNTRY 
API.                                             42-109-31550 : API (10 Digit) 
API_14.                                    42-109-31550-00-00 : API (14 Digits) 
API_14_std.                                 42-109-31550-0000 : API (14 Digits Standard) 
UWI.                                           42109315500000 : UNIQUE WELL ID 
WELL.                                       UNIVERSITY_6-46-1 : WELL NAME
STRT.FT                                                 249.5 : START DEPTH
STOP.FT                                               10300.0 : STOP DEPTH
STEP.FT                                                   0.5 : STEP BETWEEN DEPTHS
NULL.                                                 -999.25 : NULL VALUE
COMP.                                    MONSANTO OIL COMPANY : COMPANY 
FLD.                                                  WILDCAT : FIELD 
DATE.                                              10/31/2016 : DATE 
TVD.                                                       NO : TVD FLAG 
WSTA.                                                     LOC : WELL STATUS
#___________________________________________________________________________________________________ 
~PARAMETER INFORMATION 
# MNEM.UNIT                                              DATA : DESCRIPTION OF MNEMONIC 
#-----.-----                    ----------------------------- : ----------------------------- 
RUN.                                                      ONE : RUN NUMBER 
PDAT.                                                      GL : PERMANENT DATUM 
LMF.                                            KELLY BUSHING : LOG MEASURED FROM
#___________________________________________________________________________________________________ 
~CURVE INFORMATION 
# MNEM.UNIT           : CURVE DESCRIPTION 
#-----.-----          : ----------------------------- 
 DEPT.FT               : MEASURED DEPTH 
 DT.US/FT              : SONIC DELTA TRANSIT TIME (DELTA-T) 
 RESS_LL.OHMM          : SHALLOW LATEROLOG (LLS - LATERO-LOG SHALLOW (RESISTIVITY)) 
 RESD_LL.OHMM          : DEEP LATEROLOG (LLD - LATERO-LOG DEEP (RESISTIVITY)) 
 #___________________________________________________________________________________________________ 
~A         DEPT             DT        RESS_LL        RESD_LL
          249.5         67.533        61.8703        29.2317
          250.0         67.533        61.8703        29.2317
          250.5         66.871        64.2041        26.1585
          251.0         66.148        66.6259        20.5632
          251.5         68.736        90.4287        22.2720
          252.0         72.675       109.8319        34.6584
          252.5         75.550       237.4912        75.6878
          253.0         77.716       513.8267        96.4822
          253.5         79.434      1111.6956      2065.8574
          254.0         79.870      2046.8228      4022.9773
          254.5         72.828      2046.8228      3133.3209
          255.0         73.069      2046.8228      2532.4598
          255.5         66.449       858.7913      2104.4594
          256.0         63.741       539.7415        67.2300
          256.5         64.524       267.0903        68.4778
          257.0         66.088       234.6263        56.9479
          257.5         67.894       202.3276        78.1853
          258.0         69.713       259.7753        88.6945
          258.5         70.282       279.7426       100.1101
          259.0         69.907       284.9698       102.3460
          259.5         68.338       262.1911       101.9924
          260.0         66.931       230.9631        89.5955
          260.5         66.716       200.6304        94.7124
          261.0         67.111       182.7402       103.8982
          261.5         68.375       174.4751       115.0347
          262.0         69.097       168.1331       130.9515
          262.5         69.759       160.1576       140.5758
          263.0         69.759       153.2682       138.6379
          263.5         69.639       149.0705       136.9913
          264.0         70.650       146.6213       143.7250
          264.5         71.384       154.8274       143.5900
          265.0         70.662       160.5647       154.7025
          265.5         69.048       162.0215       152.6496
          266.0         68.315       159.0496       150.4611
          266.5         68.709       156.1321       148.3040
          267.0         70.096       149.0204       146.1778
          267.5         71.608       138.4182       144.0822
          268.0         73.150       130.9864       142.0165
          268.5         74.384       124.9246       139.9805
          269.0         75.292       121.6045       138.4302
          269.5         75.604       120.4840       142.9371
          270.0         74.533       127.3650       147.4087
          270.5         73.021       131.7316       152.8888
          271.0         71.222       134.6389       156.1784
          271.5         69.940       133.3984       159.0496
          272.0         69.699       128.5494       156.8685
          272.5         69.759       123.1336       153.8308
          273.0         70.301       118.0838       150.2527
          273.5         70.241       118.6308       145.6245
          274.0         69.758        93.2633       112.9247
          274.5         69.759        79.2220       110.8533
          275.0         71.625        79.6803       107.8173
          275.5         73.726        72.1311        99.1990
          276.0         74.435        72.2887        93.8397
          276.5         74.014        70.3661        90.4287
          277.0         73.490        67.3232        87.1417
          277.5         73.972        60.7216        82.4338
          278.0         75.779        59.6214        84.7551
          278.5         77.583        60.7354        83.2004
          279.0         77.823        61.8703        84.7551
          279.5         77.282        61.8703        87.1417
          280.0         76.787        62.4457        90.4287
          280.5         76.560        61.0325        90.4287
          281.0         76.981        60.7354        90.4287
          281.5         77.161        59.6214        85.5433
          282.0         77.618        56.4003        83.2004
          282.5         78.666        52.9085        79.4374
          283.0         80.351        50.4609        77.2618
          283.5         81.856        49.4946        73.7673
          284.0         82.682        47.3831        71.7470
          284.5         83.962        45.5765        70.4310
          285.0         85.547        45.6030        68.5020
          285.5         87.348        43.5505        67.8708
          286.0         88.559        42.3310        66.6259
          286.5         90.307        41.5545        66.0120
          287.0         91.605        41.9409        66.5864
          287.5         91.906        41.9409        67.2455
          288.0         91.471        43.9277        70.3137
          288.5         90.341        46.0086        73.7673
          289.0         87.967        49.0885        76.6532
          289.5         86.151        50.0058        79.8783
          290.0         85.763        50.0058        83.2224
          290.5         85.588        50.0058        83.2004
          291.0         85.587        50.4708        83.4086
          291.5         86.189        50.9401        83.7355
          292.0         86.999        51.4139        83.9644
          292.5         88.030        51.0865        80.2800
          293.0         89.107        49.5450        77.2970
          293.5         90.315        46.8683        74.5741
          294.0         91.122        44.3362        71.9166
          294.5         92.688        42.9046        69.4293
          295.0         94.072        42.6732        67.8708
          295.5         94.433        43.9012        71.8179
          296.0         93.531        46.4236        75.1040
          296.5         91.184        48.6407        78.1730
          297.0         89.920        50.4708        80.9700
          297.5         89.619        51.4139        83.6753
          298.0         89.559        52.3746        85.8123
          298.5         89.498        54.4539        88.0539
          299.0         88.295        58.5277        92.6952
          299.5         86.309        59.6214        95.0820
          300.0         84.143        60.7354        95.7548
          300.5         82.912        59.9590        91.0748
          301.0         82.727        57.4542        91.3237
          301.5         84.407        57.9885        91.2697
          302.0         85.283        59.6214        93.8397
          302.5         85.057        60.8029        95.5932
          303.0         84.504        62.4638        96.0055
          303.5         83.541        62.4314        97.1363
          304.0         82.698        63.6478        98.7341
          304.5         82.002        66.1441       100.4836
          305.0         81.615        67.2455       102.2642
          305.5         80.832        69.1391       104.0762
          306.0         80.231        69.7820       105.8505
          306.5         79.553        71.4620       108.2148
          307.0         78.907        73.0877       110.5493
          307.5         78.064        73.7398       111.3561
          308.0         77.342        73.8067       111.8842
          308.5         76.966        75.7932       111.8842
          309.0         76.981        78.7055       113.3704
          309.5         77.282        79.4374       116.0911
          310.0         77.350        80.1761       115.4902
          310.5         76.880        80.2010       114.6651
          311.0         76.558        79.3755       113.4952
          311.5         76.615        79.5451       110.5800
          312.0         76.740        77.2618       108.8199
          312.5         76.928        78.1248       108.8199
          313.0         77.222        77.9803       108.8199
          313.5         77.643        81.6743       113.5904
          314.0         77.591        87.9521       119.8999
          314.5         76.697        93.3644       127.1294
          315.0         75.433        98.2850       131.0944
