~VERSION INFORMATION
VERS. 2.0 : CWLS Log ASCII Standard - Version 2.0
WRAP. NO : One line per depth step
#--------------------------------------------------#
#----------------DRILLING INFO, INC.---------------#
#---------------WWW.DRILLINGINFO.COM---------------#
#------------------COPYRIGHT 2015------------------#
#--------------------------------------------------#
#THIS FILE MAY BE USED ONLY IN ACCORDANCE WITH A CURRENT SUBSCRIPTION AGREEMENT BETWEEN
#THE USER AND DRILLING INFO, INC. NO PART OF THIS FILE MAY BE REPRODUCED, USED, COPIED,
#MODIFIED, PROPAGATED, OR DISTRIBUTED EXCEPT IN ACCORDANCE WITH THE SUBSCRIPTION
#AGREEMENT. UNAUTHORIZED USE OR DISTRIBUTION OF ALL OR ANY PART OF THIS FILE MAY VIOLATE
#COPYRIGHT, TRADEMARK, AND/OR OTHER LAWS AND IS SUBJECT TO CIVIL AS WELL AS CRIMINAL
#SANCTIONS.
#--------------------------------------------------#
#THIS FILE IS PROVIDED "AS-IS" AND ALL WARRANTIES ARE EXPRESSLY DISCLAIMED, WHETHER
#EXPRESS, ORAL, IMPLIED, STATUTORY OR OTHERWISE, INCLUDING ANY IMPLIED WARRANTY OF FITNESS
#FOR A PARTICULAR PURPOSE, MERCHANTABILITY, TITLE OR NON-INFRINGEMENT, AND ANY WARRANTIES
#ARISING BY VIRTUE OF CUSTOM OF TRADE OR COURSE OF DEALING.  FURTHER, DRILLING INFO,
#INC. AND ITS LICENSORS DO NOT REPRESENT OR WARRANT THAT THIS FILE WILL MEET USER'S
#REQUIREMENTS OR ARE SUITABLE FOR USER'S NEEDS OR THAT THE DATA OR RESULTS PROVIDED IN
#CONJUNCTION THEREWITH ARE CORRECT, ACCURATE, TIMELY OR RELIABLE. THESE DISCLAIMERS SHALL
#APPLY REGARDLESS OF ANY FAILURE OF ESSENTIAL PURPOSE OF ANY LIMITED REMEDY.  SOME
#JURISDICTIONS DO NOT ALLOW THE EXCLUSION OF CERTAIN WARRANTIES SO SOME OF THE ABOVE
#EXCLUSIONS MAY NOT APPLY. IN NO EVENT SHALL DRILLING INFO, INC. OR ANY OF ITS AFFILIATES
#BE LIABLE UNDER ANY LEGAL THEORY, WHETHER IN TORT (INCLUDING WITHOUT LIMITATION
#NEGLIGENCE), CONTRACT, STRICT LIABILITY, STATUTORY OR OTHERWISE, FOR ANY SPECIAL,
#INCIDENTAL, CONSEQUENTIAL, EXEMPLARY, PUNITIVE OR INDIRECT DAMAGE OF ANY KIND, INCLUDING
#WITHOUT LIMITATION LOSS OF REVENUE, PROFITS, GOODWILL, USE, AND/OR DATA OR THE COST OF
#PROCUREMENT OF SUBSTITUTE GOODS OR SERVICES, EVEN IF APPRISED OF THE POSSIBILITY OF SUCH
#DAMAGES IN ADVANCE.
#--------------------------------------------------#
~WELL INFORMATION
#MNEMONIC     .UNIT              VALUE :DESCRIPTION
#--------------------------------------------------#
STRT       .ft                52.00000 :START DEPTH
STOP       .ft                8797.00000 :STOP DEPTH
STEP       .ft                0.50000 :STEP
NULL       .                -999.25000 :NULL VALUE
COMP       .                 :COMPANY
WELL       .                 :WELL
FLD       .                 :FIELD
LOC       .                 :LOCATION
CNTY       .                 :COUNTY
STAT       .                 :STATE
CTRY       .                 :COUNTRY
SRVC       .                 :SERVICE COMPANY
DATE       .                 :DATE
API       .                42109700290000 :API NUMBER
~CURVE INFORMATION
#MNEMONIC     .UNIT      API CODE :CURVE DESCRIPTION
#--------------------------------------------------#
DEPTH       .ft                      :Measured Depth
DT       .us/ft        UNKNOWN   :DT
GR       .gAPI        UNKNOWN   :GR
ILD       .ohmm        UNKNOWN   :ILD
ILS       .ohmm        UNKNOWN   :ILS
SP       .mV        UNKNOWN   :SP
~A    DEPTH    DT    GR    ILD    ILS    SP
# ...
158.50000    74.89926    31.41131    -999.25000    -999.25000    -999.25000
159.00000    80.37989    30.13184    -999.25000    -999.25000    -999.25000
159.50000    82.73038    28.85237    -999.25000    -999.25000    -999.25000
160.00000    82.06167    27.57290    -999.25000    -999.25000    -999.25000
160.50000    81.39296    27.90119    -999.25000    -999.25000    -999.25000
161.00000    80.72425    30.10833    -999.25000    -999.25000    -999.25000
161.50000    80.05554    32.31547    -999.25000    -999.25000    -999.25000
162.00000    79.38683    34.52260    -999.25000    -999.25000    -999.25000
162.50000    78.92885    36.72975    -999.25000    -999.25000    -999.25000
163.00000    78.66397    38.93688    -999.25000    -999.25000    -999.25000
163.50000    78.39910    41.14402    -999.25000    -999.25000    -999.25000
164.00000    78.13423    43.35116    -999.25000    -999.25000    -999.25000
164.50000    77.86935    45.55830    -999.25000    -999.25000    -999.25000
165.00000    77.60448    46.43014    -999.25000    -999.25000    -999.25000
165.50000    77.33961    46.77435    -999.25000    -999.25000    -999.25000
166.00000    77.26201    47.11855    -999.25000    -999.25000    -999.25000
166.50000    77.33746    47.46275    -999.25000    -999.25000    -999.25000
167.00000    77.41292    48.46106    -999.25000    -999.25000    -999.25000
167.50000    77.48837    49.97380    -999.25000    -999.25000    -999.25000
168.00000    77.56382    51.48653    -999.25000    -999.25000    -999.25000
168.50000    77.63927    52.99927    -999.25000    -999.25000    -999.25000
169.00000    77.71472    51.45345    -999.25000    -999.25000    -999.25000
169.50000    77.15893    49.88498    -999.25000    -999.25000    -999.25000
170.00000    76.48988    48.31651    -999.25000    -999.25000    -999.25000
170.50000    76.84532    46.74804    -999.25000    -999.25000    -999.25000
171.00000    77.91811    44.61848    -999.25000    -999.25000    -999.25000
171.50000    80.66949    42.07504    -999.25000    -999.25000    -999.25000
172.00000    82.68898    39.53161    -999.25000    -999.25000    -999.25000
172.50000    84.70848    36.98817    -999.25000    -999.25000    -999.25000
173.00000    86.72798    34.47631    -999.25000    -999.25000    -999.25000
173.50000    86.86705    34.31200    -999.25000    -999.25000    -999.25000
174.00000    86.47030    34.14768    -999.25000    -999.25000    -999.25000
174.50000    86.07355    33.98336    -999.25000    -999.25000    -999.25000
175.00000    85.67680    33.81905    -999.25000    -999.25000    -999.25000
175.50000    85.28005    33.02425    -999.25000    -999.25000    -999.25000
176.00000    84.88330    32.06041    -999.25000    -999.25000    -999.25000
176.50000    84.40968    31.09658    -999.25000    -999.25000    -999.25000
177.00000    83.59221    31.10607    -999.25000    -999.25000    -999.25000
177.50000    82.77475    32.46534    -999.25000    -999.25000    -999.25000
178.00000    81.95729    33.82462    -999.25000    -999.25000    -999.25000
178.50000    81.13983    35.88879    -999.25000    -999.25000    -999.25000
179.00000    80.32237    39.72838    -999.25000    -999.25000    -999.25000
179.50000    79.50491    43.56796    -999.25000    -999.25000    -999.25000
180.00000    81.25213    45.61555    -999.25000    -999.25000    -999.25000
180.50000    83.16363    44.56268    -999.25000    -999.25000    -999.25000
181.00000    84.85079    43.50981    -999.25000    -999.25000    -999.25000
181.50000    85.70739    42.08326    -999.25000    -999.25000    -999.25000
182.00000    86.56400    40.63774    -999.25000    -999.25000    -58.36204
182.50000    87.42060    39.19222    -999.25000    -999.25000    -58.36684
183.00000    87.46586    37.74670    -999.25000    56.99903    -58.37165
183.50000    87.33207    36.30118    -999.25000    56.38175    -58.37646
184.00000    87.19828    35.03097    49.78406    55.76447    -58.38127
184.50000    87.06449    35.67744    49.88740    55.14719    -58.38607
185.00000    86.93071    36.32392    49.99075    54.52991    -58.39088
185.50000    86.79692    36.97040    50.09409    53.91263    -58.39569
186.00000    86.66313    37.61687    50.19743    53.29535    -58.40049
186.50000    86.41945    38.26335    50.30078    52.67806    -58.40530
187.00000    86.06352    38.72457    50.32874    52.06078    -58.41011
187.50000    85.70759    37.99999    50.20709    51.44350    -58.41492
188.00000    85.35166    37.27541    50.08544    50.82622    -58.41972
188.50000    84.99573    36.55083    49.96378    50.20894    -58.42453
189.00000    84.63980    35.82625    49.84213    49.92295    -58.42934
189.50000    84.50204    35.10166    49.72048    49.83071    -58.43415
190.00000    84.79301    35.12429    49.59882    49.73846    -58.43895
190.50000    85.08399    35.24952    49.88371    49.64622    -58.44376
191.00000    85.08471    35.37474    50.17153    49.55398    -58.44857
191.50000    84.08414    35.49997    50.45936    49.46174    -58.45338
192.00000    83.08356    35.96720    50.74719    49.36949    -58.45818
192.50000    82.08298    37.58741    51.03502    49.27725    -58.46299
193.00000    81.08241    39.20763    51.32285    49.11161    -58.46780
193.50000    80.85903    40.82784    51.24509    48.90194    -58.47261
194.00000    81.66766    42.44805    50.98186    48.69228    -58.47741
194.50000    82.46752    44.06827    50.71862    48.48261    -58.48222
195.00000    83.22823    45.68848    50.45539    48.27294    -58.48703
195.50000    83.98893    45.48795    50.19215    48.06328    -58.49183
196.00000    84.74964    43.90586    49.92892    47.85361    -58.49664
196.50000    85.51035    42.32377    49.66569    47.64394    -58.50145
197.00000    86.08685    40.74167    49.40245    47.43427    -58.50626
197.50000    85.75377    39.15958    49.13922    47.22461    -58.51106
198.00000    85.42068    38.03495    48.87598    47.01494    -58.51587
198.50000    85.58191    37.15324    48.61275    46.85485    -58.52068
199.00000    85.87292    36.27153    48.66099    46.79968    -58.52549
199.50000    86.16393    35.81429    48.75646    46.74452    -58.53029
200.00000    86.45494    36.39159    48.85193    46.68935    -58.53510
200.50000    86.74595    36.96890    48.94740    46.63419    -58.53991
201.00000    86.70726    37.43285    49.04286    46.57902    -58.54471
201.50000    86.45338    36.62308    49.13833    46.52385    -58.54952
202.00000    86.17229    35.99771    49.23380    46.46869    -58.55433
202.50000    85.79172    36.30774    49.32927    46.42893    -58.55914
203.00000    85.70928    36.77142    49.35078    46.42131    -58.56394
203.50000    85.86696    37.56695    49.32909    46.41369    -58.56875
204.00000    86.02463    38.36248    49.30739    46.40607    -58.57356
204.50000    86.18231    39.15802    49.28570    46.39845    -58.57837
205.00000    86.30996    39.95355    49.26400    46.39082    -58.58317
205.50000    86.33564    40.35531    49.24231    46.38320    -58.58798
206.00000    86.36133    39.87301    49.22061    46.37558    -58.59279
206.50000    86.38701    39.39071    49.19891    46.36796    -58.59760
207.00000    86.41270    38.90842    49.17722    46.36034    -58.60240
207.50000    85.90750    38.42612    49.15552    46.35272    -58.60721
208.00000    85.20969    37.94382    49.13383    46.34509    -58.61202
208.50000    84.51189    37.46153    49.11152    46.33747    -58.61682
209.00000    83.81408    36.97923    49.08698    46.32985    -58.62163
209.50000    83.34589    37.68116    49.06244    46.32223    -58.62644
210.00000    83.76504    38.83892    49.03790    46.31461    -58.63125
210.50000    84.64380    39.99667    49.01336    46.30698    -58.63605
211.00000    85.80554    41.15443    48.98882    46.29936    -58.64086
211.50000    86.96728    42.31218    48.96428    46.31950    -58.64567
212.00000    87.57331    43.09846    48.93974    46.48769    -58.65048
212.50000    87.87552    43.10179    48.91520    46.65588    -58.65528
213.00000    88.16075    43.10511    48.89066    46.82408    -58.66009
