~Version Information
 VERS.                  2.0:   CWLS log ASCII Standard -VERSION 2.0
 WRAP.                   NO:   One line per depth step
~Well Information Block
#MNEM.UNIT     VALUE/NAME     DESCRIPTION
#---------     -----------    ---------------------------
 STRT.F              8400.0000: START DEPTH
 STOP.F             14130.0000: STOP DEPTH
 STEP.F                 0.5000: STEP DEPTH
 NULL.                 -999.25: NULL VALUE
 LOC .            42-109-33596:  LOCATION
 FL1 .            42-109-33596:  LOCATIONLINE1
 PROV.                      TX:  PROVINCE
 STAT.                      TX:  STATE NAME
 CNTY.               CULBERSON:  COUNTY NAME
 FLD .              WOLFCAMP B:  FIELD NAME
 WELL.           DALE STATE 5H:  WELL NAME
 COMP.     CAPITAN ENERGY INC.:  COMPANY
 DMF .             Drill Floor:  DRILL MEAS FROM
 PDAT.                      GL:  PERMANENT DATUM
 DATE.             11-Feb-2020:  DATE
 SVCO.             Halliburton:  SERVICECONAME
 HIDE.                        :  WELLNAMEOPERAT
 BASI.                 PERMIAN:  BASIN
 UWI .            42-109-33596:  UNIQUE WELL IDENTIFIER
 API .            42-109-33596:  API NUMBER
 RANG.                     N/A:  RANGE
 TOWN.                     N/A:  TOWNSHIP
 SECT.                     N/A:  SECTION
 SON .               906289953:  JOB NUMBER
 CTRY.                        :  COUNTRY
 SRVC.             Halliburton:  SERVICE COMPANY
 LMF .             Drill Floor:  LOG MEASURED FROM
 TVDS.ft             3291.0000:  TVDSS CORRECTN
 EGL .ft             3266.0000:  GROUND ELEVATION
 APD .ft               25.0000:  DEPTH ABOVE PD
 EPD .ft             3266.0000:  ELEVATION
 BAP .ft                0.0000:  GL ELEV ONSHORE
 GVFD.g                 1.0000:  GRAVITY FIELD
 EKB .ft             3291.0000:  KB ELEVATION
 EDF .ft             3291.0000:  DF ELEVATION
~Curve Information Block
#MNEM.UNIT                 API CODE     Curve Description
#---------               -----------    ---------------------------
 DEPT.F                 00 000 000 000:  Depth
 CCL .V                 00 000 000 000:  Casing Collar Locator
 NPHI_OH.pu             00 000 000 000:  NPHI_OH
 NPHI_CHI.decp          00 000 000 000:  NPHI_CHI
 GR_OH.api              00 000 000 000:  GR_OH
 GR_CHI.api             00 000 000 000:  GR_CHI
 RHOB_OH.g/cc           00 000 000 000:  RHOB_OH
 RHOB_CHI.g/cc          00 000 000 000:  RHOB_CHI
 PE_OH.NONE             00 000 000 000:  PE_OH
 PE_CHI.NONE            00 000 000 000:  PE_CHI
 LLS_CHI.ohmm           00 000 000 000:  LLS_CHI
 LLS_OH.ohmm            00 000 000 000:  LLS_OH
 LLD_OH.ohmm            00 000 000 000:  LLD_OH
 LLD_CHI.ohmm           00 000 000 000:  LLD_CHI
 DTC_OH.uspf            00 000 000 000:  DTC_OH
 DTC_CHI.uspf           00 000 000 000:  DTC_CHI
 SPHW_CHI.decp          00 000 000 000:  SPHW_CHI
#Other Information
#
#WARRANTY: Halliburton will use its best efforts to furnish customers with 
#accurate information and interpretations that are part of, and incident to, the services 
#provided.  However, Halliburton cannot and does not warrant the accuracy 
#or correctness of such information and interpretations.  Under no circumstances should any 
#such information or interpretation be relied upon as the sole basis for any drilling, 
#completion, production, or financial decision or any procedure involving any risk to the 
#safety of any drilling venture, drilling rig or its crew or any other third party.  The 
#Customer has full responsibility for all drilling, completion and production operation.  
#Halliburton makes no representations or warranties, either expressed or 
#implied, including, but not limited to, the implied warranties of merchantability or fitness 
#for a particular purpose, with respect to the services rendered.  In no event will 
#Halliburton be liable for failure to obtain any particular results or for 
#any damages, including, but not limited to, indirect, special or consequential damages, 
#resulting from the use of any information or interpretation provided by Halliburton.
#
~A    DEPT      CCL   NPHI_OH NPHI_CHI  GR_OH    GR_CHI  RHOB_OH RHOB_CHI  PE_OH  PE_CHI LLS_CHI   LLS_OH    LLD_OH    LLD_CHI  DTC_OH  DTC_CHI SPHW_CHI 
# ...
   10308.0000 -0.0328 -999.25   0.1466  -999.25 138.6519 -999.25   2.5666 -999.25 3.1653  36.1789   -999.25   -999.25   38.0997 -999.25 75.8857 0.2000
   10308.5000 -0.0033 -999.25   0.1414  -999.25 121.9572 -999.25   2.5711 -999.25 3.1112  30.3545   -999.25   -999.25   34.1503 -999.25 74.4411 0.1898
   10309.0000 -0.1182 -999.25   0.1387  -999.25 113.8021 -999.25   2.5740 -999.25 3.0967  28.5133   -999.25   -999.25   33.3625 -999.25 73.6461 0.1842
   10309.5000  0.0304 -999.25   0.1414  -999.25 121.0270 -999.25   2.5715 -999.25 3.1205  31.6509   -999.25   -999.25   36.2434 -999.25 74.1330 0.1876
   10310.0000 -0.2080 -999.25   0.1441  -999.25 130.8361 -999.25   2.5680 -999.25 3.1408  34.6831   -999.25   -999.25   38.1198 -999.25 74.9595 0.1935
   10310.5000  0.0322 -999.25   0.1472  -999.25 143.6292 -999.25   2.5647 -999.25 3.1806  39.4899   -999.25   -999.25   40.9662 -999.25 75.9940 0.2008
   10311.0000 -0.0012 -999.25   0.1423  -999.25 130.9055 -999.25   2.5654 -999.25 3.1296  34.8063   -999.25   -999.25   37.1474 -999.25 75.1820 0.1951
   10311.5000 -0.0251 -999.25   0.1377  -999.25 118.7787 -999.25   2.5678 -999.25 3.1012  31.6480   -999.25   -999.25   34.9071 -999.25 74.4609 0.1900
   10312.0000  0.0342 -999.25   0.1376  -999.25 117.3416 -999.25   2.5685 -999.25 3.1181  32.7977   -999.25   -999.25   36.1404 -999.25 74.4651 0.1900
   10312.5000 -0.0173 -999.25   0.1365  -999.25 112.7360 -999.25   2.5706 -999.25 3.1113  30.9653   -999.25   -999.25   34.6526 -999.25 74.2743 0.1886
   10313.0000  0.0085 -999.25   0.1394  -999.25 119.1564 -999.25   2.5703 -999.25 3.1385  33.4640   -999.25   -999.25   36.3124 -999.25 74.7062 0.1917
   10313.5000  0.0067 -999.25   0.1408  -999.25 121.8856 -999.25   2.5704 -999.25 3.1562  35.0446   -999.25   -999.25   37.4791 -999.25 74.9562 0.1935
   10314.0000 -0.0431 -999.25   0.1405  -999.25 120.7885 -999.25   2.5715 -999.25 3.1653  35.8905   -999.25   -999.25   38.3531 -999.25 74.8173 0.1925
   10314.5000 -0.0185 -999.25   0.1437  -999.25 129.2077 -999.25   2.5703 -999.25 3.2043  40.9207   -999.25   -999.25   42.5745 -999.25 75.3916 0.1965
   10315.0000 -0.0025 -999.25   0.1414  -999.25 121.1739 -999.25   2.5717 -999.25 3.1657  35.7211   -999.25   -999.25   38.5457 -999.25 74.8349 0.1926
   10315.5000  0.0000 -999.25   0.1415  -999.25 120.1782 -999.25   2.5711 -999.25 3.1483  33.4847   -999.25   -999.25   36.6230 -999.25 74.8970 0.1930
   10316.0000  0.0516 -999.25   0.1404  -999.25 116.4763 -999.25   2.5711 -999.25 3.1269  30.9731   -999.25   -999.25   34.4999 -999.25 74.7876 0.1923
   10316.5000  0.0237 -999.25   0.1379  -999.25 110.9908 -999.25   2.5730 -999.25 3.1304  31.0783   -999.25   -999.25   34.9407 -999.25 74.3842 0.1894
   10317.0000 -0.0185 -999.25   0.1350  -999.25 105.5751 -999.25   2.5760 -999.25 3.1502  32.7079   -999.25   -999.25   36.7835 -999.25 73.8543 0.1857
   10317.5000 -0.0327 -999.25   0.1356  -999.25 109.3510 -999.25   2.5766 -999.25 3.1858  37.7908   -999.25   -999.25   40.9387 -999.25 73.8268 0.1855
   10318.0000 -0.0111 -999.25   0.1373  -999.25 115.9625 -999.25   2.5757 -999.25 3.2110  42.0561   -999.25   -999.25   44.0200 -999.25 74.0727 0.1872
   10318.5000  0.0099 -999.25   0.1375  -999.25 117.4422 -999.25   2.5751 -999.25 3.2038  41.1585   -999.25   -999.25   42.9848 -999.25 74.1134 0.1875
   10319.0000 -0.0175 -999.25   0.1373  -999.25 116.0869 -999.25   2.5743 -999.25 3.1752  37.3115   -999.25   -999.25   39.6777 -999.25 74.1229 0.1876
   10319.5000  0.0026 -999.25   0.1425  -999.25 128.3785 -999.25   2.5697 -999.25 3.2020  41.4255   -999.25   -999.25   43.1021 -999.25 75.1672 0.1950
   10320.0000 -0.0090 -999.25   0.1429  -999.25 128.6348 -999.25   2.5686 -999.25 3.1918  40.3340   -999.25   -999.25   42.3193 -999.25 75.2641 0.1956
   10320.5000  0.0271 -999.25   0.1417  -999.25 124.5344 -999.25   2.5687 -999.25 3.1797  39.0162   -999.25   -999.25   41.7101 -999.25 74.9997 0.1938
   10321.0000 -0.0123 -999.25   0.1449  -999.25 132.6578 -999.25   2.5663 -999.25 3.2098  43.4126   -999.25   -999.25   45.4555 -999.25 75.6652 0.1985
   10321.5000  0.0000 -999.25   0.1417  -999.25 123.1553 -999.25   2.5680 -999.25 3.1710  38.0680   -999.25   -999.25   41.2961 -999.25 75.0318 0.1940
   10322.0000 -0.0168 -999.25   0.1438  -999.25 127.0803 -999.25   2.5664 -999.25 3.1779  38.9323   -999.25   -999.25   41.9465 -999.25 75.4564 0.1970
   10322.5000  0.0076 -999.25   0.1450  -999.25 129.3330 -999.25   2.5654 -999.25 3.1811  39.2523   -999.25   -999.25   42.1389 -999.25 75.7401 0.1990
   10323.0000  0.0016 -999.25   0.1439  -999.25 125.3041 -999.25   2.5663 -999.25 3.1662  37.0957   -999.25   -999.25   40.5690 -999.25 75.5005 0.1973
   10323.5000 -0.0165 -999.25   0.1419  -999.25 119.8802 -999.25   2.5676 -999.25 3.1466  34.5410   -999.25   -999.25   38.7233 -999.25 75.0672 0.1943
   10324.0000 -0.0089 -999.25   0.1414  -999.25 118.9351 -999.25   2.5685 -999.25 3.1378  33.4096   -999.25   -999.25   37.7050 -999.25 74.8840 0.1930
   10324.5000  0.0008 -999.25   0.1404  -999.25 117.3729 -999.25   2.5696 -999.25 3.1219  31.5648   -999.25   -999.25   35.8054 -999.25 74.6409 0.1912
   10325.0000  0.0031 -999.25   0.1411  -999.25 120.2100 -999.25   2.5695 -999.25 3.1282  32.4214   -999.25   -999.25   36.2611 -999.25 74.7025 0.1917
   10325.5000 -0.0193 -999.25   0.1421  -999.25 124.0115 -999.25   2.5699 -999.25 3.1442  34.0611   -999.25   -999.25   37.3378 -999.25 74.8322 0.1926
   10326.0000 -0.0138 -999.25   0.1348  -999.25 107.7632 -999.25   2.5758 -999.25 3.0981  28.4542   -999.25   -999.25   32.5637 -999.25 73.4814 0.1830
   10326.5000 -0.0163 -999.25   0.1350  -999.25 110.4571 -999.25   2.5765 -999.25 3.1013  29.1152   -999.25   -999.25   32.5870 -999.25 73.3903 0.1824
   10327.0000  0.0151 -999.25   0.1306  -999.25 102.1921 -999.25   2.5801 -999.25 3.0685  25.6381   -999.25   -999.25   29.2662 -999.25 72.7594 0.1779
   10327.5000 -0.0141 -999.25   0.1284  -999.25  98.5084 -999.25   2.5810 -999.25 3.0541  24.3648   -999.25   -999.25   28.2418 -999.25 72.5029 0.1761
   10328.0000  0.0142 -999.25   0.1329  -999.25 108.2199 -999.25   2.5759 -999.25 3.0743  27.2554   -999.25   -999.25   30.8994 -999.25 73.1476 0.1807
   10328.5000  0.0109 -999.25   0.1341  -999.25 109.2525 -999.25   2.5728 -999.25 3.0700  27.3487   -999.25   -999.25   31.4749 -999.25 73.5553 0.1836
   10329.0000 -0.0105 -999.25   0.1373  -999.25 114.5665 -999.25   2.5678 -999.25 3.0710  28.3939   -999.25   -999.25   32.7502 -999.25 74.3599 0.1892
   10329.5000 -0.0064 -999.25   0.1372  -999.25 111.6891 -999.25   2.5666 -999.25 3.0557  26.4963   -999.25   -999.25   31.5342 -999.25 74.6051 0.1910
   10330.0000 -0.0104 -999.25   0.1385  -999.25 112.2554 -999.25   2.5654 -999.25 3.0631  26.6746   -999.25   -999.25   32.2612 -999.25 74.8659 0.1928
   10330.5000 -0.0012 -999.25   0.1364  -999.25 106.5870 -999.25   2.5683 -999.25 3.0724  25.2433   -999.25   -999.25   31.6827 -999.25 74.6215 0.1911
   10331.0000 -0.0393 -999.25   0.1389  -999.25 110.1126 -999.25   2.5673 -999.25 3.0951  27.5403   -999.25   -999.25   34.3221 -999.25 74.7703 0.1922
   10331.5000  0.0163 -999.25   0.1426  -999.25 117.0874 -999.25   2.5642 -999.25 3.1138  30.8664   -999.25   -999.25   37.5139 -999.25 75.2102 0.1953
   10332.0000 -0.0114 -999.25   0.1414  -999.25 115.4804 -999.25   2.5652 -999.25 3.1093  30.4821   -999.25   -999.25   36.9690 -999.25 75.0132 0.1939
   10332.5000 -0.0517 -999.25   0.1413  -999.25 116.4612 -999.25   2.5638 -999.25 3.1012  30.5203   -999.25   -999.25   36.6496 -999.25 75.1695 0.1950
   10333.0000 -0.0053 -999.25   0.1411  -999.25 117.0281 -999.25   2.5634 -999.25 3.0918  30.0388   -999.25   -999.25   35.7153 -999.25 75.2017 0.1952
   10333.5000  0.0074 -999.25   0.1358  -999.25 107.8313 -999.25   2.5681 -999.25 3.0609  25.8373   -999.25   -999.25   31.4307 -999.25 74.4609 0.1900
   10334.0000 -0.0512 -999.25   0.1376  -999.25 112.1697 -999.25   2.5685 -999.25 3.0569  26.0635   -999.25   -999.25   30.8530 -999.25 74.3753 0.1894
