~Version Information
 VERS.                  2.0:   CWLS log ASCII Standard -VERSION 2.0
 WRAP.                   NO:   One line per depth step
~Well Information Block
#MNEM.UNIT     VALUE/NAME     DESCRIPTION
#---------     -----------    ---------------------------
 STRT.F              8400.0000: START DEPTH
 STOP.F             14130.0000: STOP DEPTH
 STEP.F                 0.5000: STEP DEPTH
 NULL.                 -999.25: NULL VALUE
 LOC .            42-109-33596:  LOCATION
 FL1 .            42-109-33596:  LOCATIONLINE1
 PROV.                      TX:  PROVINCE
 STAT.                      TX:  STATE NAME
 CNTY.               CULBERSON:  COUNTY NAME
 FLD .              WOLFCAMP B:  FIELD NAME
 WELL.           DALE STATE 5H:  WELL NAME
 COMP.     CAPITAN ENERGY INC.:  COMPANY
 DMF .             Drill Floor:  DRILL MEAS FROM
 PDAT.                      GL:  PERMANENT DATUM
 DATE.             11-Feb-2020:  DATE
 SVCO.             Halliburton:  SERVICECONAME
 HIDE.                        :  WELLNAMEOPERAT
 BASI.                 PERMIAN:  BASIN
 UWI .            42-109-33596:  UNIQUE WELL IDENTIFIER
 API .            42-109-33596:  API NUMBER
 RANG.                     N/A:  RANGE
 TOWN.                     N/A:  TOWNSHIP
 SECT.                     N/A:  SECTION
 SON .               906289953:  JOB NUMBER
 CTRY.                        :  COUNTRY
 SRVC.             Halliburton:  SERVICE COMPANY
 LMF .             Drill Floor:  LOG MEASURED FROM
 TVDS.ft             3291.0000:  TVDSS CORRECTN
 EGL .ft             3266.0000:  GROUND ELEVATION
 APD .ft               25.0000:  DEPTH ABOVE PD
 EPD .ft             3266.0000:  ELEVATION
 BAP .ft                0.0000:  GL ELEV ONSHORE
 GVFD.g                 1.0000:  GRAVITY FIELD
 EKB .ft             3291.0000:  KB ELEVATION
 EDF .ft             3291.0000:  DF ELEVATION
~Curve Information Block
#MNEM.UNIT                 API CODE     Curve Description
#---------               -----------    ---------------------------
 DEPT.F                 00 000 000 000:  Depth
 CCL .V                 00 000 000 000:  Casing Collar Locator
 NPHI_OH.pu             00 000 000 000:  NPHI_OH
 NPHI_CHI.decp          00 000 000 000:  NPHI_CHI
 GR_OH.api              00 000 000 000:  GR_OH
 GR_CHI.api             00 000 000 000:  GR_CHI
 RHOB_OH.g/cc           00 000 000 000:  RHOB_OH
 RHOB_CHI.g/cc          00 000 000 000:  RHOB_CHI
 PE_OH.NONE             00 000 000 000:  PE_OH
 PE_CHI.NONE            00 000 000 000:  PE_CHI
 LLS_CHI.ohmm           00 000 000 000:  LLS_CHI
 LLS_OH.ohmm            00 000 000 000:  LLS_OH
 LLD_OH.ohmm            00 000 000 000:  LLD_OH
 LLD_CHI.ohmm           00 000 000 000:  LLD_CHI
 DTC_OH.uspf            00 000 000 000:  DTC_OH
 DTC_CHI.uspf           00 000 000 000:  DTC_CHI
 SPHW_CHI.decp          00 000 000 000:  SPHW_CHI
#Other Information
#
#WARRANTY: Halliburton will use its best efforts to furnish customers with 
#accurate information and interpretations that are part of, and incident to, the services 
#provided.  However, Halliburton cannot and does not warrant the accuracy 
#or correctness of such information and interpretations.  Under no circumstances should any 
#such information or interpretation be relied upon as the sole basis for any drilling, 
#completion, production, or financial decision or any procedure involving any risk to the 
#safety of any drilling venture, drilling rig or its crew or any other third party.  The 
#Customer has full responsibility for all drilling, completion and production operation.  
#Halliburton makes no representations or warranties, either expressed or 
#implied, including, but not limited to, the implied warranties of merchantability or fitness 
#for a particular purpose, with respect to the services rendered.  In no event will 
#Halliburton be liable for failure to obtain any particular results or for 
#any damages, including, but not limited to, indirect, special or consequential damages, 
#resulting from the use of any information or interpretation provided by Halliburton.
#
~A    DEPT      CCL   NPHI_OH NPHI_CHI  GR_OH    GR_CHI  RHOB_OH RHOB_CHI  PE_OH  PE_CHI LLS_CHI   LLS_OH    LLD_OH    LLD_CHI  DTC_OH  DTC_CHI SPHW_CHI 
    8400.0000 -0.0238 13.2210   0.1413 127.0181 122.5159  2.5660   2.5779  2.9295 3.3298  72.2827  203.0032  232.7875   79.7723 -999.25 72.6529 0.1772
    8400.5000 -0.0346 11.0136   0.1309 108.5691 110.5191  2.5763   2.5785  2.8593 3.3390  68.6770  175.8678  192.6966   76.8814 -999.25 71.3668 0.1681
    8401.0000  0.0560 10.6094   0.1116  96.8922  89.3909  2.6074   2.5844  2.9151 3.3879  60.7411  161.4129  189.1364   71.7088 -999.25 70.1684 0.1596
    8401.5000 -0.0069 10.8970   0.0908  82.3803  73.4991  2.6550   2.6002  3.2393 3.6023  67.4871  159.8716  187.6337   85.0862 -999.25 69.0523 0.1517
    8402.0000 -0.0224  8.5388   0.0670  64.6893  57.2517  2.6836   2.6283  3.8239 3.9342  78.1709  140.7195  163.3624  108.0871 -999.25 67.4078 0.1401
    8402.5000 -0.0454  7.2265   0.0649  60.5658  61.2984  2.6799   2.6282  4.2592 4.0537 105.5180  153.2230  186.3182  146.6626 -999.25 66.2458 0.1319
    8403.0000 -0.1170  7.2204   0.0703  60.0033  73.2017  2.6760   2.6173  4.3882 4.1122 149.0825  160.4601  195.5484  202.2566 -999.25 65.7007 0.1280
    8403.5000  0.0186  6.0054   0.0522  46.7629  61.8471  2.6854   2.6435  4.6095 4.4994 189.5034  273.0240  318.3328  278.2719 -999.25 64.7137 0.1210
    8404.0000 -0.0001  2.5195   0.0369  31.3562  46.1024  2.7008   2.6668  5.0033 4.8016 217.0595  662.0700  613.8632  348.5588 -999.25 63.7958 0.1145
    8404.5000  0.0298  1.9300   0.0299  25.9923  34.8421  2.7071   2.6761  5.2552 4.9058 225.9253  671.3361  619.1339  379.9493 -999.25 63.1966 0.1103
    8405.0000 -0.0215  2.3100   0.0304  29.3684  35.4817  2.6851   2.6738  5.2847 4.8810 228.3812  687.1383  633.1174  374.4061 -999.25 63.4688 0.1122
    8405.5000 -0.0160  3.6972   0.0357  37.0474  43.0003  2.6571   2.6640  5.1859 4.7558 218.9990  309.9128  344.7984  337.9137 -999.25 63.9672 0.1158
    8406.0000 -0.0067  5.1700   0.0398  43.7081  47.0071  2.6547   2.6568  5.1135 4.6351 200.1451  206.9745  243.6366  299.3240 -999.25 64.1390 0.1170
    8406.5000  0.0033  5.1554   0.0414  51.5587  47.7817  2.6671   2.6543  5.0990 4.5695 182.4361  197.8102  233.8923  271.4503 -999.25 64.2273 0.1176
    8407.0000  0.0086  5.7068   0.0456  60.0049  51.3461  2.6809   2.6473  5.0528 4.4872 170.9433  211.0527  259.8919  248.6068 -999.25 64.7223 0.1211
    8407.5000 -0.0032  5.5910   0.0496  62.0872  54.6765  2.6950   2.6417  5.0109 4.4628 171.7000  264.4158  319.8661  242.5658 -999.25 65.8250 0.1289
    8408.0000 -0.0070  4.9473   0.0578  58.2618  61.6074  2.6964   2.6295  4.9995 4.3861 175.8244  286.9421  343.5991  234.2622 -999.25 67.5509 0.1411
    8408.5000 -0.0050  4.5176   0.0536  54.9412  55.4789  2.6801   2.6387  4.9444 4.4942 179.0626  297.2150  329.3077  239.6930 -999.25 68.1960 0.1457
    8409.0000 -0.0043  5.3094   0.0554  56.3669  55.3816  2.6504   2.6385  4.7734 4.4833 177.8541  272.2383  293.9088  234.0265 -999.25 68.5937 0.1485
    8409.5000  0.0027  8.0294   0.0857  61.9750  80.9229  2.6185   2.5969  4.5298 4.0680 171.7222  212.6747  260.4806  201.1117 -999.25 69.9557 0.1581
    8410.0000  0.0126 11.1406   0.0879  66.6325  80.4211  2.5986   2.5995  4.3841 4.0361 161.3557  211.1667  259.3446  191.8336 -999.25 69.5837 0.1555
    8410.5000  0.0025 10.0594   0.0753  62.7077  67.8394  2.5981   2.6177  4.4356 4.1275 141.7249  231.7798  271.0749  178.1738 -999.25 68.7083 0.1493
    8411.0000  0.0004  6.9029   0.0669  54.3882  61.2087  2.6144   2.6245  4.5631 4.1570 136.3918  356.2423  343.6791  175.4683 -999.25 67.7731 0.1427
    8411.5000  0.0159  5.3508   0.0670  52.4135  63.4695  2.6388   2.6179  4.7135 4.1010 146.8273  306.2804  328.9123  186.5905 -999.25 66.7499 0.1354
    8412.0000 -0.0035  5.0800   0.0724  59.1715  72.5376  2.6564   2.6069  4.8778 4.0481 171.8390  306.1111  328.8071  214.7789 -999.25 65.8524 0.1291
    8412.5000 -0.0049  5.8000   0.0669  63.9795  72.7879  2.6538   2.6141  4.9061 4.1948 204.3758  249.2876  287.2537  265.1972 -999.25 65.0023 0.1231
    8413.0000  0.0051  5.7261   0.0517  59.5855  62.9338  2.5983   2.6369  4.6682 4.4996 243.0384  253.6263  296.6721  338.1695 -999.25 64.1825 0.1173
    8413.5000 -0.0082  5.3650   0.0379  49.4056  49.5378  2.5125   2.6574  4.3792 4.7454 274.4681  254.2829  298.0772  407.2732 -999.25 63.3987 0.1117
    8414.0000 -0.0164  4.9183   0.0269  38.6862  33.5020  2.4634   2.6711  4.3644 4.8586 294.5653  349.0658  350.9819  453.7150 -999.25 62.6849 0.1067
    8414.5000 -0.0089  5.2094   0.0251  35.7127  29.7711  2.4793   2.6697  4.4989 4.8169 310.4615  296.7193  310.2915  459.2243 -999.25 63.1064 0.1097
    8415.0000 -0.0036  5.5666   0.0377  42.5378  43.7346  2.5360   2.6464  4.5032 4.5733 308.7677  263.2830  286.8549  408.0463 -999.25 64.0275 0.1162
    8415.5000  0.0007  5.6566   0.0602  49.8753  64.9556  2.5782   2.6102  4.3869 4.2122 282.7921  252.5770  279.9103  335.8892 -999.25 64.8833 0.1222
    8416.0000  0.0065  4.9498   0.0641  51.1142  68.6142  2.5949   2.6066  4.3191 4.1597 253.6054  320.9827  337.8463  303.4442 -999.25 65.0025 0.1231
    8416.5000 -0.0022  3.4621   0.0576  47.0094  63.0463  2.6105   2.6187  4.3995 4.2604 234.6686  411.1223  419.5273  296.2413 -999.25 64.6989 0.1209
    8417.0000  0.0017  2.2160   0.0481  40.5415  54.4693  2.6423   2.6341  4.5665 4.4167 240.5347  436.6874  453.1990  318.1685 -999.25 64.2877 0.1180
    8417.5000  0.0054  2.2670   0.0467  32.7834  53.5317  2.6711   2.6352  4.6630 4.4435 256.8063  457.8614  463.7834  338.4589 -999.25 64.1906 0.1173
    8418.0000 -0.0026  2.7772   0.0379  28.4430  44.6731  2.6734   2.6494  4.6526 4.5844 270.8129  461.5314  428.4410  371.0663 -999.25 63.8555 0.1150
    8418.5000  0.0054  3.8560   0.0353  32.0375  42.4121  2.6565   2.6547  4.6328 4.6429 279.4308  325.7646  358.3095  389.9512 -999.25 63.7134 0.1140
    8419.0000 -0.0004  4.4478   0.0364  41.0214  44.8058  2.6440   2.6549  4.6822 4.6587 279.9003  322.9161  350.1045  394.9476 -999.25 63.5645 0.1129
    8419.5000 -0.0049  4.1300   0.0397  45.6187  49.2456  2.6340   2.6508  4.9062 4.6364 277.7622  239.1250  272.7614  390.1740 -999.25 63.6024 0.1132
    8420.0000  0.0152  3.9000   0.0410  42.8271  50.7707  2.6330   2.6484  5.1925 4.6298 280.5415  260.4043  293.4183  390.7677 -999.25 63.8040 0.1146
    8420.5000 -0.0117  2.8296   0.0335  35.1105  41.1003  2.6450   2.6588  5.2191 4.7297 290.8326  269.9814  303.4118  414.7495 -999.25 63.6902 0.1138
    8421.0000  0.0070  2.7046   0.0262  25.2179  30.4381  2.6472   2.6681  5.1256 4.8028 304.9375  458.1496  454.2091  441.7353 -999.25 63.7792 0.1144
    8421.5000 -0.0075  2.8419   0.0353  21.3996  41.3939  2.6464   2.6523  5.0816 4.6544 319.3702  544.5701  618.0319  426.5787 -999.25 64.3557 0.1185
    8422.0000 -0.0221  3.9371   0.0496  28.1688  56.0048  2.6561   2.6295  5.0125 4.4365 327.1248  557.2623  644.1830  404.8476 -999.25 64.6930 0.1209
    8422.5000  0.0000  4.3878   0.0543  40.8213  61.6609  2.6659   2.6235  4.8708 4.3817 332.0330  459.4619  464.5301  408.5408 -999.25 64.4231 0.1190
    8423.0000  0.0037  4.5899   0.0500  48.5794  60.3809  2.6577   2.6317  4.8140 4.4802 341.9933  367.0049  393.5160  439.3599 -999.25 63.7855 0.1145
    8423.5000 -0.0106  3.8107   0.0412  47.0950  53.7956  2.6530   2.6464  4.9249 4.6436 353.4146  352.4837  386.8817  482.1567 -999.25 63.0950 0.1096
    8424.0000  0.0073  2.7689   0.0325  38.5854  44.3891  2.6681   2.6607  5.0545 4.7922 361.8329  351.7963  386.0714  523.1303 -999.25 62.5239 0.1055
    8424.5000 -0.0171  2.6783   0.0274  30.7462  37.0318  2.6743   2.6687  5.0960 4.8717 368.9657  594.9501  611.4560  550.3293 -999.25 62.3421 0.1043
    8425.0000 -0.0084  2.3728   0.0261  28.3654  34.6620  2.6731   2.6699  5.0930 4.8740 374.0849  404.4579  391.1208  555.6781 -999.25 62.4499 0.1050
    8425.5000  0.0071  2.4761   0.0338  33.7101  45.0990  2.6714   2.6572  5.1105 4.7559 372.1596  382.3806  370.0818  522.5214 -999.25 62.8928 0.1082
    8426.0000  0.0083  2.3760   0.0428  44.9823  55.5495  2.6678   2.6427  5.1910 4.6141 361.2152  296.7308  325.0755  485.5385 -999.25 63.1760 0.1102
