###############################################
##         ENVERUS                           ##
##         ESS - Open Hole                   ##
##         PERMIAN / DELAWARE                ##
##         Nov 02 2023  V4.0                 ##
##         42-109-32255-00-00                ##
###############################################
## Copyright 2017-2023  ENVERUS.  All Rights Reserved. 
## Confidential - Property of ENVERUS, use governed by terms and 
## conditions found within the existing Information Services Subscription Agreement 
## (as may be amended, the “ISSA”) between Customer and ENVERUS. 
## 
~VERSION INFORMATION
# MNEM.UNIT                               DATA : DESCRIPTION OF MNEMONIC
#-----.-----     ----------------------------- : -----------------------------
VERS.                                     2.00 : CWLS LOG ASCII STANDARD - VERSION 2.00
WRAP.                                       NO : MULTIPLE LINES PER DEPTH STEP
VEND.                                  ENVERUS : VENDOR
TYPE.                          ESS - OPEN HOLE : ENVERUS ESSENTIAL CURVES – ACCESSIBLE THROUGH ENVERUS PRISM(TM)
DOC.                                  22531479 : ENVERUS HEADER RAW DOCUMENT ID
#___________________________________________________________________________________________________ 
~WELL INFORMATION 
# hWe/832LbRsDOXT7erJRLf+k/AYA64twV/RtTeeHm/CkPExvlrAQ0qJE/El28xU0WYmlktkqeCNHArF5iUyCGg== 
# MNEM.UNIT                                              DATA : DESCRIPTION OF MNEMONIC 
#-----.-----                    ----------------------------- : ----------------------------- 
CNTY.                                               CULBERSON : COUNTY 
STATE.                                                  TEXAS : STATE 
CNTRY.                                                    USA : COUNTRY 
API.                                             42-109-32255 : API (10 Digit) 
API_14.                                    42-109-32255-00-00 : API (14 Digits) 
API_14_std.                                 42-109-32255-0000 : API (14 Digits Standard) 
UWI.                                           42109322550000 : UNIQUE WELL ID 
WELL.                               MELISSA TAYLOR STATE 27-1 : WELL NAME
STRT.FT                                                7612.0 : START DEPTH
STOP.FT                                               13645.5 : STOP DEPTH
STEP.FT                                                   0.5 : STEP BETWEEN DEPTHS
NULL.                                                 -999.25 : NULL VALUE
COMP.                                         PETRO-HUNT,LLC. : COMPANY 
FLD.                                                  WILDCAT : FIELD 
SRVC.                                            SCHLUMBERGER : SERVICE COMPANY 
DATE.                                              04/06/2006 : DATE 
TVD.                                                       NO : TVD FLAG
#___________________________________________________________________________________________________ 
~PARAMETER INFORMATION 
# MNEM.UNIT                                              DATA : DESCRIPTION OF MNEMONIC 
#-----.-----                    ----------------------------- : ----------------------------- 
RUN.                                                      ONE : RUN NUMBER 
PDAT.                                                      GL : PERMANENT DATUM 
EPD.FT                                               000.0000 : ELEVATION OF PERM. DATUM 
LMF.                                            KELLY BUSHING : LOG MEASURED FROM 
EKB.FT                                                 3796.6 : ELEVATION OF KELLY BUSHING 
DF.FT                                                  3773.0 : ELEVATION OF DERRICK FLOOR 
GL.FT                                                  3795.6 : ELEVATION OF GROUND LEVEL 
TD.FT                                              13716.0000 : TOTAL DEPTH 
BHT.DEGF                                               224.00 : BOTTOM HOLE TEMPERATURE 
BLI.FT                                             13716.0000 : BOTTOM LOG INTERVAL 
CSGSIZE.IN                                             9.6250 : CASING SIZE 
BITSIZE.IN                                              8.750 : BITSIZE 
CSGD.FT                                               12804.0 : CASING BOTTOM (DRILLER) 1 
CSGL.FT                                               12802.0 : CASING BOTTOM (LOGGER) 1 
MUD.                                                    BRINE : DRILLING FLUID TYPE 
MUDV.CP                                                  45.0 : DRILLING FLUID VISCOSITY 
MUDD.LB/USG                                               9.5 : DRILLING FLUID DENSITY 
PH.                                                      10.0 : DRILLING FLUID PH 
FL.ML/30MIN                                               5.0 : DRILLING FLUID LOSS 
MUDS.                                               CIRC TANK : MUD SAMPLE SOURCE 
RM.OHMM                                                 0.064 : RESISTIVITY OF MUD SAMPLE 
RMT.DEGF                                                66.00 : MUD SAMPLE TEMPERATURE 
RMF.OHMM                                                0.048 : MUD FILTRATE RESISTIVITY 
RMFT.DEGF                                               66.00 : MUD FILTRATE SAMPLE TEMPERATURE 
RMC.OHMM                                                0.095 : MUD CAKE RESISTIVITY 
RMCT.DEGF                                               66.00 : MUD CAKE SAMPLE TEMPERATURE 
RMB.OHMM                                                0.015 : MUD RESISTIVITY AT BHT 
TMAX.DEGF                                              224.00 : BOTTOM HOLE TEMPERATURE
#___________________________________________________________________________________________________ 
~CURVE INFORMATION 
# MNEM.UNIT           : CURVE DESCRIPTION 
#-----.-----          : ----------------------------- 
 DEPT.FT               : MEASURED DEPTH 
 DT__A.US/FT           : SONIC DELTA TRANSIT TIME (DELTA T COMP) 
 SPHI__A.V/V           : SONIC POROSITY (SONIC POROSITY) 
 #___________________________________________________________________________________________________ 
~A         DEPT          DT__A        SPHI__A
# ...
         9178.0         58.133        0.07600
         9178.5         57.627        0.07000
         9179.0         57.289        0.07700
         9179.5         59.458        0.09000
         9180.0         61.265        0.10300
         9180.5         63.072        0.11300
         9181.0         64.398        0.12100
         9181.5         64.807        0.12100
         9182.0         64.325        0.12100
         9182.5         63.474        0.11100
         9183.0         62.068        0.10200
         9183.5         60.663        0.09400
         9184.0         59.819        0.09100
         9184.5         59.699        0.08800
         9185.0         59.880        0.08500
         9185.5         60.181        0.08800
         9186.0         60.482        0.09100
         9186.5         60.783        0.09400
         9187.0         60.783        0.09200
         9187.5         60.232        0.08800
         9188.0         59.544        0.08400
         9188.5         58.855        0.08000
         9189.0         58.855        0.08000
         9189.5         58.928        0.08100
         9190.0         58.976        0.08200
         9190.5         59.066        0.08100
         9191.0         58.735        0.07800
         9191.5         58.133        0.07500
         9192.0         57.771        0.07100
         9192.5         57.771        0.07100
         9193.0         58.072        0.07100
         9193.5         58.454        0.07600
         9194.0         58.956        0.08000
         9194.5         59.458        0.08400
         9195.0         59.569        0.08500
         9195.5         59.680        0.08500
         9196.0         59.791        0.08600
         9196.5         59.902        0.08700
         9197.0         60.013        0.08800
         9197.5         60.124        0.09000
         9198.0         60.235        0.09200
         9198.5         60.697        0.09400
         9199.0         61.687        0.10400
         9199.5         63.072        0.11000
         9200.0         62.736        0.10900
         9200.5         62.176        0.10200
         9201.0         61.819        0.10300
         9201.5         62.108        0.10400
         9202.0         62.434        0.10500
         9202.5         62.289        0.10400
         9203.0         61.675        0.10000
         9203.5         61.145        0.09700
         9204.0         61.145        0.09500
         9204.5         61.145        0.09300
         9205.0         60.181        0.09000
         9205.5         59.703        0.08600
         9206.0         59.225        0.08100
         9206.5         58.494        0.07700
         9207.0         59.195        0.07700
         9207.5         60.684        0.09400
         9208.0         62.172        0.10900
         9208.5         63.661        0.12500
         9209.0         65.150        0.12900
         9209.5         66.122        0.13300
         9210.0         66.224        0.13300
         9210.5         66.325        0.13100
         9211.0         65.873        0.12800
         9211.5         65.512        0.12400
         9212.0         65.241        0.12400
         9212.5         65.241        0.12600
         9213.0         65.542        0.12800
         9213.5         66.054        0.13100
         9214.0         66.325        0.13100
         9214.5         65.568        0.12900
         9215.0         64.621        0.11900
         9215.5         63.675        0.11300
         9216.0         63.795        0.11500
         9216.5         63.916        0.11400
         9217.0         63.133        0.10900
         9217.5         62.349        0.10300
         9218.0         62.048        0.10000
         9218.5         61.546        0.10000
         9219.0         61.506        0.10100
         9219.5         62.349        0.10900
         9220.0         61.672        0.12900
         9220.5         60.542        0.14900
         9221.0         61.867        0.17200
         9221.5         73.253        0.19700
         9222.0         77.048        0.20700
         9222.5         75.873        0.19800
         9223.0         73.560        0.17800
         9223.5         70.356        0.15700
         9224.0         67.152        0.13600
         9224.5         63.949        0.11600
         9225.0         61.386        0.09700
         9225.5         58.735        0.08200
         9226.0         58.133        0.07600
         9226.5         57.699        0.07100
         9227.0         57.410        0.06700
         9227.5         57.169        0.06700
         9228.0         57.545        0.07000
         9228.5         57.892        0.07200
         9229.0         58.193        0.07400
         9229.5         58.494        0.07700
         9230.0         58.795        0.07900
         9230.5         59.096        0.08200
         9231.0         59.398        0.08700
         9231.5         59.699        0.09600
         9232.0         61.377        0.10500
         9232.5         63.055        0.11400
         9233.0         64.398        0.11900
         9233.5         64.880        0.12200
         9234.0         64.880        0.12000
         9234.5         64.329        0.11700
         9235.0         63.640        0.11000
         9235.5         62.952        0.10300
         9236.0         61.446        0.09600
         9236.5         59.940        0.08800
         9237.0         59.337        0.08300
         9237.5         59.458        0.08300
         9238.0         59.458        0.08700
         9238.5         60.497        0.09200
         9239.0         61.363        0.09800
         9239.5         62.229        0.10200
         9240.0         61.506        0.09800
         9240.5         60.783        0.09300
         9241.0         60.060        0.08900
         9241.5         59.337        0.08400
         9242.0         59.277        0.08300
         9242.5         59.217        0.08200
         9243.0         59.217        0.08200
         9243.5         59.217        0.08300
         9244.0         59.217        0.08300
         9244.5         59.337        0.08300
         9245.0         59.488        0.08500
         9245.5         59.699        0.08800
         9246.0         60.361        0.09200
         9246.5         61.265        0.09800
         9247.0         62.530        0.10700
         9247.5         64.036        0.11600
         9248.0         64.337        0.11900
         9248.5         64.639        0.12000
         9249.0         63.949        0.11500
         9249.5         63.260        0.11000
         9250.0         62.570        0.10500
         9250.5         61.881        0.10000
         9251.0         61.191        0.09500
         9251.5         60.542        0.09200
         9252.0         60.386        0.09100
         9252.5         60.663        0.09100
         9253.0         60.502        0.09000
         9253.5         60.060        0.08900
         9254.0         60.060        0.08800
         9254.5         59.870        0.08700
         9255.0         59.535        0.08600
         9255.5         59.198        0.08300
         9256.0         58.863        0.08000
         9256.5         58.813        0.08300
         9257.0         59.932        0.09300
         9257.5         61.439        0.10500
         9258.0         62.944        0.11500
         9258.5         63.862        0.11400
         9259.0         63.574        0.11200
         9259.5         63.313        0.11100
         9260.0         63.614        0.11200
         9260.5         63.567        0.11200
         9261.0         63.014        0.11000
         9261.5         62.642        0.10800
         9262.0         62.488        0.10600
         9262.5         62.334        0.10400
         9263.0         62.181        0.10400
         9263.5         62.349        0.10600
         9264.0         63.106        0.11100
         9264.5         63.772        0.11600
