###############################################
##         ENVERUS                           ##
##         ESS - Open Hole                   ##
##         PERMIAN / DELAWARE                ##
##         Nov 03 2023  V4.0                 ##
##         42-109-32572-90-00                ##
###############################################
## Copyright 2017-2023  ENVERUS.  All Rights Reserved. 
## Confidential - Property of ENVERUS, use governed by terms and 
## conditions found within the existing Information Services Subscription Agreement 
## (as may be amended, the “ISSA”) between Customer and ENVERUS. 
## 
~VERSION INFORMATION
# MNEM.UNIT                               DATA : DESCRIPTION OF MNEMONIC
#-----.-----     ----------------------------- : -----------------------------
VERS.                                     2.00 : CWLS LOG ASCII STANDARD - VERSION 2.00
WRAP.                                       NO : MULTIPLE LINES PER DEPTH STEP
VEND.                                  ENVERUS : VENDOR
TYPE.                          ESS - OPEN HOLE : ENVERUS ESSENTIAL CURVES – ACCESSIBLE THROUGH ENVERUS PRISM(TM)
DOC.                                  51093105 : ENVERUS HEADER RAW DOCUMENT ID
#___________________________________________________________________________________________________ 
~WELL INFORMATION 
# JLMmoJa/ja/TVcwAQvDk33OYEn4U2aLD16xKSNtVAxpK3Y/5Eg5lhKgsZNDQ5ZP0fRHfEZLFMAnipg5oeA7W3g== 
# MNEM.UNIT                                              DATA : DESCRIPTION OF MNEMONIC 
#-----.-----                    ----------------------------- : ----------------------------- 
CNTY.                                               CULBERSON : COUNTY 
STATE.                                                  TEXAS : STATE 
CNTRY.                                                    USA : COUNTRY 
API.                                             42-109-32572 : API (10 Digit) 
API_14.                                    42-109-32572-90-00 : API (14 Digits) 
API_14_std.                                 42-109-32572-9000 : API (14 Digits Standard) 
UWI.                                           42109325729000 : UNIQUE WELL ID 
WELL.                               42109325720000_PREV_API14 : WELL NAME
STRT.FT                                                2248.5 : START DEPTH
STOP.FT                                               10721.5 : STOP DEPTH
STEP.FT                                                   0.5 : STEP BETWEEN DEPTHS
NULL.                                                 -999.25 : NULL VALUE
PREV_APII.                                     42109325720000 : WELL IDENTIFIER
#___________________________________________________________________________________________________ 
~PARAMETER INFORMATION 
# MNEM.UNIT                                              DATA : DESCRIPTION OF MNEMONIC 
#-----.-----                    ----------------------------- : ----------------------------- 
EKB.FT                                                   3340 : ELEVATION ABOVE MSL
#___________________________________________________________________________________________________ 
~CURVE INFORMATION 
# MNEM.UNIT           : CURVE DESCRIPTION 
#-----.-----          : ----------------------------- 
 DEPT.FT               : MEASURED DEPTH 
 GR__A.API             : GAMMA RAY (GAMMA RAY) 
 DT__A.US/FT           : SONIC DELTA TRANSIT TIME (SONIC) 
 #___________________________________________________________________________________________________ 
~A         DEPT          GR__A          DT__A
# ...
         6685.5         44.618         59.434
         6686.0         46.536         60.205
         6686.5         53.933         61.933
         6687.0         53.505         61.777
         6687.5         51.663         61.680
         6688.0         51.663         61.931
         6688.5         50.349         61.917
         6689.0         46.327         61.777
         6689.5         44.227         61.039
         6690.0         44.009         60.551
         6690.5         44.443         61.356
         6691.0         49.262         63.393
         6691.5         52.658         63.686
         6692.0         51.454         63.678
         6692.5         44.803         61.680
         6693.0         44.926         62.707
         6693.5         52.287         63.123
         6694.0         56.180         64.694
         6694.5         61.448         63.603
         6695.0         55.868         62.094
         6695.5         51.272         61.875
         6696.0         50.098         61.680
         6696.5         49.125         61.094
         6697.0         45.314         61.593
         6697.5         44.898         65.776
         6698.0         49.200         67.327
         6698.5         66.664         69.245
         6699.0         69.667         68.149
         6699.5         52.659         63.921
         6700.0         47.222         61.787
         6700.5         40.923         61.289
         6701.0         42.874         64.849
         6701.5         73.307         68.586
         6702.0         83.865         69.046
         6702.5        117.769         70.850
         6703.0         83.035         67.827
         6703.5         48.763         63.007
         6704.0         43.126         64.260
         6704.5         54.014         66.368
         6705.0         73.345         68.836
         6705.5         63.372         68.285
         6706.0         47.113         67.054
         6706.5         37.459         61.927
         6707.0         43.907         61.059
         6707.5         74.243         66.747
         6708.0         91.945         69.555
         6708.5        118.158         73.629
         6709.0        102.324         73.956
         6709.5         84.132         72.679
         6710.0         81.275         72.079
         6710.5         77.623         72.943
         6711.0         74.364         72.569
         6711.5         75.666         71.087
         6712.0         77.104         71.477
         6712.5         77.227         71.543
         6713.0         85.357         72.018
         6713.5         86.981         70.882
         6714.0         82.545         68.555
         6714.5         70.335         67.763
         6715.0         70.228         69.032
         6715.5         76.205         72.014
         6716.0         82.172         74.522
         6716.5        105.000         79.200
         6717.0        116.022         82.316
         6717.5        147.597         90.992
         6718.0        163.561         91.723
         6718.5        172.640         92.344
         6719.0        149.806         91.832
         6719.5        147.468         91.148
         6720.0        169.464         90.879
         6720.5        187.025         81.910
         6721.0        156.316         81.449
         6721.5        127.258         73.824
         6722.0        118.241         70.584
         6722.5         91.492         70.174
         6723.0         90.882         71.475
         6723.5         89.670         71.919
         6724.0         84.612         69.830
         6724.5         75.930         71.455
         6725.0         88.599         73.474
         6725.5        117.863         76.978
         6726.0        137.659         81.971
         6726.5        229.708        111.353
         6727.0        250.944        108.191
         6727.5        246.632        106.808
         6728.0        242.112        104.009
         6728.5        227.277        105.806
         6729.0        248.992        102.193
         6729.5        264.083        101.839
         6730.0        247.699        100.971
         6730.5        214.937        102.095
         6731.0        242.976        102.942
         6731.5        250.524        101.197
         6732.0        241.849         99.375
         6732.5        221.064        102.571
         6733.0        247.504        111.239
         6733.5        274.462        113.642
         6734.0        268.291        114.206
         6734.5        262.231        108.703
         6735.0        242.492        105.227
         6735.5        211.714        110.150
         6736.0        208.611        109.070
         6736.5        207.781        107.425
         6737.0        198.693        100.736
         6737.5        186.693         98.491
         6738.0        188.624         98.798
         6738.5        213.156        101.457
         6739.0        216.653        104.263
         6739.5        218.797        104.155
         6740.0        220.752        102.261
         6740.5        217.789        103.290
         6741.0        208.989        107.444
         6741.5        215.658        109.336
         6742.0        220.355        109.336
         6742.5        223.500        109.336
         6743.0        207.102        107.730
         6743.5        223.195        106.584
         6744.0        233.028        106.697
         6744.5        249.862        106.812
         6745.0        256.348        107.328
         6745.5        264.536        110.157
         6746.0        265.770        109.535
         6746.5        263.051        106.023
         6747.0        273.107        104.921
         6747.5        275.418        104.264
         6748.0        268.127         96.293
         6748.5        247.917         97.318
         6749.0        208.342         97.527
         6749.5        175.075         95.730
         6750.0        171.953         95.257
         6750.5        191.446        103.518
         6751.0        202.832        101.328
         6751.5        211.467         99.776
         6752.0        208.261         97.278
         6752.5        188.847         93.716
         6753.0        186.119         96.698
         6753.5        197.852         97.227
         6754.0        202.640         94.188
         6754.5        202.636         93.991
         6755.0        231.134         99.126
         6755.5        295.491        102.646
         6756.0        310.923        105.293
         6756.5        330.820        108.392
         6757.0        303.781        106.820
         6757.5        238.214        106.129
         6758.0        227.672        105.642
         6758.5        214.550        105.527
         6759.0        221.229        108.911
         6759.5        245.346        109.629
         6760.0        249.482        109.159
         6760.5        244.067        108.085
         6761.0        224.231        105.099
         6761.5        217.302        103.810
         6762.0        222.550        103.166
         6762.5        234.672        103.625
         6763.0        226.771        105.701
         6763.5        224.959        103.705
         6764.0        228.355        103.477
         6764.5        243.350        104.223
         6765.0        242.757        106.258
         6765.5        222.409        102.256
         6766.0        215.364        102.134
         6766.5        224.018        102.207
         6767.0        264.725        103.965
         6767.5        293.517        110.744
         6768.0        305.831        111.484
         6768.5        308.937        111.820
         6769.0        290.205        109.953
         6769.5        242.242         91.319
         6770.0        219.940         89.291
         6770.5        164.492         85.796
         6771.0        150.415         82.181
         6771.5        155.633         88.599
         6772.0        164.252         91.394
