###############################################
##         ENVERUS                           ##
##         ESS - Open Hole                   ##
##         PERMIAN / DELAWARE                ##
##         Nov 02 2023  V4.0                 ##
##         42-109-10429-00-00                ##
###############################################
## Copyright 2017-2023  ENVERUS.  All Rights Reserved. 
## Confidential - Property of ENVERUS, use governed by terms and 
## conditions found within the existing Information Services Subscription Agreement 
## (as may be amended, the “ISSA”) between Customer and ENVERUS. 
## 
~VERSION INFORMATION
# MNEM.UNIT                               DATA : DESCRIPTION OF MNEMONIC
#-----.-----     ----------------------------- : -----------------------------
VERS.                                     2.00 : CWLS LOG ASCII STANDARD - VERSION 2.00
WRAP.                                       NO : MULTIPLE LINES PER DEPTH STEP
VEND.                                  ENVERUS : VENDOR
TYPE.                          ESS - OPEN HOLE : ENVERUS ESSENTIAL CURVES – ACCESSIBLE THROUGH ENVERUS PRISM(TM)
DOC.                                  32032754 : ENVERUS HEADER RAW DOCUMENT ID
#___________________________________________________________________________________________________ 
~WELL INFORMATION 
# hXqYWT5FmhW7UEcPXxReyvN++rqgSwBrBdup88XCyeQNQmx1Fo1vv7xYmZNr9HC+TZh0ltY2ePdKOSE9Z1hlZw== 
# MNEM.UNIT                                              DATA : DESCRIPTION OF MNEMONIC 
#-----.-----                    ----------------------------- : ----------------------------- 
CNTY.                                               CULBERSON : COUNTY 
STATE.                                                  TEXAS : STATE 
CNTRY.                                                    USA : COUNTRY 
API.                                             42-109-10429 : API (10 Digit) 
API_14.                                    42-109-10429-00-00 : API (14 Digits) 
API_14_std.                                 42-109-10429-0000 : API (14 Digits Standard) 
UWI.                                           42109104290000 : UNIQUE WELL ID 
WELL.                                          ROUNSAVILLE  1 : WELL NAME
STRT.FT                                                     0 : START DEPTH
STOP.FT                                                8409.0 : STOP DEPTH
STEP.FT                                                   0.5 : STEP BETWEEN DEPTHS
NULL.                                                 -999.25 : NULL VALUE
COMP.                                     EOG RESOURCES  INC. : COMPANY
#___________________________________________________________________________________________________ 
~CURVE INFORMATION 
# MNEM.UNIT           : CURVE DESCRIPTION 
#-----.-----          : ----------------------------- 
 DEPT.FT               : MEASURED DEPTH 
 CALI.IN               : CALIPER (CAL - CAL) 
 GR.API                : GAMMA RAY (GR) 
 SP.MV                 : SPONTANEOUS POTENTIAL (SP) 
 DT.US/FT              : SONIC DELTA TRANSIT TIME (DT) 
 RESD.OHMM             : DEEP INDUCTION RESISTIVITY (ILD - ILD) 
 #___________________________________________________________________________________________________ 
~A         DEPT           CALI             GR             SP             DT           RESD
# ...
         3036.0         13.190         40.192        -60.815         62.306       1573.913
         3036.5         13.193         41.433        -61.063         61.876       1526.996
         3037.0         13.180         38.268        -61.930         61.718       1480.078
         3037.5         13.161         37.410        -62.797         62.542       1389.286
         3038.0         13.143         38.776        -63.663         64.803       1187.679
         3038.5         13.124         45.055        -64.530         66.846        986.073
         3039.0         13.135         51.334        -65.125         67.823        784.466
         3039.5         13.203         57.613        -65.365         68.799        635.024
         3040.0         13.252         63.891        -65.604         69.775        635.075
         3040.5         13.189         66.655        -65.843         67.570        633.115
         3041.0         13.127         66.643        -66.038         64.961        599.898
         3041.5         13.064         63.128        -66.036         63.779        566.680
         3042.0         13.003         58.737        -66.034         62.596        589.620
         3042.5         13.015         54.346        -66.152         63.658        715.746
         3043.0         13.026         51.393        -66.636         64.995        841.873
         3043.5         13.038         50.757        -67.120         66.430        968.000
         3044.0         13.050         51.284        -67.603         68.082       1094.127
         3044.5         13.061         55.350        -68.087         69.733       1135.846
         3045.0         13.071         59.800        -68.740         71.065       1158.032
         3045.5         13.070         64.249        -69.479         71.069       1151.515
         3046.0         13.068         67.400        -70.218         70.842       1097.101
         3046.5         13.067         65.867        -70.957         70.237       1042.686
         3047.0         13.066         64.425        -71.696         70.677        988.272
         3047.5         13.064         63.918        -71.950         72.082        968.138
         3048.0         13.058         63.411        -71.857         72.614        963.795
         3048.5         13.052         62.904        -71.763         71.958        959.452
         3049.0         13.046         62.397        -71.669         70.154        955.109
         3049.5         13.041         59.217        -71.594         68.349        950.766
         3050.0         13.035         56.037        -71.522         66.544       1044.856
         3050.5         13.089         54.473        -71.377         64.843       1218.790
         3051.0         13.171         55.586        -71.117         64.919       1392.724
         3051.5         13.222         58.899        -70.857         65.268       1566.658
         3052.0         13.180         62.212        -70.596         68.189       1559.865
         3052.5         13.138         65.525        -70.336         71.110       1545.095
         3053.0         13.096         68.294        -70.076         71.430       1530.324
         3053.5         13.055         67.821        -69.816         71.560       1519.149
         3054.0         13.048         66.515        -69.556         71.689       1516.818
         3054.5         13.047         63.907        -69.296         70.924       1514.487
         3055.0         13.046         61.298        -69.370         70.084       1512.157
         3055.5         13.044         62.961        -69.549         69.810       1509.826
         3056.0         13.043         68.764        -69.728         70.697       1507.495
         3056.5         13.042         74.567        -69.907         74.083       1505.165
         3057.0         13.041         80.371        -70.069         73.898       1502.834
         3057.5         13.050         80.321        -69.578         73.051       1500.503
         3058.0         13.067         77.104        -69.087         72.204       1498.173
         3058.5         13.084         73.887        -68.595         71.357       1495.842
         3059.0         13.101         70.671        -68.104         71.528       1493.511
         3059.5         13.108         67.454        -68.057         71.906       1491.181
         3060.0         13.100         64.237        -68.500         72.284       1488.850
         3060.5         13.093         63.690        -68.943         71.473       1486.519
         3061.0         13.086         61.935        -69.386         69.709       1484.188
         3061.5         13.094         57.364        -69.829         67.944       1481.858
         3062.0         13.145         52.793        -70.272         66.772       1479.527
         3062.5         13.196         48.222        -70.715         69.059       1477.196
         3063.0         13.097         48.736        -70.220         71.115       1474.866
         3063.5         12.971         49.637        -69.655         69.438       1472.535
         3064.0         12.954         50.539        -69.090         68.638       1470.204
         3064.5         13.090         50.351        -68.524         66.608       1467.874
         3065.0         12.955         48.463        -67.959         63.999       1465.543
         3065.5         13.001         46.574        -67.394         63.749       1463.212
         3066.0         13.047         44.686        -66.828         64.290       1460.881
         3066.5         13.076         42.797        -66.263         66.125       1458.551
         3067.0         13.091         44.206        -65.698         67.959       1456.220
         3067.5         13.107         46.681        -65.389         68.800       1453.889
         3068.0         13.122         46.930        -65.325         68.649       1417.660
         3068.5         13.138         47.106        -65.261         68.423       1341.318
         3069.0         13.153         45.762        -65.364         67.150       1264.976
         3069.5         13.152         44.076        -65.527         65.877       1188.633
         3070.0         13.130         42.390        -65.689         64.719       1112.291
         3070.5         13.109         40.704        -65.852         66.310       1101.865
         3071.0         13.087         44.678        -66.014         67.902       1257.176
         3071.5         13.066         48.959        -66.120         69.268       1412.487
         3072.0         13.044         53.239        -66.174         69.663       1506.283
         3072.5         13.023         52.166        -66.227         69.258       1508.268
         3073.0         13.001         51.877        -66.072         68.853       1510.253
         3073.5         12.980         53.441        -65.621         69.534       1512.238
         3074.0         12.979         55.004        -65.169         70.677       1514.222
         3074.5         12.988         57.770        -64.718         71.821       1516.207
         3075.0         12.997         60.800        -64.267         72.964       1518.192
         3075.5         13.005         62.000        -63.816         72.477       1520.177
         3076.0         13.014         57.004        -63.365         71.109       1522.162
         3076.5         13.023         52.007        -62.914         69.741       1524.146
         3077.0         13.032         50.890        -62.463         68.373       1526.131
         3077.5         13.039         50.848        -62.012         70.744       1528.116
         3078.0         13.038         54.241        -61.561         70.505       1530.101
         3078.5         13.037         57.565        -61.110         68.144       1532.086
         3079.0         13.040         54.138        -60.734         66.289       1534.071
         3079.5         13.060         50.712        -60.621         65.808       1536.055
