~Version Information
 VERS.                  2.0:   CWLS log ASCII Standard -VERSION 2.0
 WRAP.                   NO:   One line per depth step
~Well Information Block
#MNEM.UNIT     VALUE/NAME     DESCRIPTION
#---------     -----------    ---------------------------
 STRT.F              8830.0000: START DEPTH
 STOP.F             14230.0000: STOP DEPTH
 STEP.F                 0.5000: STEP DEPTH
 NULL.                 -999.25: NULL VALUE
 LOC .       API  42-109-33374Lat:  LOCATION
 FL1 .       API  42-109-33374Lat:  LOCATIONLINE1
 DMF .                      KB:  DRILL MEAS FROM
 PDAT.                      GL:  PERMANENT DATUM
 CTRY.                     USA:  COUNTRY NAME
 CNTY.               CULBERSON:  COUNTY NAME
 FLD .     FORD, WEST (WOLFCAMP):  FIELD NAME
 WELL.        MOTHER FEE 28 4H:  WELL NAME
 COMP.          CAPITAN ENERGY:  COMPANY
 DATE.             02-May-2019:  DATE
 SVCO.             Halliburton:  SERVICECONAME
 PROV.                   TEXAS:  PROVINCE
 STAT.                   TEXAS:  STATE NAME
 HIDE.                        :  WELLNAMEOPERAT
 BASI.                 PERMIAN:  BASIN
 UWI .            42-109-33374Lat:  UNIQUE WELL IDENTIFIER
 API .            42-109-33374Lat:  API NUMBER
 RANG.                     N/A:  RANGE
 TOWN.                     N/A:  TOWNSHIP
 SECT.                     N/A:  SECTION
 SON .               905631317:  JOB NUMBER
 SRVC.             Halliburton:  SERVICE COMPANY
 LMF .                      KB:  LOG MEASURED FROM
 BAP .ft                0.0000:  GL ELEV ONSHORE
 GVFD.g                 1.0000:  GRAVITY FIELD
~Curve Information Block
#MNEM.UNIT                 API CODE     Curve Description
#---------               -----------    ---------------------------
 DEPT.F                 00 000 000 000:  Depth
 CCL .V                 00 000 000 000:  Casing Collar Locator
 NPHI_OH.pu             00 000 000 000:  NPHI_OH
 NPHI_CHI.pu            00 000 000 000:  NPHI_CHI
 GR_OH.api              00 000 000 000:  GR_OH
 GR_CHI.api             00 000 000 000:  GR_CHI
 RHOB_OH.g/cc           00 000 000 000:  RHOB_OH
 RHOB_CHI.g/cc          00 000 000 000:  RHOB_CHI
 PE_OH.b/e              00 000 000 000:  PE_OH
 PE_CHI.b/e             00 000 000 000:  PE_CHI
 RT10_OH.ohmm           00 000 000 000:  RT10_OH
 RT10_CHI.ohmm          00 000 000 000:  RT10_CHI
 RT30_OH.ohmm           00 000 000 000:  RT30_OH
 RT30_CHI.ohmm          00 000 000 000:  RT30_CHI
 RT90_OH.ohmm           00 000 000 000:  RT90_OH
 RT90_CHI.ohmm          00 000 000 000:  RT90_CHI
 SPHI_CHI.pu            00 000 000 000:  SPHI_CHI
 DTC_CHI.uspf           00 000 000 000:  DTC_CHI
 DTC_OH.uspf            00 000 000 000:  DTC_OH
 SGF .cu                00 000 000 000:  Formation Sigma
 CRNF.NONE              00 000 000 000:  CM GrsCaptRatio
 RIN .NONE              00 000 000 000:  CM GrsInelRatio
#Other Information
#
#WARRANTY: Halliburton will use its best efforts to furnish customers with 
#accurate information and interpretations that are part of, and incident to, the services 
#provided.  However, Halliburton cannot and does not warrant the accuracy 
#or correctness of such information and interpretations.  Under no circumstances should any 
#such information or interpretation be relied upon as the sole basis for any drilling, 
#completion, production, or financial decision or any procedure involving any risk to the 
#safety of any drilling venture, drilling rig or its crew or any other third party.  The 
#Customer has full responsibility for all drilling, completion and production operation.  
#Halliburton makes no representations or warranties, either expressed or 
#implied, including, but not limited to, the implied warranties of merchantability or fitness 
#for a particular purpose, with respect to the services rendered.  In no event will 
#Halliburton be liable for failure to obtain any particular results or for 
#any damages, including, but not limited to, indirect, special or consequential damages, 
#resulting from the use of any information or interpretation provided by Halliburton.
#
~A    DEPT      CCL   NPHI_OH NPHI_CHI  GR_OH    GR_CHI  RHOB_OH RHOB_CHI  PE_OH  PE_CHI RT10_OH RT10_CHI RT30_OH RT30_CHI RT90_OH  RT90_CHI SPHI_CHI DTC_CHI DTC_OH    SGF    CRNF   RIN   
# ...
   12764.5000 17.3456 -999.25   5.0351  -999.25  17.7131 -999.25   2.6514 -999.25 4.7953 -999.25 212.1168 -999.25 217.9124  -999.25 231.8217   9.8100 61.4648 -999.25  9.7744 0.6966 0.8838
   12765.0000 17.4254 -999.25   5.2257  -999.25  17.7132 -999.25   2.6489 -999.25 4.7822 -999.25 210.5277 -999.25 216.2798  -999.25 230.0849  10.0300 61.7848 -999.25  9.7857 0.6974 0.8848
   12765.5000 17.4231 -999.25   5.3318  -999.25  17.3225 -999.25   2.6476 -999.25 4.7743 -999.25 209.1094 -999.25 214.8228  -999.25 228.5349  10.1600 61.9599 -999.25  9.7405 0.6972 0.8877
   12766.0000 17.4219 -999.25   5.1657  -999.25  16.8359 -999.25   2.6496 -999.25 4.7793 -999.25 208.5392 -999.25 214.2370  -999.25 227.9117   9.9500 61.6713 -999.25  9.6617 0.6995 0.8900
   12766.5000 17.4363 -999.25   4.9077  -999.25  16.4715 -999.25   2.6528 -999.25 4.7924 -999.25 208.8531 -999.25 214.5595  -999.25 228.2548   9.6400 61.2290 -999.25  9.5710 0.6982 0.8909
   12767.0000 17.4170 -999.25   4.7579  -999.25  16.0257 -999.25   2.6549 -999.25 4.8040 -999.25 209.7445 -999.25 215.4753  -999.25 229.2290   9.4600 60.9696 -999.25  9.5314 0.6971 0.8922
   12767.5000 17.3896 -999.25   4.6740  -999.25  15.4087 -999.25   2.6560 -999.25 4.8138 -999.25 210.8067 -999.25 216.5664  -999.25 230.3898   9.3600 60.8329 -999.25  9.4648 0.6927 0.8918
   12768.0000 17.4059 -999.25   4.6831  -999.25  14.7930 -999.25   2.6558 -999.25 4.8169 -999.25 211.7479 -999.25 217.5334  -999.25 231.4185   9.3700 60.8510 -999.25  9.4349 0.6896 0.8918
   12768.5000 17.4070 -999.25   4.6632  -999.25  14.2415 -999.25   2.6561 -999.25 4.8212 -999.25 212.5178 -999.25 218.3243  -999.25 232.2599   9.3500 60.8172 -999.25  9.4463 0.6911 0.8898
   12769.0000 17.4155 -999.25   4.6054  -999.25  13.9333 -999.25   2.6571 -999.25 4.8250 -999.25 212.7420 -999.25 218.5546  -999.25 232.5049   9.2700 60.7044 -999.25  9.5339 0.6933 0.8875
   12769.5000 17.4306 -999.25   4.6050  -999.25  13.8553 -999.25   2.6572 -999.25 4.8233 -999.25 212.2920 -999.25 218.0924  -999.25 232.0132   9.2600 60.6925 -999.25  9.6809 0.6918 0.8876
   12770.0000 17.4248 -999.25   4.6840  -999.25  13.9379 -999.25   2.6561 -999.25 4.8157 -999.25 211.2189 -999.25 216.9900  -999.25 230.8404   9.3500 60.8256 -999.25  9.7813 0.6866 0.8911
   12770.5000 17.4656 -999.25   4.9867  -999.25  13.8966 -999.25   2.6521 -999.25 4.7973 -999.25 209.6931 -999.25 215.4224  -999.25 229.1727   9.7200 61.3505 -999.25  9.8275 0.6792 0.8956
   12771.0000 17.4388 -999.25   5.0950  -999.25  13.4809 -999.25   2.6507 -999.25 4.7897 -999.25 208.3536 -999.25 214.0463  -999.25 227.7088   9.8500 61.5293 -999.25  9.8144 0.6772 0.8987
   12771.5000 17.4165 -999.25   5.0794  -999.25  12.7445 -999.25   2.6511 -999.25 4.7907 -999.25 207.5937 -999.25 213.2656  -999.25 226.8783   9.8200 61.4846 -999.25  9.7744 0.6842 0.8998
   12772.0000 17.4225 -999.25   4.8737  -999.25  12.1248 -999.25   2.6543 -999.25 4.8026 -999.25 207.5055 -999.25 213.1750  -999.25 226.7819   9.5400 61.0946 -999.25  9.7303 0.6938 0.8989
   12772.5000 17.4234 -999.25   4.8413  -999.25  12.0223 -999.25   2.6548 -999.25 4.8060 -999.25 207.9180 -999.25 213.5988  -999.25 227.2328   9.5000 61.0351 -999.25  9.6736 0.7054 0.9005
   12773.0000 17.4365 -999.25   4.9638  -999.25  12.2792 -999.25   2.6529 -999.25 4.8013 -999.25 208.6621 -999.25 214.3632  -999.25 228.0460   9.6700 61.2733 -999.25  9.5851 0.7103 0.9030
   12773.5000 17.4335 -999.25   5.1592  -999.25  12.7235 -999.25   2.6499 -999.25 4.7934 -999.25 209.6262 -999.25 215.3537  -999.25 229.0997   9.9400 61.6481 -999.25  9.5192 0.7118 0.9063
   12774.0000 17.4303 -999.25   5.5123  -999.25  13.1594 -999.25   2.6447 -999.25 4.7792 -999.25 210.5690 -999.25 216.3222  -999.25 230.1300  10.4000 62.3013 -999.25  9.5056 0.7126 0.9092
   12774.5000 17.7102 -999.25   5.6962  -999.25  13.5104 -999.25   2.6421 -999.25 4.7726 -999.25 211.2879 -999.25 217.0608  -999.25 230.9158  10.6400 62.6395 -999.25  9.5098 0.7117 0.9092
   12775.0000 18.0006 -999.25   5.7440  -999.25  13.7859 -999.25   2.6415 -999.25 4.7713 -999.25 211.6354 -999.25 217.4178  -999.25 231.2955  10.7000 62.7264 -999.25  9.5707 0.7115 0.9091
   12775.5000 17.3828 -999.25   5.7043  -999.25  13.8140 -999.25   2.6418 -999.25 4.7713 -999.25 211.5697 -999.25 217.3503  -999.25 231.2237  10.6500 62.6655 -999.25  9.6106 0.7097 0.9078
   12776.0000 17.4462 -999.25   5.5463  -999.25  13.8413 -999.25   2.6437 -999.25 4.7753 -999.25 211.1205 -999.25 216.8888  -999.25 230.7328  10.4600 62.3907 -999.25  9.6422 0.7089 0.9056
   12776.5000 17.4225 -999.25   5.4624  -999.25  14.1177 -999.25   2.6448 -999.25 4.7764 -999.25 210.6276 -999.25 216.3824  -999.25 230.1941  10.3500 62.2411 -999.25  9.6462 0.7103 0.9037
   12777.0000 17.4040 -999.25   5.3883  -999.25  14.6352 -999.25   2.6458 -999.25 4.7774 -999.25 210.3024 -999.25 216.0484  -999.25 229.8387  10.2600 62.1101 -999.25  9.6150 0.7126 0.9014
   12777.5000 17.3814 -999.25   5.3874  -999.25  14.9726 -999.25   2.6459 -999.25 4.7770 -999.25 210.2887 -999.25 216.0343  -999.25 229.8237  10.2600 62.1045 -999.25  9.5798 0.7144 0.9009
   12778.0000 17.3651 -999.25   5.3155  -999.25  15.0115 -999.25   2.6467 -999.25 4.7808 -999.25 210.6259 -999.25 216.3806  -999.25 230.1922  10.1700 61.9872 -999.25  9.5245 0.7141 0.9002
   12778.5000 17.4260 -999.25   5.3101  -999.25  14.7126 -999.25   2.6466 -999.25 4.7831 -999.25 211.1706 -999.25 216.9403  -999.25 230.7875  10.1800 61.9880 -999.25  9.4873 0.7128 0.9000
   12779.0000 17.3994 -999.25   5.2151  -999.25  14.1360 -999.25   2.6478 -999.25 4.7906 -999.25 211.7894 -999.25 217.5760  -999.25 231.4638  10.0600 61.8307 -999.25  9.4526 0.7116 0.8986
   12779.5000 17.4862 -999.25   5.0708  -999.25  13.3680 -999.25   2.6497 -999.25 4.8013 -999.25 212.3649 -999.25 218.1672  -999.25 232.0928   9.8900 61.5790 -999.25  9.4207 0.7114 0.8975
   12780.0000 17.3934 -999.25   5.1593  -999.25  12.7398 -999.25   2.6485 -999.25 4.7996 -999.25 212.9002 -999.25 218.7172  -999.25 232.6778  10.0000 61.7332 -999.25  9.4275 0.7101 0.8993
   12780.5000 17.4328 -999.25   5.3097  -999.25  12.5116 -999.25   2.6467 -999.25 4.7947 -999.25 213.2852 -999.25 219.1127  -999.25 233.0986  10.1800 61.9922 -999.25  9.4270 0.7066 0.9021
   12781.0000 17.4365 -999.25   5.8163  -999.25  12.7414 -999.25   2.6407 -999.25 4.7778 -999.25 213.4265 -999.25 219.2578  -999.25 233.2530  10.7900 62.8585 -999.25  9.4422 0.7019 0.9048
   12781.5000 17.4006 -999.25   5.9775  -999.25  12.9116 -999.25   2.6389 -999.25 4.7736 -999.25 213.4090 -999.25 219.2399  -999.25 233.2339  10.9800 63.1301 -999.25  9.4525 0.6965 0.9048
   12782.0000 17.3932 -999.25   5.9194  -999.25  12.8011 -999.25   2.6397 -999.25 4.7762 -999.25 213.2434 -999.25 219.0697  -999.25 233.0529  10.9100 63.0218 -999.25  9.4616 0.6934 0.9019
   12782.5000 17.3883 -999.25   5.6194  -999.25  12.4793 -999.25   2.6438 -999.25 4.7878 -999.25 212.9907 -999.25 218.8101  -999.25 232.7767  10.5300 62.4846 -999.25  9.5006 0.6916 0.8981
   12783.0000 17.4162 -999.25   5.3147  -999.25  12.0279 -999.25   2.6478 -999.25 4.7990 -999.25 212.5960 -999.25 218.4046  -999.25 232.3453  10.1400 61.9411 -999.25  9.5464 0.6920 0.8947
   12783.5000 17.4428 -999.25   5.1212  -999.25  11.5814 -999.25   2.6504 -999.25 4.8054 -999.25 211.9731 -999.25 217.7647  -999.25 231.6646   9.9000 61.5929 -999.25  9.6109 0.6916 0.8912
   12784.0000 17.4205 -999.25   4.8530  -999.25  11.2178 -999.25   2.6538 -999.25 4.8134 -999.25 211.1067 -999.25 216.8747  -999.25 230.7177   9.5600 61.1166 -999.25  9.6997 0.6896 0.8870
   12784.5000 17.4285 -999.25   4.5100  -999.25  11.2895 -999.25   2.6584 -999.25 4.8248 -999.25 210.0018 -999.25 215.7396  -999.25 229.5102   9.1300 60.5102 -999.25  9.8433 0.6892 0.8805
   12785.0000 17.4032 -999.25   4.1286  -999.25  12.0040 -999.25   2.6640 -999.25 4.8408 -999.25 208.2514 -999.25 213.9413  -999.25 227.5971   8.6400 59.8181 -999.25 10.0159 0.6914 0.8743
   12785.5000 17.3891 -999.25   3.8714  -999.25  13.1470 -999.25   2.6682 -999.25 4.8510 -999.25 205.9509 -999.25 211.5780  -999.25 225.0829   8.3000 59.3306 -999.25 10.2294 0.6973 0.8716
