~Version Information
 VERS.                  2.0:   CWLS log ASCII Standard -VERSION 2.0
 WRAP.                   NO:   One line per depth step
~Well Information Block
#MNEM.UNIT     VALUE/NAME     DESCRIPTION
#---------     -----------    ---------------------------
 STRT.F              8400.0000: START DEPTH
 STOP.F             13890.0000: STOP DEPTH
 STEP.F                 0.5000: STEP DEPTH
 NULL.                 -999.25: NULL VALUE
 LOC .     506' FEL & 344' FSL:  LOCATION
 FL6 .       API  42-109-33224:  LOCATIONLINE6
 FL4 .           ABSTRACT 4479:  LOCATIONLINE4
 FL3 .        T&P RR CO SURVEY:  LOCATIONLINE3
 FL2 .     SECTION 30, BLOCK 58 T2:  LOCATIONLINE2
 FL1 .     506' FEL & 344' FSL:  LOCATIONLINE1
 DMF .                      KB:  DRILL MEAS FROM
 PDAT.                      GL:  PERMANENT DATUM
 CNTY.               CULBERSON:  COUNTY NAME
 FLD .     FORD, WEST (WOLFCAMP):  FIELD NAME
 WELL.      LAUREN STATE 30 2H:  WELL NAME
 COMP.     CAPITAN ENERGY, INC.:  COMPANY
 DATE.             19-Feb-2018:  DATE
 SVCO.             Halliburton:  SERVICECONAME
 PROV.                   TEXAS:  PROVINCE
 STAT.                   TEXAS:  STATE NAME
 CTRY.                     USA:  COUNTRY NAME
 HIDE.                        :  WELLNAMEOPERAT
 BASI.                 PERMIAN:  BASIN
 UWI .            42-109-33224:  UNIQUE WELL IDENTIFIER
 API .            42-109-33224:  API NUMBER
 RANG.                     N/A:  RANGE
 TOWN.                     N/A:  TOWNSHIP
 SECT.                     N/A:  SECTION
 SON .               904646015:  JOB NUMBER
 SRVC.             Halliburton:  SERVICE COMPANY
 LMF .                      KB:  LOG MEASURED FROM
 EGL .ft             3168.0000:  GROUND ELEVATION
 BAP .ft                0.0000:  GL ELEV ONSHORE
 GVFD.g                 1.0000:  GRAVITY FIELD
 EKB .ft             3194.0000:  KB ELEVATION
 EDF .ft             3193.0000:  DF ELEVATION
~Curve Information Block
#MNEM.UNIT                 API CODE     Curve Description
#---------               -----------    ---------------------------
 DEPT.F                 00 000 000 000:  Depth
 CCL .V                 00 000 000 000:  Casing Collar Locator
 NPHI_OH.pu             00 000 000 000:  NPHI_OH
 NPHI_CHI.pu            00 000 000 000:  NPHI_CHI
 GR_OH.api              00 000 000 000:  GR_OH
 GR_CHI.api             00 000 000 000:  GR_CHI
 RHOB_OH.g/cc           00 000 000 000:  RHOB_OH
 RHOB_CHI.g/cc          00 000 000 000:  RHOB_CHI
 PE_OH.b/e              00 000 000 000:  PE_OH
 PE_CHI.b/e             00 000 000 000:  PE_CHI
 RT10_OH.ohmm           00 000 000 000:  RT10_OH
 RT10_CHI.ohmm          00 000 000 000:  RT10_CHI
 RT30_OH.ohmm           00 000 000 000:  RT30_OH
 RT30_CHI.ohmm          00 000 000 000:  RT30_CHI
 RT90_OH.ohmm           00 000 000 000:  RT90_OH
 RT90_CHI.ohmm          00 000 000 000:  RT90_CHI
 DTC_OH.uspf            00 000 000 000:  DTC_OH
 DTC_CHI.uspf           00 000 000 000:  DTC_CHI
 SPHI_CHI.pu            00 000 000 000:  SPHI_CHI
 SGF .cu                00 000 000 000:  Formation Sigma
 CRNF.NONE              00 000 000 000:  CM GrsCaptRatio
 RIN .NONE              00 000 000 000:  CM GrsInelRatio
#Other Information
#
#WARRANTY: Halliburton will use its best efforts to furnish customers with 
#accurate information and interpretations that are part of, and incident to, the services 
#provided.  However, Halliburton cannot and does not warrant the accuracy 
#or correctness of such information and interpretations.  Under no circumstances should any 
#such information or interpretation be relied upon as the sole basis for any drilling, 
#completion, production, or financial decision or any procedure involving any risk to the 
#safety of any drilling venture, drilling rig or its crew or any other third party.  The 
#Customer has full responsibility for all drilling, completion and production operation.  
#Halliburton makes no representations or warranties, either expressed or 
#implied, including, but not limited to, the implied warranties of merchantability or fitness 
#for a particular purpose, with respect to the services rendered.  In no event will 
#Halliburton be liable for failure to obtain any particular results or for 
#any damages, including, but not limited to, indirect, special or consequential damages, 
#resulting from the use of any information or interpretation provided by Halliburton.
#
~A    DEPT      CCL   NPHI_OH NPHI_CHI  GR_OH    GR_CHI  RHOB_OH RHOB_CHI  PE_OH  PE_CHI  RT10_OH  RT10_CHI RT30_OH  RT30_CHI RT90_OH  RT90_CHI DTC_OH  DTC_CHI SPHI_CHI   SGF    CRNF   RIN   
# ...
   12033.0000  0.0000 -999.25  11.6427  -999.25  91.7049 -999.25   2.5769 -999.25  3.7353  -999.25  32.7619  -999.25  31.0395  -999.25  33.5445 -999.25 69.3484  15.3800 22.2304 0.9185 1.0328
   12033.5000 -0.0547 -999.25  10.8544  -999.25  84.1706 -999.25   2.5847 -999.25  3.8182  -999.25  37.0012  -999.25  35.4536  -999.25  38.3993 -999.25 68.6914  14.9200 21.0461 0.8913 1.0167
   12034.0000  0.0000 -999.25  10.1866  -999.25  79.4926 -999.25   2.5898 -999.25  3.8982  -999.25  45.2424  -999.25  44.0353  -999.25  47.6475 -999.25 68.3230  14.6600 19.7702 0.8646 0.9973
   12034.5000  0.0000 -999.25   9.7083  -999.25  80.7116 -999.25   2.5917 -999.25  3.9774  -999.25  57.3612  -999.25  56.9454  -999.25  61.2268 -999.25 68.3607  14.6800 18.4446 0.8398 0.9746
   12035.0000  0.0000 -999.25   9.2512  -999.25  80.9494 -999.25   2.5933 -999.25  4.0517  -999.25  70.5784  -999.25  71.4108  -999.25  76.6027 -999.25 68.3638  14.6800 17.3227 0.8220 0.9529
   12035.5000  0.0000 -999.25   7.8835  -999.25  64.9777 -999.25   2.6084 -999.25  4.1279  -999.25  77.2806  -999.25  80.4416  -999.25  86.8673 -999.25 66.9152  13.6600 16.5737 0.8143 0.9381
   12036.0000  0.0000 -999.25   6.9923  -999.25  56.0710 -999.25   2.6175 -999.25  4.2054  -999.25  79.3329  -999.25  84.2032  -999.25  91.6471 -999.25 65.9336  12.9700 16.1772 0.8101 0.9297
   12036.5000  0.0000 -999.25   6.4248  -999.25  50.6452 -999.25   2.6234 -999.25  4.2711  -999.25  82.6880  -999.25  88.7567  -999.25  97.0612 -999.25 65.2109  12.4500 16.1872 0.8231 0.9341
   12037.0000  0.0000 -999.25   6.6177  -999.25  56.6184 -999.25   2.6196 -999.25  4.3294  -999.25  92.1740  -999.25  98.5797  -999.25 107.7413 -999.25 65.5344  12.6800 16.5342 0.8495 0.9491
   12037.5000  0.0000 -999.25   6.8909  -999.25  63.0145 -999.25   2.6160 -999.25  4.3792  -999.25  94.6675  -999.25 100.5400  -999.25 109.9290 -999.25 65.8106  12.8800 17.2824 0.8914 0.9750
   12038.0000  0.0000 -999.25   6.9021  -999.25  59.6811 -999.25   2.6185 -999.25  4.4042  -999.25  80.5371  -999.25  84.5336  -999.25  93.4267 -999.25 65.3187  12.5300 18.2053 0.9431 1.0090
   12038.5000  0.0000 -999.25   7.0162  -999.25  54.3693 -999.25   2.6207 -999.25  4.3729  -999.25  61.4580  -999.25  63.2275  -999.25  70.6408 -999.25 64.8797  12.2200 18.8771 0.9661 1.0320
   12039.0000  0.0000 -999.25   8.4393  -999.25  68.2093 -999.25   2.6048 -999.25  4.3143  -999.25  43.1137  -999.25  42.2946  -999.25  47.7752 -999.25 66.2912  13.2200 19.1007 0.9658 1.0480
   12039.5000  0.0000 -999.25   9.7589  -999.25  76.3367 -999.25   2.5900 -999.25  4.2217  -999.25  33.7937  -999.25  31.9480  -999.25  36.4241 -999.25 67.4154  14.0100 18.9559 0.9500 1.0531
   12040.0000  0.0000 -999.25  11.2871  -999.25  95.2937 -999.25   2.5695 -999.25  4.1762  -999.25  31.0261  -999.25  28.6223  -999.25  32.7547 -999.25 69.1587  15.2500 18.9792 0.9520 1.0582
   12040.5000  0.0000 -999.25  11.5174  -999.25  99.2095 -999.25   2.5657 -999.25  4.1794  -999.25  31.7207  -999.25  29.2171  -999.25  33.4330 -999.25 69.4989  15.4900 19.5089 0.9791 1.0669
   12041.0000  0.0000 -999.25  10.5852  -999.25  88.1530 -999.25   2.5783 -999.25  4.1893  -999.25  35.1384  -999.25  32.9720  -999.25  37.4833 -999.25 68.5511  14.8200 20.7501 1.0209 1.0771
   12041.5000  0.0000 -999.25  10.7379  -999.25  89.8358 -999.25   2.5772 -999.25  4.1456  -999.25  35.9717  -999.25  33.8289  -999.25  38.2237 -999.25 68.7398  14.9500 22.4115 1.0520 1.0860
   12042.0000  0.0000 -999.25  11.8600  -999.25 100.0401 -999.25   2.5650 -999.25  4.0202  -999.25  34.1782  -999.25  31.7791  -999.25  35.6885 -999.25 69.8361  15.7300 24.0700 1.0627 1.0910
   12042.5000  0.0000 -999.25  13.0368  -999.25 106.4700 -999.25   2.5537 -999.25  3.8345  -999.25  33.0928  -999.25  30.5678  -999.25  34.0919 -999.25 70.8409  16.4400 25.5466 1.0621 1.0912
   12043.0000  0.0000 -999.25  13.6165  -999.25 106.2011 -999.25   2.5506 -999.25  3.6747  -999.25  31.7195  -999.25  29.3048  -999.25  32.4732 -999.25 71.1496  16.6500 26.7785 1.0542 1.0899
   12043.5000  0.0000 -999.25  13.4627  -999.25  99.8669 -999.25   2.5565 -999.25  3.5496  -999.25  31.9134  -999.25  29.7155  -999.25  32.4950 -999.25 70.8527  16.4400 27.9208 1.0624 1.0882
   12044.0000  0.0000 -999.25  13.5139  -999.25 100.1248 -999.25   2.5582 -999.25  3.4532  -999.25  32.1638  -999.25  30.0818  -999.25  32.3843 -999.25 70.9738  16.5300 29.0663 1.0782 1.0882
   12044.5000  0.0000 -999.25  13.3094  -999.25  98.3759 -999.25   2.5631 -999.25  3.3779  -999.25  30.5996  -999.25  28.7125  -999.25  30.4039 -999.25 70.8328  16.4300 29.7147 1.0924 1.0885
   12045.0000  0.0000 -999.25  13.7020  -999.25 101.7168 -999.25   2.5601 -999.25  3.2727  -999.25  29.1136  -999.25  27.2532  -999.25  28.5130 -999.25 71.2994  16.7600 29.9051 1.1003 1.0879
   12045.5000  0.0000 -999.25  14.3035  -999.25 106.6270 -999.25   2.5536 -999.25  3.1980  -999.25  28.9617  -999.25  27.0292  -999.25  28.2177 -999.25 71.8966  17.1800 29.6617 1.0986 1.0850
   12046.0000  0.0000 -999.25  14.6812  -999.25 108.6364 -999.25   2.5492 -999.25  3.1568  -999.25  29.9164  -999.25  27.8996  -999.25  29.1870 -999.25 72.2540  17.4400 29.1512 1.0923 1.0805
   12046.5000  0.0000 -999.25  14.8643  -999.25 109.4884 -999.25   2.5464 -999.25  3.1533  -999.25  31.6745  -999.25  29.5550  -999.25  31.0341 -999.25 72.4687  17.5900 28.5856 1.0920 1.0776
   12047.0000  0.0000 -999.25  13.8879  -999.25  94.4337 -999.25   2.5593 -999.25  3.1936  -999.25  31.4271  -999.25  29.4601  -999.25  31.1044 -999.25 71.2678  16.7400 27.9445 1.0868 1.0762
   12047.5000  0.0000 -999.25  13.4706  -999.25  89.8421 -999.25   2.5640 -999.25  3.2562  -999.25  31.3003  -999.25  29.3928  -999.25  31.2283 -999.25 70.7168  16.3500 27.2968 1.0819 1.0785
   12048.0000  0.0000 -999.25  13.2148  -999.25  86.2073 -999.25   2.5665 -999.25  3.3127  -999.25  31.4650  -999.25  29.5739  -999.25  31.6991 -999.25 70.3225  16.0700 26.8991 1.0775 1.0796
   12048.5000  0.0000 -999.25  13.1923  -999.25  87.6449 -999.25   2.5651 -999.25  3.3629  -999.25  32.6368  -999.25  30.6629  -999.25  33.0001 -999.25 70.3990  16.1200 26.8615 1.0822 1.0777
   12049.0000  0.0000 -999.25  12.6884  -999.25  81.0137 -999.25   2.5709 -999.25  3.3795  -999.25  34.3550  -999.25  32.4183  -999.25  34.8382 -999.25 69.9581  15.8100 26.8656 1.0920 1.0728
   12049.5000  0.0000 -999.25  12.5246  -999.25  79.4625 -999.25   2.5725 -999.25  3.3566  -999.25  36.6283  -999.25  34.7114  -999.25  37.0403 -999.25 70.0421  15.8700 27.0813 1.0991 1.0658
   12050.0000  0.0000 -999.25  13.1253  -999.25  87.7726 -999.25   2.5638 -999.25  3.3363  -999.25  38.3441  -999.25  36.2632  -999.25  38.6511 -999.25 70.8748  16.4600 27.1431 1.1007 1.0636
   12050.5000  0.0000 -999.25  13.5636  -999.25  92.0169 -999.25   2.5586 -999.25  3.3147  -999.25  37.7937  -999.25  35.6219  -999.25  38.0706 -999.25 71.2545  16.7300 27.2290 1.0958 1.0657
   12051.0000  0.0000 -999.25  13.6060  -999.25  90.7448 -999.25   2.5588 -999.25  3.3133  -999.25  36.4818  -999.25  34.3295  -999.25  36.8659 -999.25 71.1170  16.6300 27.2637 1.0921 1.0698
   12051.5000  0.0000 -999.25  14.0944  -999.25  98.2008 -999.25   2.5522 -999.25  3.3181  -999.25  35.8132  -999.25  33.5671  -999.25  36.1245 -999.25 71.6082  16.9800 27.1057 1.0894 1.0731
   12052.0000  0.0000 -999.25  13.6541  -999.25  92.4272 -999.25   2.5583 -999.25  3.3194  -999.25  35.6925  -999.25  33.5418  -999.25  35.9923 -999.25 71.1379  16.6500 26.8608 1.0869 1.0735
   12052.5000  0.0000 -999.25  13.6685  -999.25  93.7102 -999.25   2.5573 -999.25  3.3215  -999.25  37.2566  -999.25  35.0593  -999.25  37.5172 -999.25 71.3178  16.7700 26.6930 1.0919 1.0724
   12053.0000  0.0000 -999.25  13.2243  -999.25  87.4711 -999.25   2.5632 -999.25  3.3495  -999.25  36.5685  -999.25  34.4681  -999.25  36.9989 -999.25 70.7338  16.3600 26.6167 1.0931 1.0736
   12053.5000  0.0000 -999.25  13.0785  -999.25  85.9759 -999.25   2.5650 -999.25  3.3775  -999.25  35.6709  -999.25  33.6010  -999.25  36.1851 -999.25 70.4824  16.1800 26.7038 1.0928 1.0739
