###############################################
##         ENVERUS                           ##
##         ESS - Open Hole                   ##
##         PERMIAN / DELAWARE                ##
##         Nov 02 2023  V4.0                 ##
##         42-109-31375-00-00                ##
###############################################
## Copyright 2017-2023  ENVERUS.  All Rights Reserved. 
## Confidential - Property of ENVERUS, use governed by terms and 
## conditions found within the existing Information Services Subscription Agreement 
## (as may be amended, the “ISSA”) between Customer and ENVERUS. 
## 
~VERSION INFORMATION
# MNEM.UNIT                               DATA : DESCRIPTION OF MNEMONIC
#-----.-----     ----------------------------- : -----------------------------
VERS.                                     2.00 : CWLS LOG ASCII STANDARD - VERSION 2.00
WRAP.                                       NO : MULTIPLE LINES PER DEPTH STEP
VEND.                                  ENVERUS : VENDOR
TYPE.                          ESS - OPEN HOLE : ENVERUS ESSENTIAL CURVES – ACCESSIBLE THROUGH ENVERUS PRISM(TM)
DOC.                                  32006335 : ENVERUS HEADER RAW DOCUMENT ID
#___________________________________________________________________________________________________ 
~WELL INFORMATION 
# Eb7Zbut2Nwqt2ftj1i2q6V2Ye1Joym9Qrd6BFF0aHeZ6Mf1z+VAuEcbs4uVngcAWjTW62nvWGWatc34NWk2mnA== 
# MNEM.UNIT                                              DATA : DESCRIPTION OF MNEMONIC 
#-----.-----                    ----------------------------- : ----------------------------- 
CNTY.                                               CULBERSON : COUNTY 
STATE.                                                  TEXAS : STATE 
CNTRY.                                                    USA : COUNTRY 
API.                                             42-109-31375 : API (10 Digit) 
API_14.                                    42-109-31375-00-00 : API (14 Digits) 
API_14_std.                                 42-109-31375-0000 : API (14 Digits Standard) 
UWI.                                           42109313750000 : UNIQUE WELL ID 
WELL.                                      7806 JV-P DUVAL  1 : WELL NAME
STRT.FT                                                     0 : START DEPTH
STOP.FT                                               15739.0 : STOP DEPTH
STEP.FT                                                   0.5 : STEP BETWEEN DEPTHS
NULL.                                                 -999.25 : NULL VALUE
COMP.                                  BTA OIL PRODUCERS  LLC : COMPANY 
DATE.                                             26-MAY-1978 : LOG DATE
#___________________________________________________________________________________________________ 
~CURVE INFORMATION 
# MNEM.UNIT           : CURVE DESCRIPTION 
#-----.-----          : ----------------------------- 
 DEPT.FT               : MEASURED DEPTH 
 CALI.IN               : CALIPER (CAL - CAL) 
 GR.API                : GAMMA RAY (GR) 
 DT.US/FT              : SONIC DELTA TRANSIT TIME (DT) 
 #___________________________________________________________________________________________________ 
~A         DEPT           CALI             GR             DT
# ...
         6732.0         13.053         76.689         88.140
         6732.5         13.059         80.322         90.052
         6733.0         13.065         83.239         91.963
         6733.5         13.071         84.199         93.874
         6734.0         13.077         85.159         95.209
         6734.5         13.083         86.119         94.808
         6735.0         13.089         87.078         94.971
         6735.5         13.108         88.087         95.725
         6736.0         13.132         93.329         96.478
         6736.5         13.156         94.169         97.231
         6737.0         13.181         95.009         97.670
         6737.5         13.205         96.853         97.959
         6738.0         13.228         99.607         98.249
         6738.5         13.229        101.441         98.899
         6739.0         13.229        103.274         99.981
         6739.5         13.230        104.548        101.001
         6740.0         13.230        102.283         98.524
         6740.5         13.230         99.155         96.046
         6741.0         13.231         95.992         93.569
         6741.5         13.231         92.830         94.499
         6742.0         13.231         89.667         95.746
         6742.5         13.232        103.162         96.993
         6743.0         13.232        107.577         98.240
         6743.5         13.233        111.992         99.487
         6744.0         13.233        116.009        100.734
         6744.5         13.233        115.612         99.264
         6745.0         13.234        114.995         97.779
         6745.5         13.234        114.357         96.604
         6746.0         13.234        113.719         95.449
         6746.5         13.235        112.922         94.294
         6747.0         13.220        110.208         93.475
         6747.5         13.201        100.885         92.894
         6748.0         13.181         91.178         92.313
         6748.5         13.161         80.984         91.731
         6749.0         13.135         70.790         89.870
         6749.5         13.116         60.596         83.897
         6750.0         13.096         50.402         78.535
         6750.5         13.077         42.464         74.518
         6751.0         13.057         34.574         70.500
         6751.5         13.038         26.683         66.896
         6752.0         13.018         24.108         63.740
         6752.5         12.999         28.858         60.584
         6753.0         12.997         33.607         64.192
         6753.5         12.996         38.786         68.749
         6754.0         12.994         44.067         73.306
         6754.5         12.993         47.530         77.863
         6755.0         12.991         49.081         80.135
         6755.5         12.990         38.569         76.627
         6756.0         12.989         31.156         73.118
         6756.5         12.987         23.742         69.610
         6757.0         12.986         17.687         66.102
         6757.5         12.984         18.138         61.627
         6758.0         12.983         19.686         59.126
         6758.5         12.981         22.764         58.363
         6759.0         12.987         25.841         57.601
         6759.5         13.004         34.633         58.817
         6760.0         13.020         48.989         61.733
         6760.5         13.036         63.345         74.434
         6761.0         13.053         77.702         86.444
         6761.5         13.069         88.813         94.708
         6762.0         13.085         96.168         95.413
         6762.5         13.096         94.211         96.117
         6763.0         13.096         80.930         96.822
         6763.5         13.097         77.643         96.136
         6764.0         13.097         75.399         95.152
         6764.5         13.098         74.132         94.169
         6765.0         13.098         72.866         93.185
         6765.5         13.098         71.600         92.333
         6766.0         13.099         70.333         92.135
         6766.5         13.099         65.299         91.936
         6767.0         13.099         59.459         91.080
         6767.5         13.100         53.618         87.883
         6768.0         13.100         47.778         81.948
         6768.5         13.101         41.937         78.848
         6769.0         13.119         45.072         75.747
         6769.5         13.137         56.911         72.646
         6770.0         13.155         68.176         79.281
         6770.5         13.173         70.484         90.506
         6771.0         13.191         72.041         94.801
         6771.5         13.209         72.296         93.258
         6772.0         13.227         69.418         91.714
         6772.5         13.216         64.695         90.171
         6773.0         13.205         59.578         88.573
         6773.5         13.193         54.462         86.070
         6774.0         13.182         49.345         83.566
         6774.5         13.171         45.275         81.063
         6775.0         13.168         50.141         77.723
         6775.5         13.198         55.981         74.370
         6776.0         13.228         63.542         74.849
         6776.5         13.258         71.103         80.400
         6777.0         13.227         78.664         85.952
         6777.5         13.182         76.101         91.504
         6778.0         13.136         66.857         90.852
         6778.5         13.089         57.613         87.562
         6779.0         13.042         48.370         84.271
         6779.5         12.996         45.962         80.980
         6780.0         12.949         52.077         77.690
         6780.5         12.902         58.615         75.974
         6781.0         12.874         65.745         80.192
         6781.5         12.858         70.411         84.411
         6782.0         12.842         71.222         88.629
         6782.5         12.826         72.004         91.510
         6783.0         12.810         72.277         91.694
         6783.5         12.794         72.550         91.878
         6784.0         12.778         73.949         92.062
         6784.5         12.762         83.055         91.844
         6785.0         12.746         76.346         90.086
         6785.5         12.730         68.468         86.894
         6786.0         12.714         57.681         80.551
         6786.5         12.700         46.894         74.577
         6787.0         12.686         36.108         69.805
         6787.5         12.672         25.321         65.033
         6788.0         12.659         15.932         61.054
         6788.5         12.645         15.342         57.444
         6789.0         12.631         14.751         53.833
         6789.5         12.617         17.985         60.280
         6790.0         12.610         30.977         69.143
         6790.5         12.610         44.476         76.510
         6791.0         12.611         57.977         81.034
         6791.5         12.611         71.480         85.559
         6792.0         12.611         84.345         90.083
         6792.5         12.612         84.887         90.264
         6793.0         12.612         85.890         90.391
         6793.5         12.613         87.993         90.519
         6794.0         12.613         90.095         90.928
         6794.5         12.613         89.769         91.892
         6795.0         12.614         85.458         92.857
         6795.5         12.614         81.147         90.135
         6796.0         12.615         75.068         86.752
         6796.5         12.621         66.678         82.994
         6797.0         12.627         58.289         79.235
         6797.5         12.632         49.899         74.284
