###############################################
##         ENVERUS                           ##
##         ESS - Open Hole                   ##
##         PERMIAN / DELAWARE                ##
##         Nov 03 2023  V4.0                 ##
##         42-109-32507-90-00                ##
###############################################
## Copyright 2017-2023  ENVERUS.  All Rights Reserved. 
## Confidential - Property of ENVERUS, use governed by terms and 
## conditions found within the existing Information Services Subscription Agreement 
## (as may be amended, the “ISSA”) between Customer and ENVERUS. 
## 
~VERSION INFORMATION
# MNEM.UNIT                               DATA : DESCRIPTION OF MNEMONIC
#-----.-----     ----------------------------- : -----------------------------
VERS.                                     2.00 : CWLS LOG ASCII STANDARD - VERSION 2.00
WRAP.                                       NO : MULTIPLE LINES PER DEPTH STEP
VEND.                                  ENVERUS : VENDOR
TYPE.                          ESS - OPEN HOLE : ENVERUS ESSENTIAL CURVES – ACCESSIBLE THROUGH ENVERUS PRISM(TM)
DOC.                                  51094130 : ENVERUS HEADER RAW DOCUMENT ID
#___________________________________________________________________________________________________ 
~WELL INFORMATION 
# OeTAuI96vYP/1gAnXdiC+b2e5mg9bdq0rVS4GA6NX+ctg1PKQ5RhcqUsdOd2aOUDNf5EtC5635oDT1THDUi6iw== 
# MNEM.UNIT                                              DATA : DESCRIPTION OF MNEMONIC 
#-----.-----                    ----------------------------- : ----------------------------- 
CNTY.                                               CULBERSON : COUNTY 
STATE.                                                  TEXAS : STATE 
CNTRY.                                                    USA : COUNTRY 
API.                                             42-109-32507 : API (10 Digit) 
API_14.                                    42-109-32507-90-00 : API (14 Digits) 
API_14_std.                                 42-109-32507-9000 : API (14 Digits Standard) 
UWI.                                           42109325079000 : UNIQUE WELL ID 
WELL.                               42109325070000_PREV_API14 : WELL NAME
STRT.FT                                                2104.5 : START DEPTH
STOP.FT                                                9085.0 : STOP DEPTH
STEP.FT                                                   0.5 : STEP BETWEEN DEPTHS
NULL.                                                 -999.25 : NULL VALUE
PREV_APII.                                     42109325070000 : WELL IDENTIFIER
#___________________________________________________________________________________________________ 
~PARAMETER INFORMATION 
# MNEM.UNIT                                              DATA : DESCRIPTION OF MNEMONIC 
#-----.-----                    ----------------------------- : ----------------------------- 
EKB.FT                                                 3578.5 : ELEVATION ABOVE MSL
#___________________________________________________________________________________________________ 
~CURVE INFORMATION 
# MNEM.UNIT           : CURVE DESCRIPTION 
#-----.-----          : ----------------------------- 
 DEPT.FT               : MEASURED DEPTH 
 GR__A.API             : GAMMA RAY (GAMMA RAY) 
 DT__A.US/FT           : SONIC DELTA TRANSIT TIME (SONIC) 
 #___________________________________________________________________________________________________ 
~A         DEPT          GR__A          DT__A
# ...
         3061.5        109.184         77.864
         3062.0        111.501         76.015
         3062.5        109.942         72.832
         3063.0        110.930         74.036
         3063.5        111.111         79.720
         3064.0        110.331         84.634
         3064.5        112.353         83.569
         3065.0        123.062         82.054
         3065.5        130.235         83.750
         3066.0        129.936         86.034
         3066.5        128.220         91.470
         3067.0        125.473         93.476
         3067.5        125.540         92.170
         3068.0        131.844         91.529
         3068.5        144.534         90.971
         3069.0        145.850         89.387
         3069.5        137.633         93.178
         3070.0        126.963         95.415
         3070.5        109.957         94.747
         3071.0        112.103         94.264
         3071.5        116.587         97.507
         3072.0        118.548        101.728
         3072.5        118.949        113.099
         3073.0        123.796        113.846
         3073.5        138.103        104.791
         3074.0        149.334         99.735
         3074.5        154.947         97.566
         3075.0        151.267         97.566
         3075.5        153.356         98.011
         3076.0        151.228         98.211
         3076.5        147.758         99.124
         3077.0        148.684        103.931
         3077.5        151.466        108.047
         3078.0        155.564        110.562
         3078.5        170.259        108.596
         3079.0        192.273         99.135
         3079.5        276.518         94.134
         3080.0        302.389         93.995
         3080.5        295.145        108.229
         3081.0        221.011        124.780
         3081.5        169.227        135.891
         3082.0        154.119        141.514
         3082.5        146.031        142.826
         3083.0        128.664        148.212
         3083.5        114.173        150.347
         3084.0        127.054        144.756
         3084.5        194.711        125.886
         3085.0        314.064        107.065
         3085.5        439.524         88.560
         3086.0        462.223         78.058
         3086.5        450.650         75.652
         3087.0        383.126         85.272
         3087.5        281.868         95.821
         3088.0        281.925        100.245
         3088.5        291.879        100.308
         3089.0        272.603        100.689
         3089.5        223.124        108.909
         3090.0        220.470        106.755
         3090.5        255.474         95.562
         3091.0        319.967         87.752
         3091.5        376.868         81.237
         3092.0        381.883         83.855
         3092.5        361.124         85.238
         3093.0        346.133         84.226
         3093.5        341.962         85.316
         3094.0        327.711         90.880
         3094.5        266.991        103.278
         3095.0        214.445        109.551
         3095.5        191.478        116.393
         3096.0        183.893        115.571
         3096.5        183.907        119.429
         3097.0        196.325        116.787
         3097.5        216.456        115.989
         3098.0        210.678        116.650
         3098.5        189.226        117.039
         3099.0        177.367        123.244
         3099.5        171.984        122.409
         3100.0        173.783        119.035
         3100.5        185.323        117.861
         3101.0        177.694        118.544
         3101.5        162.079        121.653
         3102.0        158.943        122.858
         3102.5        155.315        127.583
         3103.0        143.157        135.665
         3103.5        113.652        142.767
         3104.0        109.165        144.303
         3104.5        122.388        141.255
         3105.0        144.334        137.086
         3105.5        135.682        138.885
         3106.0        126.784        144.944
         3106.5        109.021        144.553
         3107.0        134.911        137.572
         3107.5        159.161        126.705
         3108.0        172.550        119.137
         3108.5        208.651        114.088
         3109.0        204.174        112.698
         3109.5        185.733        113.690
         3110.0        177.603        116.914
         3110.5        166.473        124.208
         3111.0        153.108        131.835
         3111.5        146.589        135.043
         3112.0        149.997        134.567
         3112.5        157.642        133.881
         3113.0        144.391        130.833
         3113.5        142.248        127.895
         3114.0        146.857        126.856
         3114.5        140.281        126.959
         3115.0        124.456        134.773
         3115.5        116.744        139.051
         3116.0        111.223        140.548
         3116.5        115.971        140.314
         3117.0        141.370        137.557
         3117.5        170.425        127.317
         3118.0        169.199        123.060
         3118.5        153.621        115.438
         3119.0        146.979        115.093
         3119.5        148.810        115.107
         3120.0        154.527        114.522
         3120.5        157.886        112.955
         3121.0        167.471        111.287
         3121.5        178.033        111.529
         3122.0        181.676        116.124
         3122.5        165.623        122.292
         3123.0        144.430        126.342
         3123.5        127.713        127.135
         3124.0        128.806        124.270
         3124.5        132.490        119.138
         3125.0        136.456        116.551
         3125.5        137.290        114.133
         3126.0        132.242        113.053
         3126.5        123.390        109.654
         3127.0        133.624        103.896
         3127.5        144.643         95.784
         3128.0        148.597         90.522
         3128.5        148.566         82.397
         3129.0        142.108         78.727
         3129.5        141.437         77.405
         3130.0        144.940         76.048
         3130.5        146.799         64.993
         3131.0        132.878         53.646
         3131.5        103.376         49.651
         3132.0         95.567         48.554
         3132.5         94.737         48.823
         3133.0         96.583         48.666
         3133.5         99.196         45.759
         3134.0        101.365         44.035
         3134.5         88.485         42.310
         3135.0         79.515         41.924
         3135.5         88.296         48.310
         3136.0         97.454         54.580
         3136.5        109.465         60.905
         3137.0        111.111         59.417
         3137.5        107.602         50.331
         3138.0        107.616         45.288
         3138.5        110.576         46.945
         3139.0        114.108         47.962
         3139.5        117.844         53.881
         3140.0        116.929         58.251
         3140.5        115.471         68.267
         3141.0        120.398         72.993
         3141.5        125.004         71.432
         3142.0        121.685         65.980
         3142.5        104.671         53.792
         3143.0         97.075         48.296
         3143.5         92.664         46.083
         3144.0         97.567         46.620
         3144.5        102.144         44.711
         3145.0         92.453         42.825
         3145.5         81.494         47.156
         3146.0         81.682         51.320
         3146.5         86.317         52.191
         3147.0         90.059         50.741
         3147.5         87.874         48.608
         3148.0         87.168         51.241
