~VERSION INFORMATION
VERS. 2.0 : CWLS Log ASCII Standard - version 2.0
WRAP.  NO : One line per depth step
#--------------------------------------------------#
#----------------DRILLING INFO, INC.---------------#
#---------------WWW.DRILLINGINFO.COM---------------#
#------------------COPYRIGHT 2015------------------#
#--------------------------------------------------#
#THIS FILE MAY BE USED ONLY IN ACCORDANCE WITH A CURRENT SUBSCRIPTION AGREEMENT BETWEEN
#THE USER AND DRILLING INFO, INC. NO PART OF THIS FILE MAY BE REPRODUCED, USED, COPIED,
#MODIFIED, PROPAGATED, OR DISTRIBUTED EXCEPT IN ACCORDANCE WITH THE SUBSCRIPTION
#AGREEMENT. UNAUTHORIZED USE OR DISTRIBUTION OF ALL OR ANY PART OF THIS FILE MAY VIOLATE
#COPYRIGHT, TRADEMARK, AND/OR OTHER LAWS AND IS SUBJECT TO CIVIL AS WELL AS CRIMINAL
#SANCTIONS.
#--------------------------------------------------#
#THIS FILE IS PROVIDED "AS-IS" AND ALL WARRANTIES ARE EXPRESSLY DISCLAIMED, WHETHER
#EXPRESS, ORAL, IMPLIED, STATUTORY OR OTHERWISE, INCLUDING ANY IMPLIED WARRANTY OF FITNESS
#FOR A PARTICULAR PURPOSE, MERCHANTABILITY, TITLE OR NON-INFRINGEMENT, AND ANY WARRANTIES
#ARISING BY VIRTUE OF CUSTOM OF TRADE OR COURSE OF DEALING.  FURTHER, DRILLING INFO,
#INC. AND ITS LICENSORS DO NOT REPRESENT OR WARRANT THAT THIS FILE WILL MEET USER'S
#REQUIREMENTS OR ARE SUITABLE FOR USER'S NEEDS OR THAT THE DATA OR RESULTS PROVIDED IN
#CONJUNCTION THEREWITH ARE CORRECT, ACCURATE, TIMELY OR RELIABLE. THESE DISCLAIMERS SHALL
#APPLY REGARDLESS OF ANY FAILURE OF ESSENTIAL PURPOSE OF ANY LIMITED REMEDY.  SOME
#JURISDICTIONS DO NOT ALLOW THE EXCLUSION OF CERTAIN WARRANTIES SO SOME OF THE ABOVE
#EXCLUSIONS MAY NOT APPLY. IN NO EVENT SHALL DRILLING INFO, INC. OR ANY OF ITS AFFILIATES
#BE LIABLE UNDER ANY LEGAL THEORY, WHETHER IN TORT (INCLUDING WITHOUT LIMITATION
#NEGLIGENCE), CONTRACT, STRICT LIABILITY, STATUTORY OR OTHERWISE, FOR ANY SPECIAL,
#INCIDENTAL, CONSEQUENTIAL, EXEMPLARY, PUNITIVE OR INDIRECT DAMAGE OF ANY KIND, INCLUDING
#WITHOUT LIMITATION LOSS OF REVENUE, PROFITS, GOODWILL, USE, AND/OR DATA OR THE COST OF
#PROCUREMENT OF SUBSTITUTE GOODS OR SERVICES, EVEN IF APPRISED OF THE POSSIBILITY OF SUCH
#DAMAGES IN ADVANCE.
#--------------------------------------------------#
~WELL INFORMATION
#MNEMONIC     .UNIT              VALUE :DESCRIPTION
#--------------------------------------------------#
STRT       .FT                0 :START DEPTH
STOP       .FT                10142 :STOP DEPTH
STEP       .FT                   0.500 :STEP
NULL       .                  -999.250 :NULL
API        .                421093138200 :API NUMBER
COMP       .         SHELL OIL COMPANY :COMPANY
WELL       .        SIBLEY  1 :WELL
DATE       .                08-Aug-1978 :LOG DATE
~CURVE INFORMATION
#MNEMONIC     .UNIT      API CODE :CURVE DESCRIPTION
#--------------------------------------------------#
DEPTH       .FT                      :Measured Depth
CAL.INCH        UNKNOWN   :CAL
DT.US/FT        UNKNOWN   :DT
GR.API        UNKNOWN   :GR
~A    DEPTH    CAL    DT    GR
# ...
 4632     12.989   54.54   46.155
 4632.5     12.995   54.826   49.959
 4633     13   55.112   51.09
 4633.5     13.006   56.131   46.131
 4634     13.011   57.756   41.172
 4634.5     13.017   59.382   36.213
 4635     13.022   59.816   31.254
 4635.5     13.028   58.462   30.577
 4636     13.033   57.107   30.503
 4636.5     13.039   55.753   30.429
 4637     13.044   54.848   29.675
 4637.5     13.049   55.157   28.913
 4638     13.038   55.466   28.151
 4638.5     13.023   55.436   29.454
 4639     13.007   54.899   31.231
 4639.5     12.992   54.362   33.009
 4640     12.977   53.826   33.558
 4640.5     12.962   53.289   34.08
 4641     12.947   52.752   36.225
 4641.5     12.932   53.323   41.154
 4642     12.916   55.37   46.084
 4642.5     12.901   57.417   51.013
 4643     12.886   60.051   47.216
 4643.5     12.871   62.805   40.437
 4644     12.856   61.952   27.233
 4644.5     12.841   60.04   30.047
 4645     12.825   58.128   32.958
 4645.5     12.81   56.217   35.87
 4646     12.795   54.305   38.782
 4646.5     12.791   52.394   37.173
 4647     12.792   52.538   35.163
 4647.5     12.792   53.27   34.904
 4648     12.792   54.001   35.157
 4648.5     12.793   54.587   35.409
 4649     12.793   54.692   35.661
 4649.5     12.794   54.798   35.914
 4650     12.794   54.903   36.639
 4650.5     12.795   55.009   37.482
 4651     12.795   54.482   38.326
 4651.5     12.795   53.691   37.852
 4652     12.796   52.938   37.294
 4652.5     12.796   53.313   36.735
 4653     12.797   53.688   36.176
 4653.5     12.797   54.063   31.966
 4654     12.798   54.291   32.017
 4654.5     12.798   54.412   34.88
 4655     12.798   54.211   37.744
 4655.5     12.799   53.965   40.608
 4656     12.799   53.718   43.472
 4656.5     12.8   53.472   38.982
 4657     12.81   53.485   32.242
 4657.5     12.825   53.818   25.501
 4658     12.839   54.15   26.771
 4658.5     12.853   53.803   28.519
 4659     12.846   52.955   30.266
 4659.5     12.835   52.106   32.014
 4660     12.823   51.258   33.762
 4660.5     12.812   50.788   35.51
 4661     12.801   51.143   37.258
 4661.5     12.789   51.499   39.005
 4662     12.778   51.855   36.414
 4662.5     12.766   52.211   35.332
 4663     12.755   52.566   37.111
 4663.5     12.753   52.922   38.889
 4664     12.752   53.182   38.807
 4664.5     12.751   53.303   32.92
 4665     12.75   53.423   30.843
 4665.5     12.749   53.544   31.703
 4666     12.748   53.664   32.564
 4666.5     12.748   53.785   33.424
 4667     12.747   53.53   32.27
 4667.5     12.746   53.144   30.094
 4668     12.745   52.759   28.925
 4668.5     12.744   52.373   30.813
 4669     12.743   51.988   32.7
 4669.5     12.742   51.897   34.587
 4670     12.741   52.659   35.64
 4670.5     12.745   53.421   31.133
 4671     12.761   53.894   26.627
 4671.5     12.776   53.698   24.265
 4672     12.791   53.501   25.429
 4672.5     12.801   52.971   27.895
 4673     12.807   52.14   33.342
 4673.5     12.814   51.309   38.789
 4674     12.814   50.786   44.235
 4674.5     12.802   50.907   49.682
 4675     12.789   52.347   55.129
 4675.5     12.777   54.583   54.672
 4676     12.764   56.819   46.352
 4676.5     12.752   59.055   34.072
 4677     12.739   58.877   31.414
 4677.5     12.727   57.6   33.152
 4678     12.718   56.323   34.891
 4678.5     12.728   55.046   36.629
 4679     12.738   53.769   34.175
 4679.5     12.747   52.492   30.801
 4680     12.757   53.598   27.427
 4680.5     12.766   53.399   27.538
 4681     12.776   52.751   28.37
 4681.5     12.786   52.103   29.202
 4682     12.795   51.455   30.034
 4682.5     12.805   51.229   31.619
 4683     12.803   51.546   35.024
 4683.5     12.8   51.723   40.779
 4684     12.798   51.843   46.533
 4684.5     12.796   51.964   52.288
 4685     12.793   53.689   58.043
 4685.5     12.791   55.625   60.106
 4686     12.788   57.562   57.332
 4686.5     12.786   59.16   54.557
 4687     12.784   60.595   51.783
 4687.5     12.781   60.249   46.797
 4688     12.779   59.519   38.169
 4688.5     12.777   58.788   35.8
 4689     12.775   58.058   36.834
 4689.5     12.773   57.328   36.557
 4690     12.771   56.598   33.393
 4690.5     12.768   55.867   31.163
 4691     12.766   55.137   29.364
 4691.5     12.764   54.464   27.565
 4692     12.762   53.984   25.766
 4692.5     12.76   53.505   26.403
 4693     12.758   53.026   27.191
 4693.5     12.755   53.184   27.979
 4694     12.753   53.372   28.767
 4694.5     12.751   53.561   29.555
 4695     12.749   53.75   30.989
 4695.5     12.747   53.772   34.767
 4696     12.745   53.789   38.546
 4696.5     12.743   53.807   42.325
 4697     12.74   53.855   39.439
 4697.5     12.738   54.806   36.088
 4698     12.736   55.53   32.979
 4698.5     12.734   55.53   30.126
 4699     12.732   54.958   30.686
 4699.5     12.73   53.924   31.776
 4700     12.727   52.889   32.865
 4700.5     12.725   53.18   32.787
 4701     12.723   53.594   31.508
 4701.5     12.721   54.008   30.229
 4702     12.719   54.085   29.093
 4702.5     12.717   53.755   31.636
 4703     12.714   53.425   34.18
 4703.5     12.712   53.094   36.724
 4704     12.71   52.764   39.267
 4704.5     12.708   53.276   37.537
 4705     12.706   54.645   35.573
 4705.5     12.704   54.962   33.61
 4706     12.702   54.716   33.064
 4706.5     12.699   54.469   33.032
 4707     12.697   54.274   33
 4707.5     12.695   54.182   32.455
 4708     12.693   54.098   30.835
 4708.5     12.691   54.083   29.214
 4709     12.689   54.068   30.541
 4709.5     12.687   54.053   32.121
 4710     12.688   54.038   33.701
 4710.5     12.688   53.846   35.281
 4711     12.688   53.536   36.861
 4711.5     12.689   53.515   38.441
 4712     12.689   53.886   40.021
 4712.5     12.69   54.126   41.601
 4713     12.69   54.365   42.759
 4713.5     12.691   55.58   41.453
 4714     12.691   56.834   40.147
 4714.5     12.692   58.088   41.566
 4715     12.692   57.294   45.856
 4715.5     12.693   56.306   50.147
 4716     12.693   55.318   54.437
 4716.5     12.694   55.286   58.728
 4717     12.694   55.596   63.018
 4717.5     12.695   55.905   67.309
 4718     12.695   59.542   71.599
 4718.5     12.696   63.672   73.257
 4719     12.694   67.802   64.865
 4719.5     12.686   67.039   56.473
 4720     12.679   65.498   56.784
 4720.5     12.671   63.956   58.036
 4721     12.663   62.414   59.289
 4721.5     12.656   60.873   60.541
 4722     12.648   61.119   61.793
 4722.5     12.64   62.036   63.046
 4723     12.632   62.954   63.931
 4723.5     12.625   63.871   63.524
 4724     12.617   64.789   54.519
 4724.5     12.609   65.007   48.804
 4725     12.606   65.199   48.255
 4725.5     12.609   65.132   44.342
 4726     12.612   63.191   51.419
 4726.5     12.615   61.251   58.495
 4727     12.618   59.311   65.571
 4727.5     12.621   59.943   72.648
 4728     12.624   62.26   70.874
 4728.5     12.627   64.578   68.026
 4729     12.63   65.959   67.972
 4729.5     12.633   65.477   67.917
 4730     12.636   64.995   67.862
 4730.5     12.639   64.513   67.266
 4731     12.642   64.608   65.132
 4731.5     12.645   65.25   62.998
 4732     12.648   65.595   54.452
 4732.5     12.655   64.535   44.734
 4733     12.663   63.475   35.016
 4733.5     12.671   61.515   33.589
 4734     12.679   58.774   36.996
 4734.5     12.687   56.034   40.403
 4735     12.695   53.293   43.81
 4735.5     12.702   51.568   47.216
 4736     12.699   53.864   53.151
 4736.5     12.695   56.452   59.644
 4737     12.69   59.967   66.138
 4737.5     12.686   63.483   72.631
 4738     12.681   66.259   79.124
 4738.5     12.677   67.855   76.988
 4739     12.672   69.45   74.037
 4739.5     12.668   68.39   71.086
 4740     12.663   67.041   68.135
 4740.5     12.659   65.692   65.184
 4741     12.654   64.343   65.268
 4741.5     12.65   62.995   68.438
 4742     12.645   62.191   71.607
 4742.5     12.641   63.819   74.777
 4743     12.636   65.446   76.239
 4743.5     12.632   67.074   70.182
