###############################################
##         ENVERUS                           ##
##         ESS - Open Hole                   ##
##         PERMIAN / DELAWARE                ##
##         Nov 02 2023  V4.0                 ##
##         42-109-31375-00-00                ##
###############################################
## Copyright 2017-2023  ENVERUS.  All Rights Reserved. 
## Confidential - Property of ENVERUS, use governed by terms and 
## conditions found within the existing Information Services Subscription Agreement 
## (as may be amended, the “ISSA”) between Customer and ENVERUS. 
## 
~VERSION INFORMATION
# MNEM.UNIT                               DATA : DESCRIPTION OF MNEMONIC
#-----.-----     ----------------------------- : -----------------------------
VERS.                                     2.00 : CWLS LOG ASCII STANDARD - VERSION 2.00
WRAP.                                       NO : MULTIPLE LINES PER DEPTH STEP
VEND.                                  ENVERUS : VENDOR
TYPE.                          ESS - OPEN HOLE : ENVERUS ESSENTIAL CURVES – ACCESSIBLE THROUGH ENVERUS PRISM(TM)
DOC.                                  32006335 : ENVERUS HEADER RAW DOCUMENT ID
#___________________________________________________________________________________________________ 
~WELL INFORMATION 
# Eb7Zbut2Nwqt2ftj1i2q6V2Ye1Joym9Qrd6BFF0aHeZ6Mf1z+VAuEcbs4uVngcAWjTW62nvWGWatc34NWk2mnA== 
# MNEM.UNIT                                              DATA : DESCRIPTION OF MNEMONIC 
#-----.-----                    ----------------------------- : ----------------------------- 
CNTY.                                               CULBERSON : COUNTY 
STATE.                                                  TEXAS : STATE 
CNTRY.                                                    USA : COUNTRY 
API.                                             42-109-31375 : API (10 Digit) 
API_14.                                    42-109-31375-00-00 : API (14 Digits) 
API_14_std.                                 42-109-31375-0000 : API (14 Digits Standard) 
UWI.                                           42109313750000 : UNIQUE WELL ID 
WELL.                                      7806 JV-P DUVAL  1 : WELL NAME
STRT.FT                                                     0 : START DEPTH
STOP.FT                                               15739.0 : STOP DEPTH
STEP.FT                                                   0.5 : STEP BETWEEN DEPTHS
NULL.                                                 -999.25 : NULL VALUE
COMP.                                  BTA OIL PRODUCERS  LLC : COMPANY 
DATE.                                             26-MAY-1978 : LOG DATE
#___________________________________________________________________________________________________ 
~CURVE INFORMATION 
# MNEM.UNIT           : CURVE DESCRIPTION 
#-----.-----          : ----------------------------- 
 DEPT.FT               : MEASURED DEPTH 
 CALI.IN               : CALIPER (CAL - CAL) 
 GR.API                : GAMMA RAY (GR) 
 DT.US/FT              : SONIC DELTA TRANSIT TIME (DT) 
 #___________________________________________________________________________________________________ 
~A         DEPT           CALI             GR             DT
# ...
        15642.0          8.863        204.120         82.242
        15642.5          8.895        207.675         81.658
        15643.0          8.928        211.104         81.074
        15643.5          8.916        207.043         80.490
        15644.0          8.813        202.982         80.163
        15644.5          8.780        198.657         80.203
        15645.0          8.769        193.919         80.243
        15645.5          8.758        193.845         80.283
        15646.0          8.747        196.193         79.209
        15646.5          8.736        199.889         77.809
        15647.0          8.726        204.095         76.410
        15647.5          8.767        206.902         75.685
        15648.0          8.876        208.186         75.002
        15648.5          8.890        208.887         74.318
        15649.0          8.885        208.739         75.342
        15649.5          8.880        208.591         76.380
        15650.0          8.875        206.618         76.497
        15650.5          8.870        195.351         76.521
        15651.0          8.865        197.496         76.545
        15651.5          8.860        204.587         76.656
        15652.0          8.855        212.707         76.785
        15652.5          8.858        221.429         76.913
        15653.0          8.879        230.150         77.019
        15653.5          8.932        231.509         77.032
        15654.0          9.033        228.196         77.241
        15654.5          9.006        231.966         77.450
        15655.0          8.948        236.249         77.659
        15655.5          8.890        239.409         78.400
        15656.0          8.831        242.568         78.962
        15656.5          8.792        245.728         79.524
        15657.0          8.780        248.887         80.006
        15657.5          8.769        250.023         80.100
        15658.0          8.758        249.844         80.194
        15658.5          8.746        246.725         80.288
        15659.0          8.735        240.093         80.382
        15659.5          8.724        233.460         80.106
        15660.0          8.715        226.828         79.641
        15660.5          8.720        224.265         79.177
        15661.0          8.725        223.587         79.047
        15661.5          8.534        224.513         79.260
        15662.0          8.545        225.439         79.445
        15662.5          8.566        230.090         78.195
        15663.0          8.587        234.104         76.944
        15663.5          8.651        234.101         76.780
        15664.0          8.683        234.098         76.981
        15664.5          8.680        234.095         77.182
        15665.0          8.676        234.092         77.731
        15665.5          8.672        234.089         78.335
        15666.0          8.718        234.086         78.939
        15666.5          8.781        234.083         76.992
        15667.0          8.825        234.080         74.763
        15667.5          8.864        234.077         73.706
        15668.0          8.904        234.074         73.034
        15668.5          8.944        234.071         72.362
        15669.0          8.983        234.068         72.740
        15669.5          8.966        234.065         74.129
        15670.0          8.875        234.062         76.320
        15670.5          8.784        234.059         78.511
        15671.0          8.770        234.056         78.066
        15671.5          8.763        234.054         77.533
        15672.0          8.755        234.051         77.000
        15672.5          8.748        234.048         75.676
        15673.0          8.741        234.045         73.970
        15673.5          8.734        234.042         73.574
        15674.0          8.728        234.039         73.160
        15674.5          8.720        234.036         72.718
        15675.0          8.663        234.033         72.275
        15675.5          8.606        234.030         71.833
        15676.0          8.558        234.027         71.391
        15676.5          8.550        234.024         71.376
        15677.0          8.542        234.021         71.630
        15677.5          8.534        234.018         71.885
        15678.0          8.531        234.015         73.448
        15678.5          8.531        234.012         74.038
        15679.0          8.538        234.009         74.209
        15679.5          8.719        234.006         74.129
        15680.0          8.734        234.003         73.491
        15680.5          8.749        234.000         72.826
        15681.0          8.765        233.998         72.154
        15681.5          8.780        233.995         71.481
        15682.0          8.796        233.992         71.092
        15682.5          8.787        233.989         71.674
        15683.0          8.772        233.986         72.256
        15683.5          8.758        233.983         72.837
        15684.0          8.729        233.980         73.259
        15684.5          8.701        233.977         73.464
        15685.0          8.679        233.974         73.686
        15685.5          8.696        233.971         73.941
        15686.0          8.713        233.968         74.196
        15686.5          8.730        233.965         74.451
        15687.0          8.748        233.962         74.619
        15687.5          8.765        233.959         74.489
        15688.0          8.787        233.956         74.375
        15688.5          8.810        233.953         74.324
        15689.0          8.833        233.950         74.272
        15689.5          8.820        233.947         74.221
        15690.0          8.803        233.944         74.148
        15690.5          8.786        233.942         73.952
        15691.0          8.768        233.939         73.756
        15691.5          8.752        233.936         73.963
        15692.0          8.740        233.933         74.317
        15692.5          8.728        233.930         76.325
        15693.0          8.716        233.927         77.926
        15693.5          8.704        233.924         78.828
        15694.0          8.691        233.921         79.731
        15694.5          8.679        233.918         80.634
        15695.0          8.667        233.915         81.277
        15695.5          8.660        233.912         81.406
        15696.0          8.669        233.909         81.102
        15696.5          8.678        233.906         79.696
        15697.0          8.686        233.903         78.296
        15697.5          8.695        233.900         77.040
        15698.0          8.704        233.897         75.785
        15698.5          8.712        233.894         74.529
        15699.0          8.721        233.891         73.463
        15699.5          8.732        233.888         72.929
        15700.0          8.744        233.886         73.407
        15700.5          8.734        233.883         74.343
        15701.0          8.698        233.880         75.280
        15701.5          8.663        233.877         76.217
        15702.0          8.627        233.874         76.879
        15702.5          8.620        233.871         77.050
        15703.0          8.627        233.868         77.221
        15703.5          8.635        233.865         77.050
        15704.0          8.644        233.862       -999.250
        15704.5          8.662        233.859       -999.250
        15705.0          8.680        233.856       -999.250
        15705.5          8.729        233.853       -999.250
        15706.0          8.779        233.850       -999.250
        15706.5          8.828        233.847       -999.250
        15707.0          8.847        233.844       -999.250
        15707.5          8.830        233.841       -999.250
