###############################################
##         ENVERUS                           ##
##         ESS - Open Hole                   ##
##         PERMIAN / DELAWARE                ##
##         Nov 03 2023  V4.0                 ##
##         42-109-32508-00-00                ##
###############################################
## Copyright 2017-2023  ENVERUS.  All Rights Reserved. 
## Confidential - Property of ENVERUS, use governed by terms and 
## conditions found within the existing Information Services Subscription Agreement 
## (as may be amended, the “ISSA”) between Customer and ENVERUS. 
## 
~VERSION INFORMATION
# MNEM.UNIT                               DATA : DESCRIPTION OF MNEMONIC
#-----.-----     ----------------------------- : -----------------------------
VERS.                                     2.00 : CWLS LOG ASCII STANDARD - VERSION 2.00
WRAP.                                       NO : MULTIPLE LINES PER DEPTH STEP
VEND.                                  ENVERUS : VENDOR
TYPE.                          ESS - OPEN HOLE : ENVERUS ESSENTIAL CURVES – ACCESSIBLE THROUGH ENVERUS PRISM(TM)
DOC.                                  51093165 : ENVERUS HEADER RAW DOCUMENT ID
#___________________________________________________________________________________________________ 
~WELL INFORMATION 
# 1l9uGBxUQQhBCtjIwzslcirW42fLV8cokTOAxV7sfA093x4JFuWG6+twQwU/7oNL7vvW02EVanlAmdL+peO2nw== 
# MNEM.UNIT                                              DATA : DESCRIPTION OF MNEMONIC 
#-----.-----                    ----------------------------- : ----------------------------- 
CNTY.                                               CULBERSON : COUNTY 
STATE.                                                  TEXAS : STATE 
CNTRY.                                                    USA : COUNTRY 
API.                                             42-109-32508 : API (10 Digit) 
API_14.                                    42-109-32508-00-00 : API (14 Digits) 
API_14_std.                                 42-109-32508-0000 : API (14 Digits Standard) 
UWI.                                           42109325080000 : UNIQUE WELL ID 
WELL.                                  LT. GIBSON 12 STATE 1H : WELL NAME
STRT.FT                                                1970.5 : START DEPTH
STOP.FT                                                8727.0 : STOP DEPTH
STEP.FT                                                   0.5 : STEP BETWEEN DEPTHS
NULL.                                                 -999.25 : NULL VALUE
PREV_APII.                                     42109325080000 : WELL IDENTIFIER
#___________________________________________________________________________________________________ 
~PARAMETER INFORMATION 
# MNEM.UNIT                                              DATA : DESCRIPTION OF MNEMONIC 
#-----.-----                    ----------------------------- : ----------------------------- 
EKB.FT                                                   3552 : ELEVATION ABOVE MSL
#___________________________________________________________________________________________________ 
~CURVE INFORMATION 
# MNEM.UNIT           : CURVE DESCRIPTION 
#-----.-----          : ----------------------------- 
 DEPT.FT               : MEASURED DEPTH 
 GR__A.API             : GAMMA RAY (GAMMA RAY) 
 DT__A.US/FT           : SONIC DELTA TRANSIT TIME (SONIC) 
 #___________________________________________________________________________________________________ 
~A         DEPT          GR__A          DT__A
# ...
         5102.5       -118.327        138.402
         5103.0       -113.517        138.207
         5103.5        -96.603        138.632
         5104.0       -102.857        138.791
         5104.5        -90.241        136.236
         5105.0         -8.301        131.927
         5105.5          3.987        128.162
         5106.0         15.122        127.040
         5106.5         31.218        126.901
         5107.0         43.735        126.706
         5107.5         40.098        126.782
         5108.0         32.873        130.020
         5108.5         19.160        127.063
         5109.0         12.451        125.296
         5109.5         21.830        120.131
         5110.0         15.876        116.838
         5110.5         -8.778        117.934
         5111.0        -53.271        130.438
         5111.5        -90.685        133.100
         5112.0        -98.438        134.293
         5112.5        -88.281        132.921
         5113.0        -81.970        130.461
         5113.5        -63.598        129.240
         5114.0        -42.054        128.682
         5114.5        -33.874        126.581
         5115.0        -19.163        125.083
         5115.5         23.161        122.213
         5116.0         94.851        118.843
         5116.5        153.308        115.561
         5117.0        169.849        115.935
         5117.5         87.110        116.329
         5118.0          5.756        121.701
         5118.5        -50.574        128.543
         5119.0        -95.561        132.744
         5119.5       -119.757        137.758
         5120.0       -119.141        139.911
         5120.5       -117.272        140.588
         5121.0       -109.154        138.257
         5121.5        -97.369        130.317
         5122.0        -77.502        119.430
         5122.5        -37.156        116.179
         5123.0         -3.136        118.127
         5123.5         -6.731        123.991
         5124.0        -31.538        128.926
         5124.5        -73.140        132.772
         5125.0        -93.750        132.101
         5125.5        -68.076        126.802
         5126.0        -27.097        123.475
         5126.5        -12.053        125.007
         5127.0        -41.861        128.134
         5127.5        -62.081        128.193
         5128.0        -63.189        124.636
         5128.5        -52.646        122.027
         5129.0        -57.607        124.170
         5129.5        -87.740        127.980
         5130.0        -93.669        129.134
         5130.5        -82.347        125.805
         5131.0        -52.090        120.274
         5131.5        -26.357        118.519
         5132.0        -16.220        119.345
         5132.5        -49.044        123.818
         5133.0        -82.411        125.536
         5133.5        -88.501        125.171
         5134.0        -72.041        121.955
         5134.5        -47.130        118.620
         5135.0        -24.611        118.616
         5135.5        -22.860        122.636
         5136.0        -40.216        133.219
         5136.5        -78.732        139.985
         5137.0       -104.719        140.514
         5137.5       -103.868        135.474
         5138.0        -60.208        125.902
         5138.5        -53.304        122.819
         5139.0        -70.052        122.937
         5139.5        -85.156        123.258
         5140.0        -71.826        122.141
         5140.5        -60.009        118.924
         5141.0        -47.461        115.156
         5141.5        -60.736        114.035
         5142.0        -85.436        114.076
         5142.5        -92.068        114.035
         5143.0        -85.938        115.530
         5143.5        -65.965        116.541
         5144.0        -50.484        116.569
         5144.5        -45.433        117.719
         5145.0        -52.087        118.697
         5145.5        -70.074        120.054
         5146.0        -85.953        119.891
         5146.5        -64.183        118.136
         5147.0         -2.340        117.349
         5147.5         48.952        116.565
         5148.0         91.763        117.747
         5148.5         98.181        115.934
         5149.0         64.253        109.190
         5149.5         25.392        102.215
         5150.0        -48.160         97.441
         5150.5        -80.541         96.881
         5151.0       -112.181         96.491
         5151.5       -122.953         97.503
         5152.0       -128.207         98.092
         5152.5       -129.388        102.040
         5153.0       -131.838        105.070
         5153.5       -134.918        109.960
         5154.0       -129.963        111.955
         5154.5       -118.257        106.998
         5155.0       -115.234         98.244
         5155.5       -117.076         92.913
         5156.0       -118.750         93.520
         5156.5       -116.798         95.205
         5157.0       -112.336         96.460
         5157.5       -109.984         97.552
         5158.0       -108.623         97.586
         5158.5       -113.645         93.675
         5159.0       -118.750         90.445
         5159.5       -113.858         87.422
         5160.0       -113.885         86.443
         5160.5       -119.075         85.575
         5161.0       -121.035         85.258
         5161.5       -117.578         85.694
         5162.0       -116.696         90.087
         5162.5       -104.646        100.040
         5163.0        -81.345        110.011
         5163.5        -68.480        116.059
         5164.0        -69.865        115.706
         5164.5        -62.519        112.774
         5165.0         -1.044        111.843
         5165.5         58.157        114.923
         5166.0         61.407        117.776
         5166.5         33.845        121.177
         5167.0        -16.962        122.971
         5167.5        -54.421        124.144
         5168.0        -65.439        127.026
         5168.5        -70.940        129.396
         5169.0        -84.312        128.865
         5169.5        -78.175        127.886
         5170.0        -48.687        126.532
         5170.5        -27.791        123.205
         5171.0        -10.930        123.589
         5171.5         -7.140        126.364
         5172.0        -35.829        136.109
         5172.5        -75.069        144.189
         5173.0       -106.637        148.361
         5173.5       -122.049        148.885
         5174.0       -124.609        146.291
         5174.5       -118.902        141.147
         5175.0       -113.213        132.503
         5175.5       -108.290        122.774
         5176.0        -97.097        117.460
         5176.5        -91.242        116.615
         5177.0        -72.006        117.984
         5177.5        -46.114        118.768
         5178.0        -54.921        119.610
         5178.5        -73.908        120.858
         5179.0        -88.052        120.725
         5179.5        -92.578        118.892
         5180.0        -71.193        116.689
         5180.5        -39.753        115.906
         5181.0          3.281        115.790
         5181.5         10.156        115.790
         5182.0          8.021        116.647
         5182.5          0.848        118.904
         5183.0        -24.863        122.034
         5183.5        -48.875        126.649
         5184.0        -49.785        126.598
         5184.5        -43.806        126.121
         5185.0        -24.798        126.121
         5185.5        -10.307        125.417
         5186.0         -9.518        123.729
         5186.5         -2.371        120.797
         5187.0         19.438        119.235
         5187.5         28.516        121.206
         5188.0          7.981        125.566
         5188.5        -23.725        130.647
         5189.0        -54.453        133.731
