# Exported from Transform Software 5.2.0 on 21-Oct-2019 by user kathryn.gehrke
# DI Transform - A Product of Drillinginfo, Inc. - www.drillinginfo.com
#
~VERSION INFORMATION
 VERS.        2.0 : LAS ASCII STANDARD - VERSION 2.0
 WRAP.         NO : ONE LINE PER DEPTH STEP

~WELL INFORMATION
#MNEM.UNIT       DATA TYPE       INFORMATION
#---------       ---------       -----------
 STRT.ft                  30 : Start Depth
 STOP.ft                9000 : Stop Depth
 STEP.ft                 0.5 : Step Length
 NULL.               -999.25 : Null Value
 COMP.                       : Company
 WELL.  42109330470000_API14 : Well Name
 FLD.                        : Field Name
 LOC.                        : Well Location
 CNTY.                       : County
 STAT.                       : State or Province
 CTRY.                       : Country
 SRVC.                       : Service Company
 DATE.                       : Date
 API.         42109330470000 : Well Identifier

~CURVE INFORMATION
#MNEM.UNIT       API CODE       CURVE DESCRIPTION
#---------       --------       -----------------
 DEPT.ft        : <Measured Depth>
 DT.us/ft       : Sonic
 GR.gAPI        : Gamma Ray

~PARAMETER INFORMATION
#MNEM.UNIT       VALUE       DESCRIPTION
#---------       -----       -----------
 EKB.ft      3201 : Elevation above MSL

~A      DEPT          DT          GR
# ...
        8927     321.634     62.6948
      8927.5     321.634     71.3347
        8928     321.634     79.8009
      8928.5     321.634     79.0284
        8929     321.634     72.6208
      8929.5    321.8091     64.6366
        8930    321.8091     52.9456
      8930.5    321.8091     49.7526
        8931    321.8091      56.104
      8931.5    321.8091     58.7409
        8932    321.8091     55.7196
      8932.5    321.8091     56.6872
        8933     321.634     65.0115
      8933.5     321.634     75.9145
        8934     321.634     80.9107
      8934.5     321.634     80.1226
        8935     321.634     83.7204
      8935.5     321.634     88.7387
        8936     321.634     94.2295
      8936.5     321.669     97.1979
        8937    321.7213     88.1843
      8937.5    321.7213     77.7038
        8938    321.7349     72.2925
      8938.5     321.848     69.2459
        8939    321.9612     67.5131
      8939.5    322.0743     68.6705
        8940    322.1875     71.6671
      8940.5     321.634     79.3439
        8941     321.634     91.0107
      8941.5     321.634     98.0454
        8942     321.634    107.5155
      8942.5     321.634     118.537
        8943     321.634    116.9937
      8943.5     321.634    111.6926
        8944     321.634    114.7297
      8944.5     321.634    116.4203
        8945     321.634    102.3921
      8945.5     321.634     92.2513
        8946     321.634      97.372
      8946.5     321.634    101.9264
        8947     321.634     100.372
      8947.5     321.634    100.3072
        8948     321.634    107.6205
      8948.5     321.634    112.9597
        8949     321.634    108.5984
      8949.5     321.634     92.3031
        8950     321.634     71.1332
      8950.5     321.634     62.0371
        8951     321.634     67.1299
      8951.5    321.8091     78.2042
        8952    321.8091     78.6055
      8952.5    321.8091     70.3299
        8953    321.8091     70.3643
      8953.5    321.8091      74.606
        8954    321.8091     72.2794
      8954.5    321.8091     76.8583
        8955    321.8091     88.9251
      8955.5    321.8091     98.7011
        8956    321.8091    102.7326
      8956.5    321.8091     94.4152
        8957    321.8091     82.2947
      8957.5    321.8091     78.5464
        8958    321.8091     80.1054
      8958.5    321.8091     79.2202
        8959    321.8091     75.4277
      8959.5    321.8091     79.2349
        8960    321.8091     99.3654
      8960.5    321.8091    119.5451
        8961    321.9842    127.6388
      8961.5    321.9072    132.8616
        8962     321.634    141.0216
      8962.5     321.634    141.8019
        8963    321.4588    125.1803
      8963.5    321.4588    109.7808
        8964    321.4588     91.8289
      8964.5    321.4588     81.4652
        8965    321.4588     85.5675
      8965.5    321.4588     94.9225
        8966    321.4588      99.797
      8966.5    321.4588    100.4953
        8967    321.4588     94.6115
      8967.5    321.4588      92.062
        8968     321.634     97.1323
      8968.5    321.8091    108.6791
        8969    321.8091    118.4382
      8969.5    321.8091    115.8994
        8970    321.8091    111.3835
      8970.5     321.634    113.9863
        8971     321.634    122.0828
      8971.5     321.634    137.5364
        8972     321.634     155.699
      8972.5     321.634     161.296
        8973     321.634    151.1283
      8973.5     321.634    130.4064
        8974     321.634     78.8731
      8974.5     321.634     67.2923
        8975    321.8091     64.8862
      8975.5    321.8091     63.8555
        8976    321.8091     69.5754
      8976.5    321.8091     74.0806
        8977    321.8091     75.1219
      8977.5    321.8091     80.7332
        8978    321.8091     90.8481
      8978.5    321.8091     97.7057
        8979    321.8091      96.427
      8979.5    321.8091     96.5159
        8980    321.8091    115.4801
      8980.5    321.8091    140.0609
        8981    321.8091    149.9844
      8981.5    321.8091    151.6999
        8982    321.8091    150.8176
      8982.5    321.8091    130.6609
        8983    321.8091     99.3971
      8983.5    321.8091     84.3393
        8984    321.8091     90.3284
      8984.5    321.9842    102.5387
        8985    321.9842    115.5436
      8985.5    321.9842    129.7367
        8986    321.6378    140.2572
      8986.5     321.634    141.6048
        8987     321.634    132.1792
      8987.5     321.634    118.5071
        8988     321.634    108.2509
      8988.5     321.634    100.3691
        8989     321.634     91.4456
      8989.5     321.634     84.7241
        8990     321.634     85.1097
      8990.5     321.634     86.5626
        8991     321.634     81.7062
      8991.5     321.634     85.2347
        8992     321.634     89.5797
      8992.5    321.2837     82.4992
        8993    321.2837     76.7133
      8993.5    321.2837     81.4201
        8994    321.4588      95.602
      8994.5    321.8091     104.678
        8995    321.8091     111.638
      8995.5    321.8091    114.8023
        8996    321.8091     99.5802
      8996.5    321.8091     89.0572
        8997    321.8091     93.2513
      8997.5     321.634    101.6617
        8998     321.634    101.1408
      8998.5     321.634     95.4922
        8999     321.634     89.5809
      8999.5     321.634     85.2454
        9000     -999.25     -999.25
