###############################################
##         ENVERUS                           ##
##         ESS - Open Hole                   ##
##         PERMIAN / DELAWARE                ##
##         Nov 02 2023  V4.0                 ##
##         42-109-30915-00-00                ##
###############################################
## Copyright 2017-2023  ENVERUS.  All Rights Reserved. 
## Confidential - Property of ENVERUS, use governed by terms and 
## conditions found within the existing Information Services Subscription Agreement 
## (as may be amended, the “ISSA”) between Customer and ENVERUS. 
## 
~VERSION INFORMATION
# MNEM.UNIT                               DATA : DESCRIPTION OF MNEMONIC
#-----.-----     ----------------------------- : -----------------------------
VERS.                                     2.00 : CWLS LOG ASCII STANDARD - VERSION 2.00
WRAP.                                       NO : MULTIPLE LINES PER DEPTH STEP
VEND.                                  ENVERUS : VENDOR
TYPE.                          ESS - OPEN HOLE : ENVERUS ESSENTIAL CURVES – ACCESSIBLE THROUGH ENVERUS PRISM(TM)
DOC.                                  32305988 : ENVERUS HEADER RAW DOCUMENT ID
#___________________________________________________________________________________________________ 
~WELL INFORMATION 
# YiEbrulvYUtXh1D3opxUtnvhUVpPAvxlEBgV2kjbCTHvWrxGcz1+vOa1jEIuqGtoxi0rQ+ZQV9RU/rHAPCAAKQ== 
# MNEM.UNIT                                              DATA : DESCRIPTION OF MNEMONIC 
#-----.-----                    ----------------------------- : ----------------------------- 
CNTY.                                               CULBERSON : COUNTY 
STATE.                                                  TEXAS : STATE 
CNTRY.                                                    USA : COUNTRY 
API.                                             42-109-30915 : API (10 Digit) 
API_14.                                    42-109-30915-00-00 : API (14 Digits) 
API_14_std.                                 42-109-30915-0000 : API (14 Digits Standard) 
UWI.                                           42109309150000 : UNIQUE WELL ID 
WELL.                             VELMA CASEY ROUNSAVILLE A 1 : WELL NAME
STRT.FT                                                  82.0 : START DEPTH
STOP.FT                                               11225.0 : STOP DEPTH
STEP.FT                                                   0.5 : STEP BETWEEN DEPTHS
NULL.                                                 -999.25 : NULL VALUE
#___________________________________________________________________________________________________ 
~CURVE INFORMATION 
# MNEM.UNIT           : CURVE DESCRIPTION 
#-----.-----          : ----------------------------- 
 DEPT.FT               : MEASURED DEPTH 
 CALI.IN               : CALIPER (CAL - CAL) 
 GR.API                : GAMMA RAY (GR) 
 DT.US/FT              : SONIC DELTA TRANSIT TIME (DT) 
 NPHI.V/V              : NEUTRON POROSITY (NPHI) 
 RHOB.G/CC             : BULK DENSITY (RHOB) 
 #___________________________________________________________________________________________________ 
~A         DEPT           CALI             GR             DT           NPHI           RHOB
# ...
        10730.0          7.649        102.946         67.598        0.15485         2.6992
        10730.5          7.649        105.049         68.165        0.17282         2.7188
        10731.0          7.648        107.152         68.732        0.17337         2.7348
        10731.5          7.648        109.255         68.819        0.17391         2.7254
        10732.0          7.648        111.358         68.340        0.17445         2.7159
        10732.5          7.648        112.488         67.862        0.17499         2.7065
        10733.0          7.648        113.581         67.384        0.17553         2.6970
        10733.5          7.647        114.673         66.905        0.17607         2.6876
        10734.0          7.647        115.086         67.370        0.17661         2.6781
        10734.5          7.647        113.083         67.837        0.17715         2.6687
        10735.0          7.647        111.079         68.304        0.17770         2.6592
        10735.5          7.647        109.076         68.771        0.17824         2.6498
        10736.0          7.646        109.526         68.905        0.17878         2.6740
        10736.5          7.646        113.086         68.284        0.17932         2.7056
        10737.0          7.646        116.646         67.662        0.18093         2.7244
        10737.5          7.646        115.645         67.041        0.18312         2.7139
        10738.0          7.645        114.473         66.420        0.18530         2.7077
        10738.5          7.645        113.301         66.976        0.18745         2.7155
        10739.0          7.645        112.129         67.699        0.18588         2.7233
        10739.5          7.645        110.957         68.422        0.18430         2.7310
        10740.0          7.645        112.915         69.090        0.18273         2.6826
        10740.5          7.644        121.886         69.016        0.18116         2.6902
        10741.0          7.644        127.304         68.942        0.17958         2.6978
        10741.5          7.644        128.911         68.868        0.17801         2.7053
        10742.0          7.644        130.519         68.795        0.17644         2.6991
        10742.5          7.644        132.127         70.711        0.17486         2.6805
        10743.0          7.643        133.735         74.536        0.17329         2.6858
        10743.5          7.643        135.342         78.360        0.18112         2.6918
        10744.0          7.643        136.950         82.185        0.19247         2.6979
        10744.5          7.643        145.283         82.757        0.20381         2.6916
        10745.0          7.643        157.523         79.693        0.21515         2.6656
        10745.5          7.642        169.764         76.628        0.22650         2.6396
        10746.0          7.642        166.490         73.563        0.23016         2.6136
        10746.5          7.605        153.783         70.499        0.22314         2.6232
        10747.0          7.567        141.075         69.484        0.21612         2.6459
        10747.5          7.530        128.367         69.108        0.20910         2.6687
        10748.0          7.492        119.301         68.732        0.20209         2.6702
        10748.5          7.455        111.764         68.357        0.19035         2.6622
        10749.0          7.417        104.227         63.346        0.17768         2.6542
        10749.5          7.379         96.689         56.573        0.16500         2.6838
        10750.0          7.342         89.152         53.217        0.15232         2.7393
        10750.5          7.372         81.614         55.913        0.13964         2.7948
        10751.0          7.433         74.077         58.609        0.12697         2.8067
        10751.5          7.495         66.715         61.305        0.11429         2.7915
        10752.0          7.556         74.775         64.001        0.10161         2.7762
        10752.5          7.617         82.836         66.696        0.11136         2.7610
        10753.0          7.679         90.896         69.392        0.12301         2.7458
        10753.5          7.715         98.956         69.194        0.13467         2.7305
        10754.0          7.713        106.579         68.888        0.14241         2.7153
        10754.5          7.712        111.170         68.582        0.14739         2.7001
        10755.0          7.711        115.760         68.276        0.15237         2.6849
        10755.5          7.709        116.109         67.976        0.15735         2.6914
        10756.0          7.708        114.242         68.258        0.16233         2.7035
        10756.5          7.707        112.376         68.540        0.16731         2.7156
        10757.0          7.705        110.509         68.822        0.17229         2.7168
        10757.5          7.704        108.642         69.105        0.17064         2.7140
        10758.0          7.702        106.775         69.387        0.16714         2.7111
        10758.5          7.701        104.908         69.423        0.16364         2.7083
        10759.0          7.700        106.728         69.140        0.16014         2.7055
        10759.5          7.698        109.903         68.857        0.15665         2.6980
        10760.0          7.697        111.444         68.574        0.15324         2.6871
        10760.5          7.697        108.143         68.290        0.14987         2.6762
        10761.0          7.699        104.842         68.142        0.14651         2.6653
        10761.5          7.700        101.541         68.142        0.14315         2.6544
        10762.0          7.701         98.240         68.142        0.13979         2.6471
        10762.5          7.702         95.999         68.966        0.13643         2.6399
        10763.0          7.704         98.226         70.094        0.13307         2.6328
        10763.5          7.705        100.453         71.223        0.12970         2.6257
        10764.0          7.706        104.087         72.352        0.13277         2.6182
        10764.5          7.707        123.304         73.481        0.13621         2.6100
        10765.0          7.709        132.985         74.610        0.13965         2.6018
        10765.5          7.710        141.638         75.739        0.14412         2.5936
        10766.0          7.711        144.880         76.494        0.15107         2.5854
        10766.5          7.712        141.888         77.212        0.15801         2.5798
        10767.0          7.713        138.896         77.930        0.16496         2.5925
        10767.5          7.709        135.904         78.647        0.17190         2.6052
        10768.0          7.654        136.743         79.365        0.17885         2.6179
        10768.5          7.599        139.447         79.746        0.17874         2.6306
        10769.0          7.544        136.180         78.744        0.17192         2.6433
        10769.5          7.489        131.517         75.124        0.16511         2.6560
        10770.0          7.434        126.854         68.425        0.15829         2.6687
        10770.5          7.379        115.709         65.080        0.15148         2.6814
        10771.0          7.324        100.832         66.041        0.14467         2.6941
        10771.5          7.269         97.540         67.003        0.13785         2.7068
        10772.0          7.257        100.074         67.964        0.13104         2.7195
        10772.5          7.258        102.608         68.489        0.13063         2.7323
        10773.0          7.259        105.141         68.697        0.14176         2.7372
        10773.5          7.261        107.675         68.905        0.15289         2.7294
