~VERSION INFORMATION
 VERS.                2.0:   CWLS LOG ASCII STANDARD - VERSION 2.0
 WRAP.                 NO:   ONE LINE PER DEPTH STEP
~WELL INFORMATION
#MNEM.UNIT      DATA TYPE    INFORMATION
#----------   ------------   ------------------------------
 STRT.FT        8672.0000:   START DEPTH
 STOP.FT       14432.0000:   STOP DEPTH
 STEP.FT           0.5000:   STEP LENGTH
 NULL.          -999.2500:   NULL VALUE
 COMP. CAPITAN ENERGY, INCORPORATED:   COMPANY
 WELL.  MOTHER FEE 28 #1H:   WELL
 FLD . FORD, WEST (WOLFCAMP)	:   FIELD
 LOC .                   :   LOCATION
 CNTY.          CULBERSON:   COUNTY
 STAT.              TEXAS:   STATE
 CTRY. UNITED STATES OF AMERICA:   COUNTRY
 SRVC.        HALLIBURTON:   SERVICE COMPANY
 DATE.        16-Nov-2015:   LOGDATE
 API .     42109328880000:   API NUMBER
~CURVE INFORMATION
#MNEM.UNIT       API CODE    CURVE DESCRIPTION
#----------   ------------   ------------------------------
 DEPT.FT                 :   
 CALD_C.IN   45 280 60 00:   CALIPER FROM DENSITY COMPOSITE LOG
 DCOR.G/C3   45 356 01 00:   DENSITY CORRECTION
 DPHI_LS.DEC 45 890 10 00:   DENSITY POROSITY LIMESTONE
 DT_CH.US/F  60 501 00 00:   DELTA FROM THE FULL WAVE SONIC IN CASED HOLE
 GRD .GAPI   45 310 01 00:   GAMMA RAY FROM DENSITY LOG
 LLDC.OHMM   11 220 10 00:   CORRECTED LATEROLOG DEEP RESISTIVITY
 LLSC.OHMM   11 220 09 00:   CORRECTED LATEROLOG SHALLOW RESISTIVITY
 MSFLC.OHMM  11 270 04 00:   CORRECTED MICRO SPHERICALLY FOCUSED RESISTIVITY
 NPHI_LS.DEC 42 890 01 00:   NEUTRON POROSITY LIMESTONE
 PE  .B/E    45 358 01 00:   PHOTO ELECTRIC CROSS SECTION
 RHOB_CH.G/C3 45 350 01 00:   
~PARAMETER INFORMATION
#MNEM.UNIT          VALUE    DESCRIPTION
#----------   ------------   ------------------------------
 DATE.           11/16/15:   RUN DATE
 RUN .                  1:   RUN NUMBER
 BLI .FT            14432:   BOTTOM LOG INTERVAL
 TLI .FT             8672:   TOP LOG INTERVAL
 ORIG.     1" 2" 5" PRINT:   ORIGIN OF DATA
 UWI .     42109328880000:   UNIQUE WELL ID
~OTHER INFORMATION
~A   DEPT         CALD_C      DCOR       DPHI_LS      DT_CH       GRD        LLDC        LLSC        MSFLC       NPHI_LS         PE      RHOB_CH
# ...
 11360.0000   -999.2500   -999.2500      0.0874     71.7891    107.9957     24.1582     20.6410     12.8199      0.1567      3.1683      2.5671
 11360.5000   -999.2500   -999.2500      0.0856     72.0134    104.2525     22.9381     19.6687     11.8177      0.1569      3.1777      2.5727
 11361.0000   -999.2500   -999.2500      0.0861     72.3244    104.2878     22.2476     18.6387     11.8526      0.1586      3.1871      2.5721
 11361.5000   -999.2500   -999.2500      0.0887     72.3241    110.4739     23.4462     20.4235     12.3776      0.1596      3.1964      2.5675
 11362.0000   -999.2500   -999.2500      0.0892     72.2014    105.2687     22.2214     20.3259     12.0217      0.1597      3.1860      2.5639
 11362.5000   -999.2500   -999.2500      0.0915     72.0787    111.5625     25.4369     21.5876     13.1306      0.1599      3.1626      2.5610
 11363.0000   -999.2500   -999.2500      0.0929     71.8816    115.6792     26.9552     23.0759     13.9087      0.1575      3.1681      2.5623
 11363.5000   -999.2500   -999.2500      0.0877     71.6347    102.1836     22.8579     19.5261     11.8266      0.1538      3.1736      2.5686
 11364.0000   -999.2500   -999.2500      0.0870     71.5368     99.8233     22.6861     18.5236     11.3412      0.1509      3.1791      2.5716
 11364.5000   -999.2500   -999.2500      0.0878     71.5381    105.2687     24.6627     20.7711     12.4423      0.1500      3.1846      2.5719
 11365.0000   -999.2500   -999.2500      0.0867     71.5394    102.6661     23.5297     20.0399     11.9184      0.1508      3.1807      2.5721
 11365.5000   -999.2500   -999.2500      0.0870     71.5408    105.2687     23.4948     19.7964     11.9168      0.1517      3.1710      2.5667
 11366.0000   -999.2500   -999.2500      0.0904     71.5421    112.9329     24.8017     20.7068     12.8199      0.1540      3.1578      2.5621
 11366.5000   -999.2500   -999.2500      0.0893     71.5434    111.6645     23.4633     20.2511     12.2969      0.1550      3.1578      2.5666
 11367.0000   -999.2500   -999.2500      0.0870     71.5448    102.5525     20.7080     18.2923     10.7609      0.1539      3.1578      2.5710
 11367.5000   -999.2500   -999.2500      0.0842     71.5461     98.1860     19.6836     16.5195     10.3805      0.1533      3.1480      2.5738
 11368.0000   -999.2500   -999.2500      0.0842     71.5474     99.2336     19.8041     16.9336     11.3217      0.1532      3.1751      2.5751
 11368.5000   -999.2500   -999.2500      0.0848     71.5488    102.1685     24.3056     20.9734     12.3764      0.1531      3.2155      2.5749
 11369.0000   -999.2500   -999.2500      0.0866     71.7451    108.6958     27.3565     23.1236     13.8597      0.1525      3.2442      2.5682
 11369.5000   -999.2500   -999.2500      0.0888     71.6007    113.7772     30.6558     25.3994     15.1377      0.1525      3.2729      2.5655
 11370.0000   -999.2500   -999.2500      0.0883     71.3623    110.6249     31.8783     25.6765     15.4957      0.1525      3.3016      2.5649
 11370.5000   -999.2500   -999.2500      0.0860     71.2526    107.0944     32.2648     25.8754     15.7105      0.1528      3.3303      2.5671
 11371.0000   -999.2500   -999.2500      0.0847     71.2289    104.0678     33.1967     26.2790     16.1214      0.1539      3.3603      2.5705
 11371.5000   -999.2500   -999.2500      0.0860     70.9898    104.8914     34.5706     28.3930     17.0006      0.1540      3.3749      2.5738
 11372.0000   -999.2500   -999.2500      0.0831     71.0808     97.4611     30.8514     23.6544     14.5004      0.1533      3.3728      2.5755
 11372.5000   -999.2500   -999.2500      0.0831     71.2326     98.3620     28.6054     23.5812     14.1195      0.1525      3.3556      2.5749
 11373.0000   -999.2500   -999.2500      0.0874     71.3843    109.2923     34.6992     28.0572     16.7111      0.1533      3.3603      2.5649
 11373.5000   -999.2500   -999.2500      0.0875     71.5360    109.9101     34.8283     28.5577     16.7809      0.1538      3.3198      2.5649
 11374.0000   -999.2500   -999.2500      0.0874     71.5360    109.3095     33.1931     28.1375     16.3539      0.1538      3.3376      2.5660
 11374.5000   -999.2500   -999.2500      0.0864     71.5360    106.7226     31.9875     26.4196     15.6107      0.1530      3.3198      2.5688
 11375.0000   -999.2500   -999.2500      0.0856     71.5360    105.4209     28.7119     24.7017     14.8904      0.1525      3.3198      2.5694
 11375.5000   -999.2500   -999.2500      0.0857     71.5360    108.2584     30.1848     25.6509     15.5176      0.1528      3.3198      2.5692
 11376.0000   -999.2500   -999.2500      0.0866     71.5557    112.0934     32.8191     26.9328     15.7105      0.1543      3.3128      2.5690
 11376.5000   -999.2500   -999.2500      0.0867     71.6051    113.1774     33.6384     27.1892     16.3155      0.1560      3.3198      2.5689
 11377.0000   -999.2500   -999.2500      0.0858     71.6544    108.2713     30.4926     25.8622     15.0647      0.1576      3.3198      2.5688
 11377.5000   -999.2500   -999.2500      0.0823     71.7037    102.3905     26.9206     21.8255     13.1962      0.1585      3.3198      2.5738
 11378.0000   -999.2500   -999.2500      0.0830     71.7531    102.7720     25.2000     22.8626     12.7346      0.1589      3.3198      2.5766
 11378.5000   -999.2500   -999.2500      0.0841     71.8024    102.5670     24.2329     20.3890     12.4157      0.1588      3.3010      2.5772
 11379.0000   -999.2500   -999.2500      0.0842     71.7968     98.9348     22.6829     18.9880     11.4864      0.1572      3.2813      2.5721
 11379.5000   -999.2500   -999.2500      0.0846     71.7827     97.7450     20.4021     17.1976     11.0501      0.1565      3.2796      2.5716
 11380.0000   -999.2500   -999.2500      0.0876     71.7687    106.0704     23.0225     19.7961     12.7122      0.1565      3.2591      2.5709
 11380.5000   -999.2500   -999.2500      0.0869     71.7546    105.0755     24.5348     20.8908     12.7372      0.1557      3.2793      2.5697
 11381.0000   -999.2500   -999.2500      0.0864     71.5227    102.1029     24.5106     20.5204     12.4994      0.1548      3.2793      2.5685
 11381.5000   -999.2500   -999.2500      0.0861     71.7762    100.9753     24.4197     20.1499     12.3388      0.1540      3.2793      2.5673
 11382.0000   -999.2500   -999.2500      0.0868     72.0083    104.1780     24.5652     19.4641     12.3525      0.1539      3.2538      2.5661
 11382.5000   -999.2500   -999.2500      0.0896     71.9261    107.8404     25.9725     21.8931     13.1885      0.1541      3.2388      2.5649
 11383.0000   -999.2500   -999.2500      0.0872     71.9443    102.5748     23.0622     20.3093     12.1489      0.1546      3.2396      2.5642
 11383.5000   -999.2500   -999.2500      0.0869     72.0366    102.3532     23.7914     19.7065     12.4630      0.1572      3.2532      2.5655
 11384.0000   -999.2500   -999.2500      0.0865     72.0635    101.5473     24.7008     20.7068     12.9506      0.1604      3.3008      2.5668
 11384.5000   -999.2500   -999.2500      0.0868     72.0688    106.2966     26.7945     23.0323     13.8597      0.1628      3.3423      2.5681
 11385.0000   -999.2500   -999.2500      0.0885     71.9978    110.5414     30.6721     25.3210     15.4215      0.1644      3.3603      2.5694
 11385.5000   -999.2500   -999.2500      0.0882     71.9090    107.4440     28.9284     24.1472     15.0676      0.1629      3.3398      2.5705
 11386.0000   -999.2500   -999.2500      0.0848     71.8202    102.0148     25.9120     21.6036     13.2520      0.1603      3.3081      2.5733
 11386.5000   -999.2500   -999.2500      0.0852     71.7646    105.4516     26.4866     21.7060     13.9445      0.1596      3.2793      2.5766
 11387.0000   -999.2500   -999.2500      0.0878     71.6701    112.3252     30.6681     25.0870     15.3425      0.1590      3.2874      2.5632
 11387.5000   -999.2500   -999.2500      0.0887     71.5756    109.6295     31.1083     25.1471     15.4411      0.1574      3.3198      2.5643
