###############################################
##         ENVERUS                           ##
##         ESS - Open Hole                   ##
##         PERMIAN / DELAWARE                ##
##         Nov 02 2023  V4.0                 ##
##         42-109-31408-00-00                ##
###############################################
## Copyright 2017-2023  ENVERUS.  All Rights Reserved. 
## Confidential - Property of ENVERUS, use governed by terms and 
## conditions found within the existing Information Services Subscription Agreement 
## (as may be amended, the “ISSA”) between Customer and ENVERUS. 
## 
~VERSION INFORMATION
# MNEM.UNIT                               DATA : DESCRIPTION OF MNEMONIC
#-----.-----     ----------------------------- : -----------------------------
VERS.                                     2.00 : CWLS LOG ASCII STANDARD - VERSION 2.00
WRAP.                                       NO : MULTIPLE LINES PER DEPTH STEP
VEND.                                  ENVERUS : VENDOR
TYPE.                          ESS - OPEN HOLE : ENVERUS ESSENTIAL CURVES – ACCESSIBLE THROUGH ENVERUS PRISM(TM)
DOC.                                  31850517 : ENVERUS HEADER RAW DOCUMENT ID
#___________________________________________________________________________________________________ 
~WELL INFORMATION 
# bqLd+XSZJOn45CI61XVoQu+UOVndmKoY6sdO6/bnbKn7IExcVbobTFa2ZjWyWmdO1mIol927X6bTh1nHm93KmQ== 
# MNEM.UNIT                                              DATA : DESCRIPTION OF MNEMONIC 
#-----.-----                    ----------------------------- : ----------------------------- 
CNTY.                                               CULBERSON : COUNTY 
STATE.                                                  TEXAS : STATE 
CNTRY.                                                    USA : COUNTRY 
API.                                             42-109-31408 : API (10 Digit) 
API_14.                                    42-109-31408-00-00 : API (14 Digits) 
API_14_std.                                 42-109-31408-0000 : API (14 Digits Standard) 
UWI.                                           42109314080000 : UNIQUE WELL ID 
WELL.                                           CASTILE 48  1 : WELL NAME
STRT.FT                                                2207.0 : START DEPTH
STOP.FT                                               11710.0 : STOP DEPTH
STEP.FT                                                   0.5 : STEP BETWEEN DEPTHS
NULL.                                                 -999.25 : NULL VALUE
COMP.                                         TENNECO OIL CO. : COMPANY 
DATE.                                             28-APR-1980 : LOG DATE
#___________________________________________________________________________________________________ 
~CURVE INFORMATION 
# MNEM.UNIT           : CURVE DESCRIPTION 
#-----.-----          : ----------------------------- 
 DEPT.FT               : MEASURED DEPTH 
 CALI.IN               : CALIPER (CAL - CAL) 
 GR.API                : GAMMA RAY (GR) 
 DT.US/FT              : SONIC DELTA TRANSIT TIME (DT) 
 RESS.OHMM             : SHALLOW INDUCTION RESISTIVITY (ILS - ILS) 
 RESD.OHMM             : DEEP INDUCTION RESISTIVITY (ILD - ILD) 
 #___________________________________________________________________________________________________ 
~A         DEPT           CALI             GR             DT           RESS           RESD
# ...
         9775.0         10.979         57.624         62.729        162.594        193.777
         9775.5         10.982         52.603         62.244        231.357        224.419
         9776.0         10.986         45.701         61.758        227.886        216.436
         9776.5         11.012         44.607         61.273        220.589        208.454
         9777.0         11.070         43.513         60.788        213.292        200.471
         9777.5         11.129         42.418         61.049        197.312        185.716
         9778.0         11.188         44.301         63.780         34.341         73.248
         9778.5         11.246         51.947         66.511         17.862         21.983
         9779.0         11.305         58.429         69.242         16.048         16.752
         9779.5         11.364         64.912         71.973         14.235         14.297
         9780.0         11.422         71.394         74.704         13.260         13.662
         9780.5         11.481         77.876         77.435         12.972         13.027
         9781.0         11.540         84.358         79.708         12.684         12.614
         9781.5         11.598         85.340         80.793         12.396         12.315
         9782.0         11.657         83.471         81.878         12.109         12.016
         9782.5         11.679         81.601         82.962         11.821         11.717
         9783.0         11.685         80.712         83.628         11.533         11.418
         9783.5         11.691         81.577         84.254         11.245         11.118
         9784.0         11.697         82.443         84.880         10.957         10.999
         9784.5         11.702         83.308         85.506         10.758         10.931
         9785.0         11.708         84.174         86.132         10.745         10.863
         9785.5         11.714         85.039         86.706         10.733         10.795
         9786.0         11.720         85.904         86.695         10.721         10.726
         9786.5         11.726         86.770         86.683         10.708         10.658
         9787.0         11.731         85.973         86.672         10.696         10.590
         9787.5         11.737         85.158         86.661         10.683         10.520
         9788.0         11.743         84.342         86.650         10.671         10.446
         9788.5         11.749         83.527         86.739         10.658         10.373
         9789.0         11.723         82.712         86.883         10.646         10.300
         9789.5         11.688         81.896         87.027         10.633         10.226
         9790.0         11.652         81.081         87.194         10.621         10.137
         9790.5         11.616         80.266         87.446         10.608         10.033
         9791.0         11.581         80.242         87.699         10.478          9.929
         9791.5         11.545         80.656         87.951         10.211          9.824
         9792.0         11.510         81.070         88.018          9.944          9.720
         9792.5         11.474         81.484         88.032          9.677          9.616
         9793.0         11.439         81.898         88.047          9.410          9.512
         9793.5         11.403         82.312         88.061          9.143          9.408
         9794.0         11.367         82.726         88.251          8.990          9.304
         9794.5         11.332         83.140         88.792          9.093          9.252
         9795.0         11.296         83.554         89.332          9.331          9.204
         9795.5         11.261         83.968         89.872         11.267         10.818
         9796.0         11.225         84.382         86.680         19.550         13.007
         9796.5         11.189         80.680         78.755         30.831         15.196
         9797.0         11.154         69.786         70.829         42.113         17.384
         9797.5         11.118         58.893         65.539         53.395         19.801
         9798.0         11.083         49.653         64.680         45.067         24.300
         9798.5         11.047         43.304         63.820         33.032         28.798
         9799.0         11.011         36.955         62.960         34.521         34.804
         9799.5         10.976         30.606         62.101         36.009         42.970
         9800.0         10.968         24.257         61.470         37.498         50.540
         9800.5         10.964         24.519         60.883         48.987         55.905
         9801.0         10.960         28.321         62.190         62.689         61.178
         9801.5         10.956         32.123         63.868         63.940         58.832
         9802.0         10.952         35.925         65.546         64.359         57.024
         9802.5         10.949         39.727         67.092         58.938         56.494
         9803.0         10.945         37.934         65.364         53.517         55.965
         9803.5         10.941         35.897         63.637         96.456        100.207
         9804.0         10.937         33.860         61.909        145.632        152.623
         9804.5         10.933         31.823         60.182        175.624        205.039
         9805.0         10.929         29.786         58.454        204.509        211.009
         9805.5         10.926         27.749         58.149        183.320        180.189
         9806.0         10.938         28.887         60.162        140.405        131.253
         9806.5         10.962         30.284         62.176         97.490         82.317
         9807.0         10.986         31.681         64.190         54.575         33.381
         9807.5         11.010         33.078         66.203         27.748         67.714
         9808.0         11.035         33.668         68.217        116.064        102.355
         9808.5         11.059         32.826         67.016        163.378        136.997
         9809.0         11.083         31.984         64.603        172.929        173.555
         9809.5         11.107         31.142         62.189        187.123        213.699
         9810.0         11.131         30.300         59.776        292.932        253.843
         9810.5         11.155         29.458         57.363        398.742        435.445
         9811.0         11.179         28.616         54.949        504.552       1293.033
         9811.5         11.203         27.773         52.536        610.362       4010.707
         9812.0         11.227         26.804         50.123        716.172       6201.804
         9812.5         11.251         25.742         48.648        779.002       5930.769
         9813.0         11.274         24.679         48.787        795.877       5659.733
         9813.5         11.292         23.616         48.927        812.753       5388.698
         9814.0         11.310         22.554         49.067        829.628       5117.663
         9814.5         11.329         21.491         49.206        846.503       4846.627
         9815.0         11.347         20.429         48.788        863.379       4575.592
         9815.5         11.365         19.366         48.332        866.158       3895.469
         9816.0         11.383         20.032         47.877        867.307       2659.152
         9816.5         11.402         21.093         51.369        868.455       1793.595
         9817.0         11.420         22.154         55.077        869.604       1379.915
         9817.5         11.438         25.021         58.784        870.752        966.236
         9818.0         11.457         30.539         62.492        871.901        552.556
         9818.5         11.475         36.058         66.200        873.049        138.876
