###############################################
##         ENVERUS                           ##
##         ESS - Open Hole                   ##
##         PERMIAN / DELAWARE                ##
##         Nov 02 2023  V4.0                 ##
##         42-109-32297-90-00                ##
###############################################
## Copyright 2017-2023  ENVERUS.  All Rights Reserved. 
## Confidential - Property of ENVERUS, use governed by terms and 
## conditions found within the existing Information Services Subscription Agreement 
## (as may be amended, the “ISSA”) between Customer and ENVERUS. 
## 
~VERSION INFORMATION
# MNEM.UNIT                               DATA : DESCRIPTION OF MNEMONIC
#-----.-----     ----------------------------- : -----------------------------
VERS.                                     2.00 : CWLS LOG ASCII STANDARD - VERSION 2.00
WRAP.                                       NO : MULTIPLE LINES PER DEPTH STEP
VEND.                                  ENVERUS : VENDOR
TYPE.                          ESS - OPEN HOLE : ENVERUS ESSENTIAL CURVES – ACCESSIBLE THROUGH ENVERUS PRISM(TM)
DOC.                                  52921007 : ENVERUS HEADER RAW DOCUMENT ID
#___________________________________________________________________________________________________ 
~WELL INFORMATION 
# EM3SY5Bwx6x9YoJmjxbMXtwK21/gMzSEmeWIZ71LA4UD3Y8PQw/mHJ0IHc4n7dRi3zAL189RIdETacnakexX1Q== 
# MNEM.UNIT                                              DATA : DESCRIPTION OF MNEMONIC 
#-----.-----                    ----------------------------- : ----------------------------- 
CNTY.                                               CULBERSON : COUNTY 
STATE.                                                  TEXAS : STATE 
CNTRY.                                                    USA : COUNTRY 
API.                                             42-109-32297 : API (10 Digit) 
API_14.                                    42-109-32297-90-00 : API (14 Digits) 
API_14_std.                                 42-109-32297-9000 : API (14 Digits Standard) 
UWI.                                           42109322979000 : UNIQUE WELL ID 
WELL.                          MELISSA TAYLOR STATE 105-3  1H : WELL NAME
STRT.FT                                                 200.0 : START DEPTH
STOP.FT                                               10260.0 : STOP DEPTH
STEP.FT                                                   0.5 : STEP BETWEEN DEPTHS
NULL.                                                 -999.25 : NULL VALUE
PREV_API.                                        421093229700 : API NUMBER 
COMP.                              CHESAPEAKE OPERATING  INC. : COMPANY 
DATE.                                             17-JUN-2008 : LOG DATE
#___________________________________________________________________________________________________ 
~CURVE INFORMATION 
# MNEM.UNIT           : CURVE DESCRIPTION 
#-----.-----          : ----------------------------- 
 DEPT.FT               : MEASURED DEPTH 
 CALI.IN               : CALIPER (CAL - CAL) 
 GR.API                : GAMMA RAY (GR) 
 DT.US/FT              : SONIC DELTA TRANSIT TIME (DT) 
 RESS.OHMM             : SHALLOW INDUCTION RESISTIVITY (ILS - ILS) 
 RESD.OHMM             : DEEP INDUCTION RESISTIVITY (ILD - ILD) 
 DPHI.V/V              : DENSITY POROSITY (DPHI) 
 NPHI.V/V              : NEUTRON POROSITY (NPHI) 
 RHOB.G/CC             : BULK DENSITY (RHOB) 
 #___________________________________________________________________________________________________ 
~A         DEPT           CALI             GR             DT           RESS           RESD           DPHI           NPHI           RHOB
# ...
         4271.0         13.014         62.402         70.661        294.616        260.885        0.05143        0.06314         2.5980
         4271.5         13.027         71.063         72.864        368.829        354.785        0.07411        0.08115         2.5760
         4272.0         13.040         81.910         72.739        448.295        493.695        0.09010        0.10078         2.5550
         4272.5         13.054         89.163         70.783        508.827        549.435        0.09969        0.11116         2.5540
         4273.0         13.064         85.165         68.707        518.792        493.828        0.09797        0.10476         2.5700
         4273.5         13.059         77.117         66.976        306.678        314.013        0.08789        0.09455         2.5850
         4274.0         13.053         72.566         67.033        235.778        232.900        0.06958        0.08932         2.6000
         4274.5         13.047         74.246         67.848        199.105        200.166        0.05840        0.09625         2.5990
         4275.0         13.042         78.367         68.374        188.220        193.044        0.06868        0.10654         2.5770
         4275.5         13.036         81.414         68.594        186.163        185.921        0.08860        0.11491         2.5550
         4276.0         13.031         82.680         69.454        193.280        213.397        0.09570        0.11969         2.5360
         4276.5         13.025         84.705         71.769        249.109        276.110        0.09934        0.12448         2.5260
         4277.0         13.020         88.301         74.484        351.373        350.311        0.10329        0.12912         2.5180
         4277.5         13.014         93.576         75.417        453.636        424.512        0.11218        0.13202         2.5110
         4278.0         13.008         98.851         74.563        509.713        498.713        0.12155        0.13493         2.5030
         4278.5         12.998         96.665         71.924        560.225        610.221        0.12154        0.12555         2.5050
         4279.0         12.978         87.037         68.489        548.482        545.148        0.11286        0.11377         2.5220
         4279.5         12.957         77.105         66.661        387.024        390.256        0.10434        0.10198         2.5390
         4280.0         12.936         69.444         66.827        225.566        280.934        0.09616        0.09185         2.5560
         4280.5         12.915         70.425         69.079        153.697        171.612        0.08266        0.10161         2.5680
         4281.0         12.895         77.621         71.223        139.270        156.111        0.07805        0.11137         2.5610
         4281.5         12.874         84.817         73.323        154.622        168.862        0.08156        0.12113         2.5540
         4282.0         12.853         92.013         74.967        202.472        212.363        0.09109        0.12714         2.5470
         4282.5         12.832         96.141         75.002        336.696        401.086        0.09544        0.12581         2.5480
         4283.0         12.812         93.425         73.969        572.138        755.379        0.09250        0.12448         2.5580
         4283.5         12.791         86.101         70.727        524.429        609.384        0.08749        0.10523         2.5830
         4284.0         12.770         75.183         67.485        404.374        463.390        0.07813        0.08391         2.6090
         4284.5         12.749         64.790         66.673        321.235        396.227        0.05380        0.07017         2.6040
         4285.0         12.747         65.911         67.097        323.916        394.274        0.05346        0.07186         2.5920
         4285.5         12.745         73.452         68.006        350.251        404.129        0.06421        0.07944         2.5800
         4286.0         12.743         78.945         68.661        344.871        374.994        0.07870        0.09100         2.5700
         4286.5         12.741         79.295         69.152        280.291        268.334        0.08106        0.10255         2.5710
         4287.0         12.738         79.646         70.768        215.712        196.619        0.08061        0.11411         2.5720
         4287.5         12.736         83.191         72.541        151.133        155.178        0.08100        0.12566         2.5640
         4288.0         12.734         88.309         73.285        144.210        136.822        0.08324        0.13722         2.5540
         4288.5         12.729         93.178         72.926        215.188        166.308        0.08717        0.14130         2.5450
         4289.0         12.722         92.458         71.149        286.167        240.700        0.09252        0.13004         2.5380
         4289.5         12.715         87.753         69.029        335.111        315.091        0.10219        0.11796         2.5470
         4290.0         12.708         82.965         67.780        301.743        333.586        0.10001        0.10588         2.5560
         4290.5         12.700         78.178         66.749        268.374        292.285        0.08208        0.09755         2.5660
         4291.0         12.690         76.100         66.056        280.186        269.770        0.07091        0.09489         2.5720
         4291.5         12.681         75.269         65.531        345.608        333.480        0.07916        0.09222         2.5620
         4292.0         12.671         74.052         65.005        392.672        394.916        0.08984        0.08955         2.5740
         4292.5         12.661         70.019         63.727        420.081        434.616        0.07794        0.08313         2.5920
         4293.0         12.651         63.844         61.711        410.990        451.452        0.05818        0.07042         2.6090
         4293.5         12.642         58.486         60.608        359.201        390.521        0.04236        0.06047         2.6270
         4294.0         12.632         57.310         62.633        292.905        313.364        0.04918        0.06026         2.6170
         4294.5         12.622         62.568         66.198        226.609        236.208        0.05692        0.07684         2.5870
         4295.0         12.612         75.857         69.763        174.387        168.385        0.06940        0.10230         2.5700
         4295.5         12.603         88.145         72.052        193.867        179.390        0.08222        0.12416         2.5660
         4296.0         12.596         93.165         71.634        255.846        254.426        0.08289        0.13136         2.5620
         4296.5         12.593         92.539         70.562        317.826        377.838        0.08394        0.12690         2.5690
         4297.0         12.589         85.933         69.351        305.180        319.468        0.08213        0.11637         2.5800
         4297.5         12.586         81.275         68.811        200.997        261.098        0.07195        0.10584         2.5910
         4298.0         12.583         82.929         69.837        247.331        241.346        0.06247        0.10486         2.5960
         4298.5         12.579         84.583         71.155        278.012        300.244        0.06541        0.10960         2.5720
         4299.0         12.576         84.488         70.834        247.403        282.249        0.07353        0.11433         2.5760
         4299.5         12.573         82.336         70.467        229.990        259.479        0.07964        0.11385         2.5840
         4300.0         12.570         80.196         70.100        249.225        243.991        0.06961        0.10873         2.5930
