###############################################
##         ENVERUS                           ##
##         ESS - Open Hole                   ##
##         PERMIAN / DELAWARE                ##
##         Nov 03 2023  V4.0                 ##
##         42-109-33144-00-00                ##
###############################################
## Copyright 2017-2023  ENVERUS.  All Rights Reserved. 
## Confidential - Property of ENVERUS, use governed by terms and 
## conditions found within the existing Information Services Subscription Agreement 
## (as may be amended, the “ISSA”) between Customer and ENVERUS. 
## 
~VERSION INFORMATION
# MNEM.UNIT                               DATA : DESCRIPTION OF MNEMONIC
#-----.-----     ----------------------------- : -----------------------------
VERS.                                     2.00 : CWLS LOG ASCII STANDARD - VERSION 2.00
WRAP.                                       NO : MULTIPLE LINES PER DEPTH STEP
VEND.                                  ENVERUS : VENDOR
TYPE.                          ESS - OPEN HOLE : ENVERUS ESSENTIAL CURVES – ACCESSIBLE THROUGH ENVERUS PRISM(TM)
DOC.                                  44408038 : ENVERUS HEADER RAW DOCUMENT ID
#___________________________________________________________________________________________________ 
~WELL INFORMATION 
# jhvnPe+1QU9E4rmF00QVhgJB4IQXrbTj+4JQBaOQ+xeerJB1ro+a2ny8/YeKPBUHGPa8yPZn1kHe7+9ZkyRs1A== 
# MNEM.UNIT                                              DATA : DESCRIPTION OF MNEMONIC 
#-----.-----                    ----------------------------- : ----------------------------- 
CNTY.                                               CULBERSON : COUNTY 
STATE.                                                  TEXAS : STATE 
CNTRY.                                                    USA : COUNTRY 
API.                                             42-109-33144 : API (10 Digit) 
API_14.                                    42-109-33144-00-00 : API (14 Digits) 
API_14_std.                                 42-109-33144-0000 : API (14 Digits Standard) 
UWI.                                           42109331440000 : UNIQUE WELL ID 
WELL.                                        PAT FEE 4 NO. 3H : WELL NAME
STRT.FT                                                8880.0 : START DEPTH
STOP.FT                                               14320.0 : STOP DEPTH
STEP.FT                                                   0.5 : STEP BETWEEN DEPTHS
NULL.                                                 -999.25 : NULL VALUE
LOC.                                     API  42-109-33144LAT : LOCATION 
FL1.                                     API  42-109-33144LAT : LOCATIONLINE1 
DMF.                                                       KB : DRILL MEAS FROM 
PDAT.                                                      GL : PERMANENT DATUM 
FLD.                                    FORD, WEST (WOLFCAMP) : FIELD NAME 
COMP.                            CAPITAN ENERGY, INCORPORATED : COMPANY 
DATE.                                             21-SEP-2017 : DATE 
SVCO.                                             HALLIBURTON : SERVICECONAME 
PROV.                                                   TEXAS : PROVINCE 
BASI.                                                 PERMIAN : BASIN 
RANG.                                                     N/A : RANGE 
TOWN.                                                     N/A : TOWNSHIP 
SECT.                                                     N/A : SECTION 
SON.                                                      N/A : JOB NUMBER 
SRVC.                                             HALLIBURTON : SERVICE COMPANY 
LMF.                                                       KB : LOG MEASURED FROM 
EGL.FT                                              3093.0000 : GROUND ELEVATION 
BAP.FT                                                 0.0000 : GL ELEV ONSHORE 
GVFD.G                                                 1.0000 : GRAVITY FIELD 
EKB.FT                                              3114.0000 : KB ELEVATION 
EDF.FT                                              3113.0000 : DF ELEVATION
#___________________________________________________________________________________________________ 
~CURVE INFORMATION 
# MNEM.UNIT           : CURVE DESCRIPTION 
#-----.-----          : ----------------------------- 
 DEPT.FT               : MEASURED DEPTH 
 GR.API                : GAMMA RAY (GR_CHI - GR_CHI) 
 GR__01.API            : GAMMA RAY (GR_OH - GR_OH) 
 DT.US/FT              : SONIC DELTA TRANSIT TIME (DTC_CHI - DTC_CHI) 
 DT__01.US/FT          : SONIC DELTA TRANSIT TIME (DTC_OH - DTC_OH) 
 PE.B/E                : PHOTOELECTRIC EFFECT/FACTOR (PE_CHI - PE_CHI) 
 PE__01.B/E            : PHOTOELECTRIC EFFECT/FACTOR (PE_OH - PE_OH) 
 RESS_LL.OHMM          : SHALLOW LATEROLOG (LLS_CHI - LLS_CHI) 
 RESS_LL__01.OHMM      : SHALLOW LATEROLOG (LLS_OH - LLS_OH) 
 RESD_LL.OHMM          : DEEP LATEROLOG (LLD_CHI - LLD_CHI) 
 RESD_LL__01.OHMM      : DEEP LATEROLOG (LLD_OH - LLD_OH) 
 NPHI.V/V              : NEUTRON POROSITY (NPHI_CHI - NPHI_CHI) 
 NPHI__01.V/V          : NEUTRON POROSITY (NPHI_OH - NPHI_OH) 
 SPHI.V/V              : SONIC POROSITY (SPHI_CHI - SPHI_CHI) 
 RHOB.G/CC             : BULK DENSITY (RHOB_CHI - RHOB_CHI) 
 RHOB__01.G/CC         : BULK DENSITY (RHOB_OH - RHOB_OH) 
 #___________________________________________________________________________________________________ 
~A         DEPT             GR         GR__01             DT         DT__01             PE         PE__01        RESS_LL    RESS_LL__01        RESD_LL    RESD_LL__01           NPHI       NPHI__01           SPHI           RHOB       RHOB__01
# ...
        13946.0         71.077       -999.250         59.802       -999.250         4.4925      -999.2500       151.6311      -999.2500       150.4152      -999.2500        0.08182     -999.25000        0.08630         2.6192      -999.2500
        13946.5         68.042       -999.250         59.651       -999.250         4.5194      -999.2500       153.0614      -999.2500       151.7524      -999.2500        0.08070     -999.25000        0.08520         2.6208      -999.2500
        13947.0         65.924       -999.250         59.707       -999.250         4.5405      -999.2500       157.5886      -999.2500       156.5607      -999.2500        0.07954     -999.25000        0.08560         2.6223      -999.2500
        13947.5         76.966       -999.250         60.533       -999.250         4.4907      -999.2500       178.4188      -999.2500       178.0744      -999.2500        0.08100     -999.25000        0.09150         2.6188      -999.2500
        13948.0         66.279       -999.250         59.846       -999.250         4.5546      -999.2500       167.4159      -999.2500       166.4832      -999.2500        0.07894     -999.25000        0.08660         2.6227      -999.2500
        13948.5         65.008       -999.250         59.514       -999.250         4.5620      -999.2500       162.6997      -999.2500       160.9820      -999.2500        0.07929     -999.25000        0.08430         2.6229      -999.2500
        13949.0         67.229       -999.250         59.426       -999.250         4.5478      -999.2500       161.5650      -999.2500       159.2710      -999.2500        0.08061     -999.25000        0.08360         2.6213      -999.2500
        13949.5         60.700       -999.250         58.848       -999.250         4.5751      -999.2500       150.1608      -999.2500       147.3274      -999.2500        0.08064     -999.25000        0.07950         2.6229      -999.2500
        13950.0         59.962       -999.250         58.804       -999.250         4.5674      -999.2500       149.7957      -999.2500       146.7394      -999.2500        0.08141     -999.25000        0.07920         2.6226      -999.2500
        13950.5         59.353       -999.250         58.727       -999.250         4.5227      -999.2500       149.5009      -999.2500       146.1344      -999.2500        0.08226     -999.25000        0.07870         2.6223      -999.2500
        13951.0         62.903       -999.250         58.794       -999.250         4.4954      -999.2500       153.0968      -999.2500       149.2865      -999.2500        0.08371     -999.25000        0.07920         2.6201      -999.2500
        13951.5         64.713       -999.250         58.607       -999.250         4.4642      -999.2500       150.7938      -999.2500       146.6875      -999.2500        0.08396     -999.25000        0.07780         2.6189      -999.2500
        13952.0         54.038       -999.250         57.627       -999.250         4.3787      -999.2500       133.4449      -999.2500       129.3919      -999.2500        0.08122     -999.25000        0.07090         2.6234      -999.2500
        13952.5         57.117       -999.250         57.672       -999.250         4.3893      -999.2500       134.4710      -999.2500       130.3648      -999.2500        0.08142     -999.25000        0.07120         2.6221      -999.2500
        13953.0         65.851       -999.250         58.295       -999.250         4.4243      -999.2500       146.8460      -999.2500       142.3992      -999.2500        0.08403     -999.25000        0.07560         2.6178      -999.2500
        13953.5         61.450       -999.250         58.090       -999.250         4.3800      -999.2500       143.8093      -999.2500       139.2319      -999.2500        0.08411     -999.25000        0.07420         2.6191      -999.2500
        13954.0         59.294       -999.250         58.012       -999.250         4.3662      -999.2500       142.7913      -999.2500       138.1779      -999.2500        0.08404     -999.25000        0.07360         2.6199      -999.2500
        13954.5         61.070       -999.250         58.171       -999.250         4.3587      -999.2500       146.1621      -999.2500       141.3733      -999.2500        0.08514     -999.25000        0.07480         2.6187      -999.2500
        13955.0         61.426       -999.250         58.158       -999.250         4.3559      -999.2500       145.1823      -999.2500       140.4527      -999.2500        0.08509     -999.25000        0.07470         2.6186      -999.2500
        13955.5         63.851       -999.250         58.360       -999.250         4.3590      -999.2500       148.3398      -999.2500       143.5664      -999.2500        0.08599     -999.25000        0.07610         2.6174      -999.2500
        13956.0         53.839       -999.250         57.707       -999.250         4.2651      -999.2500       135.7426      -999.2500       131.0482      -999.2500        0.08479     -999.25000        0.07150         2.6211      -999.2500
        13956.5         57.066       -999.250         57.921       -999.250         4.2194      -999.2500       139.6263      -999.2500       134.5504      -999.2500        0.08733     -999.25000        0.07300         2.6184      -999.2500
        13957.0         52.945       -999.250         57.675       -999.250         4.1833      -999.2500       136.1056      -999.2500       130.9639      -999.2500        0.08704     -999.25000        0.07130         2.6199      -999.2500
        13957.5         50.308       -999.250         57.520       -999.250         4.2120      -999.2500       134.6723      -999.2500       129.6509      -999.2500        0.08550     -999.25000        0.07020         2.6218      -999.2500
        13958.0         58.408       -999.250         58.180       -999.250         4.2998      -999.2500       148.0482      -999.2500       142.8477      -999.2500        0.08686     -999.25000        0.07480         2.6187      -999.2500
        13958.5         63.961       -999.250         58.598       -999.250         4.3373      -999.2500       156.7582      -999.2500       151.4122      -999.2500        0.08818     -999.25000        0.07780         2.6163      -999.2500
        13959.0         59.469       -999.250         58.293       -999.250         4.2549      -999.2500       149.5583      -999.2500       144.1289      -999.2500        0.08864     -999.25000        0.07560         2.6172      -999.2500
        13959.5         52.775       -999.250         57.733       -999.250         4.1517      -999.2500       138.6447      -999.2500       133.1642      -999.2500        0.08846     -999.25000        0.07170         2.6191      -999.2500
        13960.0         53.709       -999.250         57.662       -999.250         4.0671      -999.2500       136.4434      -999.2500       130.6800      -999.2500        0.09058     -999.25000        0.07120         2.6171      -999.2500
        13960.5         56.257       -999.250         57.836       -999.250         4.0566      -999.2500       140.5562      -999.2500       134.4780      -999.2500        0.09211     -999.25000        0.07240         2.6152      -999.2500
        13961.0         59.541       -999.250         58.098       -999.250         4.0824      -999.2500       146.6787      -999.2500       140.3697      -999.2500        0.09303     -999.25000        0.07420         2.6137      -999.2500
        13961.5         48.495       -999.250         57.400       -999.250         4.0511      -999.2500       135.1834      -999.2500       129.2201      -999.2500        0.08996     -999.25000        0.06930         2.6192      -999.2500
        13962.0         56.612       -999.250         57.989       -999.250         4.1156      -999.2500       146.3795      -999.2500       140.1717      -999.2500        0.09154     -999.25000        0.07350         2.6157      -999.2500
        13962.5         57.835       -999.250         58.078       -999.250         4.1312      -999.2500       146.4813      -999.2500       140.4516      -999.2500        0.09133     -999.25000        0.07410         2.6156      -999.2500
