###############################################
##         ENVERUS                           ##
##         ESS - Open Hole                   ##
##         PERMIAN / DELAWARE                ##
##         Nov 02 2023  V4.0                 ##
##         42-109-32346-90-00                ##
###############################################
## Copyright 2017-2023  ENVERUS.  All Rights Reserved. 
## Confidential - Property of ENVERUS, use governed by terms and 
## conditions found within the existing Information Services Subscription Agreement 
## (as may be amended, the “ISSA”) between Customer and ENVERUS. 
## 
~VERSION INFORMATION
# MNEM.UNIT                               DATA : DESCRIPTION OF MNEMONIC
#-----.-----     ----------------------------- : -----------------------------
VERS.                                     2.00 : CWLS LOG ASCII STANDARD - VERSION 2.00
WRAP.                                       NO : MULTIPLE LINES PER DEPTH STEP
VEND.                                  ENVERUS : VENDOR
TYPE.                          ESS - OPEN HOLE : ENVERUS ESSENTIAL CURVES – ACCESSIBLE THROUGH ENVERUS PRISM(TM)
DOC.                                  51092887 : ENVERUS HEADER RAW DOCUMENT ID
#___________________________________________________________________________________________________ 
~WELL INFORMATION 
# XhrHiXkIrwGIJmPLTIo0+WseqdI1VWn+o0JF90EYfb9BJ/ikjsIPmHpj3yVLlwnYQ/npclNvflN3Ll99f4ZCqQ== 
# MNEM.UNIT                                              DATA : DESCRIPTION OF MNEMONIC 
#-----.-----                    ----------------------------- : ----------------------------- 
CNTY.                                               CULBERSON : COUNTY 
STATE.                                                  TEXAS : STATE 
CNTRY.                                                    USA : COUNTRY 
API.                                             42-109-32346 : API (10 Digit) 
API_14.                                    42-109-32346-90-00 : API (14 Digits) 
API_14_std.                                 42-109-32346-9000 : API (14 Digits Standard) 
UWI.                                           42109323469000 : UNIQUE WELL ID 
WELL.                                                  DRD_55 : WELL NAME
STRT.FT                                                 334.5 : START DEPTH
STOP.FT                                                4950.0 : STOP DEPTH
STEP.FT                                                   0.5 : STEP BETWEEN DEPTHS
NULL.                                                 -999.25 : NULL VALUE
PREV_APII.                                     42109323460000 : WELL IDENTIFIER
#___________________________________________________________________________________________________ 
~PARAMETER INFORMATION 
# MNEM.UNIT                                              DATA : DESCRIPTION OF MNEMONIC 
#-----.-----                    ----------------------------- : -----------------------------
#___________________________________________________________________________________________________ 
~CURVE INFORMATION 
# MNEM.UNIT           : CURVE DESCRIPTION 
#-----.-----          : ----------------------------- 
 DEPT.FT               : MEASURED DEPTH 
 CALI.IN               : CALIPER (CAL - CALIPER) 
 GR.API                : GAMMA RAY (GAMMA RAY) 
 DT.US/FT              : SONIC DELTA TRANSIT TIME (SONIC) 
 #___________________________________________________________________________________________________ 
~A         DEPT           CALI             GR             DT
# ...
         4294.5          9.514         36.279         74.205
         4295.0          9.509         35.389         75.284
         4295.5          9.504         37.953         78.431
         4296.0          9.499         41.477         80.691
         4296.5          9.496         41.521         80.758
         4297.0          9.501         40.749         81.454
         4297.5          9.510         39.665         82.216
         4298.0          9.519         36.830         81.629
         4298.5          9.529         36.062         81.295
         4299.0          9.528         36.257         81.561
         4299.5          9.521         37.880         81.995
         4300.0          9.513         40.208         81.523
         4300.5          9.505         42.998         76.463
         4301.0          9.503         48.683         74.253
         4301.5          9.479         50.658         72.592
         4302.0          9.455         45.252         72.658
         4302.5          9.461         42.754         73.589
         4303.0          9.466         41.829         73.791
         4303.5          9.472         41.202         73.364
         4304.0          9.478         40.217         74.318
         4304.5          9.484         39.233         76.898
         4305.0          9.490         37.550         76.964
         4305.5          9.495         34.950         76.868
         4306.0          9.501         32.964         76.626
         4306.5          9.507         32.749         76.791
         4307.0          9.513         32.943         76.964
         4307.5          9.519         33.343         76.781
         4308.0          9.527         33.918         73.689
         4308.5          9.546         33.528         73.925
         4309.0          9.564         32.749         72.957
         4309.5          9.582         33.337         73.955
         4310.0          9.601         35.928         76.377
         4310.5          9.627         37.722         75.767
         4311.0          9.593         34.772         74.728
         4311.5          9.513         33.918         71.376
         4312.0          9.485         34.799         71.447
         4312.5          9.476         36.062         73.135
         4313.0          9.482         36.452         77.982
         4313.5          9.482         36.711         76.975
         4314.0          9.480         34.973         72.788
         4314.5          9.478         31.849         68.199
         4315.0          9.475         30.799         66.600
         4315.5          9.473         31.534         69.381
         4316.0          9.470         33.516         73.917
         4316.5          9.468         33.918         75.035
         4317.0          9.468         33.918         74.516
         4317.5          9.483         33.510         74.408
         4318.0          9.498         33.751         74.627
         4318.5          9.512         35.007         73.810
         4319.0          9.523         35.867         72.471
         4319.5          9.509         35.867         71.994
         4320.0          9.551         35.867         72.615
         4320.5          9.712         35.867         74.136
         4321.0          9.894         36.319         74.721
         4321.5         10.024         34.257         75.337
         4322.0         10.106         33.029         75.822
         4322.5         10.131         31.340         75.489
         4323.0         10.063         30.280         74.228
         4323.5          9.757         29.100         71.783
         4324.0          9.529         27.875         69.473
         4324.5          9.497         28.550         71.493
         4325.0          9.489         30.348         73.597
         4325.5          9.523         30.604         74.863
         4326.0          9.586         30.409         76.559
         4326.5          9.676         29.819         76.500
         4327.0          9.765         29.029         76.327
         4327.5          9.825         29.045         76.638
         4328.0          9.787         29.240         76.666
         4328.5          9.679         29.286         76.038
         4329.0          9.572         30.076         75.572
         4329.5          9.464         30.994         75.199
         4330.0          9.365         30.994         75.417
         4330.5          9.362         30.994         76.427
         4331.0          9.354         31.969         75.554
         4331.5          9.345         31.472         75.070
         4332.0          9.337         30.703         74.811
         4332.5          9.329         32.190         75.548
         4333.0          9.316         32.221         74.784
         4333.5          9.296         31.236         74.111
         4334.0          9.276         31.579         73.661
         4334.5          9.255         31.411         74.682
         4335.0          9.235         29.127         75.325
         4335.5          9.255         28.265         75.683
         4336.0          9.302         28.655         76.591
         4336.5          9.291         29.045         78.488
         4337.0          9.245         28.460         79.584
         4337.5          9.199         28.689         80.604
         4338.0          9.192         31.548         81.005
         4338.5          9.202         33.563         80.373
         4339.0          9.213         32.522         78.408
         4339.5          9.221         30.994         75.237
         4340.0          9.084         37.597         71.461
         4340.5          9.009         43.461         68.544
         4341.0          8.989         54.552         67.979
         4341.5          8.971         55.924         69.498
         4342.0          8.952         52.450         70.442
         4342.5          8.933         47.139         70.486
         4343.0          8.923         35.893         70.656
         4343.5          8.925         32.183         74.496
         4344.0          9.128         31.579         77.121
         4344.5          9.466         30.632         78.887
         4345.0          9.736         27.705         79.511
         4345.5          9.810         26.316         77.023
         4346.0          9.817         28.277         73.757
         4346.5          9.563         32.155         71.049
         4347.0          9.239         34.145         70.505
         4347.5          8.873         37.673         71.266
         4348.0          8.599         43.328         72.144
         4348.5          8.585         47.198         72.140
         4349.0          8.564         56.272         70.208
         4349.5          8.543         76.965         68.010
         4350.0          8.523         96.712         65.527
         4350.5          8.502         96.006         64.788
         4351.0          8.481         82.953         63.720
         4351.5          8.461         75.510         63.943
         4352.0          8.437         80.056         65.131
         4352.5          8.427         87.863         65.120
         4353.0          8.431         82.843         63.167
         4353.5          8.435         60.297         62.329
         4354.0          8.439         52.847         61.581
         4354.5          8.440         52.878         60.641
         4355.0          8.455         55.555         61.924
         4355.5          8.470         64.843         62.925
         4356.0          8.484         76.239         64.263
         4356.5          8.499         80.088         65.710
         4357.0          8.541         68.602         67.564
         4357.5          8.646         47.272         69.223
         4358.0          8.864         33.662         70.514
         4358.5          9.082         30.427         70.920
         4359.0          9.189         28.550         68.912
         4359.5          9.230         26.861         68.136
         4360.0          9.024         27.977         68.777
