~Version Information
 VERS.                  2.0:   CWLS log ASCII Standard -VERSION 2.0
 WRAP.                   NO:   One line per depth step
~Well Information Block
#MNEM.UNIT     VALUE/NAME     DESCRIPTION
#---------     -----------    ---------------------------
 STRT.F              8432.0000: START DEPTH
 STOP.F             13842.0000: STOP DEPTH
 STEP.F                 0.5000: STEP DEPTH
 NULL.                 -999.25: NULL VALUE
 LOC .     100' FNL & 990' FEL:  LOCATION
 FL6 .       API  42-109-33163:  LOCATIONLINE6
 FL4 .           ABSTRACT 1006:  LOCATIONLINE4
 FL3 .        T&P RR CO SURVEY:  LOCATIONLINE3
 FL2 .     SECTION 36, BLOCK 59 T2:  LOCATIONLINE2
 FL1 .     100' FNL & 990' FEL:  LOCATIONLINE1
 DMF .                      KB:  DRILL MEAS FROM
 PDAT.                      GL:  PERMANENT DATUM
 CNTY.               CULBERSON:  COUNTY NAME
 FLD .     FORD, WEST (WOLFCAMP):  FIELD NAME
 WELL.         SCOTT FEE 36 2H:  WELL NAME
 COMP.     CAPITAN ENERGY INC.:  COMPANY
 DATE.             11-Oct-2017:  DATE
 SVCO.             Halliburton:  SERVICECONAME
 PROV.                   TEXAS:  PROVINCE
 STAT.                   TEXAS:  STATE NAME
 CTRY.           UNITED STATES:  COUNTRY NAME
 HIDE.                        :  WELLNAMEOPERAT
 BASI.                 PERMIAN:  BASIN
 UWI .            42-109-33163Lat:  UNIQUE WELL IDENTIFIER
 API .            42-109-33163Lat:  API NUMBER
 RANG.                     N/A:  RANGE
 TOWN.                     N/A:  TOWNSHIP
 SECT.                     N/A:  SECTION
 SON .               904352259:  JOB NUMBER
 SRVC.             Halliburton:  SERVICE COMPANY
 LMF .                      KB:  LOG MEASURED FROM
 EGL .ft             3174.0000:  GROUND ELEVATION
 BAP .ft                0.0000:  GL ELEV ONSHORE
 GVFD.g                 1.0000:  GRAVITY FIELD
 EKB .ft             3200.0000:  KB ELEVATION
 EDF .ft             3199.0000:  DF ELEVATION
~Curve Information Block
#MNEM.UNIT                 API CODE     Curve Description
#---------               -----------    ---------------------------
 DEPT.F                 00 000 000 000:  Depth
 CCL .V                 00 000 000 000:  Casing Collar Locator
 NPHI_OH.pu             00 000 000 000:  NPHI_OH
 NPHI_CHI.pu            00 000 000 000:  NPHI_CHI
 GR_CHI.api             00 000 000 000:  GR_CHI
 GR_OH.api              00 000 000 000:  GR_OH
 RHOB_OH.g/cc           00 000 000 000:  RHOB_OH
 RHOB_CHI.g/cc          00 000 000 000:  RHOB_CHI
 PE_CHI.b/e             00 000 000 000:  PE_CHI
 PE_OH.b/e              00 000 000 000:  PE_OH
 MSFL_OH.ohmm           00 000 000 000:  MSFL_OH
 MSFL_CHI.ohmm          00 000 000 000:  MSFL_CHI
 LLS_OH.ohmm            00 000 000 000:  LLS_OH
 LLS_CHI.ohmm           00 000 000 000:  LLS_CHI
 LLD_OH.ohmm            00 000 000 000:  LLD_OH
 LLD_CHI.ohmm           00 000 000 000:  LLD_CHI
 DTC_OH.uspf            00 000 000 000:  DTC_OH
 DTC_CHI.uspf           00 000 000 000:  DTC_CHI
 SPHI_CHI.pu            00 000 000 000:  SPHI_CHI
 SGF .cu                00 000 000 000:  Formation Sigma
 CRNF.NONE              00 000 000 000:  CM GrsCaptRatio
 RIN .NONE              00 000 000 000:  CM GrsInelRatio
~A    DEPT      CCL   NPHI_OH NPHI_CHI  GR_CHI   GR_OH   RHOB_OH RHOB_CHI PE_CHI  PE_OH   MSFL_OH  MSFL_CHI  LLS_OH   LLS_CHI   LLD_OH  LLD_CHI  DTC_OH  DTC_CHI SPHI_CHI   SGF    CRNF   RIN   
# ...
    8789.0000  0.0000 12.2800   9.8787  92.5928  88.0801  2.5654   2.5670 3.8281  3.8529   20.5593  51.5136   32.3224  99.8619  29.2750  93.2556 70.0978 71.7730  16.6300 25.7075 1.2395 1.2303
    8789.5000  0.0000 12.2800  11.8556 111.8713  88.0801  2.5654   2.5526 3.4434  3.8529   20.5593  44.6321   32.3224  84.9739  29.2750  81.2637 71.5589 73.8474  18.1200 28.2937 1.2220 1.2318
    8790.0000  0.0000 15.6500  12.7986 117.3000 106.6862  2.5239   2.5458 3.2163  3.2927   22.7571  36.3875   29.8134  66.6342  26.7827  65.5147 73.8545 74.6574  18.9600 28.3605 1.1589 1.2228
    8790.5000  0.0000 16.9800  13.4562 127.3518 117.9891  2.5173   2.5410 3.0326  2.8661   27.6700  28.1158   29.7379  48.6255  26.2418  49.3988 74.7649 74.9482  19.2800 26.6899 1.0744 1.2095
    8791.0000  0.0000 16.6000  12.6491 124.7930 128.7653  2.5205   2.5469 3.0269  2.8185   33.8705  26.9580   38.9600  45.7111  31.8681  46.3623 74.3017 74.0899  18.9200 24.4399 0.9918 1.1901
    8791.5000  0.0000 15.9100  10.4679 110.8729 126.7730  2.5353   2.5628 3.2059  2.9760   29.2791  30.2273   42.9832  51.4367  35.2435  50.5618 73.4910 72.0962  17.7500 22.0529 0.9242 1.1672
    8792.0000  0.0000 12.3800   8.1365  96.3400 106.8351  2.5640   2.5797 3.4372  3.1014   29.3543  34.5825   60.0642  59.0103  50.4502  55.8782 70.9830 69.8501  16.2100 20.0864 0.8793 1.1438
    8792.5000  0.0000  9.2400   6.5758  88.3985  88.4017  2.5787   2.5909 3.4788  3.1423   41.2804  38.8334  104.4175  66.2939  81.8743  60.7489 68.5187 68.1445  14.8900 18.7781 0.8615 1.1251
    8793.0000  0.0000  7.7700   5.5500  71.3636  74.9565  2.5987   2.5982 3.5186  3.2563  108.1412  43.6210  115.0152  75.1970  85.3520  67.1914 66.7447 67.0600  13.9900 18.2945 0.8832 1.1207
    8793.5000  0.0000  7.7700   5.1622  61.1750  74.9565  2.5987   2.6009 3.5537  3.2563  108.1412  46.7162  115.0152  81.2365  85.3520  71.6876 66.1707 66.5195  13.4900 18.4945 0.9331 1.1305
    8794.0000  0.0000  5.2800   5.1924  60.2336  60.4321  2.6370   2.6007 3.5941  3.4737  116.6481  47.7590  125.6326  83.6525  99.5644  73.7167 65.9622 66.4327  13.3400 19.4346 0.9993 1.1505
    8794.5000  0.0000  4.8700   5.6149  64.0185  56.4572  2.6398   2.5977 3.6815  3.5173   48.8221  48.2397  102.2004  85.7989  83.9298  76.2400 66.8428 66.8680  13.5300 21.2662 1.0687 1.1753
    8795.0000  0.0000  5.7500   6.5344  77.2192  69.3293  2.6016   2.5912 3.7412  3.2264   23.0460  46.8043   70.5508  84.0761  62.3529  75.8309 67.6679 68.0558  14.2100 23.3923 1.1084 1.1927
    8795.5000  0.0000  8.2500   7.9662  92.4954  86.2238  2.5738   2.5809 3.6799  2.8593   24.2010  42.9933   64.6067  77.2070  55.3318  71.1810 69.9983 69.6757  15.2700 24.9282 1.1227 1.2053
    8796.0000  0.0000 12.8900   9.5833 105.6121 100.9047  2.5638   2.5692 3.4614  2.7289   35.5527  38.2683   60.5225  68.1198  52.6561  64.4392 72.5676 71.3174  16.4200 25.6336 1.1242 1.2102
    8796.5000  0.0000 14.6900  10.4227 108.3318 112.0478  2.5587   2.5631 3.3246  2.8903   54.7948  35.0487   64.6426  61.7794  54.1048  59.4816 74.7145 72.1029  17.1600 25.9727 1.1373 1.2119
    8797.0000  0.0000 14.6900  10.8771 113.3966 112.0478  2.5587   2.5598 3.2369  2.8903   54.7948  32.9532   64.6426  57.4534  54.1048  55.8483 75.5663 72.4786  17.5100 26.7243 1.1525 1.2113
    8797.5000  0.0000 15.0400  11.2797 123.2764 117.9858  2.5489   2.5569 3.1413  3.1853   64.4896  30.8656   66.3513  52.9854  55.7852  51.8838 76.6367 72.6987  17.7000 27.5053 1.1697 1.2098
    8798.0000  0.0000 15.7900  12.0467 137.1716 123.9281  2.5207   2.5513 3.0044  3.2753   43.3191  27.6045   59.8715  46.2907  51.5723  46.0419 76.8296 73.1476  17.9700 28.0247 1.1707 1.2076
    8798.5000  0.0000 16.0000  12.0691 131.7711 122.8176  2.4991   2.5511 2.9997  3.0990   27.1506  26.5287   59.5103  44.2341  50.3762  44.3409 76.6644 73.2308  18.1100 28.0251 1.1637 1.2049
    8799.0000  0.0000 14.0200  11.6706 115.5717 113.1076  2.5048   2.5540 3.0810  2.9331   23.6750  27.4246   61.1223  46.2698  54.3153  46.3541 76.1012 73.1341  18.0800 27.5254 1.1512 1.2020
    8799.5000  0.0000 13.0700  11.3005 107.1396 108.9785  2.5173   2.5567 3.1365  2.8501   29.9195  28.3209   69.6680  48.1297  60.8019  48.0261 75.3007 72.9040  17.9400 26.6582 1.1480 1.1997
    8800.0000  0.0000 13.0700  11.0039 104.1813 108.9785  2.5173   2.5589 3.1872  2.8501   29.9195  29.7342   69.6680  50.9838  60.8019  50.4937 74.8416 72.6814  17.7900 26.0922 1.1385 1.1981
    8800.5000  0.0000 11.8900  10.7527 107.6499 110.1052  2.5306   2.5607 3.2213  2.9166   53.6880  31.1566   75.7160  53.7080  63.0099  52.7140 73.6350 72.4426  17.6200 25.3767 1.1089 1.1920
    8801.0000  0.0000 11.2600  10.2608 103.5680 110.5412  2.5600   2.5643 3.3031  3.3065   41.1996  32.8133   65.9156  56.9908  59.0758  55.4796 72.0470 72.0679  17.3800 24.1052 1.0477 1.1804
    8801.5000  0.0000 10.5400  10.0185 112.7996 117.8714  2.5856   2.5660 3.2952  3.7083   28.3400  32.9406   66.9343  56.7524  63.3427  54.9503 71.1043 71.6728  17.1100 22.4098 0.9694 1.1613
    8802.0000  0.0000 10.4000   9.4703 124.3630 124.4461  2.5734   2.5700 3.2928  3.5750   38.4301  33.6085   72.4514  57.2979  71.2525  54.8080 69.4214 70.9010  16.6400 20.2312 0.9099 1.1392
    8802.5000  0.0000 10.4300   7.7129 105.1283 107.4718  2.5613   2.5827 3.4496  3.1943   89.5299  38.3409  109.5131  66.1869  86.8522  61.5031 68.3930 69.2944  15.6800 18.8198 0.8997 1.1287
    8803.0000  0.0000 10.4300   6.1772  79.5190 107.4718  2.5613   2.5937 3.5603  3.1943   89.5299  44.6264  109.5131  78.4220  86.8522  70.7334 68.1299 67.9677  14.6900 18.1515 0.9344 1.1311
    8803.5000  0.0000  7.6000   5.8632  80.0285  79.2573  2.5861   2.5960 3.5736  3.2127  110.4552  46.5171  119.3960  81.8280  89.3491  72.8959 68.2450 67.5583  14.2000 18.4591 1.0120 1.1501
    8804.0000  0.0000  6.9700   5.9195  73.9751  65.2466  2.6179   2.5956 3.6813  3.5345   43.6231  49.0894   88.0368  87.9766  83.0753  78.3174 69.5818 67.4881  14.0800 19.9859 1.1060 1.1756
    8804.5000  0.0000  9.0400   6.6186  76.1825  72.1667  2.6158   2.5906 3.8250  3.7048   28.0973  50.0289   69.4651  91.6160  67.6905  82.4579 70.6154 68.1006  14.3700 23.2626 1.1931 1.2027
    8805.0000  0.0000 11.8300   8.1134  84.7523  94.0472  2.5723   2.5798 3.8596  3.4509   31.9920  48.5453   64.6645  90.4964  62.1728  83.1739 73.1229 69.6815  15.2800 26.9449 1.2210 1.2221
    8805.5000  0.0000 14.5900  11.1291 117.5996 128.9833  2.5239   2.5579 3.3597  2.9859   38.7728  39.5361   81.5976  72.0704  70.6552  68.7681 75.3702 72.7902  17.1600 29.7661 1.2071 1.2345
    8806.0000  0.0000 14.5900  13.9048 141.9496 128.9833  2.5239   2.5378 3.0013  2.9859   38.7728  29.5872   81.5976  51.6457  70.6552  51.8563 76.2194 75.1353  18.9800 30.5232 1.1903 1.2419
    8806.5000  0.0000 16.5800  14.8031 148.0288 159.5938  2.5033   2.5313 2.8864  2.8245   55.6244  22.5990   93.3584  37.4135  82.8319  39.1060 77.2688 75.7150  19.7600 29.9659 1.1985 1.2450
    8807.0000  0.0000 16.0500  14.0785 131.6125 158.7012  2.5117   2.5365 2.9385  3.0523   60.5969  22.1417   89.8805  36.4281  72.1908  38.0682 77.6398 75.1098  19.5800 29.4991 1.2237 1.2479
    8807.5000  0.0000 14.7400  13.8023 130.2110 145.5075  2.5292   2.5385 2.9589  3.3546   37.2559  23.1982   55.1697  38.4512  49.4849  39.8087 77.6442 74.8448  19.3200 29.2861 1.2305 1.2515
    8808.0000  0.0000 13.4200  14.0661 133.1281 145.1255  2.5375   2.5366 2.9613  3.4358   28.2907  24.3733   47.5322  40.9567  43.1857  42.2322 77.2681 75.1566  19.4200 29.4296 1.2204 1.2539
    8808.5000  0.0000 14.1500  14.2163 125.9810 141.3535  2.5375   2.5355 3.0049  3.2635   26.9728  26.5848   39.0074  45.8866  35.9652  47.0848 76.7342 75.5270  19.6700 29.2449 1.1863 1.2560
    8809.0000  0.0000 14.1500  14.3154 125.5295 141.3535  2.5375   2.5348 3.0030  3.2635   26.9728  26.4976   39.0074  45.7819  35.9652  47.0686 76.5097 75.6477  19.8100 28.6628 1.1612 1.2561
    8809.5000  0.0000 14.1900  13.5577 111.9893 126.8928  2.5457   2.5403 3.0770  3.1007   24.4364  28.0043   39.9528  48.8596  35.4350  49.7575 75.9883 74.9520  19.4900 27.6795 1.1391 1.2531
