~VERSION INFORMATION
VERS. 2.0 : CWLS Log ASCII Standard - version 2.0
WRAP.  NO : One line per depth step
#--------------------------------------------------#
#----------------DRILLING INFO, INC.---------------#
#---------------WWW.DRILLINGINFO.COM---------------#
#------------------COPYRIGHT 2015------------------#
#--------------------------------------------------#
#THIS FILE MAY BE USED ONLY IN ACCORDANCE WITH A CURRENT SUBSCRIPTION AGREEMENT BETWEEN
#THE USER AND DRILLING INFO, INC. NO PART OF THIS FILE MAY BE REPRODUCED, USED, COPIED,
#MODIFIED, PROPAGATED, OR DISTRIBUTED EXCEPT IN ACCORDANCE WITH THE SUBSCRIPTION
#AGREEMENT. UNAUTHORIZED USE OR DISTRIBUTION OF ALL OR ANY PART OF THIS FILE MAY VIOLATE
#COPYRIGHT, TRADEMARK, AND/OR OTHER LAWS AND IS SUBJECT TO CIVIL AS WELL AS CRIMINAL
#SANCTIONS.
#--------------------------------------------------#
#THIS FILE IS PROVIDED "AS-IS" AND ALL WARRANTIES ARE EXPRESSLY DISCLAIMED, WHETHER
#EXPRESS, ORAL, IMPLIED, STATUTORY OR OTHERWISE, INCLUDING ANY IMPLIED WARRANTY OF FITNESS
#FOR A PARTICULAR PURPOSE, MERCHANTABILITY, TITLE OR NON-INFRINGEMENT, AND ANY WARRANTIES
#ARISING BY VIRTUE OF CUSTOM OF TRADE OR COURSE OF DEALING.  FURTHER, DRILLING INFO,
#INC. AND ITS LICENSORS DO NOT REPRESENT OR WARRANT THAT THIS FILE WILL MEET USER'S
#REQUIREMENTS OR ARE SUITABLE FOR USER'S NEEDS OR THAT THE DATA OR RESULTS PROVIDED IN
#CONJUNCTION THEREWITH ARE CORRECT, ACCURATE, TIMELY OR RELIABLE. THESE DISCLAIMERS SHALL
#APPLY REGARDLESS OF ANY FAILURE OF ESSENTIAL PURPOSE OF ANY LIMITED REMEDY.  SOME
#JURISDICTIONS DO NOT ALLOW THE EXCLUSION OF CERTAIN WARRANTIES SO SOME OF THE ABOVE
#EXCLUSIONS MAY NOT APPLY. IN NO EVENT SHALL DRILLING INFO, INC. OR ANY OF ITS AFFILIATES
#BE LIABLE UNDER ANY LEGAL THEORY, WHETHER IN TORT (INCLUDING WITHOUT LIMITATION
#NEGLIGENCE), CONTRACT, STRICT LIABILITY, STATUTORY OR OTHERWISE, FOR ANY SPECIAL,
#INCIDENTAL, CONSEQUENTIAL, EXEMPLARY, PUNITIVE OR INDIRECT DAMAGE OF ANY KIND, INCLUDING
#WITHOUT LIMITATION LOSS OF REVENUE, PROFITS, GOODWILL, USE, AND/OR DATA OR THE COST OF
#PROCUREMENT OF SUBSTITUTE GOODS OR SERVICES, EVEN IF APPRISED OF THE POSSIBILITY OF SUCH
#DAMAGES IN ADVANCE.
#--------------------------------------------------#
~WELL INFORMATION
#MNEMONIC     .UNIT              VALUE :DESCRIPTION
#--------------------------------------------------#
STRT       .FT                35 :START DEPTH
STOP       .FT                15948 :STOP DEPTH
STEP       .FT                   0.500 :STEP
NULL       .                  -999.250 :NULL
API        .                421093136200 :API NUMBER
COMP       .         ARRINGTON DAVID H. OIL & GAS INC :COMPANY
WELL       .        SCOTT UNIT  1 :WELL
DATE       .                17-Jun-1991 :LOG DATE
~CURVE INFORMATION
#MNEMONIC     .UNIT      API CODE :CURVE DESCRIPTION
#--------------------------------------------------#
DEPTH       .FT                      :Measured Depth
CAL.INCH        UNKNOWN   :CAL
DT.US/FT        UNKNOWN   :DT
GR.API        UNKNOWN   :GR
~A    DEPTH    CAL    DT    GR
# ...
 13070     7.126   64.583   74.855
 13070.5     7.095   63.018   70.925
 13071     7.065   61.491   66.533
 13071.5     7.035   60.976   62.141
 13072     7.005   61.018   61.511
 13072.5     7.002   61.433   62.692
 13073     6.998   59.088   64.739
 13073.5     6.995   61.101   73.054
 13074     6.992   63.305   80.367
 13074.5     6.989   63.636   86.048
 13075     6.986   60.758   84.518
 13075.5     6.982   60.302   79.601
 13076     6.979   60.87   79.884
 13076.5     6.976   62.583   90.363
 13077     6.973   64.698   99.783
 13077.5     6.97   64.476   102.485
 13078     6.966   63.375   99.845
 13078.5     6.963   62.274   95.275
 13079     6.96   61.847   90.704
 13079.5     6.957   62.249   87.242
 13080     6.954   62.693   87.16
 13080.5     6.951   63.137   87.077
 13081     6.947   62.671   86.994
 13081.5     6.944   61.465   84.65
 13082     6.941   60.583   82.384
 13082.5     6.938   59.959   81.663
 13083     6.938   59.163   80.684
 13083.5     6.938   58.165   76.461
 13084     6.938   57.795   72.239
 13084.5     6.938   58.734   74.305
 13085     6.938   63.195   89.347
 13085.5     6.939   65.313   105.471
 13086     6.939   65.609   105.478
 13086.5     6.939   65.363   103.345
 13087     6.939   64.24   96.093
 13087.5     6.939   63.97   95.488
 13088     6.939   61.817   90.674
 13088.5     6.939   59.475   81.85
 13089     6.94   58.713   73.447
 13089.5     6.94   59.815   73.873
 13090     6.94   61.428   74.299
 13090.5     6.94   60.957   74.725
 13091     6.94   59.526   74.26
 13091.5     6.94   59.798   74.031
 13092     6.94   61.638   76.971
 13092.5     6.941   65.153   84.51
 13093     6.941   65.263   92.049
 13093.5     6.941   64.389   98.177
 13094     6.941   62.784   94.006
 13094.5     6.941   61.827   88.419
 13095     6.941   63.49   85.751
 13095.5     6.941   66.145   95.572
 13096     6.942   68.372   107.676
 13096.5     6.942   68.447   114.079
 13097     6.942   65.656   108.262
 13097.5     6.942   62.578   87.225
 13098     6.942   60.928   77.435
 13098.5     6.942   60.762   70.569
 13099     6.942   61.27   73.729
 13099.5     6.943   61.137   80.258
 13100     6.943   59.484   77.767
 13100.5     6.943   57.871   73.766
 13101     6.943   56.54   63.488
 13101.5     6.943   57.611   64.132
 13102     6.943   59.1   64.777
 13102.5     6.944   59.913   65.422
 13103     6.944   60.623   66.066
 13103.5     6.944   61.13   72.906
 13104     6.944   60.957   78.02
 13104.5     6.944   56.027   82.025
 13105     6.944   53.49   86.029
 13105.5     6.944   54.534   90.034
 13106     6.944   60.36   92.207
 13106.5     6.944   62.337   91.274
 13107     6.944   59.031   84.958
 13107.5     6.944   57.577   78.642
 13108     6.944   58.633   72.326
 13108.5     6.944   60.329   75.308
 13109     6.944   61.671   78.775
 13109.5     6.944   62.528   78.914
 13110     6.944   62.966   78.404
 13110.5     6.944   63.773   84.132
 13111     6.944   64.979   94.309
 13111.5     6.944   65.948   103.626
 13112     6.944   66.02   104.861
 13112.5     6.944   65.365   100.747
 13113     6.944   63.888   96.633
 13113.5     6.944   63.634   92.519
 13114     6.944   63.649   89.414
 13114.5     6.944   63.233   90.457
 13115     6.944   63.07   91.501
 13115.5     6.944   62.6   89.497
 13116     6.944   61.889   85.726
 13116.5     6.944   61.591   81.954
 13117     6.944   61.292   78.237
 13117.5     6.944   60.327   74.54
 13118     6.944   59.301   70.843
 13118.5     6.944   60.033   67.146
 13119     6.944   60.769   68.466
 13119.5     6.944   61.481   72.581
 13120     6.944   61.97   76.695
 13120.5     6.944   60.616   71.69
 13121     6.944   60.118   65.07
 13121.5     6.944   60.209   61.745
 13122     6.944   62.199   61.841
 13122.5     6.944   63.088   68.992
 13123     6.944   63.638   77.576
 13123.5     6.944   64.933   84.271
 13124     6.944   66.133   90.965
 13124.5     6.944   68.562   97.659
 13125     6.944   68.797   104.353
 13125.5     6.944   68.938   107.75
 13126     6.943   68.984   110.098
 13126.5     6.943   67.695   106.979
 13127     6.943   65.35   102.026
 13127.5     6.943   63.319   90.968
 13128     6.943   60.283   79.91
 13128.5     6.943   58.839   68.851
 13129     6.943   59.584   60.786
 13129.5     6.943   61.077   63.422
 13130     6.943   62.332   73.478
 13130.5     6.943   62.9   87.756
 13131     6.943   63.468   90.076
 13131.5     6.943   63.285   87.427
 13132     6.943   62.663   82.979
 13132.5     6.943   62.175   78.532
 13133     6.943   61.212   74.084
 13133.5     6.943   60.311   69.637
 13134     6.943   60.148   69.721
 13134.5     6.943   60.778   70.149
 13135     6.949   61.709   76.547
 13135.5     6.962   63.264   83.215
 13136     6.975   64.476   88.743
 13136.5     6.988   64.379   89.307
 13137     6.99   63.13   82.058
 13137.5     6.985   62.369   74.808
 13138     6.981   62.197   71.57
 13138.5     6.977   62.635   76.966
 13139     6.975   62.239   80.959
 13139.5     6.972   61.442   77.781
 13140     6.97   60.544   70.713
 13140.5     6.967   62.569   72.39
 13141     6.964   64.231   79.28
 13141.5     6.962   64.472   86.171
 13142     6.959   64.282   87.704
 13142.5     6.957   60.429   80.566
 13143     6.954   59.496   70.302
 13143.5     6.951   59.274   61.371
 13144     6.949   59.844   57.198
 13144.5     6.946   61.568   63.978
 13145     6.943   63.839   77.262
 13145.5     6.941   64.551   87.105
 13146     6.938   65.589   87.214
 13146.5     6.936   65.408   85.868
 13147     6.933   64.863   83.742
 13147.5     6.93   64.373   81.615
 13148     6.928   64.479   79.488
 13148.5     6.925   64.353   80.343
 13149     6.925   64.233   82.637
 13149.5     6.926   64.232   84.25
 13150     6.928   64.067   80.635
 13150.5     6.929   63.992   68.228
 13151     6.931   64.11   67.023
 13151.5     6.932   64.267   67.028
 13152     6.933   63.459   67.034
 13152.5     6.935   62.785   67.039
 13153     6.936   62.644   67.044
 13153.5     6.938   62.503   67.049
 13154     6.939   61.359   65.267
 13154.5     6.94   59.939   59.81
 13155     6.942   58.38   58
 13155.5     6.943   57.934   57.379
 13156     6.944   58.768   57.751
 13156.5     6.946   60.324   69.503
 13157     6.948   61.759   72.998
 13157.5     6.955   63.083   74.547
 13158     6.962   63.399   72.131
 13158.5     6.968   62.966   71.854
 13159     6.975   63.062   72.707
 13159.5     6.98   63.563   73.56
 13160     6.976   64.021   70.228
 13160.5     6.972   64.015   65.621
 13161     6.969   63.59   61.015
 13161.5     6.965   62.959   57.211
 13162     6.961   62.678   58.495
 13162.5     6.957   62.984   64.256
 13163     6.953   63.584   69.993
 13163.5     6.949   63.981   71.638
 13164     6.946   64.13   71.643
 13164.5     6.942   64.489   71.283
 13165     6.938   65.244   73.901
 13165.5     6.942   65.879   79.217
 13166     6.945   64.913   84.532
 13166.5     6.949   62.205   84.324
 13167     6.953   60.88   71.399
 13167.5     6.957   60.819   61.861
 13168     6.96   62.612   57.466
 13168.5     6.964   62.496   57.765
 13169     6.968   62.001   58.064
 13169.5     6.972   62.344   58.363
 13170     6.973   63.344   58.662
 13170.5     6.974   62.576   58.961
 13171     6.974   56.186   59.26
 13171.5     6.974   40.453   59.559
 13172     6.975   40.492   59.858
 13172.5     6.975   40.53   60.157
 13173     6.976   40.569   60.456
 13173.5     6.976   41.529   60.756
 13174     6.976   64.453   63.047
 13174.5     6.977   72.408   67.951
 13175     6.982   66.85   67.593
 13175.5     6.987   61.826   64.494
 13176     6.992   58.55   64.015
 13176.5     6.991   63.046   63.536
 13177     6.986   64.51   64.797
 13177.5     6.981   61.739   67.906
 13178     6.976   59.978   71.016
 13178.5     6.971   62.976   74.096
 13179     6.966   63.702   77.03
 13179.5     6.961   64.428   79.963
 13180     6.956   64.206   85.109
 13180.5     6.951   63.529   91.355
 13181     6.947   63.383   97.152
 13181.5     6.942   62.797   94.58
