~Version Information
 VERS.                  2.0:   CWLS log ASCII Standard -VERSION 2.0
 WRAP.                   NO:   One line per depth step
~Well Information Block
#MNEM.UNIT     VALUE/NAME     DESCRIPTION
#---------     -----------    ---------------------------
 STRT.F              8400.0000: START DEPTH
 STOP.F             13890.0000: STOP DEPTH
 STEP.F                 0.5000: STEP DEPTH
 NULL.                 -999.25: NULL VALUE
 LOC .     506' FEL & 344' FSL:  LOCATION
 FL6 .       API  42-109-33224:  LOCATIONLINE6
 FL4 .           ABSTRACT 4479:  LOCATIONLINE4
 FL3 .        T&P RR CO SURVEY:  LOCATIONLINE3
 FL2 .     SECTION 30, BLOCK 58 T2:  LOCATIONLINE2
 FL1 .     506' FEL & 344' FSL:  LOCATIONLINE1
 DMF .                      KB:  DRILL MEAS FROM
 PDAT.                      GL:  PERMANENT DATUM
 CNTY.               CULBERSON:  COUNTY NAME
 FLD .     FORD, WEST (WOLFCAMP):  FIELD NAME
 WELL.      LAUREN STATE 30 2H:  WELL NAME
 COMP.     CAPITAN ENERGY, INC.:  COMPANY
 DATE.             19-Feb-2018:  DATE
 SVCO.             Halliburton:  SERVICECONAME
 PROV.                   TEXAS:  PROVINCE
 STAT.                   TEXAS:  STATE NAME
 CTRY.                     USA:  COUNTRY NAME
 HIDE.                        :  WELLNAMEOPERAT
 BASI.                 PERMIAN:  BASIN
 UWI .            42-109-33224:  UNIQUE WELL IDENTIFIER
 API .            42-109-33224:  API NUMBER
 RANG.                     N/A:  RANGE
 TOWN.                     N/A:  TOWNSHIP
 SECT.                     N/A:  SECTION
 SON .               904646015:  JOB NUMBER
 SRVC.             Halliburton:  SERVICE COMPANY
 LMF .                      KB:  LOG MEASURED FROM
 EGL .ft             3168.0000:  GROUND ELEVATION
 BAP .ft                0.0000:  GL ELEV ONSHORE
 GVFD.g                 1.0000:  GRAVITY FIELD
 EKB .ft             3194.0000:  KB ELEVATION
 EDF .ft             3193.0000:  DF ELEVATION
~Curve Information Block
#MNEM.UNIT                 API CODE     Curve Description
#---------               -----------    ---------------------------
 DEPT.F                 00 000 000 000:  Depth
 CCL .V                 00 000 000 000:  Casing Collar Locator
 NPHI_OH.pu             00 000 000 000:  NPHI_OH
 NPHI_CHI.pu            00 000 000 000:  NPHI_CHI
 GR_OH.api              00 000 000 000:  GR_OH
 GR_CHI.api             00 000 000 000:  GR_CHI
 RHOB_OH.g/cc           00 000 000 000:  RHOB_OH
 RHOB_CHI.g/cc          00 000 000 000:  RHOB_CHI
 PE_OH.b/e              00 000 000 000:  PE_OH
 PE_CHI.b/e             00 000 000 000:  PE_CHI
 RT10_OH.ohmm           00 000 000 000:  RT10_OH
 RT10_CHI.ohmm          00 000 000 000:  RT10_CHI
 RT30_OH.ohmm           00 000 000 000:  RT30_OH
 RT30_CHI.ohmm          00 000 000 000:  RT30_CHI
 RT90_OH.ohmm           00 000 000 000:  RT90_OH
 RT90_CHI.ohmm          00 000 000 000:  RT90_CHI
 DTC_OH.uspf            00 000 000 000:  DTC_OH
 DTC_CHI.uspf           00 000 000 000:  DTC_CHI
 SPHI_CHI.pu            00 000 000 000:  SPHI_CHI
 SGF .cu                00 000 000 000:  Formation Sigma
 CRNF.NONE              00 000 000 000:  CM GrsCaptRatio
 RIN .NONE              00 000 000 000:  CM GrsInelRatio
#Other Information
#
#WARRANTY: Halliburton will use its best efforts to furnish customers with 
#accurate information and interpretations that are part of, and incident to, the services 
#provided.  However, Halliburton cannot and does not warrant the accuracy 
#or correctness of such information and interpretations.  Under no circumstances should any 
#such information or interpretation be relied upon as the sole basis for any drilling, 
#completion, production, or financial decision or any procedure involving any risk to the 
#safety of any drilling venture, drilling rig or its crew or any other third party.  The 
#Customer has full responsibility for all drilling, completion and production operation.  
#Halliburton makes no representations or warranties, either expressed or 
#implied, including, but not limited to, the implied warranties of merchantability or fitness 
#for a particular purpose, with respect to the services rendered.  In no event will 
#Halliburton be liable for failure to obtain any particular results or for 
#any damages, including, but not limited to, indirect, special or consequential damages, 
#resulting from the use of any information or interpretation provided by Halliburton.
#
~A    DEPT      CCL   NPHI_OH NPHI_CHI  GR_OH    GR_CHI  RHOB_OH RHOB_CHI  PE_OH  PE_CHI  RT10_OH  RT10_CHI RT30_OH  RT30_CHI RT90_OH  RT90_CHI DTC_OH  DTC_CHI SPHI_CHI   SGF    CRNF   RIN   
# ...
   12768.0000  0.0000 -999.25  10.6394  -999.25  73.1715 -999.25   2.5833 -999.25  3.8869  -999.25  44.8410  -999.25  42.9959  -999.25  47.6381 -999.25 68.4988  14.7800 21.2177 0.9379 1.0215
   12768.5000  0.0000 -999.25  10.4450  -999.25  76.0756 -999.25   2.5855 -999.25  3.9400  -999.25  42.8360  -999.25  41.0941  -999.25  45.4600 -999.25 68.3159  14.6500 21.1310 0.9226 1.0204
   12769.0000  0.0000 -999.25   9.9038  -999.25  73.4309 -999.25   2.5925 -999.25  3.9761  -999.25  43.0796  -999.25  41.7160  -999.25  45.9253 -999.25 67.7605  14.2600 20.9559 0.9177 1.0183
   12769.5000  0.0000 -999.25   9.0059  -999.25  63.5771 -999.25   2.6043 -999.25  4.0037  -999.25  45.3077  -999.25  44.6045  -999.25  48.8951 -999.25 66.7214  13.5200 20.7481 0.9205 1.0160
   12770.0000  0.0000 -999.25   9.0758  -999.25  69.0700 -999.25   2.6019 -999.25  4.0245  -999.25  48.9297  -999.25  48.4304  -999.25  52.7976 -999.25 67.1026  13.7900 20.5531 0.9244 1.0140
   12770.5000  0.0000 -999.25   8.7854  -999.25  65.4972 -999.25   2.6052 -999.25  4.0350  -999.25  51.3036  -999.25  51.1124  -999.25  55.6743 -999.25 66.7964  13.5800 20.4354 0.9256 1.0136
   12771.0000  0.0000 -999.25   8.8368  -999.25  65.6460 -999.25   2.6040 -999.25  4.0317  -999.25  53.8400  -999.25  53.6845  -999.25  58.4724 -999.25 66.9234  13.6700 20.1565 0.9230 1.0122
   12771.5000  0.0000 -999.25   9.1168  -999.25  69.3889 -999.25   2.5997 -999.25  4.0258  -999.25  55.6141  -999.25  55.2988  -999.25  60.2175 -999.25 67.3542  13.9700 20.0229 0.9182 1.0107
   12772.0000  0.0000 -999.25   9.3259  -999.25  72.7173 -999.25   2.5959 -999.25  4.0336  -999.25  58.1229  -999.25  57.7215  -999.25  62.8974 -999.25 67.7182  14.2300 19.9381 0.9183 1.0094
   12772.5000  0.0000 -999.25   8.9499  -999.25  67.0628 -999.25   2.6010 -999.25  4.0434  -999.25  58.8227  -999.25  58.7347  -999.25  64.0705 -999.25 67.2108  13.8700 20.0124 0.9170 1.0089
   12773.0000  0.0000 -999.25   8.4276  -999.25  59.4111 -999.25   2.6083 -999.25  4.0605  -999.25  58.0042  -999.25  58.2884  -999.25  63.7098 -999.25 66.4382  13.3200 20.2317 0.9212 1.0114
   12773.5000  0.0000 -999.25   8.1647  -999.25  54.8032 -999.25   2.6127 -999.25  4.0721  -999.25  54.4338  -999.25  54.6922  -999.25  59.9872 -999.25 65.9171  12.9500 20.4601 0.9243 1.0167
   12774.0000  0.0000 -999.25   8.3041  -999.25  57.5864 -999.25   2.6114 -999.25  4.0785  -999.25  50.7351  -999.25  50.7205  -999.25  55.6931 -999.25 66.0335  13.0400 20.7113 0.9283 1.0228
   12774.5000  0.0000 -999.25   8.7129  -999.25  63.4784 -999.25   2.6062 -999.25  4.0685  -999.25  48.2775  -999.25  47.8703  -999.25  52.5778 -999.25 66.5408  13.4000 20.9462 0.9362 1.0275
   12775.0000  0.0000 -999.25   8.8984  -999.25  65.6952 -999.25   2.6042 -999.25  4.0457  -999.25  47.9616  -999.25  47.4544  -999.25  51.9923 -999.25 66.7824  13.5700 20.9501 0.9444 1.0279
   12775.5000  0.0000 -999.25   9.1367  -999.25  68.5618 -999.25   2.6014 -999.25  4.0252  -999.25  47.2083  -999.25  46.5415  -999.25  50.9107 -999.25 67.0744  13.7700 20.9091 0.9540 1.0290
   12776.0000  0.0000 -999.25   9.5954  -999.25  74.2024 -999.25   2.5953 -999.25  4.0248  -999.25  44.9022  -999.25  43.8223  -999.25  48.1208 -999.25 67.5807  14.1300 20.9168 0.9591 1.0316
   12776.5000  0.0000 -999.25  10.3198  -999.25  84.1521 -999.25   2.5853 -999.25  4.0300  -999.25  41.9921  -999.25  40.3967  -999.25  44.5803 -999.25 68.4120  14.7200 20.9610 0.9574 1.0357
   12777.0000  0.0000 -999.25  10.2369  -999.25  80.1607 -999.25   2.5873 -999.25  4.0326  -999.25  38.4703  -999.25  36.8065  -999.25  40.8877 -999.25 68.0787  14.4800 20.9928 0.9454 1.0380
   12777.5000  0.0000 -999.25  10.3463  -999.25  80.5738 -999.25   2.5863 -999.25  4.0301  -999.25  36.8785  -999.25  35.1339  -999.25  39.1313 -999.25 68.1172  14.5100 20.9483 0.9309 1.0377
   12778.0000  0.0000 -999.25   9.9018  -999.25  73.5769 -999.25   2.5927 -999.25  4.0257  -999.25  37.7438  -999.25  36.2191  -999.25  40.2799 -999.25 67.5463  14.1100 20.7728 0.9195 1.0329
   12778.5000  0.0000 -999.25   9.3054  -999.25  66.8544 -999.25   2.6006 -999.25  4.0446  -999.25  38.8702  -999.25  37.6961  -999.25  41.8223 -999.25 66.8448  13.6100 20.5465 0.9155 1.0290
   12779.0000  0.0000 -999.25   8.9306  -999.25  64.5339 -999.25   2.6049 -999.25  4.0708  -999.25  40.9849  -999.25  40.1198  -999.25  44.3856 -999.25 66.5160  13.3800 20.4454 0.9256 1.0277
   12779.5000  0.0000 -999.25   8.7011  -999.25  63.8183 -999.25   2.6070 -999.25  4.0940  -999.25  43.3155  -999.25  42.7055  -999.25  47.1493 -999.25 66.3705  13.2700 20.4105 0.9370 1.0270
   12780.0000  0.0000 -999.25   9.1052  -999.25  71.9131 -999.25   2.6004 -999.25  4.0986  -999.25  45.2784  -999.25  44.5248  -999.25  49.0292 -999.25 67.0778  13.7700 20.4619 0.9456 1.0273
   12780.5000  0.0000 -999.25   9.1735  -999.25  70.2096 -999.25   2.5996 -999.25  4.0680  -999.25  47.8164  -999.25  47.0515  -999.25  51.7433 -999.25 67.1677  13.8400 20.5982 0.9462 1.0262
   12781.0000  0.0000 -999.25   8.8906  -999.25  62.0626 -999.25   2.6041 -999.25  4.0250  -999.25  50.6927  -999.25  50.1734  -999.25  55.0756 -999.25 66.7389  13.5400 20.7630 0.9426 1.0235
   12781.5000  0.0000 -999.25   9.5875  -999.25  71.4238 -999.25   2.5944 -999.25  3.9896  -999.25  52.6725  -999.25  51.7728  -999.25  56.6328 -999.25 67.7537  14.2500 20.9768 0.9414 1.0226
   12782.0000  0.0000 -999.25   9.6370  -999.25  72.0104 -999.25   2.5941 -999.25  3.9773  -999.25  52.4450  -999.25  51.5358  -999.25  56.2779 -999.25 67.8143  14.3000 21.1295 0.9390 1.0228
   12782.5000  0.0000 -999.25   9.7108  -999.25  74.2321 -999.25   2.5935 -999.25  3.9859  -999.25  49.2719  -999.25  48.2518  -999.25  52.7181 -999.25 67.8427  14.3200 21.1000 0.9319 1.0245
   12783.0000  0.0000 -999.25   9.0263  -999.25  62.9337 -999.25   2.6041 -999.25  3.9942  -999.25  45.8056  -999.25  45.0868  -999.25  49.4211 -999.25 66.7359  13.5300 20.9067 0.9214 1.0250
   12783.5000  0.0000 -999.25   9.2188  -999.25  66.9759 -999.25   2.6014 -999.25  4.0163  -999.25  43.4166  -999.25  42.5044  -999.25  46.7285 -999.25 66.9544  13.6900 20.5561 0.9072 1.0220
   12784.0000  0.0000 -999.25   9.0264  -999.25  65.7590 -999.25   2.6034 -999.25  4.0401  -999.25  44.0179  -999.25  43.2431  -999.25  47.5663 -999.25 66.7611  13.5500 20.0984 0.8952 1.0167
   12784.5000  0.0000 -999.25   8.6611  -999.25  62.5163 -999.25   2.6074 -999.25  4.0710  -999.25  46.4400  -999.25  45.9928  -999.25  50.5801 -999.25 66.3997  13.3000 19.5572 0.8885 1.0099
   12785.0000  0.0000 -999.25   8.6208  -999.25  65.9351 -999.25   2.6060 -999.25  4.1104  -999.25  50.4623  -999.25  50.2670  -999.25  55.1890 -999.25 66.6031  13.4400 19.0094 0.8789 1.0026
   12785.5000  0.0000 -999.25   8.1122  -999.25  60.5681 -999.25   2.6116 -999.25  4.1539  -999.25  54.0482  -999.25  54.4232  -999.25  59.8416 -999.25 66.0377  13.0400 18.5495 0.8671 0.9955
   12786.0000  0.0000 -999.25   8.0334  -999.25  61.2547 -999.25   2.6111 -999.25  4.1947  -999.25  56.8902  -999.25  57.4438  -999.25  63.3442 -999.25 66.0483  13.0500 18.1076 0.8577 0.9899
   12786.5000  0.0000 -999.25   7.7820  -999.25  59.6076 -999.25   2.6132 -999.25  4.2307  -999.25  60.4276  -999.25  61.4377  -999.25  67.8227 -999.25 65.8279  12.8900 17.7535 0.8492 0.9846
   12787.0000  0.0000 -999.25   7.3073  -999.25  54.4519 -999.25   2.6186 -999.25  4.2676  -999.25  64.1950  -999.25  65.9843  -999.25  72.9178 -999.25 65.2582  12.4900 17.4847 0.8481 0.9817
   12787.5000  0.0000 -999.25   7.1494  -999.25  54.2659 -999.25   2.6195 -999.25  4.2914  -999.25  68.9448  -999.25  71.3588  -999.25  78.7763 -999.25 65.1914  12.4400 17.3312 0.8498 0.9794
   12788.0000  0.0000 -999.25   7.0519  -999.25  54.9384 -999.25   2.6200 -999.25  4.3246  -999.25  69.7689  -999.25  72.3958  -999.25  80.0542 -999.25 65.1224  12.3900 17.3120 0.8548 0.9823
   12788.5000  0.0000 -999.25   6.9926  -999.25  54.2225 -999.25   2.6206 -999.25  4.3431  -999.25  68.5993  -999.25  71.1312  -999.25  78.8922 -999.25 65.0041  12.3100 17.5098 0.8630 0.9880
