# Exported from Transform Software 5.2.0 on 25-May-2018 by user brian.umlang
# DI Transform - A Product of Drillinginfo, Inc. - www.drillinginfo.com
#
~VERSION INFORMATION
 VERS.        2.0 : LAS ASCII STANDARD - VERSION 2.0
 WRAP.         NO : ONE LINE PER DEPTH STEP

~WELL INFORMATION
#MNEM.UNIT       DATA TYPE       INFORMATION
#---------       ---------       -----------
# Enverus has updated the API/UWI.  The previous names are renamed to  PREV_API / PREV_UWI
API.         42-109-32508-00-00 : API (14 Digits with Dashes)
UWI.             42109325080000 : UNIQUE WELL ID

 STRT.ft                1970 : Start Depth
 STOP.ft                8730 : Stop Depth
 STEP.ft                 0.5 : Step Length
 NULL.               -999.25 : Null Value
 COMP.                       : Company
 WELL.  42109325080000_API14 : Well Name
 FLD.                        : Field Name
 LOC.                        : Well Location
 CNTY.                       : County
 STAT.                       : State or Province
 CTRY.                       : Country
 SRVC.                       : Service Company
 DATE.                       : Date
PREV_APII.         42109325080000 : Well Identifier

~CURVE INFORMATION
#MNEM.UNIT       API CODE       CURVE DESCRIPTION
#---------       --------       -----------------
 DEPT.ft        : <Measured Depth>
 CAL.in         : Caliper
 DT.us/ft       : Pressure Wave Sonic
 GR.gAPI        : Gamma Ray

~PARAMETER INFORMATION
#MNEM.UNIT       VALUE       DESCRIPTION
#---------       -----       -----------
 EKB.ft      3552 : Elevation above MSL

~A      DEPT         CAL          DT          GR
# ...
        4184       9.125     66.6265     80.1628
      4184.5       9.125     66.1161     81.0878
        4185      9.1055     65.5873     78.6217
      4185.5      9.0713     65.4971     77.6365
        4186      9.0469     65.6006     81.2211
      4186.5      9.0469     65.9527     86.5965
        4187      9.0115     66.1404     85.4496
      4187.5      8.9883     66.1404     82.2917
        4188      8.9883     66.0819     85.7951
      4188.5      8.9297     67.1199     90.8692
        4189      8.9122     67.6023     99.1172
      4189.5      8.8711     68.0801    114.7795
        4190      8.8516     71.7584    135.4388
      4190.5       8.832     75.4778    164.6411
        4191       8.793     78.6419    202.1054
      4191.5       8.832     79.1226    225.1529
        4192       8.832     74.7814    220.8791
      4192.5      8.8516     68.2419     203.748
        4193      8.8516      63.881    141.8776
      4193.5      8.8727      63.475     110.448
        4194      8.8906       64.74    100.7812
      4194.5      8.8906     67.1788    104.8265
        4195       8.913     70.9633    163.9484
      4195.5      8.9297     72.6217    176.5238
        4196      8.9297     72.5731    170.7877
      4196.5      8.9883     72.6316    166.4785
        4197      9.0273     72.1997    161.2983
      4197.5      9.0323     70.8183    153.2682
        4198      9.0469     67.7086    140.6602
      4198.5      9.0469     64.5618    122.4855
        4199       9.053     60.5329     81.8116
      4199.5      9.0859     58.7715     59.3579
        4200      9.1055     59.3399      40.625
      4200.5      9.1128     61.1266     38.7197
        4201      9.1641     61.7192     45.7396
      4201.5      9.1641     62.1203     55.5695
        4202      9.2031     62.9825     66.8829
      4202.5      9.2031     64.2554     73.7371
        4203      9.2422     66.3116     84.6225
      4203.5      9.2617     66.5203     87.5935
        4204      9.2617     66.3436     82.7008
      4204.5      9.2617     66.3743      83.575
        4205      9.2617     66.5243     88.0011
      4205.5      9.2617     66.7251     88.8672
        4206      9.2812     66.5142     85.8113
      4206.5      9.2812     65.9866     82.6172
        4207      9.2812      65.769     83.1347
      4207.5      9.2617     65.9456     83.4408
        4208      9.2617     66.3021     84.5703
      4208.5      9.2478     67.6096     102.509
        4209      9.2422     67.1228    116.2936
      4209.5      9.2227     66.2861    107.2965
        4210      9.2378      65.848     91.6455
      4210.5      9.2422     65.9757     89.6561
        4211      9.2422     68.0488     97.1393
      4211.5      9.2422     68.6455    104.6929
        4212      9.2227     68.8806    108.9844
      4212.5      9.2227      68.662    108.8125
        4213      9.1836     67.5729     98.6479
      4213.5      9.1836     66.3295     83.3408
        4214      9.1836     65.5623     75.6196
      4214.5      9.1836     65.1483     73.0682
        4215      9.1644     65.1462     69.1528
      4215.5      9.1641      65.322     65.2344
        4216       9.144     65.6187     67.0333
      4216.5       9.125     66.3186     78.0589
        4217      9.1055     67.0375     92.4139
      4217.5      9.0664     70.5564    116.3599
        4218      9.0664      73.762    155.1156
      4218.5      9.0273     74.2384    177.5629
        4219      8.9853     72.7093    161.3462
      4219.5      8.9688     68.9813    122.3377
        4220      8.9492     68.0457    114.2567
      4220.5      8.9492     70.8399    135.2066
        4221      8.9492     72.3943    165.2564
      4221.5      8.9688      72.777    178.5544
        4222      8.9688     70.8805     168.479
      4222.5      8.9688     68.4918     127.131
        4223      8.9688     65.3663    124.2893
      4223.5      8.9688     62.3566    117.6784
        4224      8.9688     61.0055     88.0472
      4224.5      9.0078     59.6406     67.6017
        4225      9.0352     58.7248     58.2788
      4225.5      9.0664     58.5628     54.0187
        4226      9.0664     60.5655     57.6611
      4226.5      9.0664     62.9625     67.8532
        4227      9.0954     66.8883     99.0029
      4227.5      9.1055     70.5272    117.6176
        4228      9.1055     70.5814    127.8241
      4228.5      9.1055     69.1375    125.3041
        4229      9.1055     66.8676     99.1731
      4229.5      9.1055     64.2583     79.2777
        4230      9.0859     64.0936     78.9623
      4230.5      9.0859     64.4016     85.3972
        4231      9.0859     65.6884     99.7227
      4231.5      9.0664     66.8626    105.2734
        4232      9.0664     67.1167    105.2734
      4232.5      9.0469     68.0625    105.9994
        4233      9.0129     67.8391    107.1336
      4233.5      8.9539     65.8438     99.0356
        4234      8.9297     64.4032     82.3088
      4234.5      8.8945     65.1581     75.1953
        4235      8.8746     67.4877     85.4849
      4235.5      8.8156     69.1044     92.1875
        4236      8.7734     69.2398     91.4595
      4236.5      8.7734       69.35     94.3508
        4237      8.7539     68.5072     95.7216
      4237.5      8.7539     66.1163     82.8903
        4238      8.7344     64.2906     61.3281
      4238.5      8.7344     63.7371     57.7939
        4239      8.7344     65.4323     71.2469
      4239.5      8.7344     66.6679     88.1156
        4240      8.7344     66.6648     87.2986
      4240.5      8.7344     65.5623     83.1016
        4241      8.7344     63.4418     76.1007
      4241.5      8.7344     63.9346     72.6379
        4242      8.7148      65.407     72.6787
      4242.5      8.7344     67.2753     75.9403
        4243      8.7344     66.9499     81.7018
      4243.5      8.7344     66.6563     82.6172
        4244      8.7344     66.2225     82.4219
      4244.5      8.7344     65.5556     82.6172
        4245      8.7344     65.2935     80.3354
      4245.5      8.7344     63.8264     73.0802
        4246      8.7344     62.8655     68.7248
      4246.5      8.7148     62.7485     68.1641
        4247      8.7148     62.7485     69.2039
      4247.5      8.7344     62.7687     68.8037
        4248      8.7344     63.0409     65.8918
      4248.5      8.7344     63.1805      67.899
        4249      8.7344      63.134     77.7137
      4249.5      8.7344     62.9825     88.0862
        4250      8.7344     63.2368     81.3968
      4250.5      8.7826     64.1761     74.6667
        4251      8.8516     65.4931     71.5705
      4251.5      8.8906     67.0504      80.498
        4252      8.9102     67.0097     88.3724
      4252.5        8.96     65.8937     84.7232
        4253      8.9995     64.2602     78.0662
      4253.5      9.0273      63.953     74.1436
        4254      9.0469     64.1881     69.5603
      4254.5      9.0664     64.4606     68.4301
        4255      9.0859     64.3275     67.7113
      4255.5       9.125     64.4444     67.8437
        4256      9.1387     64.5614     74.5911
      4256.5      9.1782     64.6784     78.2337
        4257      9.1836     64.6784      72.277
      4257.5      9.2031     64.6199     62.0559
        4258      9.2575     65.3963     60.9375
      4258.5      9.2775     66.2687     68.5601
        4259      9.2812     65.8581     72.8855
      4259.5      9.2812      65.623     71.9346
        4260      9.3203     65.3878     67.4857
      4260.5      9.3398     65.2632     62.0006
        4261      9.3398     64.8111     60.1762
      4261.5      9.3398     64.0431     58.1897
        4262      9.3594     63.7455     62.9923
      4262.5      9.3789     63.6257     66.9764
        4263      9.3984     63.6839     67.7711
      4263.5      9.3984     63.6249     72.0703
        4264       9.418     63.4503     63.7833
      4264.5      9.4191     63.3918     57.9926
        4265      9.4375     63.3333     60.9375
      4265.5      9.4375     63.2749      64.863
