~Version Information
 VERS.                  2.0:   CWLS log ASCII Standard -VERSION 2.0
 WRAP.                   NO:   One line per depth step
~Well Information Block
#MNEM.UNIT     VALUE/NAME     DESCRIPTION
#---------     -----------    ---------------------------
 STRT.F              8830.0000: START DEPTH
 STOP.F             14230.0000: STOP DEPTH
 STEP.F                 0.5000: STEP DEPTH
 NULL.                 -999.25: NULL VALUE
 LOC .       API  42-109-33374Lat:  LOCATION
 FL1 .       API  42-109-33374Lat:  LOCATIONLINE1
 DMF .                      KB:  DRILL MEAS FROM
 PDAT.                      GL:  PERMANENT DATUM
 CTRY.                     USA:  COUNTRY NAME
 CNTY.               CULBERSON:  COUNTY NAME
 FLD .     FORD, WEST (WOLFCAMP):  FIELD NAME
 WELL.        MOTHER FEE 28 4H:  WELL NAME
 COMP.          CAPITAN ENERGY:  COMPANY
 DATE.             02-May-2019:  DATE
 SVCO.             Halliburton:  SERVICECONAME
 PROV.                   TEXAS:  PROVINCE
 STAT.                   TEXAS:  STATE NAME
 HIDE.                        :  WELLNAMEOPERAT
 BASI.                 PERMIAN:  BASIN
 UWI .            42-109-33374Lat:  UNIQUE WELL IDENTIFIER
 API .            42-109-33374Lat:  API NUMBER
 RANG.                     N/A:  RANGE
 TOWN.                     N/A:  TOWNSHIP
 SECT.                     N/A:  SECTION
 SON .               905631317:  JOB NUMBER
 SRVC.             Halliburton:  SERVICE COMPANY
 LMF .                      KB:  LOG MEASURED FROM
 BAP .ft                0.0000:  GL ELEV ONSHORE
 GVFD.g                 1.0000:  GRAVITY FIELD
~Curve Information Block
#MNEM.UNIT                 API CODE     Curve Description
#---------               -----------    ---------------------------
 DEPT.F                 00 000 000 000:  Depth
 CCL .V                 00 000 000 000:  Casing Collar Locator
 NPHI_OH.pu             00 000 000 000:  NPHI_OH
 NPHI_CHI.pu            00 000 000 000:  NPHI_CHI
 GR_OH.api              00 000 000 000:  GR_OH
 GR_CHI.api             00 000 000 000:  GR_CHI
 RHOB_OH.g/cc           00 000 000 000:  RHOB_OH
 RHOB_CHI.g/cc          00 000 000 000:  RHOB_CHI
 PE_OH.b/e              00 000 000 000:  PE_OH
 PE_CHI.b/e             00 000 000 000:  PE_CHI
 RT10_OH.ohmm           00 000 000 000:  RT10_OH
 RT10_CHI.ohmm          00 000 000 000:  RT10_CHI
 RT30_OH.ohmm           00 000 000 000:  RT30_OH
 RT30_CHI.ohmm          00 000 000 000:  RT30_CHI
 RT90_OH.ohmm           00 000 000 000:  RT90_OH
 RT90_CHI.ohmm          00 000 000 000:  RT90_CHI
 SPHI_CHI.pu            00 000 000 000:  SPHI_CHI
 DTC_CHI.uspf           00 000 000 000:  DTC_CHI
 DTC_OH.uspf            00 000 000 000:  DTC_OH
 SGF .cu                00 000 000 000:  Formation Sigma
 CRNF.NONE              00 000 000 000:  CM GrsCaptRatio
 RIN .NONE              00 000 000 000:  CM GrsInelRatio
#Other Information
#
#WARRANTY: Halliburton will use its best efforts to furnish customers with 
#accurate information and interpretations that are part of, and incident to, the services 
#provided.  However, Halliburton cannot and does not warrant the accuracy 
#or correctness of such information and interpretations.  Under no circumstances should any 
#such information or interpretation be relied upon as the sole basis for any drilling, 
#completion, production, or financial decision or any procedure involving any risk to the 
#safety of any drilling venture, drilling rig or its crew or any other third party.  The 
#Customer has full responsibility for all drilling, completion and production operation.  
#Halliburton makes no representations or warranties, either expressed or 
#implied, including, but not limited to, the implied warranties of merchantability or fitness 
#for a particular purpose, with respect to the services rendered.  In no event will 
#Halliburton be liable for failure to obtain any particular results or for 
#any damages, including, but not limited to, indirect, special or consequential damages, 
#resulting from the use of any information or interpretation provided by Halliburton.
#
~A    DEPT      CCL   NPHI_OH NPHI_CHI  GR_OH    GR_CHI  RHOB_OH RHOB_CHI  PE_OH  PE_CHI RT10_OH RT10_CHI RT30_OH RT30_CHI RT90_OH  RT90_CHI SPHI_CHI DTC_CHI DTC_OH    SGF    CRNF   RIN   
# ...
    9195.5000 17.3908  9.5700   9.9622  91.9473  67.7684  2.5794   2.5760  2.5770 2.7040  8.9165  13.0374  8.3861  13.3936   8.1162  14.2486  15.6600 69.7467 65.4642 22.7065 1.0825 1.2009
    9196.0000 17.4396  8.4800   9.4639  78.2807  66.9655  2.5720   2.5811  2.4960 2.7225  9.7730  13.1697  9.2610  13.5295   8.8782  14.3931  15.1600 69.0357 65.7823 24.0267 1.1401 1.2124
    9196.5000 17.3988  7.1200   8.9616  68.6049  70.9496  2.5574   2.5876  2.5280 2.7341 10.2197  12.7088  9.7300  13.0560   9.2581  13.8893  14.6000 68.2496 66.8184 26.1287 1.2160 1.2273
    9197.0000 17.4136  7.2000   9.0734  75.9695  79.2216  2.5485   2.5891  2.5800 2.7133  8.8530  11.4951  8.4573  11.8092   8.0654  12.5630  14.6200 68.2694 68.5861 28.0895 1.2543 1.2355
    9197.5000 17.4425  9.4100  10.2422  96.1581  88.2430  2.5519   2.5821  2.5727 2.6728  7.8182   9.9714  7.5005  10.2439   7.1703  10.8977  15.6400 69.7198 69.7449 29.1639 1.2453 1.2344
    9198.0000 17.4382  9.4100  11.4675  96.1581  94.7260  2.5519   2.5728  2.5727 2.6383  7.8182   8.7110  7.5005   8.9490   7.1703   9.5202  16.7700 71.3141 70.2176 28.8624 1.2101 1.2252
    9198.5000 17.4626 12.0600  11.9416 110.4169  96.6154  2.5572   2.5711  2.5685 2.6413  7.6071   8.0167  7.3533   8.2357   7.0195   8.7614  17.1600 71.8624 71.1419 28.3682 1.1853 1.2127
    9199.0000 17.4490 11.0900  11.6321 104.7499  95.1880  2.5613   2.5766  2.5326 2.6591  7.2316   7.7858  7.1228   7.9985   6.7981   8.5091  16.7800 71.3271 72.1520 28.1784 1.2009 1.2049
    9199.5000 17.4348  9.0600  10.8067  86.6267  92.9504  2.5614   2.5888  2.4658 2.7047  6.9952   7.7856  7.0560   7.9983   6.7276   8.5088  15.8600 70.0288 72.1456 28.7190 1.2364 1.2033
    9200.0000 17.4289  8.5400  10.2287  77.3118  92.5588  2.5608   2.5979  2.5222 2.7417  6.8827   7.7746  7.0656   7.9870   6.7353   8.4968  15.2100 69.1105 71.2874 29.4101 1.2722 1.2068
    9200.5000 17.4297  9.3600  10.3632  84.0729  93.7218  2.5699   2.5963  2.6609 2.7337  6.0097   7.6929  6.1961   7.9031   5.9160   8.4075  15.3500 69.3049 70.4779 29.2212 1.2551 1.2113
    9201.0000 17.4114 11.8700  11.1311  91.9496  93.6154  2.5745   2.5821  2.6417 2.6614  5.6939   7.6471  5.8308   7.8560   5.5742   8.3575  16.2400 70.5695 70.1083 28.0043 1.2065 1.2156
    9201.5000 17.4507 12.4000  12.2677  91.9135  89.8686  2.5661   2.5586  2.4815 2.5515  5.7215   7.9553  5.7994   8.1727   5.5486   8.6943  17.6500 72.5511 70.4660 26.0035 1.1411 1.2162
    9202.0000 17.4204 10.0900  12.5658  82.0076  82.6397  2.5641   2.5496  2.3905 2.5314  5.8093   8.8216  5.8797   9.0626   5.6322   9.6411  18.1200 73.2150 71.1041 23.9914 1.0941 1.2167
    9202.5000 17.4744 10.0900  11.9076  82.0076  73.2831  2.5641   2.5541  2.3905 2.5732  5.8093  10.2907  5.8797  10.5718   5.6322  11.2466  17.5600 72.4308 71.1236 22.4265 1.0669 1.2141
    9203.0000 17.4291  8.5200  10.6175  65.4206  63.9426  2.5680   2.5649  2.4154 2.6414  5.9792  12.1702  6.1240  12.5027   5.8766  13.3008  16.3800 70.7678 70.6307 20.9369 1.0542 1.2160
    9203.5000 17.4426  7.3400   9.9828  54.9665  55.6997  2.5787   2.5702  2.5300 2.7090  8.5044  14.1742  8.8636  14.5615   8.4951  15.4909  15.8500 70.0067 68.6417 20.2773 1.0559 1.2220
    9204.0000 17.4411  6.5700   9.6376  50.9272  49.6217  2.5970   2.5732  2.7177 2.7617 12.7284  15.9765 13.4456  16.4131  12.9190  17.4607  15.5700 69.6170 66.9866 20.0173 1.0607 1.2300
    9204.5000 17.4457  6.3700   9.6025  47.6944  44.4694  2.6190   2.5730  2.9150 2.7927 14.7886  17.2290 15.8707  17.6998  15.2958  18.8296  15.5900 69.6463 66.1892 20.2882 1.0624 1.2392
    9205.0000 17.4444  6.3700   9.6164  47.6944  40.5229  2.6190   2.5726  2.9150 2.8042 14.7886  17.6782 15.8707  18.1612  15.2958  19.3205  15.6200 69.6923 64.1216 20.8656 1.0689 1.2411
    9205.5000 17.4445  6.0900   9.3962  45.5287  37.8293  2.6621   2.5750  3.1076 2.8073 13.9571  17.3992 15.0770  17.8746  14.5642  19.0155  15.3800 69.3486 62.8984 21.5800 1.0905 1.2424
    9206.0000 17.4396  5.5800   9.2423  44.0251  36.4272  2.6996   2.5768  3.2612 2.7974 14.0171  16.5893 14.6650  17.0426  14.1723  18.1304  15.1900 69.0738 60.7840 22.6542 1.1257 1.2419
    9206.5000 17.5110  5.8800   8.8361  46.8462  36.5340  2.6719   2.5821  3.2201 2.7902 11.7923  15.4227 11.4885  15.8441  11.0603  16.8554  14.7000 68.3825 59.9863 23.6589 1.1591 1.2408
    9207.0000 17.6451  7.5900   8.8350  58.2670  37.2151  2.6038   2.5829  2.9375 2.7657  8.4084  14.0715  7.8155  14.4560   7.5826  15.3787  14.6300 68.2829 60.0793 24.7147 1.1642 1.2386
    9207.5000 17.6207  7.5900   8.8796  58.2670  37.9395  2.6038   2.5848  2.9375 2.7471  8.4084  12.8023  7.8155  13.1520   7.5826  13.9915  14.5700 68.1968 59.6605 25.5095 1.1489 1.2296
    9208.0000 17.4678  8.5700   9.1548  68.3195  38.3838  2.5831   2.5871  2.6659 2.7459  7.0988  11.7502  6.5164  12.0713   6.3249  12.8418  14.6900 68.3745 59.9224 25.6602 1.1395 1.2203
    9208.5000 17.2526  8.7400   8.8260  64.1088  39.1831  2.6115   2.5963  2.6443 2.7809  6.9870  11.0506  6.3892  11.3526   6.1745  12.0772  14.2100 67.6934 62.1280 25.4927 1.1527 1.2112
    9209.0000 17.3121  7.6300   8.5027  50.7027  40.7962  2.6255   2.6017  2.7317 2.7968  7.8298  10.7483  7.0146  11.0420   6.7188  11.7468  13.8300 67.1527 64.7639 25.3151 1.1800 1.2072
    9209.5000 17.5174  7.6000   8.2582  47.3718  44.1827  2.6007   2.6077  2.6996 2.8253  8.1376  10.6746  7.1031  10.9663   6.7645  11.6662  13.5100 66.7073 65.5949 25.2134 1.2009 1.2069
    9210.0000 17.4426  8.7800   8.4699  56.1819  48.8098  2.5617   2.6084  2.5731 2.8404  6.3561  10.7369  5.6455  11.0303   5.4108  11.7343  13.6800 66.9464 66.9398 25.2730 1.1870 1.2073
    9210.5000 17.4403  8.7800   8.9734  56.1819  55.1449  2.5617   2.6024  2.5731 2.8187  6.3561  10.8622  5.6455  11.1590   5.4108  11.8713  14.2200 67.7139 67.9968 25.0681 1.1586 1.2047
    9211.0000 17.4406  9.3300   9.6913  67.7121  62.2057  2.5445   2.5944  2.4735 2.7958  5.8308  10.9923  5.2663  11.2927   5.0515  12.0135  14.9900 68.7901 68.2825 24.7102 1.1303 1.1998
    9211.5000 17.4446  9.3600   9.9277  70.3482  68.3053  2.5364   2.5929  2.4454 2.8010  6.1049  11.2133  5.6006  11.5196   5.3528  12.2549  15.2300 69.1340 68.8375 24.2353 1.1321 1.1959
    9212.0000 17.4420  8.1000   9.5399  61.4924  71.3807  2.5204   2.5990  2.4563 2.8309  6.9257  11.5353  6.4446  11.8505   6.1192  12.6069  14.8100 68.5438 69.6247 23.7891 1.1718 1.1957
    9212.5000 17.4435  7.5300   8.8001  58.7328  71.2896  2.5182   2.6101  2.4841 2.8817  7.6795  11.8254  7.2456  12.1485   6.8450  12.9239  14.0000 67.3999 70.9302 23.9731 1.2451 1.2009
    9213.0000 17.4424  7.5300   8.4101  58.7328  69.6280  2.5182   2.6172  2.4841 2.9192  7.6795  11.8619  7.2456  12.1860   6.8450  12.9639  13.5500 66.7557 72.7911 25.0094 1.3301 1.2139
    9213.5000 17.4424  8.3900   8.7068  69.6144  67.9734  2.5297   2.6181  2.5307 2.9441  7.7728  11.3761  7.3985  11.6869   6.9983  12.4329  13.7600 67.0589 73.2241 26.6766 1.4048 1.2291
    9214.0000 17.4429  9.4300   9.6277  87.0564  67.1986  2.5437   2.6095  2.6642 2.9261  7.5797  10.3467  7.2057  10.6294   6.8506  11.3079  14.6500 68.3182 74.0862 29.1019 1.4253 1.2388
    9214.5000 17.4449 11.3200  10.9317 108.0177  66.6515  2.5607   2.5927  2.8793 2.8586  7.4066   9.0917  7.0086   9.3401   6.7071   9.9363  15.9900 70.2144 74.2942 30.2830 1.3904 1.2448
    9215.0000 17.4381 14.5700  12.1747 114.1595  65.7954  2.5707   2.5756  2.9125 2.7813  7.4278   8.0732  7.0380   8.2938   6.7820   8.8232  17.2900 72.0465 74.3855 29.4364 1.3465 1.2454
    9215.5000 17.4429 14.5700  12.6314 114.1595  63.8742  2.5707   2.5689  2.9125 2.7346  7.4278   7.4795  7.0380   7.6838   6.7820   8.1743  17.7500 72.6916 75.8707 28.1099 1.3335 1.2451
    9216.0000 17.4403 13.9200  12.2787 101.0953  60.9063  2.5655   2.5737  2.6680 2.7517  8.2069   7.5378  7.8552   7.7437   7.6128   8.2380  17.3600 72.1479 76.1499 27.1491 1.3779 1.2453
    9216.5000 17.4421 10.5000  11.2806  83.3803  57.7753  2.5524   2.5879  2.4385 2.8197  8.6021   8.0545  8.4558   8.2746   8.2760   8.8028  16.3000 70.6451 75.3105 26.5712 1.4148 1.2427
