###############################################
##         ENVERUS                           ##
##         ESS - Open Hole                   ##
##         PERMIAN / DELAWARE                ##
##         Nov 03 2023  V4.0                 ##
##         42-109-32538-90-00                ##
###############################################
## Copyright 2017-2023  ENVERUS.  All Rights Reserved. 
## Confidential - Property of ENVERUS, use governed by terms and 
## conditions found within the existing Information Services Subscription Agreement 
## (as may be amended, the “ISSA”) between Customer and ENVERUS. 
## 
~VERSION INFORMATION
# MNEM.UNIT                               DATA : DESCRIPTION OF MNEMONIC
#-----.-----     ----------------------------- : -----------------------------
VERS.                                     2.00 : CWLS LOG ASCII STANDARD - VERSION 2.00
WRAP.                                       NO : MULTIPLE LINES PER DEPTH STEP
VEND.                                  ENVERUS : VENDOR
TYPE.                          ESS - OPEN HOLE : ENVERUS ESSENTIAL CURVES – ACCESSIBLE THROUGH ENVERUS PRISM(TM)
DOC.                                  51093252 : ENVERUS HEADER RAW DOCUMENT ID
#___________________________________________________________________________________________________ 
~WELL INFORMATION 
# oCCetX3e+0pvkDd8h//i1tmWwvIHyfHqsQII3M49Y6eU5HggNAlLoqtwY+vCuZvzOG9Fr+Tv1xe2vto6NUMufQ== 
# MNEM.UNIT                                              DATA : DESCRIPTION OF MNEMONIC 
#-----.-----                    ----------------------------- : ----------------------------- 
CNTY.                                               CULBERSON : COUNTY 
STATE.                                                  TEXAS : STATE 
CNTRY.                                                    USA : COUNTRY 
API.                                             42-109-32538 : API (10 Digit) 
API_14.                                    42-109-32538-90-00 : API (14 Digits) 
API_14_std.                                 42-109-32538-9000 : API (14 Digits Standard) 
UWI.                                           42109325389000 : UNIQUE WELL ID 
WELL.                                                  DRD_55 : WELL NAME
STRT.FT                                                2546.5 : START DEPTH
STOP.FT                                               11260.0 : STOP DEPTH
STEP.FT                                                   0.5 : STEP BETWEEN DEPTHS
NULL.                                                 -999.25 : NULL VALUE
PREV_APII.                                     42109325380000 : WELL IDENTIFIER
#___________________________________________________________________________________________________ 
~PARAMETER INFORMATION 
# MNEM.UNIT                                              DATA : DESCRIPTION OF MNEMONIC 
#-----.-----                    ----------------------------- : ----------------------------- 
EKB.FT                                                   3182 : ELEVATION ABOVE MSL
#___________________________________________________________________________________________________ 
~CURVE INFORMATION 
# MNEM.UNIT           : CURVE DESCRIPTION 
#-----.-----          : ----------------------------- 
 DEPT.FT               : MEASURED DEPTH 
 CALI.IN               : CALIPER (CAL - CALIPER) 
 GR.API                : GAMMA RAY (GAMMA RAY) 
 DT.US/FT              : SONIC DELTA TRANSIT TIME (SONIC) 
 RESS.OHMM             : SHALLOW INDUCTION RESISTIVITY (ILS - SHALLOW RESISTIVITY) 
 RESD.OHMM             : DEEP INDUCTION RESISTIVITY (ILD - DEEP RESISTIVITY) 
 DPHI.V/V              : DENSITY POROSITY (DENSITY POROSITY) 
 NPHI.V/V              : NEUTRON POROSITY (NEUTRON POROSITY) 
 RHOB.G/CC             : BULK DENSITY (DENSITY) 
 #___________________________________________________________________________________________________ 
~A         DEPT           CALI             GR             DT           RESS           RESD           DPHI           NPHI           RHOB
# ...
        11160.5       -999.250         59.130         63.483        235.389        186.852        0.03467        0.07106         2.6380
        11161.0       -999.250         59.565         66.056        106.697         59.945        0.04406        0.05706         2.6316
        11161.5       -999.250         61.543         68.384         44.242         31.730        0.04810        0.05911         2.6238
        11162.0       -999.250         66.050         69.904         27.156         20.920        0.05637        0.06789         2.6184
        11162.5       -999.250         75.384         70.933         24.587         16.849        0.05827        0.07697         2.6153
        11163.0       -999.250        102.471         71.084         25.292       4164.671        0.06013        0.09764         2.6122
        11163.5       -999.250        102.258         71.084         27.917      36222.901        0.05949        0.15194         2.6148
        11164.0       -999.250        104.871         70.601         26.993        146.773        0.05640        0.19636         2.6221
        11164.5       -999.250        108.399         70.675         22.239         16.953        0.05399        0.19430         2.6293
        11165.0       -999.250        114.313         70.675         21.487         21.361        0.05146        0.18791         2.6375
        11165.5       -999.250        117.417         70.974         24.876         26.140        0.04838        0.18698         2.6398
        11166.0       -999.250         91.818         70.675         30.031         31.464        0.04284        0.20131         2.6341
        11166.5       -999.250         86.958         70.675         33.043         33.852        0.04393        0.17104         2.6251
        11167.0       -999.250         91.315         70.266         31.743         31.701        0.05611        0.12404         2.6202
        11167.5       -999.250         92.587         70.266         25.468         23.767        0.05214        0.10812         2.6302
        11168.0       -999.250         92.762         70.675         20.831         20.194        0.04465        0.10197         2.6243
        11168.5       -999.250         96.802         71.014         19.964         18.899        0.05229        0.15043         2.6098
        11169.0       -999.250        101.693         71.634         20.158         19.449        0.06156        0.18294         2.6148
        11169.5       -999.250        102.736         72.254         20.745         20.393        0.05948        0.18603         2.6248
        11170.0       -999.250        100.669         72.720         21.628         21.609        0.05106        0.18665         2.6335
        11170.5       -999.250         99.104         72.720         23.602         23.286        0.04613        0.18011         2.6336
        11171.0       -999.250        100.563         72.720         26.414         23.703        0.04932        0.17579         2.6298
        11171.5       -999.250        100.842         71.932         27.539         22.326        0.04653        0.17013         2.6266
        11172.0       -999.250        101.267         70.903         28.488         21.165        0.05030        0.17837         2.6224
        11172.5       -999.250        101.766         69.873         24.736         21.500        0.05623        0.18516         2.6195
        11173.0       -999.250        103.635         68.338         23.111         19.535        0.05732        0.18376         2.6169
        11173.5       -999.250        103.963         66.794         25.795         20.881        0.05729        0.17023         2.6131
        11174.0       -999.250        100.650         64.841         32.643         30.103        0.06000        0.16511         2.6097
        11174.5       -999.250        100.230         63.712         69.070         35.942        0.06016        0.18004         2.6130
        11175.0       -999.250        104.056         62.904        179.638         50.986        0.06039        0.18037         2.6292
        11175.5       -999.250        105.501         62.904        101.365         59.993        0.05410        0.18503         2.6502
        11176.0       -999.250        104.587         63.313         55.370         42.775        0.03806        0.18543         2.6410
        11176.5       -999.250        102.250         64.168         38.587         27.334        0.03289        0.17885         2.6199
        11177.0       -999.250         99.782         64.949         25.442         20.927        0.05420        0.17961         2.6034
        11177.5       -999.250         95.652         64.489         29.087         24.867        0.06839        0.18214         2.6140
        11178.0       -999.250         98.102         63.460         43.638         38.435        0.05945        0.18221         2.6294
        11178.5       -999.250       -999.250         62.194         63.073         82.627        0.04875        0.18805         2.6379
        11179.0       -999.250       -999.250         60.993        173.151        325.667        0.04460        0.19044         2.6508
        11179.5       -999.250       -999.250         59.964        423.563        597.206        0.03464        0.19077         2.6655
        11180.0       -999.250       -999.250         60.330        416.187        398.768        0.02218        0.19717         2.6713
        11180.5       -999.250       -999.250         61.904         80.110         80.319        0.02387        0.20241         2.6820
        11181.0       -999.250       -999.250         64.628         39.001         41.220        0.02330        0.19144         2.6876
        11181.5       -999.250       -999.250         67.663         32.614         33.889        0.01411        0.19571         2.6882
        11182.0       -999.250       -999.250         70.441         31.925         32.059        0.02777        0.19074         2.6582
        11182.5       -999.250       -999.250         71.610         36.987         35.019        0.04555        0.18582         2.6320
        11183.0       -999.250       -999.250         71.982         43.933         41.135        0.05822        0.17714         2.6111
        11183.5       -999.250       -999.250         70.887         50.475         48.877        0.06409        0.18624         2.6049
        11184.0       -999.250       -999.250         69.139         56.793         57.863        0.06599        0.19776         2.6073
        11184.5       -999.250       -999.250         68.077         51.615         54.807        0.06569        0.19607         2.6144
        11185.0       -999.250       -999.250         67.047         45.374         46.906        0.05804     -999.25000         2.6227
        11185.5       -999.250       -999.250         67.561         36.621         36.718        0.05263     -999.25000         2.6126
        11186.0       -999.250       -999.250         68.774         32.811         27.094        0.06104     -999.25000         2.6080
        11186.5       -999.250       -999.250         70.028         32.798         25.803        0.06547     -999.25000         2.6059
        11187.0       -999.250       -999.250         70.675         33.620         26.545        0.06062     -999.25000         2.6051
        11187.5       -999.250       -999.250         71.084         34.263         26.286        0.06316     -999.25000         2.6051
        11188.0       -999.250       -999.250         71.084         34.591         26.049        0.06647     -999.25000         2.6051
        11188.5       -999.250       -999.250         70.886         34.996         26.049        0.06606     -999.25000         2.6058
        11189.0       -999.250       -999.250         70.266         35.357         27.083        0.05655     -999.25000         2.6088
        11189.5       -999.250       -999.250         70.266         34.055         27.788        0.06444     -999.25000         2.6138
