# Exported from Transform Software 5.2.0 on 21-Oct-2019 by user kathryn.gehrke
# DI Transform - A Product of Drillinginfo, Inc. - www.drillinginfo.com
#
~VERSION INFORMATION
 VERS.        2.0 : LAS ASCII STANDARD - VERSION 2.0
 WRAP.         NO : ONE LINE PER DEPTH STEP

~WELL INFORMATION
#MNEM.UNIT       DATA TYPE       INFORMATION
#---------       ---------       -----------
 STRT.ft                  30 : Start Depth
 STOP.ft                9000 : Stop Depth
 STEP.ft                 0.5 : Step Length
 NULL.               -999.25 : Null Value
 COMP.                       : Company
 WELL.  42109330470000_API14 : Well Name
 FLD.                        : Field Name
 LOC.                        : Well Location
 CNTY.                       : County
 STAT.                       : State or Province
 CTRY.                       : Country
 SRVC.                       : Service Company
 DATE.                       : Date
 API.         42109330470000 : Well Identifier

~CURVE INFORMATION
#MNEM.UNIT       API CODE       CURVE DESCRIPTION
#---------       --------       -----------------
 DEPT.ft        : <Measured Depth>
 DT.us/ft       : Sonic
 GR.gAPI        : Gamma Ray

~PARAMETER INFORMATION
#MNEM.UNIT       VALUE       DESCRIPTION
#---------       -----       -----------
 EKB.ft      3201 : Elevation above MSL

~A      DEPT          DT          GR
# ...
      5997.5    328.9895     67.9715
        5998    328.9895     63.4753
      5998.5    328.9895     70.2088
        5999    328.9895      77.399
      5999.5    328.9895     80.0745
        6000    328.9895     78.4752
      6000.5    328.9895     64.4075
        6001    328.8144     39.2589
      6001.5    328.8144     31.6918
        6002    328.8144     38.2498
      6002.5    328.8144     46.5726
        6003    328.8144     54.1917
      6003.5    328.8144     61.3318
        6004    328.8144     64.8011
      6004.5    328.8144     62.3513
        6005    328.8144     60.1576
      6005.5    328.8144     59.8949
        6006    328.8144     58.3237
      6006.5    328.8144     52.8925
        6007    328.8144     54.1982
      6007.5    328.8144     65.0979
        6008    328.8144     77.8401
      6008.5    328.8144     82.4462
        6009    328.8144       66.73
      6009.5    328.8144     44.2223
        6010    328.8144     37.0403
      6010.5    328.8144     41.6381
        6011    328.8144     47.5494
      6011.5    328.8144     53.4607
        6012    328.8144     57.0053
      6012.5    328.8144     55.9545
        6013    328.8144     60.6904
      6013.5    328.8144     71.1062
        6014    328.8144     66.7995
      6014.5    328.8144     50.0272
        6015    328.8144     38.6103
      6015.5    328.8144       39.28
        6016    328.8144     48.8764
      6016.5    328.8144     54.8214
        6017    328.8144     55.9545
      6017.5    328.8144     57.7119
        6018    328.8144     67.4518
      6018.5    328.8144     90.6723
        6019    328.8144     112.274
      6019.5    328.8144    114.1866
        6020    328.8144     98.5784
      6020.5    328.8144     94.2293
        6021    328.8144     95.8844
      6021.5    328.8144     90.1159
        6022    328.8144     78.3467
      6022.5    328.8144     69.9934
        6023    328.8144     61.3622
      6023.5    328.8144      56.967
        6024    328.8144     60.4375
      6024.5    328.8144     61.8095
        6025    328.8144     52.1461
      6025.5    328.8144     43.4947
        6026    328.8144     38.9536
      6026.5    328.8144     36.0635
        6027    328.8144     32.1227
      6027.5    328.8144     28.6706
        6028    328.8144     30.3272
      6028.5    328.8144     43.0192
        6029    328.8144      65.147
      6029.5    328.8144      74.379
        6030    328.8144     74.3679
      6030.5    328.8144     79.8245
        6031    328.8144     76.3673
      6031.5    328.8144     61.8737
        6032    328.8144     58.6085
      6032.5    328.8144     77.6754
        6033    328.8144       95.65
      6033.5    328.8144     93.8853
        6034    328.8144     89.4144
      6034.5    328.8144     92.2067
        6035    328.8144     87.1539
      6035.5    328.8144     80.3853
        6036    328.8144     86.2286
      6036.5    328.8144     96.5738
        6037    328.8144     98.7741
      6037.5    328.8144     99.0368
        6038    328.8144     96.0782
      6038.5    328.8144     79.3607
        6039    328.9895     58.1123
      6039.5    328.9895     44.0288
        6040    328.8144     37.1032
      6040.5    328.8144     36.2209
        6041    328.8144     43.1586
      6041.5    328.8144     60.6679
        6042    328.8144      80.302
      6042.5    328.8144     90.8018
        6043    328.8144      92.732
      6043.5    328.8144     89.6698
        6044    328.8144     78.6836
      6044.5    328.8144     65.3267
        6045    328.8144     54.1314
      6045.5    328.8144     47.6066
        6046    328.8144     43.4031
      6046.5    328.8144     44.6009
        6047    328.8144     51.2142
      6047.5    328.8144     61.5634
        6048    328.8144     72.5511
      6048.5    328.8144     71.8283
        6049    328.8144     62.3224
      6049.5    328.8144     48.5845
        6050    328.8144     31.6935
      6050.5    328.8144     21.0973
        6051    328.8144     18.8602
      6051.5    328.8144     24.5864
        6052    328.8144     33.7285
      6052.5    328.8144     42.2151
        6053    328.8144     42.2413
      6053.5    328.8144     36.8295
        6054    328.8144     35.7268
      6054.5    328.8144     33.9645
        6055    328.8144     28.5786
      6055.5    328.8144     26.5324
        6056    328.8144     26.2697
      6056.5    328.8144      26.007
        6057    328.8144     27.1646
      6057.5    328.8144     28.8724
        6058    328.8144     29.4221
      6058.5    328.8144      28.634
        6059    328.8144     28.1086
      6059.5    328.8144     31.9551
        6060    328.8144     43.7307
      6060.5    328.8144     56.8668
        6061    328.8144     64.4692
      6061.5    328.8144     64.6688
        6062    328.8144     58.2997
      6062.5    328.8144     50.5046
        6063    328.8144     45.4907
      6063.5    328.8144     45.6874
        6064    328.8144     49.1908
      6064.5    328.8144     54.5981
        6065    328.8144     59.5898
      6065.5    328.8144     60.1786
        6066    328.8144     56.3005
      6066.5    328.8144     47.8933
        6067    328.8144     39.0717
      6067.5    328.8144     38.7983
        6068    328.8144     49.9038
      6068.5    328.8144     53.8674
        6069    329.1646     47.5931
      6069.5    329.6771     34.5102
        6070    329.6152     26.7213
      6070.5    328.8144     23.9054
        6071    328.8144     27.1328
      6071.5    328.8144     34.0763
        6072    328.6392     38.7294
      6072.5    328.6392     39.1419
        6073    328.6392     40.6821
      6073.5    328.8144     46.1814
        6074    328.8144     51.5673
      6074.5    328.8144     55.4117
        6075    328.8144     55.4633
      6075.5    328.8144     49.9632
        6076    328.8144     47.7774
      6076.5    328.8144     53.7868
        6077    328.8144     59.2219
      6077.5    328.8144     58.0883
        6078    328.8144     54.6728
      6078.5    328.8144     52.5394
        6079    328.6392     53.5592
      6079.5    328.6392     58.5356
        6080    328.6392     60.7993
      6080.5    328.6392     63.7907
        6081    328.8144      72.037
      6081.5    328.8144     75.1748
        6082    328.6392     63.9495
      6082.5    328.6392     50.4941
        6083    328.6392     46.5872
      6083.5    328.6392     55.3608
        6084    328.6392       63.31
      6084.5    328.6392     56.8087
        6085    328.6392     49.9385
      6085.5    328.6392     54.3013
        6086    328.6392     71.0647
      6086.5    328.6392     80.9107
        6087    328.6392      76.231
      6087.5    328.6392     70.1641
        6088    328.6392     64.5511
      6088.5    328.6392     56.0009
        6089    328.6392     50.5806
      6089.5    328.6392     48.3474
        6090    328.6392     45.3482
      6090.5    328.6392     40.4661
        6091    328.6392     41.2223
      6091.5    328.6392     46.2036
        6092    328.6392     50.9429
      6092.5    328.6392     55.1465
        6093    328.6392     66.1216
      6093.5    328.6392     84.7461
        6094    328.6392     97.7046
      6094.5    328.6392     89.6619
        6095    328.6392       68.11
      6095.5    328.6392     63.0386
        6096    328.6392     61.8907
      6096.5    328.6392     48.9531
        6097    328.6392     34.3225
      6097.5    328.6392     30.4729
        6098    328.6392     34.5216
      6098.5    328.6392     39.1269
        6099    328.6392     48.4166
      6099.5    328.6392     62.4794
        6100    328.6392     62.9503
      6100.5    328.6392     50.2152
        6101    328.6392     40.4812
      6101.5    328.6392     33.9005
        6102    328.6392     35.0397
      6102.5    328.6392     55.6098
        6103    328.6392     78.5125
      6103.5    328.6392      77.791
        6104    328.6392     60.8511
      6104.5    328.6392     51.5037
        6105    328.6392     48.2097
      6105.5    328.6392      48.327
