~Version Information
 VERS.                  2.0:   CWLS log ASCII Standard -VERSION 2.0
 WRAP.                   NO:   One line per depth step
~Well Information Block
#MNEM.UNIT     VALUE/NAME     DESCRIPTION
#---------     -----------    ---------------------------
 STRT.F              8400.0000: START DEPTH
 STOP.F             14130.0000: STOP DEPTH
 STEP.F                 0.5000: STEP DEPTH
 NULL.                 -999.25: NULL VALUE
 LOC .            42-109-33596:  LOCATION
 FL1 .            42-109-33596:  LOCATIONLINE1
 PROV.                      TX:  PROVINCE
 STAT.                      TX:  STATE NAME
 CNTY.               CULBERSON:  COUNTY NAME
 FLD .              WOLFCAMP B:  FIELD NAME
 WELL.           DALE STATE 5H:  WELL NAME
 COMP.     CAPITAN ENERGY INC.:  COMPANY
 DMF .             Drill Floor:  DRILL MEAS FROM
 PDAT.                      GL:  PERMANENT DATUM
 DATE.             11-Feb-2020:  DATE
 SVCO.             Halliburton:  SERVICECONAME
 HIDE.                        :  WELLNAMEOPERAT
 BASI.                 PERMIAN:  BASIN
 UWI .            42-109-33596:  UNIQUE WELL IDENTIFIER
 API .            42-109-33596:  API NUMBER
 RANG.                     N/A:  RANGE
 TOWN.                     N/A:  TOWNSHIP
 SECT.                     N/A:  SECTION
 SON .               906289953:  JOB NUMBER
 CTRY.                        :  COUNTRY
 SRVC.             Halliburton:  SERVICE COMPANY
 LMF .             Drill Floor:  LOG MEASURED FROM
 TVDS.ft             3291.0000:  TVDSS CORRECTN
 EGL .ft             3266.0000:  GROUND ELEVATION
 APD .ft               25.0000:  DEPTH ABOVE PD
 EPD .ft             3266.0000:  ELEVATION
 BAP .ft                0.0000:  GL ELEV ONSHORE
 GVFD.g                 1.0000:  GRAVITY FIELD
 EKB .ft             3291.0000:  KB ELEVATION
 EDF .ft             3291.0000:  DF ELEVATION
~Curve Information Block
#MNEM.UNIT                 API CODE     Curve Description
#---------               -----------    ---------------------------
 DEPT.F                 00 000 000 000:  Depth
 CCL .V                 00 000 000 000:  Casing Collar Locator
 NPHI_OH.pu             00 000 000 000:  NPHI_OH
 NPHI_CHI.decp          00 000 000 000:  NPHI_CHI
 GR_OH.api              00 000 000 000:  GR_OH
 GR_CHI.api             00 000 000 000:  GR_CHI
 RHOB_OH.g/cc           00 000 000 000:  RHOB_OH
 RHOB_CHI.g/cc          00 000 000 000:  RHOB_CHI
 PE_OH.NONE             00 000 000 000:  PE_OH
 PE_CHI.NONE            00 000 000 000:  PE_CHI
 LLS_CHI.ohmm           00 000 000 000:  LLS_CHI
 LLS_OH.ohmm            00 000 000 000:  LLS_OH
 LLD_OH.ohmm            00 000 000 000:  LLD_OH
 LLD_CHI.ohmm           00 000 000 000:  LLD_CHI
 DTC_OH.uspf            00 000 000 000:  DTC_OH
 DTC_CHI.uspf           00 000 000 000:  DTC_CHI
 SPHW_CHI.decp          00 000 000 000:  SPHW_CHI
#Other Information
#
#WARRANTY: Halliburton will use its best efforts to furnish customers with 
#accurate information and interpretations that are part of, and incident to, the services 
#provided.  However, Halliburton cannot and does not warrant the accuracy 
#or correctness of such information and interpretations.  Under no circumstances should any 
#such information or interpretation be relied upon as the sole basis for any drilling, 
#completion, production, or financial decision or any procedure involving any risk to the 
#safety of any drilling venture, drilling rig or its crew or any other third party.  The 
#Customer has full responsibility for all drilling, completion and production operation.  
#Halliburton makes no representations or warranties, either expressed or 
#implied, including, but not limited to, the implied warranties of merchantability or fitness 
#for a particular purpose, with respect to the services rendered.  In no event will 
#Halliburton be liable for failure to obtain any particular results or for 
#any damages, including, but not limited to, indirect, special or consequential damages, 
#resulting from the use of any information or interpretation provided by Halliburton.
#
~A    DEPT      CCL   NPHI_OH NPHI_CHI  GR_OH    GR_CHI  RHOB_OH RHOB_CHI  PE_OH  PE_CHI LLS_CHI   LLS_OH    LLD_OH    LLD_CHI  DTC_OH  DTC_CHI SPHW_CHI 
# ...
   12189.5000  0.0140 -999.25   0.1214  -999.25 109.4325 -999.25   2.5711 -999.25 3.1123  35.7463   -999.25   -999.25   38.0063 -999.25 71.5082 0.1691
   12190.0000  0.0035 -999.25   0.1197  -999.25 106.3727 -999.25   2.5723 -999.25 3.0989  33.8059   -999.25   -999.25   36.1215 -999.25 71.3639 0.1681
   12190.5000 -0.0010 -999.25   0.1182  -999.25 104.0689 -999.25   2.5744 -999.25 3.0954  32.3882   -999.25   -999.25   34.5014 -999.25 71.1512 0.1666
   12191.0000  0.0814 -999.25   0.1175  -999.25 102.7858 -999.25   2.5761 -999.25 3.1122  33.1901   -999.25   -999.25   35.3007 -999.25 70.9721 0.1653
   12191.5000  0.0154 -999.25   0.1159  -999.25  98.2397 -999.25   2.5782 -999.25 3.1186  33.2412   -999.25   -999.25   36.1481 -999.25 70.7327 0.1636
   12192.0000 -0.0062 -999.25   0.1146  -999.25  94.4643 -999.25   2.5788 -999.25 3.1218  33.3533   -999.25   -999.25   37.3143 -999.25 70.6525 0.1630
   12192.5000  0.0341 -999.25   0.1161  -999.25  97.3262 -999.25   2.5762 -999.25 3.1167  34.1862   -999.25   -999.25   38.2620 -999.25 70.8395 0.1644
   12193.0000  0.0171 -999.25   0.1183  -999.25 103.0604 -999.25   2.5732 -999.25 3.1088  34.8413   -999.25   -999.25   38.0406 -999.25 71.0838 0.1661
   12193.5000 -0.0074 -999.25   0.1189  -999.25 106.6821 -999.25   2.5733 -999.25 3.1265  36.1847   -999.25   -999.25   38.3414 -999.25 71.0410 0.1658
   12194.0000 -0.0153 -999.25   0.1192  -999.25 110.0641 -999.25   2.5747 -999.25 3.1590  38.1286   -999.25   -999.25   39.0803 -999.25 70.9536 0.1652
   12194.5000  0.0043 -999.25   0.1256  -999.25 127.4429 -999.25   2.5728 -999.25 3.2407  47.0143   -999.25   -999.25   44.9623 -999.25 71.8820 0.1717
   12195.0000 -0.0043 -999.25   0.1278  -999.25 131.4453 -999.25   2.5708 -999.25 3.2618  50.2983   -999.25   -999.25   47.5443 -999.25 72.4033 0.1754
   12195.5000  0.0095 -999.25   0.1218  -999.25 113.4087 -999.25   2.5718 -999.25 3.1919  42.2191   -999.25   -999.25   42.5312 -999.25 71.6273 0.1699
   12196.0000 -0.0068 -999.25   0.1160  -999.25  99.4255 -999.25   2.5748 -999.25 3.1579  37.4577   -999.25   -999.25   39.9417 -999.25 71.1447 0.1665
   12196.5000 -0.0154 -999.25   0.1204  -999.25 107.5129 -999.25   2.5719 -999.25 3.1819  41.3013   -999.25   -999.25   42.8227 -999.25 71.6225 0.1699
   12197.0000  0.1033 -999.25   0.1218  -999.25 109.3360 -999.25   2.5725 -999.25 3.1849  41.6007   -999.25   -999.25   43.0323 -999.25 71.6805 0.1703
   12197.5000  0.5382 -999.25   0.1228  -999.25 109.6550 -999.25   2.5729 -999.25 3.1800  41.2407   -999.25   -999.25   43.0229 -999.25 71.7030 0.1705
   12198.0000  0.0203 -999.25   0.1249  -999.25 112.9708 -999.25   2.5730 -999.25 3.1836  41.9307   -999.25   -999.25   43.5821 -999.25 71.8249 0.1713
   12198.5000  0.0092 -999.25   0.1273  -999.25 118.1103 -999.25   2.5726 -999.25 3.1861  42.6195   -999.25   -999.25   43.8553 -999.25 72.0294 0.1728
   12199.0000  0.0360 -999.25   0.1282  -999.25 120.3576 -999.25   2.5723 -999.25 3.1871  43.1105   -999.25   -999.25   44.3094 -999.25 72.0677 0.1730
   12199.5000  0.0000 -999.25   0.1226  -999.25 108.3949 -999.25   2.5755 -999.25 3.1275  36.0086   -999.25   -999.25   38.8421 -999.25 71.1759 0.1667
   12200.0000 -0.0289 -999.25   0.1197  -999.25 103.8473 -999.25   2.5762 -999.25 3.0961  33.1812   -999.25   -999.25   36.6563 -999.25 70.7972 0.1641
   12200.5000 -0.0021 -999.25   0.1225  -999.25 111.4540 -999.25   2.5731 -999.25 3.1015  35.1833   -999.25   -999.25   38.0070 -999.25 71.0594 0.1659
   12201.0000  0.0154 -999.25   0.1242  -999.25 117.0728 -999.25   2.5710 -999.25 3.1123  36.8516   -999.25   -999.25   38.8957 -999.25 71.3454 0.1679
   12201.5000 -0.0466 -999.25   0.1220  -999.25 113.6907 -999.25   2.5714 -999.25 3.1231  37.6377   -999.25   -999.25   39.7435 -999.25 71.0992 0.1662
   12202.0000 -0.0048 -999.25   0.1184  -999.25 107.7231 -999.25   2.5730 -999.25 3.1256  36.8911   -999.25   -999.25   39.2032 -999.25 70.7326 0.1636
   12202.5000  0.0050 -999.25   0.1131  -999.25  98.2543 -999.25   2.5760 -999.25 3.1264  35.1233   -999.25   -999.25   38.0499 -999.25 70.3226 0.1607
   12203.0000 -0.0043 -999.25   0.1089  -999.25  91.1500 -999.25   2.5786 -999.25 3.1277  33.5813   -999.25   -999.25   37.0119 -999.25 70.1010 0.1591
   12203.5000 -0.0250 -999.25   0.1167  -999.25 107.8945 -999.25   2.5727 -999.25 3.1545  38.2104   -999.25   -999.25   39.1534 -999.25 70.8405 0.1644
   12204.0000 -0.0070 -999.25   0.1193  -999.25 113.8835 -999.25   2.5713 -999.25 3.1788  41.0025   -999.25   -999.25   41.0584 -999.25 71.1647 0.1667
   12204.5000 -0.0059 -999.25   0.1215  -999.25 117.3978 -999.25   2.5703 -999.25 3.1930  43.3595   -999.25   -999.25   43.2445 -999.25 71.3767 0.1682
   12205.0000 -0.0094 -999.25   0.1152  -999.25 101.3732 -999.25   2.5744 -999.25 3.1444  37.6575   -999.25   -999.25   40.4984 -999.25 70.5366 0.1622
   12205.5000 -0.0008 -999.25   0.1250  -999.25 123.0562 -999.25   2.5679 -999.25 3.1787  44.3718   -999.25   -999.25   44.8495 -999.25 71.6832 0.1703
   12206.0000  0.0033 -999.25   0.1277  -999.25 130.4790 -999.25   2.5652 -999.25 3.1765  45.1454   -999.25   -999.25   44.8737 -999.25 72.2040 0.1740
   12206.5000 -0.0032 -999.25   0.1189  -999.25 112.1659 -999.25   2.5682 -999.25 3.0927  36.4532   -999.25   -999.25   38.6213 -999.25 70.9213 0.1649
   12207.0000 -0.0074 -999.25   0.1122  -999.25 100.0550 -999.25   2.5714 -999.25 3.0751  33.6653   -999.25   -999.25   37.1669 -999.25 70.2169 0.1599
   12207.5000  0.0052 -999.25   0.1150  -999.25 107.3929 -999.25   2.5691 -999.25 3.1137  37.6199   -999.25   -999.25   39.7710 -999.25 70.4827 0.1618
   12208.0000  0.0183 -999.25   0.1143  -999.25 107.5434 -999.25   2.5704 -999.25 3.1525  40.0404   -999.25   -999.25   41.4585 -999.25 70.3284 0.1607
   12208.5000  0.0082 -999.25   0.1113  -999.25 102.2136 -999.25   2.5741 -999.25 3.1678  39.2312   -999.25   -999.25   40.6793 -999.25 69.9518 0.1581
   12209.0000  0.0075 -999.25   0.1112  -999.25 103.6908 -999.25   2.5756 -999.25 3.1819  39.3231   -999.25   -999.25   40.0007 -999.25 69.8719 0.1575
   12209.5000  0.0152 -999.25   0.1151  -999.25 112.1848 -999.25   2.5740 -999.25 3.1973  41.4935   -999.25   -999.25   41.1123 -999.25 70.2141 0.1599
   12210.0000 -0.0271 -999.25   0.1146  -999.25 107.3802 -999.25   2.5745 -999.25 3.1638  38.6956   -999.25   -999.25   39.5690 -999.25 70.2197 0.1600
   12210.5000 -0.0028 -999.25   0.1136  -999.25 100.6258 -999.25   2.5747 -999.25 3.1250  35.6307   -999.25   -999.25   38.2219 -999.25 70.3325 0.1608
   12211.0000  0.0118 -999.25   0.1188  -999.25 108.1015 -999.25   2.5712 -999.25 3.1227  37.0256   -999.25   -999.25   39.2357 -999.25 71.0304 0.1657
   12211.5000  0.0422 -999.25   0.1195  -999.25 107.9591 -999.25   2.5707 -999.25 3.1098  36.2690   -999.25   -999.25   38.8789 -999.25 71.1823 0.1668
   12212.0000 -0.0532 -999.25   0.1174  -999.25 103.5246 -999.25   2.5720 -999.25 3.0842  33.7023   -999.25   -999.25   37.0546 -999.25 70.9070 0.1648
   12212.5000  0.0059 -999.25   0.1175  -999.25 104.8884 -999.25   2.5721 -999.25 3.0728  32.8619   -999.25   -999.25   35.9191 -999.25 70.7893 0.1640
   12213.0000  0.0237 -999.25   0.1159  -999.25 102.3385 -999.25   2.5727 -999.25 3.0518  31.0112   -999.25   -999.25   34.3064 -999.25 70.6154 0.1628
   12213.5000  0.0161 -999.25   0.1144  -999.25  99.8119 -999.25   2.5731 -999.25 3.0406  29.9711   -999.25   -999.25   33.5027 -999.25 70.5275 0.1621
   12214.0000  0.0040 -999.25   0.1171  -999.25 104.5022 -999.25   2.5706 -999.25 3.0462  31.3264   -999.25   -999.25   34.4970 -999.25 70.9426 0.1651
   12214.5000  0.0000 -999.25   0.1208  -999.25 110.9190 -999.25   2.5679 -999.25 3.0715  34.5035   -999.25   -999.25   37.2645 -999.25 71.4277 0.1685
   12215.0000  0.0671 -999.25   0.1230  -999.25 114.7164 -999.25   2.5674 -999.25 3.0924  36.6410   -999.25   -999.25   39.1292 -999.25 71.5943 0.1697
   12215.5000  0.0027 -999.25   0.1225  -999.25 113.0252 -999.25   2.5689 -999.25 3.1024  37.2202   -999.25   -999.25   40.1168 -999.25 71.3466 0.1679
