~Version Information Block
 VERS.                2.00:     CWLS LOG ASCII STANDARD - VERSION 2.000000
 WRAP.                  NO:     One Line Per Depth Step
#
~Well Information Block
#MNEM.UNIT                     Data                         Information
#----------   ------------------------------------------   ----------------
 STRT.FT                                     4210.0000:     START DEPTH
 STOP.FT                                    10370.0000:     STOP DEPTH
 STEP.FT                                        0.5000:     STEP
 NULL.                                       -999.2500:     NULL VALUE
 COMP.                       CHESAPEAKE OPERATING INC.:     COMPANY
 WELL.                         UNIVERSITY_LANDS_4627-1:     WELL
 FLD .                                         WILDCAT:     FIELD
 LOC .   1200' FNL & 1995' FEL|Section: 27, Block: 46, Abstract: 2860|University Lands Survey:     LOCATION
 SEC .                                              27:     SECTION
 CNTY.                                       CULBERSON:     COUNTY
 STAT.                                           TEXAS:     STATE
 CTRY.                                             USA:     COUNTRY
 SRVC.                                    SCHLUMBERGER:     SERVICE COMPANY
 DATE.                                      11/15/2016:     DATE
 API .                                  42109322870000:     API NUMBER
 UWI .                                  42109322870000:     UWI NUMBER
 TVD .                                              NO:     TVD flag
 WSTA.                                             LOC:     Well status
#
~Curve Information Block
#MNEM.UNIT       API CODE      Curve Description
#----------    -------------   -------------------
 DEPT.FT                   :   Depth in Feet
 RM_HRLT.OHMM                 :   HRLTB Mud Resistivity
 RXOZ.OHMM                 :   Stan Res MicroCFL Resistivity
 RLA5.OHMM                 :   HRLTB Resistivity 5
 RLA4.OHMM                 :   HRLTB Resistivity 4
 RLA3.OHMM                 :   HRLTB Resistivity 3
 DTCO.US/F                 :   Delta-T Compressional
 DTSM.US/F                 :   Delta-T Shear Measurement
 SPHI.V/V                  :   Sonic Porosity [47.6]
 HSGR.GAPI                 :   HNGS Spectroscopy Gamma Ray
 HCGR.GAPI                 :   HNGS Computed Gamma Ray
 HCAL.IN                   :   HILT Caliper
 DPHI.V/V                  :   Density Porosity
 PEFZ.                     :   Std. Res. Formation PE
 HDRA.G/C3                 :   Density Correction
 RHOB.G/C3                 :   Std. Res. Formation Density
 APLC.V/V                  :   APS Near/Array Corrected Limestone Porosity
 PXND.V/V                  :   Crossplot Porosity For Neutron-Density
#
~Parameter Information Block
#MNEM.UNIT            Value               Description
#----------    --------------------    -------------------
 DATE.                 07-Jun-2007:    Date As Month-Day-Year
 RUN .                         ONE:    Run Number
 PDAT.                         UNK:    Permanent Datum
 EPD .FT                -9999.5000:    Elevation Of Perm. Datum
 LMF .                          KB:    Log Measured From
 FAPD.FT                   40.0000:    Feet Above Perm. Datum
 EKB .FT                 4323.0000:    Elevation Of Kelly Bushing
 TD  .FT                10370.0000:    Total Depth
 DFT .                   Fresh Mud:    Drilling Fluid Type
 DFD .LB/G                  8.6000:    Drilling Fluid Density
 RMS .OHMM                  0.4210:    Resistivity Of Mud Sample
 MST .DEGF                 97.0000:    Mud Sample Temperature
 RMF .OHMM                  0.4210:    Mud Filtrate Resistivity
 MFST.DEGF                 97.0000:    Mud Filtrate Sample Temperature
 MFSS.                        CALC:    Mud Filtrate Sample Source
 MCSS.                        CALC:    Mud Cake Sample Source
 RMB .OHMM                  0.2280:    Mud Resistivity At Bht
 BHT .DEGF                185.0000:    Bottom Hole Temperature
 MRT .DEGF                185.0000:    Maximum Recorded Temperature
 WSTA.                         LOC:    
 LATB.FT                    0.0000:    
 LONB.FT                    0.0000:    
#
~Other Information Block
<DescLogPlotStart>   NEURALOG PLOT DEFINITION
PLOTDEFVERSION: 3
LASFILE: E:\nds\projects\Texas Standard Oil LLC\pdf\42109322870000 D\42-109-322
DEPTHSCALE: 240.000000
RESOLUTION: 196
DEPTHLABELFREQ: 100.000000
HEAVYGRIDFREQ: 100.000000
MEDIUMGRIDFREQ: 50.000000
LIGHTGRIDFREQ: 10.000000
#
#   TRACK 1
#
STARTTRACK: 
 LEFTX: 0.500000 inch
 RIGHTX: 3.000000 inch
 SCALETYPE: Linear
 NUMCHARTDIVISIONS: 10
CURVE: RXOZ  0.200000   2000.000000 (0,0,255)      Solid             2     Y   
BACKUP: 2000.000000 20000000.000000 (0,0,255)      Solid             2    
CURVE: RLA5  0.200000   2000.000000 (0,131,131)    Dot               2     Y   
BACKUP: 2000.000000 20000000.000000 (0,131,131)    Dot               2    
CURVE: RLA4  0.200000   2000.000000 (255,0,255)    Short_Dash        2     Y   
BACKUP: 2000.000000 20000000.000000 (255,0,255)    Short_Dash        2    
CURVE: RLA3  0.200000   2000.000000 (255,0,0)      Medium_Dash       2     Y   
BACKUP: 2000.000000 20000000.000000 (255,0,0)      Medium_Dash       2    
CURVE: DTCO  240.000000 40.000000  (0,0,255)      Solid             2     N    
CURVE: DTSM  240.000000 40.000000  (0,131,131)    Dot               2     Y    
BACKUP: 440.000000 240.000000 (0,131,131)    Dot               2    
CURVE: SPHI  0.300000   -0.100000  (255,0,255)    Short_Dash        2     Y    
BACKUP: 0.700000   0.300000   (255,0,255)    Short_Dash        2    
CURVE: HSGR  0.000000   150.000000 (0,0,255)      Solid             2     Y    
BACKUP: 150.000000 300.000000 (0,0,255)      Solid             2    
CURVE: HCGR  0.000000   150.000000 (0,131,131)    Dot               2     N    
CURVE: HCAL  6.000000   16.000000  (255,0,255)    Short_Dash        2     Y    
BACKUP: -4.000000  6.000000   (255,0,255)    Short_Dash        2    
BACKUP: 16.000000  26.000000  (255,0,255)    Short_Dash        2    
ENDTRACK: 
#
#   TRACK 2
#
STARTTRACK: 
 LEFTX: 3.500000 inch
 RIGHTX: 8.500000 inch
 SCALETYPE: Linear
 NUMCHARTDIVISIONS: 10
CURVE: RM_HRLT 0.020000   200.000000 (255,131,0)    Solid             2     N  
CURVE: DPHI  0.300000   -0.100000  (255,0,0)      Solid             2     Y    
BACKUP: 0.700000   0.300000   (255,0,0)      Solid             2    
BACKUP: -0.100000  -0.500000  (255,0,0)      Solid             2    
CURVE: APLC  0.300000   -0.100000  (255,131,0)    Dot               2     Y    
BACKUP: 0.700000   0.300000   (255,131,0)    Dot               2    
BACKUP: 1.100000   0.700000   (255,131,0)    Dot               2    
CURVE: PXND  0.300000   -0.100000  (255,255,0)    Short_Dash        2     Y    
BACKUP: 0.700000   0.300000   (255,255,0)    Short_Dash        2    
ENDTRACK: 
#
#   TRACK 3
#
STARTTRACK: 
 LEFTX: 0.500000 inch
 RIGHTX: 5.500000 inch
 SCALETYPE: Linear
 NUMCHARTDIVISIONS: 10
ENDTRACK: 
#
#   TRACK 4
#
STARTTRACK: 
 LEFTX: 3.500000 inch
 RIGHTX: 6.000000 inch
 SCALETYPE: Linear
 NUMCHARTDIVISIONS: 10
CURVE: PEFZ  0.000000   10.000000  (0,0,255)      Solid             2     N    
ENDTRACK: 
#
#   TRACK 5
#
STARTTRACK: 
 LEFTX: 3.500000 inch
 RIGHTX: 4.750000 inch
 SCALETYPE: Linear
 NUMCHARTDIVISIONS: 10
CURVE: HDRA  -0.050000  0.200000   (0,131,131)    Solid             2     N    
ENDTRACK: 
#
#   TRACK 6
#
STARTTRACK: 
 LEFTX: 3.500000 inch
 RIGHTX: 8.500000 inch
 SCALETYPE: Linear
 NUMCHARTDIVISIONS: 10
CURVE: RHOB  2.000000   3.000000   (255,0,255)    Solid             2     Y    
BACKUP: 1.000000   2.000000   (255,0,255)    Solid             2    
ENDTRACK: 
<DescLogPlotEnd>
~A DEPTH     RM_HRLT             RXOZ             RLA5             RLA4             RLA3             DTCO             DTSM             SPHI             HSGR             HCGR             HCAL             DPHI             PEFZ             HDRA             RHOB             APLC             PXND            
# ...
    7072.000 1.02848696       97.84757662      199.68436005     265.24968281     339.77897281     60.51030422      108.13725490     0.09627412       67.37273886      38.79202329      9.43373073       0.04409384       4.14599282       0.05143181       2.63760666       0.05078431       0.05225933      
    7072.500 1.02839575       76.69577241      194.10555862     220.36649729     234.73057502     60.31403337      106.17647059     0.09322866       69.25957685      38.57528363      9.35732238       0.04099463       4.20490261       0.06728220       2.64624647       0.06058824       0.05579568      
    7073.000 1.02874024       88.63633255      190.42063188     234.73057502     268.74202075     59.52894995      104.60000000     0.08861629       71.60958870      39.36720114      9.33987690       0.03017268       4.06508869       0.06246652       2.65429821       0.06647059       0.06051081      
    7073.500 0.99199922       123.71176262     285.45312692     245.56038253     313.28308705     58.15505397      103.13310619     0.07919529       73.16751642      39.36229059      9.31420177       0.03380541       3.77172558       0.04141283       2.65091559       0.06921569       0.06836935      
    7074.000 0.99615890       117.19379782     213.88996618     228.46331784     250.03094176     56.97742885      102.06182977     0.07107753       72.77358137      38.44873425      9.29687287       0.04005877       3.66453894       0.01918655       2.64187542       0.06529412       0.06561886      
    7074.500 1.00101504       125.96400199     198.64672215     266.32862732     266.32862732     55.60353288      101.67507069     0.06192345       65.60351228      31.64951580      9.28104765       0.04711068       3.70344830       0.00687127       2.62300153       0.04908745       0.05147348      
    7075.000 0.99925557       156.41266487     458.90755173     228.46331784     228.46331784     54.22963690      100.98082374     0.04700687       54.11812552      26.54908257      9.32202865       0.03787603       4.08986153       0.01372711       2.63740885       0.03488235       0.03889980      
    7075.500 0.99680549       185.65589430     979.89206561     993.59989236     1149.68742512    53.64082434      100.51260504     0.04862190       43.20906192      21.12556426      9.33604315       0.02295854       4.40813801       0.02616585       2.66749513       0.02215686       0.02554028      
    7076.000 0.99435097       162.15966042     547.65215773     627.99347569     903.55118063     54.22963690      99.70588235      0.05171737       36.22013547      18.24578266      9.33668694       0.01805768       4.59785410       0.02775877       2.67498211       0.02333333       0.02095391      
    7076.500 0.99200409       141.63706230     570.13820075     661.98551442     736.26901960     54.81844946      99.70588235      0.05554465       32.96596017      16.14508238      9.33656296       0.01537708       4.66818324       0.02194194       2.68238598       0.02333333       0.02284965      
    7077.000 0.99200165       159.26024181     676.93683611     759.31946476     815.67762353     55.21099117      100.42156863     0.05799804       31.74601506      15.22585163      9.33544550       0.01890304       4.73411387       0.01679339       2.68126641       0.02490196       0.02436785      
    7077.500 0.99199922       96.96887259      357.29245006     462.57567054     214.48275797     55.99607458      101.86962263     0.06388616       32.38479385      15.64831169      9.28369979       0.01616063       4.71276779       0.01430812       2.68422915       0.02686275       0.02634285      
    7078.000 0.99199922       97.84757662      239.76749982     248.90572903     310.46969993     56.19234544      103.20922509     0.06498528       36.01033606      16.91008027      9.27659321       0.01851126       4.68050289       0.01376934       2.67771301       0.03352941       0.03025540      
    7078.500 0.98869087       86.68712095      528.64625173     548.07004749     605.24480861     55.40726202      103.63741190     0.06231600       44.65656705      19.30213183      9.27791733       0.01655240       4.58159111       0.01452515       2.67345354       0.03941176       0.03575639      
    7079.000 0.98532497       98.73424322      300.79318867     336.38608857     383.43702863     54.62217861      102.93209106     0.05446516       52.96503862      24.21978359      9.27885539       0.02752204       4.48079650       0.01363797       2.67177529       0.04372549       0.03968566      
    7079.500 0.98306460       76.31075895      158.58784084     194.22153429     194.22153429     54.62839333      102.07843137     0.05407262       57.09617182      25.70219407      9.29695646       0.02940451       4.27717339       0.01663388       2.66241211       0.04725490       0.04400786      
    7080.000 0.97862751       106.63934326     221.85698712     298.11885681     298.11885681     55.02251847      100.29411765     0.05360157       51.99111584      22.28374415      9.32831781       0.03963341       4.29930214       0.03834897       2.64533261       0.04254902       0.04561307      
    7080.500 0.96543605       109.05177325     561.41162213     1127.85763952    1127.85763952    54.82720206      98.52941176      0.05308865       43.12580337      18.89471531      9.33956351       0.05494613       4.34471211       0.07704277       2.62985635       0.04176471       0.04474226      
    7081.000 0.96543605       77.86035475      936.91759434     1117.72909988    1363.09639010    54.42533141      97.35294118      0.05257573       40.41695524      17.72250706      9.35614256       0.05612145       4.40036102       0.10183633       2.61240191       0.04137255       0.04857025      
    7081.500 0.96543605       77.39076744      958.81581025     616.26361684     616.26361684     54.01756209      97.35294118      0.04981395       44.08874713      19.47413924      9.39535300       0.06395690       4.37013819       0.10661949       2.60770593       0.03745098       0.04884655      
    7082.000 0.97356964       102.36198818     518.60892426     674.44075464     674.44075464     53.42171280      97.35294118      0.04543689       51.73235737      21.23508267      9.39691650       0.04980901       4.38229427       0.07759996       2.62011816       0.02725490       0.04675835      
    7082.500 0.98306460       157.83003145     668.38405060     807.78979070     807.78979070     52.83639667      97.35294118      0.04288799       44.81784916      19.92782332      9.38402242       0.03362818       4.44077758       0.03901246       2.65101418       0.02333333       0.02829077      
    7083.000 0.95570251       168.11781507     1234.70200584    1223.24608659    1223.24608659    52.64483991      97.22128852      0.04032961       32.91004321      16.45430455      9.33636101       0.01744736       4.54086387       0.01291492       2.67658505       0.02137255       0.01964637      
    7083.500 0.94405639       180.69892081     2853.90496794    2754.92214242    2384.65571274    52.64229185      96.57317558      0.04033366       24.82546055      10.91556338      9.26718466       0.00714716       4.63752751       0.01039563       2.70509085       0.01862745       0.01768173      
    7084.000 0.93710399       218.38753228     2701.49395638    2586.33773115    2856.14492577    52.83177445      95.97939401      0.04119725       24.71654824      10.04406433      9.23028223       0.00048972       4.65717999       0.01056792       2.69618375       0.02597983       0.02436149      
    7084.500 0.93020697       236.85763598     2244.85732669    2259.01606728    2300.14267336    54.01109371      96.21186229      0.04724239       28.03201421      13.17170884      9.20467534       0.01379600       4.64017585       0.01146026       2.67994255       0.03530364       0.03143418      
    7085.000 0.92260164       97.84757662      1293.81597760    994.04511983     1217.74111967    55.78927591      96.79828749      0.06202159       35.07570420      16.53502682      9.18019459       0.02749405       4.55793128       0.02137463       2.66125583       0.04529412       0.03811395      
