###############################################
##         ENVERUS                           ##
##         ESS - Open Hole                   ##
##         PERMIAN / DELAWARE                ##
##         Nov 02 2023  V4.0                 ##
##         42-109-32346-90-00                ##
###############################################
## Copyright 2017-2023  ENVERUS.  All Rights Reserved. 
## Confidential - Property of ENVERUS, use governed by terms and 
## conditions found within the existing Information Services Subscription Agreement 
## (as may be amended, the “ISSA”) between Customer and ENVERUS. 
## 
~VERSION INFORMATION
# MNEM.UNIT                               DATA : DESCRIPTION OF MNEMONIC
#-----.-----     ----------------------------- : -----------------------------
VERS.                                     2.00 : CWLS LOG ASCII STANDARD - VERSION 2.00
WRAP.                                       NO : MULTIPLE LINES PER DEPTH STEP
VEND.                                  ENVERUS : VENDOR
TYPE.                          ESS - OPEN HOLE : ENVERUS ESSENTIAL CURVES – ACCESSIBLE THROUGH ENVERUS PRISM(TM)
DOC.                                  51092887 : ENVERUS HEADER RAW DOCUMENT ID
#___________________________________________________________________________________________________ 
~WELL INFORMATION 
# XhrHiXkIrwGIJmPLTIo0+WseqdI1VWn+o0JF90EYfb9BJ/ikjsIPmHpj3yVLlwnYQ/npclNvflN3Ll99f4ZCqQ== 
# MNEM.UNIT                                              DATA : DESCRIPTION OF MNEMONIC 
#-----.-----                    ----------------------------- : ----------------------------- 
CNTY.                                               CULBERSON : COUNTY 
STATE.                                                  TEXAS : STATE 
CNTRY.                                                    USA : COUNTRY 
API.                                             42-109-32346 : API (10 Digit) 
API_14.                                    42-109-32346-90-00 : API (14 Digits) 
API_14_std.                                 42-109-32346-9000 : API (14 Digits Standard) 
UWI.                                           42109323469000 : UNIQUE WELL ID 
WELL.                                                  DRD_55 : WELL NAME
STRT.FT                                                 334.5 : START DEPTH
STOP.FT                                                4950.0 : STOP DEPTH
STEP.FT                                                   0.5 : STEP BETWEEN DEPTHS
NULL.                                                 -999.25 : NULL VALUE
PREV_APII.                                     42109323460000 : WELL IDENTIFIER
#___________________________________________________________________________________________________ 
~PARAMETER INFORMATION 
# MNEM.UNIT                                              DATA : DESCRIPTION OF MNEMONIC 
#-----.-----                    ----------------------------- : -----------------------------
#___________________________________________________________________________________________________ 
~CURVE INFORMATION 
# MNEM.UNIT           : CURVE DESCRIPTION 
#-----.-----          : ----------------------------- 
 DEPT.FT               : MEASURED DEPTH 
 CALI.IN               : CALIPER (CAL - CALIPER) 
 GR.API                : GAMMA RAY (GAMMA RAY) 
 DT.US/FT              : SONIC DELTA TRANSIT TIME (SONIC) 
 #___________________________________________________________________________________________________ 
~A         DEPT           CALI             GR             DT
# ...
          664.5         10.609          3.509         99.687
          665.0         10.707          3.509         95.281
          665.5         10.806          4.005         96.656
          666.0         10.904          4.794         99.416
          666.5         10.983          5.458        102.489
          667.0         11.043          4.932         96.435
          667.5         11.102          3.947         92.864
          668.0         11.166          3.899        106.956
          668.5         11.221          3.732        100.355
          669.0         11.263          3.119         97.136
          669.5         11.302          3.891         98.132
          670.0         11.302          5.071         98.903
          670.5         11.302          5.276         98.044
          671.0         11.300          5.241         96.126
          671.5         11.283          5.263         97.000
          672.0         11.283          5.653         99.005
          672.5         11.238          5.653         96.773
          673.0         11.205          5.200         97.740
          673.5         11.158          4.410        100.130
          674.0         11.099          4.762         93.918
          674.5         11.059          5.263         98.132
          675.0         11.038          5.952         93.416
          675.5         10.998          6.628         94.806
          676.0         10.939          6.433         96.289
          676.5         10.918          6.433         92.563
          677.0         10.859          6.823         96.677
          677.5         10.819          6.823         93.254
          678.0         10.779          8.404         93.576
          678.5         10.739         10.807         99.084
          679.0         10.679         13.626        102.683
          679.5         10.639         12.767         98.613
          680.0         10.639          8.177         94.871
          680.5         10.639          7.192        101.689
          681.0         10.639          7.407        104.893
          681.5         10.621          5.997         94.436
          682.0         10.620          3.263         96.881
          682.5         10.581          2.790         97.404
          683.0         10.561          3.970        100.984
          683.5         10.542          4.760        102.344
          684.0         10.542          4.873         98.487
          684.5         10.542          4.678         95.590
          685.0         10.483          4.791         96.443
          685.5         10.471          5.191         98.462
          686.0         10.464          4.936        100.385
          686.5         10.444          4.003        101.025
          687.0         10.444          3.119        100.401
          687.5         10.444          3.867         98.895
          688.0         10.444          4.678         97.696
          688.5         10.464          4.300         99.753
          689.0         10.503          4.289         96.174
          689.5         10.503          4.289         98.030
          690.0         10.522          4.075         98.007
          690.5         10.525          3.480         96.884
          691.0         10.620          3.353         96.899
          691.5         10.620          4.655         99.366
          692.0         10.620          5.009         95.718
          692.5         10.620          3.822         96.110
          693.0         10.592          2.729         98.257
          693.5         10.572          3.404         97.713
          694.0         10.512          4.389         94.617
          694.5         10.453          5.178        102.398
          695.0         10.413          5.848        100.261
          695.5         10.353          5.458         99.891
          696.0         10.289          4.678         99.538
          696.5         10.234          4.289        102.197
          697.0         10.211          3.933        101.410
          697.5         10.191          3.704         96.705
          698.0         10.191          3.495         99.617
          698.5         10.172          4.572         98.136
          699.0         10.152          6.238         96.779
          699.5         10.111          5.433         94.813
          700.0         10.016          4.671         96.801
          700.5         10.012          5.300         98.391
          701.0          9.977          5.848         99.345
          701.5          9.938          5.848        100.306
          702.0          9.918          5.196         99.918
          702.5          9.860          4.269         99.534
          703.0          9.801          3.314        100.679
          703.5          9.772          3.314         98.455
          704.0          9.693          3.812         97.827
          704.5          9.626          3.899         97.013
          705.0          9.554          4.222         98.473
          705.5          9.475          5.179         97.636
          706.0          9.431          6.192         96.565
          706.5          9.395          6.628         96.893
          707.0          9.392          6.433         97.485
          707.5          9.392          5.279         98.305
          708.0          9.411          3.907         98.659
          708.5          9.412          3.509         98.207
          709.0          9.452          3.119         96.309
          709.5          9.511          2.729         79.834
          710.0          9.571          3.154         61.662
          710.5          9.630          3.314         51.978
          711.0          9.690          3.954         51.416
          711.5          9.762          5.459         56.828
          712.0          9.789          6.509         57.717
          712.5          9.810          6.823         51.748
          713.0          9.850          7.018         54.472
          713.5          9.860          6.911         54.729
          714.0          9.860          6.121         52.727
          714.5          9.860          5.527         53.021
          715.0          9.860          3.791         57.196
          715.5          9.860          3.119         52.819
          716.0          9.844          4.251         53.539
          716.5          9.804          4.289         49.948
          717.0          9.801          4.856         55.765
          717.5          9.782          5.458         57.029
          718.0          9.782          4.871         58.547
          718.5          9.782          4.308         51.227
          719.0          9.721          6.003         49.509
          719.5          9.626          7.407         52.417
          720.0          9.615          6.389         57.431
          720.5          9.627          6.238         50.368
          721.0          9.629          5.784         51.210
          721.5          9.633          4.800         50.548
          722.0          9.657          5.626         50.183
          722.5          9.665          6.433         50.408
          723.0          9.704          5.399         55.651
          723.5          9.704          4.174         53.216
          724.0          9.723          3.828         52.262
          724.5          9.737          4.618         49.666
          725.0          9.801          5.263         58.510
          725.5          9.801          5.263         59.162
          726.0          9.837          5.263         59.100
          726.5          9.840          5.263         55.902
          727.0          9.878          4.878         51.720
          727.5          9.879          4.678         50.570
          728.0          9.939          5.859         54.992
          728.5          9.957          6.823         54.424
          729.0         10.016          5.981         62.746
          729.5         10.059          4.052         63.528
          730.0         10.079          3.704         59.827
