###############################################
##         ENVERUS                           ##
##         ESS - Open Hole                   ##
##         PERMIAN / DELAWARE                ##
##         Nov 03 2023  V4.0                 ##
##         42-109-32709-00-00                ##
###############################################
## Copyright 2017-2023  ENVERUS.  All Rights Reserved. 
## Confidential - Property of ENVERUS, use governed by terms and 
## conditions found within the existing Information Services Subscription Agreement 
## (as may be amended, the “ISSA”) between Customer and ENVERUS. 
## 
~VERSION INFORMATION
# MNEM.UNIT                               DATA : DESCRIPTION OF MNEMONIC
#-----.-----     ----------------------------- : -----------------------------
VERS.                                     2.00 : CWLS LOG ASCII STANDARD - VERSION 2.00
WRAP.                                       NO : MULTIPLE LINES PER DEPTH STEP
VEND.                                  ENVERUS : VENDOR
TYPE.                          ESS - OPEN HOLE : ENVERUS ESSENTIAL CURVES – ACCESSIBLE THROUGH ENVERUS PRISM(TM)
DOC.                                  32116645 : ENVERUS HEADER RAW DOCUMENT ID
#___________________________________________________________________________________________________ 
~WELL INFORMATION 
# 8SOIrMNgLSTosdYTMQVb7KPebVRgGb4NQOaGG3/cpRvPeoxWQd7So5pZ7XPWbXIrV4d26no2f3ffGwkTWQV8GA== 
# MNEM.UNIT                                              DATA : DESCRIPTION OF MNEMONIC 
#-----.-----                    ----------------------------- : ----------------------------- 
CNTY.                                               CULBERSON : COUNTY 
STATE.                                                  TEXAS : STATE 
CNTRY.                                                    USA : COUNTRY 
API.                                             42-109-32709 : API (10 Digit) 
API_14.                                    42-109-32709-00-00 : API (14 Digits) 
API_14_std.                                 42-109-32709-0000 : API (14 Digits Standard) 
UWI.                                           42109327090000 : UNIQUE WELL ID 
WELL.                                    42109327090000_API14 : WELL NAME
STRT.FT                                                  26.5 : START DEPTH
STOP.FT                                                5244.0 : STOP DEPTH
STEP.FT                                                   0.5 : STEP BETWEEN DEPTHS
NULL.                                                 -999.25 : NULL VALUE
#___________________________________________________________________________________________________ 
~PARAMETER INFORMATION 
# MNEM.UNIT                                              DATA : DESCRIPTION OF MNEMONIC 
#-----.-----                    ----------------------------- : ----------------------------- 
EKB.FT                                                   3124 : ELEVATION ABOVE MSL
#___________________________________________________________________________________________________ 
~CURVE INFORMATION 
# MNEM.UNIT           : CURVE DESCRIPTION 
#-----.-----          : ----------------------------- 
 DEPT.FT               : MEASURED DEPTH 
 CALI.IN               : CALIPER (CAL - CALIPER) 
 GR.API                : GAMMA RAY (GAMMA RAY) 
 DT.US/FT              : SONIC DELTA TRANSIT TIME (SONIC) 
 PE.B/E                : PHOTOELECTRIC EFFECT/FACTOR (PHOTOELECTRIC FACTOR) 
 RESS.OHMM             : SHALLOW INDUCTION RESISTIVITY (ILS - SHALLOW RESISTIVITY) 
 RESS_LL.OHMM          : SHALLOW LATEROLOG (LLS - SHALLOW RESISTIVITY) 
 RESD_LL.OHMM          : DEEP LATEROLOG (LLD - DEEP RESISTIVITY) 
 DPHI.V/V              : DENSITY POROSITY (DENSITY POROSITY) 
 NPHI.V/V              : NEUTRON POROSITY (NEUTRON POROSITY) 
 RHOB.G/CC             : BULK DENSITY (DENSITY) 
 #___________________________________________________________________________________________________ 
~A         DEPT           CALI             GR             DT             PE           RESS        RESS_LL        RESD_LL           DPHI           NPHI           RHOB
# ...
         3481.0          7.866         57.572        341.956         2.4975         11.618        27.4033        56.7636        0.10459        0.09749         2.5430
         3481.5          7.878         57.180        341.956         2.5444          9.010        20.6424        44.9824        0.10387        0.10476         2.5463
         3482.0          7.878         60.152        341.956         2.6036          5.773        16.8965        35.2173        0.10079        0.11205         2.5473
         3482.5          7.890         65.332        341.956         2.6988          3.651        10.8430        23.6091        0.10174        0.12432         2.5454
         3483.0          7.937         70.245        341.956         2.7219          2.818         8.6058        21.3436        0.11383        0.13020         2.5236
         3483.5          7.937         72.063        341.956         2.6635          3.738         9.4771        20.7611        0.13628        0.13826         2.4939
         3484.0          7.976         68.280        341.956         2.6633          4.348         7.1464        16.7080        0.13076        0.13505         2.5229
         3484.5          8.014         64.267        341.956         2.7633          3.271         6.2509        14.6572        0.10723        0.13475         2.4718
         3485.0          8.016         62.663        341.956         2.8205          1.801         5.2451        12.2429        0.10453        0.13675         2.5377
         3485.5          8.075         65.860        341.956         2.7347          1.482         4.1012         9.1614        0.13142        0.13875         2.4868
         3486.0          8.075         70.938        341.956         2.6173          1.278         3.6403         7.8500        0.14912        0.14081         2.4315
         3486.5          8.095         70.025        341.956         2.5174          1.137         3.3222         6.9334        0.16874        0.15128         2.4329
         3487.0          8.115         67.755        341.956         2.4174          1.080         2.8193         6.5023        0.18501        0.16903         2.4091
         3487.5          8.115         71.350        341.956         2.3274          1.106         2.8893         6.2097        0.19823        0.17081         2.3893
         3488.0          8.194         79.783        341.956         2.3669          1.075         2.9157         5.9304        0.19907        0.17258         2.3913
         3488.5          8.194         83.814        341.956         2.4386          1.027         3.0485         6.3047        0.19476        0.17686         2.3967
         3489.0          8.194         84.987        341.956         2.4121          1.073         2.9703         6.4845        0.19270        0.18351         2.3987
         3489.5          8.213         80.184        341.956         2.3669          1.155         3.0790         6.7931        0.19078        0.17950         2.3998
         3490.0          8.233         70.531        341.956         2.2911          1.216         3.0790         7.8031        0.18843        0.16436         2.4073
         3490.5          8.253         60.545        341.956         2.2682          1.574         3.3684         9.4207        0.17990        0.17851         2.4243
         3491.0          8.253         57.180        341.956         2.2880          2.395         3.8724        11.1941        0.17495        0.18324         2.4276
         3491.5          8.253         59.884        341.956         2.3077          2.485         4.3458        12.7356        0.17557        0.17092         2.4270
         3492.0          8.253         68.570        341.956         2.3077          1.810         4.3978        12.9325        0.17679        0.16752         2.4236
         3492.5          8.273         72.454        341.956         2.3471          1.393         4.1176        13.3710        0.18628        0.17535         2.4072
         3493.0          8.293         70.104        341.956         2.3718          1.727         4.4487        14.7278        0.19270        0.18964         2.4024
         3493.5          8.293         71.085        341.956         2.4063          2.183         5.1826        17.9724        0.18651        0.19379         2.4132
         3494.0          8.293         74.804        341.956         2.4063          2.475         6.6425        19.4234        0.17441        0.17703         2.4401
         3494.5          8.293         72.689        341.956         2.4260          2.500         4.6727        12.0011        0.15350        0.17124         2.4643
         3495.0          8.293         71.279        341.956         2.3961          1.899         2.6648         8.5921        0.14744        0.15879         2.4688
         3495.5          8.293         73.454        341.956         2.3274          1.405         2.4585         7.4613        0.17028        0.17156         2.4321
         3496.0          8.312         72.747        341.956         2.2553          1.559         2.2218         6.8527        0.19279        0.17218         2.4076
         3496.5          8.312         71.671        341.956         2.2628          1.834         2.6016         5.9755        0.18470        0.17218         2.3906
         3497.0          8.312         72.846        341.956         2.3627          1.869         3.3339         5.9755        0.16723        0.14063         2.4419
         3497.5          8.312         74.746        341.956         2.4430          2.079         3.6300         5.9755        0.15325        0.13500         2.4446
         3498.0          8.332         74.079        341.956         2.5232          2.175         3.5544         5.9860        0.15168        0.13216         2.4624
         3498.5          8.332         68.537        341.956         2.5247          1.702         3.2507         6.2680        0.14300        0.13274         2.4878
         3499.0          8.332         61.821        342.899         2.4637          1.154         2.8119         6.5039        0.15345        0.14497         2.3796
         3499.5          8.332         64.015        342.900         2.3052          0.880         2.4447         6.3450        0.18945        0.16682         2.3668
         3500.0          8.312         73.160        342.921         2.2288          0.848         2.5550         6.4530        0.20555        0.19325         2.3641
         3500.5          8.293         77.037        342.942         2.2537          0.867         2.6035         6.7570        0.21497        0.19670         2.3667
         3501.0          8.293         73.727        342.964         2.3570          0.936         2.6481         7.1399        0.20809        0.18797         2.3796
         3501.5          8.293         70.927        342.985         2.4655          1.012         2.8331         7.5445        0.20324        0.19128         2.3826
         3502.0          8.293         66.355        343.000         2.4563          1.075         2.9983         7.8998        0.20433        0.19683         2.3837
         3502.5          8.293         65.013        343.000         2.3958          1.181         2.9105         8.5240        0.20196        0.18960         2.3871
         3503.0          8.301         65.013        343.000         2.3077          1.438         3.6091         9.5551        0.19589        0.18676         2.3999
         3503.5          8.342         63.545        343.000         2.3406          1.798         3.5962        10.5331        0.18803        0.19665         2.4140
         3504.0          8.273         61.880        343.000         2.3814          1.920         3.9717        11.4927        0.17877        0.19054         2.4280
         3504.5          8.273         62.663        343.000         2.4063          1.774         4.6367        12.2465        0.17084        0.17885         2.4379
         3505.0          8.253         61.499        342.899         2.4063          1.643         4.5743        11.6275        0.16541        0.17495         2.4462
