###############################################
##         ENVERUS                           ##
##         ESS - Open Hole                   ##
##         PERMIAN / DELAWARE                ##
##         Nov 03 2023  V4.0                 ##
##         42-109-32572-90-00                ##
###############################################
## Copyright 2017-2023  ENVERUS.  All Rights Reserved. 
## Confidential - Property of ENVERUS, use governed by terms and 
## conditions found within the existing Information Services Subscription Agreement 
## (as may be amended, the “ISSA”) between Customer and ENVERUS. 
## 
~VERSION INFORMATION
# MNEM.UNIT                               DATA : DESCRIPTION OF MNEMONIC
#-----.-----     ----------------------------- : -----------------------------
VERS.                                     2.00 : CWLS LOG ASCII STANDARD - VERSION 2.00
WRAP.                                       NO : MULTIPLE LINES PER DEPTH STEP
VEND.                                  ENVERUS : VENDOR
TYPE.                          ESS - OPEN HOLE : ENVERUS ESSENTIAL CURVES – ACCESSIBLE THROUGH ENVERUS PRISM(TM)
DOC.                                  51093105 : ENVERUS HEADER RAW DOCUMENT ID
#___________________________________________________________________________________________________ 
~WELL INFORMATION 
# JLMmoJa/ja/TVcwAQvDk33OYEn4U2aLD16xKSNtVAxpK3Y/5Eg5lhKgsZNDQ5ZP0fRHfEZLFMAnipg5oeA7W3g== 
# MNEM.UNIT                                              DATA : DESCRIPTION OF MNEMONIC 
#-----.-----                    ----------------------------- : ----------------------------- 
CNTY.                                               CULBERSON : COUNTY 
STATE.                                                  TEXAS : STATE 
CNTRY.                                                    USA : COUNTRY 
API.                                             42-109-32572 : API (10 Digit) 
API_14.                                    42-109-32572-90-00 : API (14 Digits) 
API_14_std.                                 42-109-32572-9000 : API (14 Digits Standard) 
UWI.                                           42109325729000 : UNIQUE WELL ID 
WELL.                               42109325720000_PREV_API14 : WELL NAME
STRT.FT                                                2248.5 : START DEPTH
STOP.FT                                               10721.5 : STOP DEPTH
STEP.FT                                                   0.5 : STEP BETWEEN DEPTHS
NULL.                                                 -999.25 : NULL VALUE
PREV_APII.                                     42109325720000 : WELL IDENTIFIER
#___________________________________________________________________________________________________ 
~PARAMETER INFORMATION 
# MNEM.UNIT                                              DATA : DESCRIPTION OF MNEMONIC 
#-----.-----                    ----------------------------- : ----------------------------- 
EKB.FT                                                   3340 : ELEVATION ABOVE MSL
#___________________________________________________________________________________________________ 
~CURVE INFORMATION 
# MNEM.UNIT           : CURVE DESCRIPTION 
#-----.-----          : ----------------------------- 
 DEPT.FT               : MEASURED DEPTH 
 GR__A.API             : GAMMA RAY (GAMMA RAY) 
 DT__A.US/FT           : SONIC DELTA TRANSIT TIME (SONIC) 
 #___________________________________________________________________________________________________ 
~A         DEPT          GR__A          DT__A
# ...
         9469.5        180.097        122.821
         9470.0        189.548        123.580
         9470.5        227.709        124.647
         9471.0        236.342        125.352
         9471.5        244.167        125.352
         9472.0        242.723        125.547
         9472.5        230.984        126.573
         9473.0        232.743        127.484
         9473.5        242.117        127.120
         9474.0        249.677        125.146
         9474.5        244.548        105.152
         9475.0        220.164        100.956
         9475.5        221.736        102.419
         9476.0        226.222        105.390
         9476.5        224.594        105.938
         9477.0        204.462         99.818
         9477.5        159.485         82.485
         9478.0        143.333         81.233
         9478.5         50.925         63.087
         9479.0         37.728         57.031
         9479.5         41.274         59.855
         9480.0         45.311         63.089
         9480.5        117.244         78.021
         9481.0        175.338         94.416
         9481.5        216.902        108.119
         9482.0        224.583        108.914
         9482.5        226.223        106.658
         9483.0        223.753        105.352
         9483.5        207.955        102.133
         9484.0        204.921        100.101
         9484.5        203.131         98.782
         9485.0        205.755        101.044
         9485.5        202.430        103.837
         9486.0        198.555        105.339
         9486.5        197.383        104.154
         9487.0        199.511        102.674
         9487.5        204.576        104.099
         9488.0        207.244        105.383
         9488.5        220.088        113.779
         9489.0        234.184        114.414
         9489.5        230.488        114.576
         9490.0        227.006        114.546
         9490.5        238.261        112.077
         9491.0        230.358        110.305
         9491.5        220.506        105.343
         9492.0        212.178        104.124
         9492.5        209.881        108.205
         9493.0        216.680        112.131
         9493.5        225.529        114.735
         9494.0        228.935        116.331
         9494.5        234.287        116.093
         9495.0        234.600        111.134
         9495.5        235.457        110.548
         9496.0        238.673        110.565
         9496.5        248.690        111.585
         9497.0        253.063        114.177
         9497.5        250.548        119.672
         9498.0        245.632        119.242
         9498.5        236.658        117.408
         9499.0        236.008        116.834
         9499.5        230.717        113.548
         9500.0        226.011        110.842
         9500.5        216.228        108.262
         9501.0        216.255        108.555
         9501.5        217.406        108.555
         9502.0        215.860        108.457
         9502.5        217.423        105.067
         9503.0        216.925        101.638
         9503.5        201.835        107.432
         9504.0        191.977        107.529
         9504.5        206.941        107.604
         9505.0        209.585        103.521
         9505.5        211.149         99.654
         9506.0        209.989         95.566
         9506.5        198.352         95.803
         9507.0        188.962         97.858
         9507.5        188.501         99.090
         9508.0        193.917        103.912
         9508.5        215.758        112.758
         9509.0        232.361        118.771
         9509.5        240.677        122.845
         9510.0        243.615        123.356
         9510.5        245.010        119.343
         9511.0        241.495        118.125
         9511.5        232.321        118.027
         9512.0        232.648        118.361
         9512.5        231.924        119.402
         9513.0        226.456        121.094
         9513.5        229.430        120.274
         9514.0        234.122        118.380
         9514.5        244.193        118.027
         9515.0        250.248        118.185
         9515.5        246.250        117.814
         9516.0        237.965        118.277
         9516.5        238.356        120.273
         9517.0        234.143        119.590
         9517.5        227.384        119.625
         9518.0        227.143        119.360
         9518.5        233.012        111.151
         9519.0        224.387        107.936
         9519.5        205.477        107.481
         9520.0        203.131        107.708
         9520.5        204.300        108.146
         9521.0        206.262        109.187
         9521.5        208.135        110.508
         9522.0        211.080        110.440
         9522.5        208.374        111.221
         9523.0        206.770        112.630
         9523.5        208.391        119.221
         9524.0        210.736        125.270
         9524.5        220.897        124.512
         9525.0        224.158        122.967
         9525.5        221.812        122.525
         9526.0        221.918        121.224
         9526.5        221.918        120.214
         9527.0        216.481        126.597
         9527.5        208.808        122.508
         9528.0        197.556        121.422
         9528.5        171.911        110.206
         9529.0        155.766         89.498
         9529.5        125.849        100.133
         9530.0        122.026        107.405
         9530.5        201.770        109.162
         9531.0        216.438        116.320
         9531.5        212.552        120.371
         9532.0        208.766        115.859
         9532.5        184.325        100.821
         9533.0        174.243         94.010
         9533.5        178.170         93.243
         9534.0        192.243         97.537
         9534.5        203.982        104.437
         9535.0        205.480        104.564
         9535.5        203.695        103.477
         9536.0        190.545        102.875
         9536.5        177.691        102.598
         9537.0        177.646        106.388
         9537.5        188.314        107.167
         9538.0        184.291        104.537
         9538.5        165.351         99.277
         9539.0        151.465         98.320
         9539.5        148.847         99.473
         9540.0        151.905        102.803
         9540.5        176.623        108.370
         9541.0        190.905        108.352
         9541.5        183.288        104.590
         9542.0        174.914        101.816
         9542.5        171.037         96.463
         9543.0        174.479         90.614
         9543.5        168.742         86.938
         9544.0        155.000         85.736
         9544.5        162.082         91.631
         9545.0        192.784        105.610
         9545.5        250.110        107.291
         9546.0        261.466        107.285
         9546.5        245.665        107.192
         9547.0        225.001        107.578
         9547.5        212.259        107.519
         9548.0        209.797        106.306
         9548.5        216.938        103.766
         9549.0        234.282        103.034
         9549.5        248.189        101.870
         9550.0        255.398        103.282
         9550.5        259.098        105.189
         9551.0        255.384        106.309
         9551.5        245.609        106.406
         9552.0        240.139        107.089
         9552.5        235.438        107.386
         9553.0        223.528        106.604
         9553.5        198.595        106.214
         9554.0        175.135        105.824
         9554.5        170.646        105.434
         9555.0        175.308        104.453
         9555.5        180.128        106.116
         9556.0        184.323        106.499
