###############################################
##         ENVERUS                           ##
##         ESS - Open Hole                   ##
##         PERMIAN / DELAWARE                ##
##         Nov 02 2023  V4.0                 ##
##         42-109-32255-00-00                ##
###############################################
## Copyright 2017-2023  ENVERUS.  All Rights Reserved. 
## Confidential - Property of ENVERUS, use governed by terms and 
## conditions found within the existing Information Services Subscription Agreement 
## (as may be amended, the “ISSA”) between Customer and ENVERUS. 
## 
~VERSION INFORMATION
# MNEM.UNIT                               DATA : DESCRIPTION OF MNEMONIC
#-----.-----     ----------------------------- : -----------------------------
VERS.                                     2.00 : CWLS LOG ASCII STANDARD - VERSION 2.00
WRAP.                                       NO : MULTIPLE LINES PER DEPTH STEP
VEND.                                  ENVERUS : VENDOR
TYPE.                          ESS - OPEN HOLE : ENVERUS ESSENTIAL CURVES – ACCESSIBLE THROUGH ENVERUS PRISM(TM)
DOC.                                  31869427 : ENVERUS HEADER RAW DOCUMENT ID
#___________________________________________________________________________________________________ 
~WELL INFORMATION 
# Kns/CyAZPDgS4fEM5w0azv9tYcXlBSx1nHSqICrpKgQv6F2hlFUFpw+R1SAxYfM92i4ks6BDNpB+WhJDZXFO5Q== 
# MNEM.UNIT                                              DATA : DESCRIPTION OF MNEMONIC 
#-----.-----                    ----------------------------- : ----------------------------- 
CNTY.                                               CULBERSON : COUNTY 
STATE.                                                  TEXAS : STATE 
CNTRY.                                                    USA : COUNTRY 
API.                                             42-109-32255 : API (10 Digit) 
API_14.                                    42-109-32255-00-00 : API (14 Digits) 
API_14_std.                                 42-109-32255-0000 : API (14 Digits Standard) 
UWI.                                           42109322550000 : UNIQUE WELL ID 
WELL.                             MELISSA TAYLOR STATE 27  1H : WELL NAME
STRT.FT                                                  94.0 : START DEPTH
STOP.FT                                               13828.0 : STOP DEPTH
STEP.FT                                                   0.5 : STEP BETWEEN DEPTHS
NULL.                                                 -999.25 : NULL VALUE
COMP.                              CHESAPEAKE OPERATING  INC. : COMPANY 
DATE.                                             29-NOV-2005 : LOG DATE
#___________________________________________________________________________________________________ 
~CURVE INFORMATION 
# MNEM.UNIT           : CURVE DESCRIPTION 
#-----.-----          : ----------------------------- 
 DEPT.FT               : MEASURED DEPTH 
 CALI__B.IN            : CALIPER (CAL - CAL) 
 GR__B.API             : GAMMA RAY (GR) 
 DT__B.US/FT           : SONIC DELTA TRANSIT TIME (DT) 
 DPHI__B.V/V           : DENSITY POROSITY (DPHI) 
 NPHI__B.V/V           : NEUTRON POROSITY (NPHI) 
 RHOB__B.G/CC          : BULK DENSITY (RHOB) 
 #___________________________________________________________________________________________________ 
~A         DEPT        CALI__B          GR__B          DT__B        DPHI__B        NPHI__B        RHOB__B
# ...
        12938.0          8.206        165.451         88.252        0.06957        0.28764         2.6000
        12938.5          8.176        166.167         88.182        0.06699        0.28881         2.6160
        12939.0          7.892        165.950         88.113        0.05630        0.28680         2.6330
        12939.5          7.273        165.698         88.102        0.02615        0.27957         2.6500
        12940.0          6.705        163.616         88.092        0.05655        0.22685         2.6660
        12940.5          6.532        161.581         88.082        0.14273        0.19191         2.6380
        12941.0          6.600        161.391         88.072        0.21639        0.18849         2.5990
        12941.5          6.668        162.872         88.062        0.22891        0.19411         2.4450
        12942.0          6.736        165.153         88.053        0.21073        0.20183         2.5020
        12942.5          6.804        167.656         88.043        0.15514        0.20933         2.5320
        12943.0          6.872        169.516         87.516        0.08917        0.20576         2.5620
        12943.5          6.854        169.684         85.738        0.06243        0.19563         2.5920
        12944.0          6.714        169.357         82.636        0.06494        0.19475         2.6150
        12944.5          6.656        167.651         79.535        0.07156        0.20223         2.5970
        12945.0          6.599        162.275         77.962        0.06963        0.19965         2.6130
        12945.5          6.541        156.286         77.829        0.04532        0.17652         2.6300
        12946.0          6.483        150.281         77.818        0.03506        0.15496         2.6460
        12946.5          6.426        148.160         77.807        0.03554        0.13903         2.6540
        12947.0          6.452        149.090         77.797        0.05445        0.13724         2.6370
        12947.5          6.503        151.243         77.786        0.06787        0.13748         2.6190
        12948.0          6.553        152.976         77.775        0.06667        0.14154         2.6010
        12948.5          6.604        153.278         77.764        0.06431        0.16207         2.6180
        12949.0          6.624        151.855         77.754        0.05139        0.18268         2.6360
        12949.5          6.624        146.928         77.743        0.03384        0.18504         2.6550
        12950.0          6.624        140.816         77.732        0.00755        0.17898         2.6740
        12950.5          6.624        139.670         77.722        0.00068        0.17233         2.6920
        12951.0          6.624        147.357         77.711        0.01708        0.17721         2.6930
        12951.5          6.624        158.236         77.700        0.03381        0.18759         2.6750
        12952.0          6.624        160.390         78.150        0.03928        0.23812         2.6580
        12952.5          6.707        159.758         80.373        0.03928        0.27844         2.6440
        12953.0          6.815        159.218         82.595        0.03913        0.29540         2.6450
        12953.5          6.923        163.022         84.150        0.04193        0.31999         2.6450
        12954.0          7.031        164.566         84.150        0.03867        0.31388         2.6410
        12954.5          7.007        162.249         84.150        0.04509        0.30170         2.6310
        12955.0          6.958        158.933         84.138        0.06086        0.29944         2.6210
        12955.5          6.910        155.616         84.012        0.05598        0.30226         2.6200
        12956.0          6.755        152.699         83.886        0.04319        0.30048         2.6520
        12956.5          6.577        153.455         83.719        0.01357        0.30880         2.6840
        12957.0          6.399        154.906         83.373        0.00603        0.32146         2.6970
        12957.5          6.401        156.708         83.026        0.02109        0.32261         2.6870
        12958.0          6.418        158.509         83.308        0.02327        0.32183         2.6770
        12958.5          6.434        159.305         83.695        0.01687        0.32102         2.6730
        12959.0          6.451        159.857         84.082        0.00230        0.32002         2.6960
        12959.5          6.467        155.992         84.468        0.01794        0.31901         2.6940
        12960.0          6.484        153.866         84.874        0.04040        0.29989         2.6690
        12960.5          6.500        154.097         85.299        0.05555        0.27910         2.6450
        12961.0          6.517        156.903         85.724        0.06460        0.27865         2.6200
        12961.5          6.518        159.709         85.885        0.06762        0.28265         2.6000
        12962.0          6.518        159.831         85.948        0.06995        0.28356         2.5990
        12962.5          6.518        159.364         86.167        0.06668        0.28524         2.5980
        12963.0          6.518        160.164         86.621        0.06441        0.29633         2.5970
        12963.5          6.517        163.001         86.546        0.07190        0.31020         2.5820
        12964.0          6.627        166.317         86.437        0.07446        0.31767         2.5410
        12964.5          6.759        172.635         87.339        0.14802        0.31318         2.4790
        12965.0          7.018        171.363         87.582        0.23335        0.30869         2.3050
        12965.5          7.277        168.206         87.282        0.29426        0.31004         2.2760
        12966.0          7.359        164.846         86.933        0.31792        0.31725         2.2470
        12966.5          7.319        163.572         86.798        0.32530        0.31930         2.2190
        12967.0          7.311        164.329         86.994        0.33629        0.31139         2.1900
        12967.5          7.304        165.086         87.190        0.31974        0.30018         2.2320
        12968.0          7.267        165.843         88.371        0.18593        0.29402         2.3090
        12968.5          7.101        166.600         89.832        0.12991        0.30392         2.5110
        12969.0          6.936        167.369         90.925        0.12281        0.31551         2.4930
        12969.5          6.840        168.211         91.840        0.17421        0.31426         2.4600
        12970.0          7.145        169.053         92.297        0.19616        0.28457         2.4260
        12970.5          7.431        169.894         92.754        0.19666        0.29055         2.3990
        12971.0          7.455        168.744         93.211        0.18050        0.30171         2.4160
        12971.5          7.479        167.410         93.668        0.17796        0.30684         2.4320
        12972.0          7.504        166.076         93.409        0.14684        0.28443         2.4490
        12972.5          7.171        167.479         92.156        0.10749        0.25512         2.4840
        12973.0          6.745        169.314         90.241        0.08139        0.24607         2.5610
        12973.5          6.517        171.149         89.072        0.04971        0.23450         2.6250
        12974.0          6.425        172.128         89.879        0.06264        0.22839         2.5970
        12974.5          6.428        169.776         90.557        0.07584        0.23021         2.5790
        12975.0          6.431        163.778         89.953        0.09056        0.23264         2.5610
        12975.5          6.434        159.040         89.348        0.11008        0.23580         2.5430
