###############################################
##         ENVERUS                           ##
##         ESS - Open Hole                   ##
##         PERMIAN / DELAWARE                ##
##         Nov 02 2023  V4.0                 ##
##         42-109-31391-00-00                ##
###############################################
## Copyright 2017-2023  ENVERUS.  All Rights Reserved. 
## Confidential - Property of ENVERUS, use governed by terms and 
## conditions found within the existing Information Services Subscription Agreement 
## (as may be amended, the “ISSA”) between Customer and ENVERUS. 
## 
~VERSION INFORMATION
# MNEM.UNIT                               DATA : DESCRIPTION OF MNEMONIC
#-----.-----     ----------------------------- : -----------------------------
VERS.                                     2.00 : CWLS LOG ASCII STANDARD - VERSION 2.00
WRAP.                                       NO : MULTIPLE LINES PER DEPTH STEP
VEND.                                  ENVERUS : VENDOR
TYPE.                          ESS - OPEN HOLE : ENVERUS ESSENTIAL CURVES – ACCESSIBLE THROUGH ENVERUS PRISM(TM)
DOC.                                  31999167 : ENVERUS HEADER RAW DOCUMENT ID
#___________________________________________________________________________________________________ 
~WELL INFORMATION 
# BOC9FSWoKCUsCFcWObZ1iTDYvHtSUwfaSl9bEava01AYiR20s/sWwY1hBaxvFz+VJj0aOQNxXrzxY9t5EPBGbg== 
# MNEM.UNIT                                              DATA : DESCRIPTION OF MNEMONIC 
#-----.-----                    ----------------------------- : ----------------------------- 
CNTY.                                               CULBERSON : COUNTY 
STATE.                                                  TEXAS : STATE 
CNTRY.                                                    USA : COUNTRY 
API.                                             42-109-31391 : API (10 Digit) 
API_14.                                    42-109-31391-00-00 : API (14 Digits) 
API_14_std.                                 42-109-31391-0000 : API (14 Digits Standard) 
UWI.                                           42109313910000 : UNIQUE WELL ID 
WELL.                                            TRES ALAS  1 : WELL NAME
STRT.FT                                                     0 : START DEPTH
STOP.FT                                               15494.0 : STOP DEPTH
STEP.FT                                                   0.5 : STEP BETWEEN DEPTHS
NULL.                                                 -999.25 : NULL VALUE
COMP.                           AMERICAN QUASAR PETROLEUM CO. : COMPANY
#___________________________________________________________________________________________________ 
~CURVE INFORMATION 
# MNEM.UNIT           : CURVE DESCRIPTION 
#-----.-----          : ----------------------------- 
 DEPT.FT               : MEASURED DEPTH 
 CALI.IN               : CALIPER (CAL - CAL) 
 GR.API                : GAMMA RAY (GR) 
 DT.US/FT              : SONIC DELTA TRANSIT TIME (DT) 
 #___________________________________________________________________________________________________ 
~A         DEPT           CALI             GR             DT
# ...
        12870.0          9.402         71.435         74.032
        12870.5          9.413         72.546         75.417
        12871.0          9.425         73.658         76.801
        12871.5          9.437         74.769         78.185
        12872.0          9.448         75.441         80.619
        12872.5          9.460         75.318         83.336
        12873.0          9.488         74.451         86.053
        12873.5          9.518         72.365         89.882
        12874.0          9.547         70.280        100.373
        12874.5          9.577         69.031        100.564
        12875.0          9.603         69.331        100.561
        12875.5          9.623         69.631        100.356
        12876.0          9.643         68.324         86.061
        12876.5          9.664         65.926         85.155
        12877.0          9.684         63.529         84.249
        12877.5          9.694         63.443         83.344
        12878.0          9.698         63.454         82.004
        12878.5          9.702         63.591         80.395
        12879.0          9.706         63.920         81.232
        12879.5          9.710         64.249         81.783
        12880.0          9.713         64.843         82.055
        12880.5          9.673         70.131         82.025
        12881.0          9.609         70.967         81.995
        12881.5          9.545         70.193         81.966
        12882.0          9.516         68.790         81.543
        12882.5          9.517         67.387         80.273
        12883.0          9.555         66.269         79.003
        12883.5          9.631         65.676         77.835
        12884.0          9.688         65.547         78.348
        12884.5          9.696         67.761         83.203
        12885.0          9.705         69.975         83.321
        12885.5          9.714         71.921         81.162
        12886.0          9.723         73.179         78.664
        12886.5          9.755         74.437         79.815
        12887.0          9.798         69.928         81.602
        12887.5          9.842         60.387         82.507
        12888.0          9.885         48.758         82.430
        12888.5          9.928         60.387         81.814
        12889.0          9.865       -999.250         81.198
        12889.5          9.790       -999.250         80.692
        12890.0          9.715       -999.250         80.245
        12890.5          9.676       -999.250         80.129
        12891.0          9.733       -999.250         80.152
        12891.5          9.791       -999.250         80.175
        12892.0          9.848       -999.250         80.199
        12892.5          9.890       -999.250         80.175
        12893.0          9.906       -999.250       -999.250
        12893.5          9.922       -999.250       -999.250
        12894.0          9.937       -999.250       -999.250
        12894.5          9.953       -999.250         75.513
        12895.0          9.968       -999.250         79.851
        12895.5          9.984       -999.250         82.231
        12896.0         10.000       -999.250         81.022
        12896.5          9.955         84.604         78.021
        12897.0          9.899         86.928         77.782
        12897.5          9.843         88.419         77.467
        12898.0          9.787         89.302         75.079
        12898.5          9.731         90.185         74.164
        12899.0          9.734         91.068         73.511
        12899.5          9.737         95.333         73.223
        12900.0          9.139         90.537         70.612
        12900.5          8.598         82.376         69.901
        12901.0          8.154         74.214         70.584
        12901.5          8.132         66.053         71.266
        12902.0          8.109         59.535         75.685
        12902.5          8.086         62.507         86.075
        12903.0          8.071         65.479        100.914
        12903.5          8.071         69.061        102.373
        12904.0          8.071         72.388        101.274
        12904.5          8.070         70.857         70.372
        12905.0          8.070         63.486         55.129
        12905.5          8.070         56.115         54.906
        12906.0          8.070         51.799         48.612
        12906.5          8.070         47.947         51.611
        12907.0          8.069         44.538         55.261
        12907.5          8.069         41.483         63.501
        12908.0          8.069         38.662         64.329
        12908.5          8.069         40.178         55.690
        12909.0          8.068         41.694         51.656
        12909.5          8.068         43.209         53.673
        12910.0          8.069         43.203         54.577
        12910.5          8.071         41.146         55.482
        12911.0          8.073         40.556         56.283
        12911.5          8.074         43.195         54.964
        12912.0          8.076         46.513         55.302
        12912.5          8.078         47.905         56.790
        12913.0          8.079         46.400         57.937
        12913.5          8.081         44.241         58.187
        12914.0          8.083         37.688         57.702
        12914.5          8.084         31.529         52.686
        12915.0          8.086         28.875         50.330
        12915.5          8.088         28.849         50.303
        12916.0          8.089         30.154         51.018
        12916.5          8.091         26.339         51.623
        12917.0          8.093         22.262         51.070
        12917.5          8.094         18.186         49.546
        12918.0          8.096         16.747         49.877
        12918.5          8.098         16.138         50.525
        12919.0          8.101         16.706         51.132
        12919.5          8.105         17.274         51.708
        12920.0          8.109         16.557         51.774
        12920.5          8.113         14.486         51.839
        12921.0          8.117         12.415         51.905
        12921.5          8.122         15.194         51.250
        12922.0          8.126         18.501         50.684
        12922.5          8.130         19.905         50.812
        12923.0          8.134         20.178         49.832
        12923.5          8.138         20.804         49.605
        12924.0          8.142         27.589         52.174
        12924.5          8.146         34.375         54.743
        12925.0          8.150         41.160         47.318
        12925.5          8.154         45.505         39.881
        12926.0          8.149         45.926         39.833
        12926.5          8.138         46.346         39.784
        12927.0          8.127         46.766         39.735
        12927.5          8.116         47.005         39.687
        12928.0          8.105         45.533         46.614
        12928.5          8.094         44.060         53.542
        12929.0          8.084         44.942         63.562
        12929.5          8.086         53.847         79.803
        12930.0          8.088         62.752         49.994
        12930.5          8.090         71.224         45.297
        12931.0          8.091         76.821         43.192
        12931.5          8.093         79.414         41.142
        12932.0          8.091         80.814         43.430
        12932.5          8.075         82.214         50.542
        12933.0          8.058         83.615         57.653
        12933.5          8.041         81.042         50.886
        12934.0          8.024         76.937         40.009
        12934.5          8.007         72.831         40.056
        12935.0          8.009         68.725         40.103
        12935.5          8.014         64.620         40.151
