~Version Information
 VERS.                  2.0:   CWLS log ASCII Standard -VERSION 2.0
 WRAP.                   NO:   One line per depth step
~Well Information Block
#MNEM.UNIT     VALUE/NAME     DESCRIPTION
#---------     -----------    ---------------------------
 STRT.F              8683.0000: START DEPTH
 STOP.F             14089.5000: STOP DEPTH
 STEP.F                 0.5000: STEP DEPTH
 NULL.                 -999.25: NULL VALUE
 LOC .       API  42-109-32906:  LOCATION
 FL1 .       API  42-109-32906:  LOCATIONLINE1
 DMF .                      KB:  DRILL MEAS FROM
 PDAT.                      GL:  PERMANENT DATUM
 PROV.                   TEXAS:  PROVINCE
 STAT.                   TEXAS:  STATE NAME
 CNTY.               CULBERSON:  COUNTY NAME
 LUL .                  ODESSA:  LOGGINGUNITLOC
 FLD .     FORD, WEST (WOLFCAMP):  FIELD NAME
 WELL.     SHELLY FEE 40 No. 2H:  WELL NAME
 COMP.     CAPITAN ENERGY, INC.:  COMPANY
 DATE.             08-Jun-2018:  DATE
 SVCO.             Halliburton:  SERVICECONAME
 HIDE.                        :  WELLNAMEOPERAT
 BASI.                   BACIA:  BASIN
 UWI .            42-109-32906Lat:  UNIQUE WELL IDENTIFIER
 API .            42-109-32906Lat:  API NUMBER
 RANG.                     N/A:  RANGE
 TOWN.                     N/A:  TOWNSHIP
 SECT.                     N/A:  SECTION
 SON .               902848974:  JOB NUMBER
 CTRY.                        :  COUNTRY
 SRVC.             Halliburton:  SERVICE COMPANY
 LMF .                      KB:  LOG MEASURED FROM
 BAP .ft                0.0000:  GL ELEV ONSHORE
 GVFD.g                 1.0000:  GRAVITY FIELD
~Curve Information Block
#MNEM.UNIT                 API CODE     Curve Description
#---------               -----------    ---------------------------
 DEPT.F                 00 000 000 000:  Depth
 CCL .mV                00 000 000 000:  Casing Collar Locator
 DTC_CHI.uspf           00 000 000 000:  DTC_CHI
 DTC_OH.uspf            00 000 000 000:  DTC_OH
 GR_CHI.api             00 000 000 000:  GR_CHI
 GR_OH.api              00 000 000 000:  GR_OH
 LLD_CHI.ohmm           00 000 000 000:  LLD_CHI
 LLD_OH.ohmm            00 000 000 000:  LLD_OH
 LLS_CHI.ohmm           00 000 000 000:  LLS_CHI
 LLS_OH.ohmm            00 000 000 000:  LLS_OH
 MSFL_CHI.ohmm          00 000 000 000:  MSFL_CHI
 MSFL_OH.ohmm           00 000 000 000:  MSFL_OH
 NPHI_CHI.pu            00 000 000 000:  NPHI_CHI
 NPHI_OH.pu             00 000 000 000:  NPHI_OH
 PE_CHI.b/e             00 000 000 000:  PE_CHI
 PE_OH.NONE             00 000 000 000:  Pe_OH
 RHOB_CHI.g/cc          00 000 000 000:  RHOB_CHI
 RHOB_OH.g/cc           00 000 000 000:  RHOB_OH
 SPHI_CHI.pu            00 000 000 000:  SPHI_CHI
#Other Information
#
#WARRANTY: Halliburton will use its best efforts to furnish customers with 
#accurate information and interpretations that are part of, and incident to, the services 
#provided.  However, Halliburton cannot and does not warrant the accuracy 
#or correctness of such information and interpretations.  Under no circumstances should any 
#such information or interpretation be relied upon as the sole basis for any drilling, 
#completion, production, or financial decision or any procedure involving any risk to the 
#safety of any drilling venture, drilling rig or its crew or any other third party.  The 
#Customer has full responsibility for all drilling, completion and production operation.  
#Halliburton makes no representations or warranties, either expressed or 
#implied, including, but not limited to, the implied warranties of merchantability or fitness 
#for a particular purpose, with respect to the services rendered.  In no event will 
#Halliburton be liable for failure to obtain any particular results or for 
#any damages, including, but not limited to, indirect, special or consequential damages, 
#resulting from the use of any information or interpretation provided by Halliburton.
#
~A    DEPT       CCL    DTC_CHI DTC_OH   GR_CHI   GR_OH   LLD_CHI   LLD_OH   LLS_CHI   LLS_OH   MSFL_CHI  MSFL_OH     NPHI_CHI   NPHI_OH   PE_CHI    PE_OH   RHOB_CHI  RHOB_OH SPHI_CHI 
# ...
   13325.0000   -0.8669 66.4022 -999.25  84.0738  -999.25  88.1373   -999.25  83.5192   -999.25  41.0555    -999.25      11.1351 -999.25     3.9138 -999.25     2.6000 -999.25 13.3000
   13325.5000   -0.8669 66.2063 -999.25  82.0354  -999.25  86.4848   -999.25  81.5098   -999.25  40.4238    -999.25      11.0274 -999.25     3.8866 -999.25     2.6027 -999.25 13.1600
   13326.0000   -0.8669 66.0592 -999.25  81.9590  -999.25  83.8658   -999.25  78.5496   -999.25  39.4219    -999.25      11.0022 -999.25     3.8476 -999.25     2.6038 -999.25 13.0500
   13326.5000   -0.8669 65.9279 -999.25  81.4102  -999.25  81.8007   -999.25  76.2094   -999.25  38.6014    -999.25      10.9676 -999.25     3.8140 -999.25     2.6049 -999.25 12.9600
   13327.0000   -0.8669 65.9425 -999.25  82.5005  -999.25  82.0529   -999.25  76.4036   -999.25  38.6331    -999.25      10.9333 -999.25     3.8138 -999.25     2.6045 -999.25 12.9700
   13327.5000   -0.8669 65.8949 -999.25  84.9475  -999.25  81.4078   -999.25  75.5696   -999.25  38.3873    -999.25      10.8834 -999.25     3.8083 -999.25     2.6048 -999.25 12.9400
   13328.0000   -0.8669 65.8529 -999.25  86.9158  -999.25  80.8294   -999.25  74.8369   -999.25  38.1702    -999.25      10.8443 -999.25     3.8034 -999.25     2.6051 -999.25 12.9100
   13328.5000   -0.8669 65.8106 -999.25  86.6504  -999.25  79.9917   -999.25  73.9479   -999.25  37.8792    -999.25      10.8616 -999.25     3.7930 -999.25     2.6054 -999.25 12.8800
   13329.0000   -0.8669 65.3113 -999.25  78.5510  -999.25  81.0107   -999.25  74.5880   -999.25  38.4920    -999.25      10.4095 -999.25     3.8256 -999.25     2.6167 -999.25 12.5300
   13329.5000   -0.8669 65.5437 -999.25  81.1006  -999.25  80.8227   -999.25  74.5706   -999.25  38.2267    -999.25      10.5890 -999.25     3.8054 -999.25     2.6115 -999.25 12.6900
   13330.0000   -0.8669 65.6267 -999.25  77.9138  -999.25  81.3882   -999.25  75.2888   -999.25  38.2589    -999.25      10.6297 -999.25     3.7933 -999.25     2.6101 -999.25 12.7500
   13330.5000   -0.8669 65.6259 -999.25  76.3907  -999.25  79.8652   -999.25  73.7639   -999.25  37.5822    -999.25      10.6943 -999.25     3.7613 -999.25     2.6091 -999.25 12.7500
   13331.0000   -0.8669 65.1801 -999.25  74.3898  -999.25  75.6336   -999.25  69.0268   -999.25  36.1323    -999.25      10.5385 -999.25     3.7187 -999.25     2.6153 -999.25 12.4300
   13331.5000   -0.8669 65.3322 -999.25  83.1725  -999.25  71.7090   -999.25  65.0476   -999.25  34.6830    -999.25      10.9290 -999.25     3.6651 -999.25     2.6089 -999.25 12.5400
   13332.0000   -0.8669 64.6840 -999.25  74.4302  -999.25  74.3557   -999.25  67.3437   -999.25  36.2369    -999.25      10.3049 -999.25     3.7585 -999.25     2.6253 -999.25 12.0800
   13332.5000   -0.8669 65.0556 -999.25  84.2280  -999.25  75.2178   -999.25  68.3906   -999.25  36.5942    -999.25      10.5308 -999.25     3.7772 -999.25     2.6182 -999.25 12.3400
   13333.0000   -0.8669 65.1391 -999.25  85.0786  -999.25  76.9942   -999.25  70.2876   -999.25  37.3317    -999.25      10.4902 -999.25     3.8099 -999.25     2.6180 -999.25 12.4000
   13333.5000   -0.8669 64.9169 -999.25  80.4016  -999.25  77.6749   -999.25  70.8203   -999.25  37.6478    -999.25      10.2727 -999.25     3.8231 -999.25     2.6232 -999.25 12.2500
   13334.0000   -0.8669 65.1225 -999.25  82.9792  -999.25  76.8957   -999.25  70.1688   -999.25  37.1734    -999.25      10.4789 -999.25     3.7947 -999.25     2.6180 -999.25 12.3900
   13334.5000   -0.8669 65.3654 -999.25  85.9797  -999.25  75.9228   -999.25  69.4194   -999.25  36.7259    -999.25      10.7702 -999.25     3.7715 -999.25     2.6122 -999.25 12.5600
   13335.0000   -0.8669 65.8706 -999.25  93.9526  -999.25  74.9438   -999.25  68.7184   -999.25  36.0450    -999.25      11.2350 -999.25     3.7297 -999.25     2.6003 -999.25 12.9200
   13335.5000   -0.8669 65.8153 -999.25  87.2506  -999.25  76.8938   -999.25  70.8698   -999.25  36.8022    -999.25      11.1086 -999.25     3.7532 -999.25     2.6034 -999.25 12.8800
   13336.0000   -0.8669 65.8728 -999.25  83.4427  -999.25  77.4860   -999.25  71.6460   -999.25  36.9268    -999.25      11.1413 -999.25     3.7475 -999.25     2.6028 -999.25 12.9200
   13336.5000   -0.8669 65.9858 -999.25  86.1118  -999.25  75.6872   -999.25  69.8585   -999.25  36.1761    -999.25      11.3429 -999.25     3.7141 -999.25     2.5990 -999.25 13.0000
   13337.0000   -0.8669 65.6310 -999.25  81.7890  -999.25  74.1581   -999.25  68.0501   -999.25  35.7657    -999.25      11.1614 -999.25     3.7065 -999.25     2.6055 -999.25 12.7500
   13337.5000   -0.8669 65.5777 -999.25  83.9594  -999.25  73.6827   -999.25  67.4489   -999.25  35.6556    -999.25      11.1441 -999.25     3.7085 -999.25     2.6061 -999.25 12.7100
   13338.0000   -0.8669 65.4666 -999.25  86.1978  -999.25  73.5111   -999.25  67.0351   -999.25  35.6030    -999.25      11.0079 -999.25     3.7127 -999.25     2.6079 -999.25 12.6400
   13338.5000   -0.8669 65.2889 -999.25  86.1616  -999.25  74.2917   -999.25  67.5241   -999.25  35.8490    -999.25      10.7185 -999.25     3.7258 -999.25     2.6117 -999.25 12.5100
   13339.0000   -0.8669 65.1526 -999.25  87.8552  -999.25  73.8147   -999.25  66.7351   -999.25  35.5722    -999.25      10.5427 -999.25     3.7162 -999.25     2.6135 -999.25 12.4100
   13339.5000   -0.8669 64.8459 -999.25  86.0176  -999.25  73.8425   -999.25  66.3859   -999.25  35.5817    -999.25      10.2134 -999.25     3.7221 -999.25     2.6194 -999.25 12.2000
   13340.0000   -0.8669 64.4323 -999.25  81.6859  -999.25  74.2448   -999.25  66.4672   -999.25  35.9798    -999.25       9.8559 -999.25     3.7538 -999.25     2.6285 -999.25 11.9000
   13340.5000   -0.8669 64.4927 -999.25  86.0507  -999.25  74.1631   -999.25  66.3486   -999.25  36.0229    -999.25       9.8843 -999.25     3.7627 -999.25     2.6272 -999.25 11.9500
   13341.0000   -0.8669 64.3580 -999.25  82.8742  -999.25  75.3283   -999.25  67.6185   -999.25  36.8666    -999.25       9.7886 -999.25     3.8142 -999.25     2.6323 -999.25 11.8500
   13341.5000   -0.8669 64.5903 -999.25  85.6512  -999.25  75.0951   -999.25  67.7216   -999.25  36.9128    -999.25      10.0572 -999.25     3.8220 -999.25     2.6281 -999.25 12.0200
   13342.0000   -0.8669 64.2593 -999.25  78.4358  -999.25  75.1615   -999.25  67.7596   -999.25  37.2880    -999.25       9.8791 -999.25     3.8526 -999.25     2.6362 -999.25 11.7800
   13342.5000   -0.8669 64.2787 -999.25  79.4574  -999.25  72.8502   -999.25  65.5042   -999.25  36.4082    -999.25      10.0940 -999.25     3.8188 -999.25     2.6341 -999.25 11.8000
   13343.0000   -0.8669 64.5209 -999.25  87.7859  -999.25  70.3716   -999.25  63.0001   -999.25  35.2486    -999.25      10.4227 -999.25     3.7658 -999.25     2.6262 -999.25 11.9700
   13343.5000   -0.8669 64.2217 -999.25  83.2093  -999.25  71.2143   -999.25  63.6094   -999.25  35.6350    -999.25      10.0758 -999.25     3.7869 -999.25     2.6332 -999.25 11.7600
   13344.0000   -0.8669 64.1308 -999.25  80.5987  -999.25  73.7523   -999.25  66.0331   -999.25  36.6070    -999.25       9.7776 -999.25     3.8245 -999.25     2.6370 -999.25 11.6900
   13344.5000   -0.8669 63.9431 -999.25  72.3302  -999.25  77.6778   -999.25  69.8976   -999.25  38.1960    -999.25       9.4258 -999.25     3.8832 -999.25     2.6438 -999.25 11.5600
   13345.0000   -0.8669 64.9371 -999.25  83.3947  -999.25  79.1078   -999.25  72.3386   -999.25  38.4785    -999.25      10.1962 -999.25     3.8754 -999.25     2.6246 -999.25 12.2600
   13345.5000   -0.8669 65.3615 -999.25  82.8414  -999.25  80.6828   -999.25  74.6126   -999.25  39.0057    -999.25      10.5837 -999.25     3.8840 -999.25     2.6173 -999.25 12.5600
   13346.0000   -0.8669 65.7038 -999.25  84.0798  -999.25  79.6671   -999.25  74.1235   -999.25  38.6063    -999.25      11.0491 -999.25     3.8627 -999.25     2.6099 -999.25 12.8000
   13346.5000   -0.8669 65.5566 -999.25  83.4274  -999.25  76.7133   -999.25  71.0673   -999.25  37.7196    -999.25      11.1869 -999.25     3.8391 -999.25     2.6114 -999.25 12.7000
