###############################################
##         ENVERUS                           ##
##         ESS - Open Hole                   ##
##         PERMIAN / DELAWARE                ##
##         Nov 03 2023  V4.0                 ##
##         42-109-32709-00-00                ##
###############################################
## Copyright 2017-2023  ENVERUS.  All Rights Reserved. 
## Confidential - Property of ENVERUS, use governed by terms and 
## conditions found within the existing Information Services Subscription Agreement 
## (as may be amended, the “ISSA”) between Customer and ENVERUS. 
## 
~VERSION INFORMATION
# MNEM.UNIT                               DATA : DESCRIPTION OF MNEMONIC
#-----.-----     ----------------------------- : -----------------------------
VERS.                                     2.00 : CWLS LOG ASCII STANDARD - VERSION 2.00
WRAP.                                       NO : MULTIPLE LINES PER DEPTH STEP
VEND.                                  ENVERUS : VENDOR
TYPE.                          ESS - OPEN HOLE : ENVERUS ESSENTIAL CURVES – ACCESSIBLE THROUGH ENVERUS PRISM(TM)
DOC.                                  32116645 : ENVERUS HEADER RAW DOCUMENT ID
#___________________________________________________________________________________________________ 
~WELL INFORMATION 
# 8SOIrMNgLSTosdYTMQVb7KPebVRgGb4NQOaGG3/cpRvPeoxWQd7So5pZ7XPWbXIrV4d26no2f3ffGwkTWQV8GA== 
# MNEM.UNIT                                              DATA : DESCRIPTION OF MNEMONIC 
#-----.-----                    ----------------------------- : ----------------------------- 
CNTY.                                               CULBERSON : COUNTY 
STATE.                                                  TEXAS : STATE 
CNTRY.                                                    USA : COUNTRY 
API.                                             42-109-32709 : API (10 Digit) 
API_14.                                    42-109-32709-00-00 : API (14 Digits) 
API_14_std.                                 42-109-32709-0000 : API (14 Digits Standard) 
UWI.                                           42109327090000 : UNIQUE WELL ID 
WELL.                                    42109327090000_API14 : WELL NAME
STRT.FT                                                  26.5 : START DEPTH
STOP.FT                                                5244.0 : STOP DEPTH
STEP.FT                                                   0.5 : STEP BETWEEN DEPTHS
NULL.                                                 -999.25 : NULL VALUE
#___________________________________________________________________________________________________ 
~PARAMETER INFORMATION 
# MNEM.UNIT                                              DATA : DESCRIPTION OF MNEMONIC 
#-----.-----                    ----------------------------- : ----------------------------- 
EKB.FT                                                   3124 : ELEVATION ABOVE MSL
#___________________________________________________________________________________________________ 
~CURVE INFORMATION 
# MNEM.UNIT           : CURVE DESCRIPTION 
#-----.-----          : ----------------------------- 
 DEPT.FT               : MEASURED DEPTH 
 CALI.IN               : CALIPER (CAL - CALIPER) 
 GR.API                : GAMMA RAY (GAMMA RAY) 
 DT.US/FT              : SONIC DELTA TRANSIT TIME (SONIC) 
 PE.B/E                : PHOTOELECTRIC EFFECT/FACTOR (PHOTOELECTRIC FACTOR) 
 RESS.OHMM             : SHALLOW INDUCTION RESISTIVITY (ILS - SHALLOW RESISTIVITY) 
 RESS_LL.OHMM          : SHALLOW LATEROLOG (LLS - SHALLOW RESISTIVITY) 
 RESD_LL.OHMM          : DEEP LATEROLOG (LLD - DEEP RESISTIVITY) 
 DPHI.V/V              : DENSITY POROSITY (DENSITY POROSITY) 
 NPHI.V/V              : NEUTRON POROSITY (NEUTRON POROSITY) 
 RHOB.G/CC             : BULK DENSITY (DENSITY) 
 #___________________________________________________________________________________________________ 
~A         DEPT           CALI             GR             DT             PE           RESS        RESS_LL        RESD_LL           DPHI           NPHI           RHOB
# ...
         4534.5          7.711        100.261        319.495         2.6627          5.164         7.1659         6.3896        0.11996        0.13352         2.5198
         4535.0          7.680        100.653        327.297         2.6367          6.398         8.1877         9.6864        0.11343        0.13353         2.5300
         4535.5          7.680         96.283        326.249         2.5838          6.985        10.2503        12.6053        0.10865        0.13254         2.5367
         4536.0          7.660         89.010        319.050         2.5838          9.961        11.2826        14.1589        0.10574        0.12537         2.5405
         4536.5          7.660         88.292        322.100         2.6139         13.907        11.9266        14.8346        0.10434        0.11621         2.5406
         4537.0          7.640         92.048        337.561         2.6744         11.507        12.9325        16.1967        0.10823        0.11451         2.5323
         4537.5          7.624         97.106        341.649         2.7219          8.274        13.1483        17.4809        0.11675        0.11737         2.5197
         4538.0          7.583        108.479        326.299         2.7219          9.054        13.3496        18.8326        0.12213        0.10997         2.5126
         4538.5          7.601        124.610        316.187         2.7219         12.016        17.1234        25.2292        0.12304        0.10986         2.5151
         4539.0          7.601        144.251        313.466         2.7586         19.921        28.5077        39.1768        0.11676        0.11614         2.5264
         4539.5          7.581        169.362        314.018         2.8205         38.468        34.0098        56.2130        0.10841        0.11607         2.5372
         4540.0          7.581        207.937        315.314         2.8008         60.861        67.4428        79.2019        0.10434        0.11302         2.5436
         4540.5          7.581        252.473        316.639         2.7429         82.455       100.6231       162.4367        0.10201        0.12588         2.5429
         4541.0          7.581        277.373        318.486         2.8429         90.435       189.1559       222.0214        0.10821        0.14624         2.5308
         4541.5          7.542        272.094        319.028         2.8600         68.072       315.0023       517.1923        0.11665        0.16431         2.5186
         4542.0          7.542        246.285        319.501         2.8546         74.016      1018.7903      1323.6211        0.12205        0.16827         2.5123
         4542.5          7.542        219.962        319.501         2.8402        217.130      1041.3973      1281.0636        0.12301        0.16614         2.5155
         4543.0          7.561        211.097        318.871         2.8520        351.607       965.3696       806.4047        0.11459        0.17760         2.5313
         4543.5          7.633        210.514        318.591         2.8205        247.924       657.7483       499.0894        0.10487        0.16499         2.5435
         4544.0          7.640        194.012        317.674         2.8205         98.065       153.7363        25.5380        0.10118        0.16022         2.5464
         4544.5          7.697        153.734        317.674         2.8797         16.741        50.1150         7.2057        0.10301        0.17185         2.5386
         4545.0          7.700        116.723        315.474         2.8037          4.233         1.9124         4.9741        0.11852        0.17192         2.5028
         4545.5          7.739         95.446        312.358         2.5965          3.280         1.7490         2.2826        0.15252        0.17302         2.4477
         4546.0          7.739         85.987        316.232         2.4298          3.291         2.0003         2.6878        0.17538        0.17555         2.4292
         4546.5          7.740         79.187        330.074         2.4828          5.469         2.7711         4.0570        0.17274        0.14547         2.4505
         4547.0          7.781         76.771        339.129         2.6020         14.163         2.9016         7.8487        0.12697        0.09716         2.5313
         4547.5          7.802         84.373        336.644         2.7915         16.968         3.0383         7.0310        0.07824        0.08185         2.5887
         4548.0          7.838         94.967        326.568         2.8994          5.457         3.1814         6.4821        0.07386        0.07283         2.5957
         4548.5          7.884         99.478        315.922         2.7978          3.403         3.4783         5.9759        0.11462        0.09202         2.5977
         4549.0          7.917         98.573        315.063         2.6464          4.412         4.5809         5.5093        0.14037        0.12693         2.4777
         4549.5          7.917         93.844        315.223         2.5388          4.073         5.1270         4.9617        0.14615        0.13533         2.4742
         4550.0          7.937         89.718        314.159         2.5177          1.810         4.8524         4.4775        0.14755        0.14077         2.4691
         4550.5          7.937         85.770        313.757         2.4375          1.995         4.5103         4.2867        0.14852        0.13646         2.4656
         4551.0          7.957         86.640        313.496         2.3866          3.329         4.6344         4.3997        0.14911        0.13717         2.4703
         4551.5          7.996         87.729        313.496         2.3669          4.181         5.5182         4.8832        0.14162        0.12376         2.4917
         4552.0          8.012         86.162        312.974         2.5098          4.544         5.7102         7.8370        0.12183        0.11681         2.5229
         4552.5          8.055         89.101        312.974         2.7158          4.126         6.3348         7.5819        0.10997        0.11748         2.5334
         4553.0          8.055         93.568        313.473         2.7613          4.293         6.5011         7.4798        0.10907        0.12249         2.5355
         4553.5          8.075         92.832        314.279         2.7450          3.788         6.7245         7.4988        0.10789        0.12597         2.5342
         4554.0          8.077         91.277        314.556         2.6648          3.477         6.4845         7.2698        0.11061        0.14211         2.5331
         4554.5          8.098         98.566        315.063         2.6240          3.311         6.2532         6.9428        0.10813        0.14967         2.5386
         4555.0          8.115        105.043        315.324         2.6233          3.325         6.0851         6.7520        0.10356        0.13645         2.5387
         4555.5          8.134        106.247        315.324         2.6036          3.263         6.0300         6.7625        0.11007        0.13694         2.5277
         4556.0          8.134        108.486        315.230         2.5444          3.404         6.1406         7.0170        0.12034        0.13659         2.5121
         4556.5          8.134        105.848        314.427         2.5247          3.756         6.2105         7.1011        0.12839        0.13520         2.5049
         4557.0          8.134         91.617        314.673         2.5700          4.043         5.8338         7.1011        0.12767        0.13284         2.5082
         4557.5          8.134         75.619        319.568         2.5838          4.367         6.3112         7.7610        0.12446        0.12288         2.5103
         4558.0          8.134         68.930        333.053         2.5838          6.893         6.6034         8.1346        0.12682        0.12346         2.5097
         4558.5          8.134         70.679        338.081         2.6135          8.212         6.5421         8.3624        0.11833        0.10935         2.5153
