~Version Information
 VERS.                  2.0:   CWLS log ASCII Standard -VERSION 2.0
 WRAP.                   NO:   One line per depth step
~Well Information Block
#MNEM.UNIT     VALUE/NAME     DESCRIPTION
#---------     -----------    ---------------------------
 STRT.F              8400.0000: START DEPTH
 STOP.F             14661.0000: STOP DEPTH
 STEP.F                 0.5000: STEP DEPTH
 NULL.                 -999.25: NULL VALUE
 LOC .            42-109-33545:  LOCATION
 FL1 .            42-109-33545:  LOCATIONLINE1
 DMF .             Drill Floor:  DRILL MEAS FROM
 PDAT.                      GL:  PERMANENT DATUM
 CNTY.               CULBERSON:  COUNTY NAME
 FLD .              WOLFCAMP B:  FIELD NAME
 WELL.           DALE STATE 3H:  WELL NAME
 COMP.     CAPITAN ENERGY INC.:  COMPANY
 DATE.             12-Feb-2020:  DATE
 SVCO.             Halliburton:  SERVICECONAME
 PROV.                      TX:  PROVINCE
 STAT.                      TX:  STATE NAME
 HIDE.                        :  WELLNAMEOPERAT
 BASI.                 PERMIAN:  BASIN
 UWI .            42-109-33545:  UNIQUE WELL IDENTIFIER
 API .            42-109-33545:  API NUMBER
 RANG.                     N/A:  RANGE
 TOWN.                     N/A:  TOWNSHIP
 SECT.                     N/A:  SECTION
 SON .               906290460:  JOB NUMBER
 CTRY.                        :  COUNTRY
 SRVC.             Halliburton:  SERVICE COMPANY
 LMF .             Drill Floor:  LOG MEASURED FROM
 TVDS.ft             3291.0000:  TVDSS CORRECTN
 EGL .ft             3266.0000:  GROUND ELEVATION
 APD .ft               25.0000:  DEPTH ABOVE PD
 EPD .ft             3266.0000:  ELEVATION
 BAP .ft                0.0000:  GL ELEV ONSHORE
 GVFD.g                 1.0000:  GRAVITY FIELD
 EKB .ft             3291.0000:  KB ELEVATION
 EDF .ft             3291.0000:  DF ELEVATION
~Curve Information Block
#MNEM.UNIT                 API CODE     Curve Description
#---------               -----------    ---------------------------
 DEPT.F                 00 000 000 000:  Depth
 CCL .V                 00 000 000 000:  Casing Collar Locator
 NPHI_OH.pu             00 000 000 000:  NPHI_OH
 NPHI_CHI.decp          00 000 000 000:  NPHI_CHI
 GR_OH.api              00 000 000 000:  GR_OH
 GR_CHI.api             00 000 000 000:  GR_CHI
 RHOB_OH.g/cc           00 000 000 000:  RHOB_OH
 RHOB_CHI.g/cc          00 000 000 000:  RHOB_CHI
 PE_OH.NONE             00 000 000 000:  PE_OH
 PE_CHI.NONE            00 000 000 000:  PE_CHI
 LLS_CHI.ohmm           00 000 000 000:  LLS_CHI
 LLS_OH.ohmm            00 000 000 000:  LLS_OH
 LLD_OH.ohmm            00 000 000 000:  LLD_OH
 LLD_CHI.ohmm           00 000 000 000:  LLD_CHI
 DTC_OH.uspf            00 000 000 000:  DTC_OH
 DTC_CHI.uspf           00 000 000 000:  DTC_CHI
 SPHW_CHI.decp          00 000 000 000:  SPHW_CHI
#Other Information
#
#WARRANTY: Halliburton will use its best efforts to furnish customers with 
#accurate information and interpretations that are part of, and incident to, the services 
#provided.  However, Halliburton cannot and does not warrant the accuracy 
#or correctness of such information and interpretations.  Under no circumstances should any 
#such information or interpretation be relied upon as the sole basis for any drilling, 
#completion, production, or financial decision or any procedure involving any risk to the 
#safety of any drilling venture, drilling rig or its crew or any other third party.  The 
#Customer has full responsibility for all drilling, completion and production operation.  
#Halliburton makes no representations or warranties, either expressed or 
#implied, including, but not limited to, the implied warranties of merchantability or fitness 
#for a particular purpose, with respect to the services rendered.  In no event will 
#Halliburton be liable for failure to obtain any particular results or for 
#any damages, including, but not limited to, indirect, special or consequential damages, 
#resulting from the use of any information or interpretation provided by Halliburton.
#
~A    DEPT      CCL   NPHI_OH NPHI_CHI  GR_OH    GR_CHI  RHOB_OH RHOB_CHI  PE_OH  PE_CHI  LLS_CHI   LLS_OH    LLD_OH    LLD_CHI  DTC_OH  DTC_CHI SPHW_CHI 
# ...
   13382.0000  0.0263 -999.25   0.1256  -999.25  86.8564 -999.25   2.5620 -999.25 3.3350   87.8252   -999.25   -999.25  103.2154 -999.25 70.9246 0.1650
   13382.5000  0.0000 -999.25   0.1220  -999.25  92.1035 -999.25   2.5638 -999.25 3.3967   94.5613   -999.25   -999.25  110.7352 -999.25 71.0564 0.1659
   13383.0000  0.0000 -999.25   0.1146  -999.25  79.8393 -999.25   2.5710 -999.25 3.4917   94.3752   -999.25   -999.25  110.9820 -999.25 70.0257 0.1586
   13383.5000  0.0000 -999.25   0.1091  -999.25  71.6443 -999.25   2.5774 -999.25 3.5662   94.4551   -999.25   -999.25  111.9775 -999.25 69.1876 0.1527
   13384.0000 -0.0212 -999.25   0.1073  -999.25  75.2337 -999.25   2.5810 -999.25 3.5910   96.8515   -999.25   -999.25  115.6520 -999.25 69.2726 0.1533
   13384.5000  0.0000 -999.25   0.1053  -999.25  70.0090 -999.25   2.5852 -999.25 3.6195   98.5437   -999.25   -999.25  119.0506 -999.25 68.5737 0.1483
   13385.0000 -0.0199 -999.25   0.1062  -999.25  78.0380 -999.25   2.5847 -999.25 3.6185  103.9180   -999.25   -999.25  125.5888 -999.25 68.8975 0.1506
   13385.5000  0.0126 -999.25   0.1039  -999.25  67.9811 -999.25   2.5865 -999.25 3.6520  106.0142   -999.25   -999.25  129.0362 -999.25 68.0501 0.1446
   13386.0000  0.0603 -999.25   0.1046  -999.25  69.8737 -999.25   2.5830 -999.25 3.6672  113.1061   -999.25   -999.25  136.7169 -999.25 68.3090 0.1465
   13386.5000  0.0291 -999.25   0.1049  -999.25  73.9206 -999.25   2.5806 -999.25 3.6819  118.3602   -999.25   -999.25  142.2334 -999.25 68.7132 0.1493
   13387.0000  0.0000 -999.25   0.1036  -999.25  73.2547 -999.25   2.5814 -999.25 3.7139  122.7066   -999.25   -999.25  147.7522 -999.25 68.6585 0.1489
   13387.5000  0.0124 -999.25   0.1015  -999.25  65.2468 -999.25   2.5830 -999.25 3.7655  127.7381   -999.25   -999.25  154.9731 -999.25 67.9386 0.1438
   13388.0000  0.0000 -999.25   0.1019  -999.25  75.6338 -999.25   2.5818 -999.25 3.7840  136.8364   -999.25   -999.25  164.8352 -999.25 68.9377 0.1509
   13388.5000  0.0169 -999.25   0.1016  -999.25  77.5446 -999.25   2.5801 -999.25 3.8370  150.3017   -999.25   -999.25  180.2874 -999.25 69.1522 0.1524
   13389.0000  0.0000 -999.25   0.1012  -999.25  72.3208 -999.25   2.5775 -999.25 3.9210  169.6535   -999.25   -999.25  203.2196 -999.25 68.6389 0.1488
   13389.5000 -0.0153 -999.25   0.0990  -999.25  76.9018 -999.25   2.5793 -999.25 3.9942  182.4769   -999.25   -999.25  217.7156 -999.25 69.3205 0.1536
   13390.0000  0.0376 -999.25   0.0943  -999.25  71.6119 -999.25   2.5859 -999.25 4.0719  186.3418   -999.25   -999.25  224.6322 -999.25 69.3043 0.1535
   13390.5000 -0.0550 -999.25   0.0876  -999.25  63.0997 -999.25   2.5974 -999.25 4.1324  178.9328   -999.25   -999.25  220.3846 -999.25 68.6514 0.1489
   13391.0000  0.0000 -999.25   0.0822  -999.25  54.4866 -999.25   2.6076 -999.25 4.1512  166.2759   -999.25   -999.25  209.1912 -999.25 66.9972 0.1372
   13391.5000  0.0269 -999.25   0.0809  -999.25  52.4023 -999.25   2.6115 -999.25 4.1244  155.8864   -999.25   -999.25  197.4308 -999.25 65.8483 0.1291
   13392.0000 -0.0604 -999.25   0.0807  -999.25  52.3852 -999.25   2.6135 -999.25 4.0873  143.8850   -999.25   -999.25  182.3223 -999.25 65.1376 0.1240
   13392.5000  0.0000 -999.25   0.0806  -999.25  52.0810 -999.25   2.6150 -999.25 4.0548  132.2035   -999.25   -999.25  167.2156 -999.25 64.5769 0.1201
   13393.0000 -0.0210 -999.25   0.0799  -999.25  53.0307 -999.25   2.6179 -999.25 4.0351  120.3970   -999.25   -999.25  152.1301 -999.25 64.4333 0.1190
   13393.5000  0.0143 -999.25   0.0804  -999.25  54.7020 -999.25   2.6192 -999.25 4.0129  111.7624   -999.25   -999.25  140.7240 -999.25 65.0901 0.1237
   13394.0000  0.0000 -999.25   0.0833  -999.25  56.2529 -999.25   2.6174 -999.25 3.9752  106.7277   -999.25   -999.25  133.6239 -999.25 66.7525 0.1354
   13394.5000  0.0000 -999.25   0.0878  -999.25  60.3116 -999.25   2.6134 -999.25 3.9138   99.6670   -999.25   -999.25  123.5070 -999.25 68.6582 0.1489
   13395.0000 -0.0479 -999.25   0.0925  -999.25  61.2052 -999.25   2.6094 -999.25 3.8433   90.8030   -999.25   -999.25  111.5721 -999.25 70.0560 0.1588
   13395.5000  0.0383 -999.25   0.0986  -999.25  66.2104 -999.25   2.6038 -999.25 3.7248   77.9230   -999.25   -999.25   94.9080 -999.25 70.9746 0.1653
   13396.0000 -0.0178 -999.25   0.1095  -999.25  81.7082 -999.25   2.5921 -999.25 3.5551   68.8675   -999.25   -999.25   82.8172 -999.25 72.4067 0.1754
   13396.5000  0.0123 -999.25   0.1169  -999.25  77.7842 -999.25   2.5862 -999.25 3.3787   52.7203   -999.25   -999.25   63.2731 -999.25 72.3818 0.1753
   13397.0000  0.0177 -999.25   0.1205  -999.25  72.5708 -999.25   2.5847 -999.25 3.2528   40.5712   -999.25   -999.25   48.7212 -999.25 72.4079 0.1754
   13397.5000 -0.0296 -999.25   0.1285  -999.25  91.3672 -999.25   2.5761 -999.25 3.1509   37.8261   -999.25   -999.25   45.4159 -999.25 73.4767 0.1830
   13398.0000  0.0000 -999.25   0.1315  -999.25  98.1955 -999.25   2.5742 -999.25 3.1002   34.2107   -999.25   -999.25   41.2725 -999.25 73.7840 0.1852
   13398.5000  0.0000 -999.25   0.1292  -999.25  86.1853 -999.25   2.5801 -999.25 3.0943   29.2144   -999.25   -999.25   35.3921 -999.25 73.3748 0.1823
   13399.0000  0.0345 -999.25   0.1304  -999.25  84.8749 -999.25   2.5805 -999.25 3.1096   29.2145   -999.25   -999.25   35.4038 -999.25 73.4714 0.1830
   13399.5000 -0.0208 -999.25   0.1288  -999.25  81.0762 -999.25   2.5840 -999.25 3.1390   28.7099   -999.25   -999.25   34.8317 -999.25 73.5065 0.1832
   13400.0000  0.0000 -999.25   0.1318  -999.25  89.7804 -999.25   2.5802 -999.25 3.1488   31.1409   -999.25   -999.25   37.6879 -999.25 74.0575 0.1871
   13400.5000  0.0000 -999.25   0.1363  -999.25  97.2477 -999.25   2.5738 -999.25 3.1416   34.5307   -999.25   -999.25   41.5834 -999.25 74.5125 0.1903
   13401.0000 -0.0379 -999.25   0.1332  -999.25  75.7930 -999.25   2.5788 -999.25 3.1220   29.8353   -999.25   -999.25   35.7300 -999.25 74.1536 0.1878
   13401.5000  0.0000 -999.25   0.1371  -999.25  76.5746 -999.25   2.5739 -999.25 3.0962   30.5324   -999.25   -999.25   36.4079 -999.25 74.3263 0.1890
   13402.0000  0.0195 -999.25   0.1393  -999.25  78.1837 -999.25   2.5711 -999.25 3.0716   30.3230   -999.25   -999.25   36.1362 -999.25 74.3546 0.1892
   13402.5000  0.0000 -999.25   0.1402  -999.25  77.9532 -999.25   2.5696 -999.25 3.0500   29.7024   -999.25   -999.25   35.3967 -999.25 74.2804 0.1887
   13403.0000  0.0112 -999.25   0.1446  -999.25  87.6097 -999.25   2.5621 -999.25 3.0332   33.4871   -999.25   -999.25   39.7983 -999.25 74.5555 0.1906
   13403.5000  0.0000 -999.25   0.1453  -999.25  85.9823 -999.25   2.5593 -999.25 3.0310   36.2816   -999.25   -999.25   42.8918 -999.25 74.4960 0.1902
   13404.0000  0.0000 -999.25   0.1449  -999.25  82.1598 -999.25   2.5587 -999.25 3.0421   38.6323   -999.25   -999.25   45.5215 -999.25 74.1701 0.1879
   13404.5000  0.0271 -999.25   0.1474  -999.25  93.4546 -999.25   2.5534 -999.25 3.0519   45.1397   -999.25   -999.25   53.1243 -999.25 74.5213 0.1904
   13405.0000  0.0209 -999.25   0.1406  -999.25  75.7115 -999.25   2.5620 -999.25 3.0666   39.9855   -999.25   -999.25   47.0911 -999.25 73.6066 0.1839
   13405.5000  0.0000 -999.25   0.1364  -999.25  69.6735 -999.25   2.5662 -999.25 3.0671   37.5082   -999.25   -999.25   44.2257 -999.25 73.2899 0.1817
   13406.0000  0.0000 -999.25   0.1331  -999.25  71.2262 -999.25   2.5694 -999.25 3.0692   35.9033   -999.25   -999.25   42.5137 -999.25 73.0306 0.1798
   13406.5000  0.0178 -999.25   0.1314  -999.25  75.2513 -999.25   2.5716 -999.25 3.0772   35.2465   -999.25   -999.25   42.0142 -999.25 72.8405 0.1785
   13407.0000  0.0000 -999.25   0.1321  -999.25  83.9749 -999.25   2.5706 -999.25 3.0917   37.4522   -999.25   -999.25   44.8049 -999.25 72.9044 0.1790
   13407.5000  0.0000 -999.25   0.1312  -999.25  85.4967 -999.25   2.5725 -999.25 3.1239   38.7643   -999.25   -999.25   46.5695 -999.25 72.6774 0.1774
   13408.0000  0.0000 -999.25   0.1304  -999.25  87.7894 -999.25   2.5735 -999.25 3.1470   40.1039   -999.25   -999.25   48.2390 -999.25 72.6898 0.1774
