###############################################
##         ENVERUS                           ##
##         ESS - Open Hole                   ##
##         PERMIAN / DELAWARE                ##
##         Nov 02 2023  V4.0                 ##
##         42-109-10071-00-00                ##
###############################################
## Copyright 2017-2023  ENVERUS.  All Rights Reserved. 
## Confidential - Property of ENVERUS, use governed by terms and 
## conditions found within the existing Information Services Subscription Agreement 
## (as may be amended, the “ISSA”) between Customer and ENVERUS. 
## 
~VERSION INFORMATION
# MNEM.UNIT                               DATA : DESCRIPTION OF MNEMONIC
#-----.-----     ----------------------------- : -----------------------------
VERS.                                     2.00 : CWLS LOG ASCII STANDARD - VERSION 2.00
WRAP.                                       NO : MULTIPLE LINES PER DEPTH STEP
VEND.                                  ENVERUS : VENDOR
TYPE.                          ESS - OPEN HOLE : ENVERUS ESSENTIAL CURVES – ACCESSIBLE THROUGH ENVERUS PRISM(TM)
DOC.                                  31950413 : ENVERUS HEADER RAW DOCUMENT ID
#___________________________________________________________________________________________________ 
~WELL INFORMATION 
# OfUh2+mdeFjroaXzMJDg/lRWUsinBwpBr+LWp9Jgnw936lSgPWOOCrYxw0Bz1A8ekYSC2IJg55FhS+cGr4hs3w== 
# MNEM.UNIT                                              DATA : DESCRIPTION OF MNEMONIC 
#-----.-----                    ----------------------------- : ----------------------------- 
CNTY.                                               CULBERSON : COUNTY 
STATE.                                                  TEXAS : STATE 
CNTRY.                                                    USA : COUNTRY 
API.                                             42-109-10071 : API (10 Digit) 
API_14.                                    42-109-10071-00-00 : API (14 Digits) 
API_14_std.                                 42-109-10071-0000 : API (14 Digits Standard) 
UWI.                                           42109100710000 : UNIQUE WELL ID 
WELL.                                                  DRD_55 : WELL NAME
STRT.FT                                                 320.5 : START DEPTH
STOP.FT                                               12359.5 : STOP DEPTH
STEP.FT                                                   0.5 : STEP BETWEEN DEPTHS
NULL.                                                 -999.25 : NULL VALUE
#___________________________________________________________________________________________________ 
~PARAMETER INFORMATION 
# MNEM.UNIT                                              DATA : DESCRIPTION OF MNEMONIC 
#-----.-----                    ----------------------------- : -----------------------------
#___________________________________________________________________________________________________ 
~CURVE INFORMATION 
# MNEM.UNIT           : CURVE DESCRIPTION 
#-----.-----          : ----------------------------- 
 DEPT.FT               : MEASURED DEPTH 
 GR.API                : GAMMA RAY (GAMMA RAY) 
 DT.US/FT              : SONIC DELTA TRANSIT TIME (SONIC) 
 #___________________________________________________________________________________________________ 
~A         DEPT             GR             DT
# ...
        12239.5         18.084         48.381
        12240.0         17.040         48.386
        12240.5         15.400         47.835
        12241.0         15.067         47.254
        12241.5         14.785         47.924
        12242.0         14.503         48.463
        12242.5         14.523         49.027
        12243.0         15.898         50.032
        12243.5         17.429         51.145
        12244.0         17.604         49.909
        12244.5         18.167         48.889
        12245.0         18.167         47.919
        12245.5         16.202         47.125
        12246.0         14.675         46.382
        12246.5         13.206         47.669
        12247.0         12.696         49.306
        12247.5         12.249         49.950
        12248.0         12.249         51.166
        12248.5         12.249         51.352
        12249.0         12.309         51.474
        12249.5         12.812         52.687
        12250.0         13.449         52.916
        12250.5         14.542         51.415
        12251.0         15.337         51.126
        12251.5         16.387         51.483
        12252.0         16.547         52.221
        12252.5         16.654         49.524
        12253.0         16.728         48.893
        12253.5         15.557         49.114
        12254.0         15.250         49.107
        12254.5         14.944         47.722
        12255.0         14.637         47.246
        12255.5         14.331         47.038
        12256.0         14.024         48.026
        12256.5         14.294         49.264
        12257.0         14.782         50.005
        12257.5         15.269         50.745
        12258.0         15.349         51.797
        12258.5         15.067         51.348
        12259.0         14.785         51.038
        12259.5         14.785         50.614
        12260.0         14.785         49.447
        12260.5         14.785         48.234
        12261.0         14.785         48.100
        12261.5         14.785         48.796
        12262.0         14.785         49.473
        12262.5         14.785         48.897
        12263.0         14.572         48.689
        12263.5         13.940         49.538
        12264.0         13.940         50.329
        12264.5         13.940         49.728
        12265.0         14.222         49.271
        12265.5         14.785         49.317
        12266.0         14.785         50.161
        12266.5         14.515         50.404
        12267.0         13.658         50.267
        12267.5         12.943         50.297
        12268.0         12.783         50.656
        12268.5         12.701         50.712
        12269.0         12.618         51.190
        12269.5         12.536         51.894
        12270.0         13.109         52.527
        12270.5         13.824         52.887
        12271.0         14.540         51.664
        12271.5         15.067         51.122
        12272.0         15.349         53.312
        12272.5         16.368         51.554
        12273.0         16.878         51.332
        12273.5         17.007         51.412
        12274.0         16.465         52.268
        12274.5         15.153         52.499
        12275.0         14.834         51.273
        12275.5         14.785         52.581
        12276.0         14.785         53.920
        12276.5         14.720         54.068
        12277.0         14.601         53.883
        12277.5         14.503         53.181
        12278.0         14.503         52.520
        12278.5         14.503         53.123
        12279.0         14.503         52.374
        12279.5         15.026         50.793
        12280.0         14.197         50.386
        12280.5         13.529         51.441
        12281.0         15.194         52.062
        12281.5         16.825         50.088
        12282.0         18.975         49.163
        12282.5         20.358         50.049
        12283.0         22.159         49.083
        12283.5         24.587         47.686
        12284.0         26.678         46.228
        12284.5         27.539         45.836
        12285.0         27.807         46.674
        12285.5         27.856         47.282
        12286.0         26.300         48.144
        12286.5         24.864         48.469
        12287.0         24.073         47.833
        12287.5         23.120         48.750
        12288.0         22.958         51.646
        12288.5         24.350         53.390
        12289.0         25.155         52.411
        12289.5         24.350         51.940
        12290.0         23.545         51.512
        12290.5         20.957         50.029
        12291.0         17.594         46.991
        12291.5         16.105         44.516
        12292.0         15.913         44.767
        12292.5         15.913         45.411
        12293.0         16.403         45.616
        12293.5         17.476         46.102
        12294.0         18.549         46.497
        12294.5         18.761         46.703
        12295.0         18.815         46.890
        12295.5         18.869         47.245
        12296.0         18.922         47.405
        12296.5         18.976         47.458
        12297.0         19.013         47.216
        12297.5         19.013         46.210
        12298.0         19.295         45.175
        12298.5         19.295         44.866
        12299.0         19.295         44.620
        12299.5         19.432         44.466
        12300.0         20.140         44.246
        12300.5         20.704         45.070
        12301.0         20.704         46.832
        12301.5         20.570         48.514
        12302.0         20.060         47.503
        12302.5         19.576         45.900
        12303.0         19.576         45.895
        12303.5         19.576         46.972
        12304.0         19.576         46.493
        12304.5         19.576         45.987
        12305.0         19.750         45.826
        12305.5         20.336         47.965
        12306.0         20.921         49.130
        12306.5         21.267         48.177
        12307.0         21.267         47.733
        12307.5         21.267         47.446
        12308.0         21.267         47.233
        12308.5         21.267         47.051
        12309.0         21.267         47.065
        12309.5         21.267         47.224
        12310.0         21.890         47.822
        12310.5         22.963         47.926
        12311.0         24.135         47.413
        12311.5         24.649         46.971
        12312.0         24.788         46.749
        12312.5         24.941         46.537
        12313.0         25.095         46.078
        12313.5         25.213         46.810
        12314.0         25.355         47.110
        12314.5         26.059         47.236
        12315.0         25.877         46.625
        12315.5         25.195         45.978
        12316.0         24.649         45.657
        12316.5         24.649         45.444
        12317.0         24.649         45.769
        12317.5         25.259         46.322
        12318.0         25.815         46.820
        12318.5         26.059         46.482
        12319.0         26.059         46.329
        12319.5         26.059         46.140
        12320.0         26.059         45.755
        12320.5         26.059         43.728
        12321.0         26.059         42.856
        12321.5         26.059         42.628
        12322.0         26.059         43.111
        12322.5         26.059         42.439
        12323.0         25.777         43.033
        12323.5         25.495         45.051
        12324.0         25.495         46.608
        12324.5         25.264         47.383
        12325.0         25.188         48.037
        12325.5         24.973         48.378
        12326.0         24.500         48.520
