~Version Information
 VERS.                  2.0:   CWLS log ASCII Standard -VERSION 2.0
 WRAP.                   NO:   One line per depth step
~Well Information Block
#MNEM.UNIT     VALUE/NAME     DESCRIPTION
#---------     -----------    ---------------------------
 STRT.F              8830.0000: START DEPTH
 STOP.F             14230.0000: STOP DEPTH
 STEP.F                 0.5000: STEP DEPTH
 NULL.                 -999.25: NULL VALUE
 LOC .       API  42-109-33374Lat:  LOCATION
 FL1 .       API  42-109-33374Lat:  LOCATIONLINE1
 DMF .                      KB:  DRILL MEAS FROM
 PDAT.                      GL:  PERMANENT DATUM
 CTRY.                     USA:  COUNTRY NAME
 CNTY.               CULBERSON:  COUNTY NAME
 FLD .     FORD, WEST (WOLFCAMP):  FIELD NAME
 WELL.        MOTHER FEE 28 4H:  WELL NAME
 COMP.          CAPITAN ENERGY:  COMPANY
 DATE.             02-May-2019:  DATE
 SVCO.             Halliburton:  SERVICECONAME
 PROV.                   TEXAS:  PROVINCE
 STAT.                   TEXAS:  STATE NAME
 HIDE.                        :  WELLNAMEOPERAT
 BASI.                 PERMIAN:  BASIN
 UWI .            42-109-33374Lat:  UNIQUE WELL IDENTIFIER
 API .            42-109-33374Lat:  API NUMBER
 RANG.                     N/A:  RANGE
 TOWN.                     N/A:  TOWNSHIP
 SECT.                     N/A:  SECTION
 SON .               905631317:  JOB NUMBER
 SRVC.             Halliburton:  SERVICE COMPANY
 LMF .                      KB:  LOG MEASURED FROM
 BAP .ft                0.0000:  GL ELEV ONSHORE
 GVFD.g                 1.0000:  GRAVITY FIELD
~Curve Information Block
#MNEM.UNIT                 API CODE     Curve Description
#---------               -----------    ---------------------------
 DEPT.F                 00 000 000 000:  Depth
 CCL .V                 00 000 000 000:  Casing Collar Locator
 NPHI_OH.pu             00 000 000 000:  NPHI_OH
 NPHI_CHI.pu            00 000 000 000:  NPHI_CHI
 GR_OH.api              00 000 000 000:  GR_OH
 GR_CHI.api             00 000 000 000:  GR_CHI
 RHOB_OH.g/cc           00 000 000 000:  RHOB_OH
 RHOB_CHI.g/cc          00 000 000 000:  RHOB_CHI
 PE_OH.b/e              00 000 000 000:  PE_OH
 PE_CHI.b/e             00 000 000 000:  PE_CHI
 RT10_OH.ohmm           00 000 000 000:  RT10_OH
 RT10_CHI.ohmm          00 000 000 000:  RT10_CHI
 RT30_OH.ohmm           00 000 000 000:  RT30_OH
 RT30_CHI.ohmm          00 000 000 000:  RT30_CHI
 RT90_OH.ohmm           00 000 000 000:  RT90_OH
 RT90_CHI.ohmm          00 000 000 000:  RT90_CHI
 SPHI_CHI.pu            00 000 000 000:  SPHI_CHI
 DTC_CHI.uspf           00 000 000 000:  DTC_CHI
 DTC_OH.uspf            00 000 000 000:  DTC_OH
 SGF .cu                00 000 000 000:  Formation Sigma
 CRNF.NONE              00 000 000 000:  CM GrsCaptRatio
 RIN .NONE              00 000 000 000:  CM GrsInelRatio
#Other Information
#
#WARRANTY: Halliburton will use its best efforts to furnish customers with 
#accurate information and interpretations that are part of, and incident to, the services 
#provided.  However, Halliburton cannot and does not warrant the accuracy 
#or correctness of such information and interpretations.  Under no circumstances should any 
#such information or interpretation be relied upon as the sole basis for any drilling, 
#completion, production, or financial decision or any procedure involving any risk to the 
#safety of any drilling venture, drilling rig or its crew or any other third party.  The 
#Customer has full responsibility for all drilling, completion and production operation.  
#Halliburton makes no representations or warranties, either expressed or 
#implied, including, but not limited to, the implied warranties of merchantability or fitness 
#for a particular purpose, with respect to the services rendered.  In no event will 
#Halliburton be liable for failure to obtain any particular results or for 
#any damages, including, but not limited to, indirect, special or consequential damages, 
#resulting from the use of any information or interpretation provided by Halliburton.
#
~A    DEPT      CCL   NPHI_OH NPHI_CHI  GR_OH    GR_CHI  RHOB_OH RHOB_CHI  PE_OH  PE_CHI RT10_OH RT10_CHI RT30_OH RT30_CHI RT90_OH  RT90_CHI SPHI_CHI DTC_CHI DTC_OH    SGF    CRNF   RIN   
# ...
   13130.0000 17.4488 -999.25  10.0264  -999.25  47.0842 -999.25   2.5830 -999.25 3.8212 -999.25  72.6195 -999.25  74.6036  -999.25  79.3655  15.1200 68.9734 -999.25 22.5901 1.0163 1.0109
   13130.5000 17.3694 -999.25  10.2456  -999.25  46.7240 -999.25   2.5795 -999.25 3.8154 -999.25  72.7591 -999.25  74.7470  -999.25  79.5181  15.4000 69.3737 -999.25 22.5335 1.0076 1.0098
   13131.0000 17.4236 -999.25  10.5038  -999.25  47.5593 -999.25   2.5754 -999.25 3.8039 -999.25  72.9884 -999.25  74.9827  -999.25  79.7688  15.7300 69.8487 -999.25 22.4445 0.9942 1.0081
   13131.5000 17.4271 -999.25  10.5819  -999.25  48.8879 -999.25   2.5743 -999.25 3.8035 -999.25  73.3329 -999.25  75.3365  -999.25  80.1452  15.8400 69.9965 -999.25 22.3546 0.9822 1.0071
   13132.0000 17.4408 -999.25  10.6071  -999.25  49.8953 -999.25   2.5723 -999.25 3.7787 -999.25  73.8707 -999.25  75.8891  -999.25  80.7330  15.9100 70.0928 -999.25 22.1493 0.9810 1.0099
   13132.5000 17.4042 -999.25  10.5720  -999.25  49.9814 -999.25   2.5708 -999.25 3.7545 -999.25  74.6410 -999.25  76.6803  -999.25  81.5748  15.9100 70.0925 -999.25 21.9313 0.9842 1.0144
   13133.0000 17.3783 -999.25  10.3720  -999.25  49.2626 -999.25   2.5724 -999.25 3.7490 -999.25  75.6872 -999.25  77.7552  -999.25  82.7183  15.6900 69.7874 -999.25 21.6776 0.9966 1.0188
   13133.5000 17.4222 -999.25  10.3088  -999.25  48.7754 -999.25   2.5723 -999.25 3.7476 -999.25  76.8524 -999.25  78.9522  -999.25  83.9917  15.6400 69.7212 -999.25 21.5422 1.0074 1.0228
   13134.0000 17.4327 -999.25  10.4341  -999.25  48.8723 -999.25   2.5696 -999.25 3.7447 -999.25  77.9348 -999.25  80.0641  -999.25  85.1746  15.8300 69.9875 -999.25 21.5933 1.0066 1.0244
   13134.5000 17.4204 -999.25  10.7502  -999.25  49.0135 -999.25   2.5639 -999.25 3.7291 -999.25  78.6271 -999.25  80.7754  -999.25  85.9313  16.2600 70.5921 -999.25 21.6093 1.0015 1.0256
   13135.0000 17.4261 -999.25  10.9198  -999.25  48.6961 -999.25   2.5615 -999.25 3.7325 -999.25  78.8762 -999.25  81.0313  -999.25  86.2035  16.4800 70.8993 -999.25 21.5834 0.9950 1.0251
   13135.5000 17.4168 -999.25  10.8746  -999.25  48.4886 -999.25   2.5624 -999.25 3.7367 -999.25  78.7281 -999.25  80.8791  -999.25  86.0416  16.4100 70.8097 -999.25 21.6477 1.0103 1.0281
   13136.0000 17.4271 -999.25  10.6771  -999.25  49.6431 -999.25   2.5672 -999.25 3.7615 -999.25  77.9195 -999.25  80.0484  -999.25  85.1579  16.1200 70.3988 -999.25 22.2451 1.0530 1.0349
   13136.5000 17.4259 -999.25  10.4948  -999.25  53.8222 -999.25   2.5742 -999.25 3.7884 -999.25  74.9466 -999.25  76.9944  -999.25  81.9089  15.7800 69.9163 -999.25 23.8307 1.1181 1.0474
   13137.0000 17.4851 -999.25  10.4549  -999.25  61.8647 -999.25   2.5816 -999.25 3.7997 -999.25  69.4515 -999.25  71.3490  -999.25  75.9032  15.5400 69.5709 -999.25 26.9533 1.2056 1.0616
   13137.5000 17.3619 -999.25  10.8934  -999.25  73.1868 -999.25   2.5884 -999.25 3.8222 -999.25  60.9283 -999.25  62.5930  -999.25  66.5883  15.7200 69.8334 -999.25 30.3157 1.2493 1.0686
   13138.0000 17.3786 -999.25  12.3152  -999.25  86.0876 -999.25   2.5750 -999.25 3.6390 -999.25  50.9675 -999.25  52.3600  -999.25  55.7022  17.1600 71.8712 -999.25 32.3157 1.2322 1.0691
   13138.5000 17.4229 -999.25  14.2895  -999.25  98.4179 -999.25   2.5526 -999.25 3.3892 -999.25  42.9011 -999.25  44.0733  -999.25  46.8865  19.2800 74.8641 -999.25 31.4019 1.1650 1.0610
   13139.0000 17.4245 -999.25  16.2927  -999.25 108.3417 -999.25   2.5303 -999.25 3.1905 -999.25  39.0394 -999.25  40.1060  -999.25  42.6660  21.4800 77.9729 -999.25 29.3905 1.0992 1.0542
   13139.5000 17.4049 -999.25  16.4377  -999.25 114.5863 -999.25   2.5264 -999.25 3.1690 -999.25  39.8001 -999.25  40.8875  -999.25  43.4974  21.7200 78.3093 -999.25 27.2758 1.0896 1.0514
   13140.0000 17.5568 -999.25  15.6684  -999.25 115.6880 -999.25   2.5286 -999.25 3.2248 -999.25  43.7950 -999.25  44.9916  -999.25  47.8634  21.0700 77.3955 -999.25 25.2767 1.0763 1.0460
   13140.5000 17.4228 -999.25  14.6027  -999.25 111.5526 -999.25   2.5335 -999.25 3.3068 -999.25  49.7931 -999.25  51.1535  -999.25  54.4187  20.1200 76.0491 -999.25 23.0752 1.0599 1.0384
   13141.0000 17.4244 -999.25  14.0221  -999.25 103.4959 -999.25   2.5396 -999.25 3.4723 -999.25  57.5786 -999.25  59.1518  -999.25  62.9274  19.6000 75.3197 -999.25 20.9930 1.0094 1.0169
   13141.5000 17.4048 -999.25  13.2662  -999.25  93.2237 -999.25   2.5504 -999.25 3.6943 -999.25  67.6097 -999.25  69.4570  -999.25  73.8904  18.8500 74.2521 -999.25 19.5553 0.9566 0.9938
   13142.0000 17.4222 -999.25  12.2651  -999.25  83.3028 -999.25   2.5660 -999.25 3.9290 -999.25  78.0119 -999.25  80.1434  -999.25  85.2589  17.7500 72.7011 -999.25 19.0120 0.9336 0.9769
   13142.5000 17.4123 -999.25  11.1064  -999.25  76.2427 -999.25   2.5838 -999.25 4.1256 -999.25  86.7764 -999.25  89.1474  -999.25  94.8376  16.4200 70.8244 -999.25 19.0849 0.9236 0.9681
   13143.0000 17.4238 -999.25  10.1200  -999.25  72.6140 -999.25   2.5909 -999.25 4.1364 -999.25  91.9442 -999.25  94.4564  -999.25 100.4855  15.3800 69.3516 -999.25 19.6967 0.9382 0.9729
   13143.5000 17.4372 -999.25   9.6981  -999.25  70.7091 -999.25   2.5912 -999.25 4.0698 -999.25  92.9128 -999.25  95.4514  -999.25 101.5440  14.9600 68.7488 -999.25 20.4246 0.9484 0.9805
   13144.0000 17.3716 -999.25   9.5263  -999.25  68.8659 -999.25   2.5902 -999.25 3.9919 -999.25  90.7555 -999.25  93.2352  -999.25  99.1863  14.7600 68.4745 -999.25 20.8395 0.9484 0.9867
   13144.5000 17.4259 -999.25   9.7246  -999.25  66.7331 -999.25   2.5873 -999.25 3.9576 -999.25  87.5516 -999.25  89.9437  -999.25  95.6848  14.9700 68.7713 -999.25 21.1516 0.9539 0.9898
   13145.0000 17.4238 -999.25   9.8055  -999.25  65.2922 -999.25   2.5869 -999.25 3.9424 -999.25  84.7457 -999.25  87.0611  -999.25  92.6182  15.0200 68.8423 -999.25 21.2578 0.9637 0.9918
   13145.5000 17.4406 -999.25   9.6107  -999.25  64.5442 -999.25   2.5922 -999.25 3.9633 -999.25  82.5173 -999.25  84.7719  -999.25  90.1828  14.7100 68.3932 -999.25 21.4914 0.9900 0.9949
   13146.0000 17.4003 -999.25   9.6463  -999.25  64.7441 -999.25   2.5930 -999.25 3.9654 -999.25  80.9977 -999.25  83.2107  -999.25  88.5221  14.7100 68.3970 -999.25 21.7964 1.0110 1.0010
   13146.5000 17.3859 -999.25   9.7747  -999.25  65.8977 -999.25   2.5911 -999.25 3.9360 -999.25  79.3476 -999.25  81.5156  -999.25  86.7187  14.8500 68.5954 -999.25 22.1358 1.0250 1.0075
   13147.0000 17.4276 -999.25  10.3504  -999.25  68.2494 -999.25   2.5815 -999.25 3.8703 -999.25  77.4439 -999.25  79.5599  -999.25  84.6382  15.5700 69.6126 -999.25 22.5299 1.0223 1.0155
   13147.5000 17.4658 -999.25  11.4648  -999.25  71.7091 -999.25   2.5597 -999.25 3.7055 -999.25  75.1718 -999.25  77.2257  -999.25  82.1550  17.0300 71.6761 -999.25 23.0639 1.0145 1.0246
   13148.0000 17.3637 -999.25  12.1105  -999.25  75.2903 -999.25   2.5489 -999.25 3.6147 -999.25  72.5192 -999.25  74.5006  -999.25  79.2560  17.8200 72.7945 -999.25 23.7117 1.0219 1.0336
   13148.5000 17.3604 -999.25  12.3677  -999.25  77.6591 -999.25   2.5454 -999.25 3.5580 -999.25  69.4730 -999.25  71.3712  -999.25  75.9268  18.0900 73.1748 -999.25 24.3867 1.0365 1.0409
   13149.0000 17.4263 -999.25  11.9923  -999.25  78.0560 -999.25   2.5539 -999.25 3.5671 -999.25  66.1789 -999.25  67.9870  -999.25  72.3266  17.5100 72.3614 -999.25 24.8424 1.0618 1.0426
   13149.5000 17.4241 -999.25  11.8784  -999.25  77.2455 -999.25   2.5595 -999.25 3.5842 -999.25  62.9925 -999.25  64.7136  -999.25  68.8442  17.2400 71.9817 -999.25 25.4056 1.0990 1.0475
   13150.0000 17.4790 -999.25  12.0021  -999.25  76.1544 -999.25   2.5602 -999.25 3.5705 -999.25  59.9492 -999.25  61.5872  -999.25  65.5182  17.2900 72.0533 -999.25 26.2268 1.1343 1.0531
   13150.5000 17.3807 -999.25  12.2564  -999.25  75.4837 -999.25   2.5612 -999.25 3.5704 -999.25  56.5497 -999.25  58.0947  -999.25  61.8029  17.4600 72.2876 -999.25 27.6275 1.1727 1.0616
   13151.0000 17.4226 -999.25  12.8400  -999.25  75.4245 -999.25   2.5570 -999.25 3.5312 -999.25  52.7735 -999.25  54.2154  -999.25  57.6759  18.0200 73.0859 -999.25 29.3522 1.1889 1.0697
