###############################################
##         ENVERUS                           ##
##         ESS - Open Hole                   ##
##         PERMIAN / DELAWARE                ##
##         Nov 02 2023  V4.0                 ##
##         42-109-31550-00-00                ##
###############################################
## Copyright 2017-2023  ENVERUS.  All Rights Reserved. 
## Confidential - Property of ENVERUS, use governed by terms and 
## conditions found within the existing Information Services Subscription Agreement 
## (as may be amended, the “ISSA”) between Customer and ENVERUS. 
## 
~VERSION INFORMATION
# MNEM.UNIT                               DATA : DESCRIPTION OF MNEMONIC
#-----.-----     ----------------------------- : -----------------------------
VERS.                                     2.00 : CWLS LOG ASCII STANDARD - VERSION 2.00
WRAP.                                       NO : MULTIPLE LINES PER DEPTH STEP
VEND.                                  ENVERUS : VENDOR
TYPE.                          ESS - OPEN HOLE : ENVERUS ESSENTIAL CURVES – ACCESSIBLE THROUGH ENVERUS PRISM(TM)
DOC.                                  22584426 : ENVERUS HEADER RAW DOCUMENT ID
#___________________________________________________________________________________________________ 
~WELL INFORMATION 
# ASdzl/zqz3tyMoI2i40d5lqA861uk+/GXWRvioHJ4uiq1sQ7a4yIDDt4z64Puw3+ifUTTkKIB4eyCaXtXAsvCw== 
# MNEM.UNIT                                              DATA : DESCRIPTION OF MNEMONIC 
#-----.-----                    ----------------------------- : ----------------------------- 
CNTY.                                               CULBERSON : COUNTY 
STATE.                                                  TEXAS : STATE 
CNTRY.                                                    USA : COUNTRY 
API.                                             42-109-31550 : API (10 Digit) 
API_14.                                    42-109-31550-00-00 : API (14 Digits) 
API_14_std.                                 42-109-31550-0000 : API (14 Digits Standard) 
UWI.                                           42109315500000 : UNIQUE WELL ID 
WELL.                                       UNIVERSITY_6-46-1 : WELL NAME
STRT.FT                                                 249.5 : START DEPTH
STOP.FT                                               10300.0 : STOP DEPTH
STEP.FT                                                   0.5 : STEP BETWEEN DEPTHS
NULL.                                                 -999.25 : NULL VALUE
COMP.                                    MONSANTO OIL COMPANY : COMPANY 
FLD.                                                  WILDCAT : FIELD 
DATE.                                              10/31/2016 : DATE 
TVD.                                                       NO : TVD FLAG 
WSTA.                                                     LOC : WELL STATUS
#___________________________________________________________________________________________________ 
~PARAMETER INFORMATION 
# MNEM.UNIT                                              DATA : DESCRIPTION OF MNEMONIC 
#-----.-----                    ----------------------------- : ----------------------------- 
RUN.                                                      ONE : RUN NUMBER 
PDAT.                                                      GL : PERMANENT DATUM 
LMF.                                            KELLY BUSHING : LOG MEASURED FROM
#___________________________________________________________________________________________________ 
~CURVE INFORMATION 
# MNEM.UNIT           : CURVE DESCRIPTION 
#-----.-----          : ----------------------------- 
 DEPT.FT               : MEASURED DEPTH 
 DT.US/FT              : SONIC DELTA TRANSIT TIME (DELTA-T) 
 RESS_LL.OHMM          : SHALLOW LATEROLOG (LLS - LATERO-LOG SHALLOW (RESISTIVITY)) 
 RESD_LL.OHMM          : DEEP LATEROLOG (LLD - LATERO-LOG DEEP (RESISTIVITY)) 
 #___________________________________________________________________________________________________ 
~A         DEPT             DT        RESS_LL        RESD_LL
# ...
          579.5         72.979        93.8397       115.0347
          580.0         72.528        97.3794       121.6045
          580.5         72.347       104.4188       143.6519
          581.0         71.565       111.8842       142.3283
          581.5         70.150       113.9748       139.7176
          582.0         69.504       104.8644       137.1548
          582.5         69.819        99.5117       130.9515
          583.0         70.873        97.3794       128.5494
          583.5         72.437        97.3794       133.4169
          584.0         73.912       106.8238       147.9707
          584.5         73.009       115.6668       173.9188
          585.0         72.166       123.8767       177.7353
          585.5         70.782       123.8767       177.7353
          586.0         70.000       108.8199       157.8937
          586.5         70.722       100.4018       133.3984
          587.0         72.798        89.5955       121.6045
          587.5         75.687        75.8446       113.9748
          588.0         78.064        68.5020       105.8396
          588.5         80.050        54.8556        87.9521
          589.0         80.952        50.9401        75.1457
          589.5         82.522        47.3414        66.8907
          590.0         83.700        43.5095        63.4230
          590.5         84.573        44.7872        63.4949
          591.0         84.895        46.4511        63.5011
          591.5         84.985        46.8820        68.2853
          592.0         84.804        49.1550        67.4280
          592.5         84.744        49.0150        74.3587
          593.0         84.744        53.8494        81.3423
          593.5         84.624        60.7354        94.4707
          594.0         84.022        70.4310       112.2611
          594.5         82.818        79.2274       130.9515
          595.0         81.459        82.4338       130.9515
          595.5         79.984        80.1761       129.7449
          596.0         79.357        78.7055       128.5494
          596.5         79.091        79.2919       125.0288
          597.0         78.884        80.1761       125.0288
          597.5         78.313        80.2128       127.3650
          598.0         77.589        80.8913       129.7449
          598.5         77.227        80.8722       127.4551
          599.0         77.345        80.1761       125.2984
          599.5         77.675        73.7673       113.3100
          600.0         78.455        66.3172        96.5145
          600.5         79.739        55.7753        81.7123
          601.0         81.494        46.5429        71.0859
          601.5         85.286        42.3118        65.4038
          602.0         86.911        42.3310        66.1615
          602.5         88.731        43.1219        67.5574
          603.0         89.268        45.5847        71.0448
          603.5         88.715        47.8129        75.0444
          604.0         88.106        49.4883        77.9803
          604.5         87.753        50.5013        78.7055
          605.0         87.573        51.4185        82.6248
          605.5         87.813        52.9140        84.7551
          606.0         87.994        52.8253        84.7551
          606.5         88.175        52.8859        84.7551
          607.0         88.356        51.4591        79.0096
          607.5         88.363        49.4525        75.1313
          608.0         88.132        46.5200        72.2742
          608.5         88.355        45.5269        69.5490
          609.0         88.295        44.8064        67.8708
          609.5         87.994        44.2595        68.3073
          610.0         87.813        46.9407        72.4142
          610.5         88.025        51.8920        83.3739
          611.0         88.175        60.7354        95.5932
          611.5         87.573        69.7820       111.9799
          612.0         85.888        73.0877       115.1887
          612.5         83.172        71.0390       109.7044
          613.0         81.916        69.3336       102.9409
          613.5         82.096        63.5251        98.2850
          614.0         83.059        63.0005        95.3575
          614.5         83.931        62.4457        94.6138
          615.0         84.022        61.8703        93.8397
          615.5         83.721        63.6125        98.7120
          616.0         83.661        63.5050       104.1100
          616.5         83.520        71.0293       109.8319
          617.0         82.939        73.7180       110.8533
          617.5         82.036        74.4534       114.0363
          618.0         80.953        74.4534       116.1376
          618.5         80.220        73.7673       112.3063
          619.0         79.689        74.4534       109.8319
          619.5         79.448        71.0859       106.8238
          620.0         80.180        70.4310       103.8982
          620.5         81.135        67.2455       100.1215
          621.0         81.865        63.6125        97.3794
          621.5         82.351        62.4457        93.0335
          622.0         82.879        60.1758        87.5516
          622.5         84.082        59.7457        84.7439
          623.0         84.865        59.6214        85.6066
          623.5         86.008        60.7354        87.1416
          624.0         87.452        60.7354        86.9144
          624.5         87.753        59.8038        86.4592
          625.0         87.753        56.5890        82.8718
          625.5         87.693        53.3016        77.9731
          626.0         87.806        51.8281        77.0757
          626.5         88.406        51.9418        76.2576
          627.0         89.130        52.3746        75.5468
          627.5         89.495        51.8920        74.9576
          628.0         89.619        50.9401        74.4534
          628.5         89.739        51.5040        75.6570
          629.0         89.438        52.3746        77.3065
          629.5         87.994        55.3657        83.9741
          630.0         86.730        56.9248        81.4855
          630.5         86.369        54.2299        77.4423
          631.0         87.693        50.9401        73.2183
          631.5         90.040        47.3042        67.2455
          632.0         91.605        45.1647        67.6931
          632.5         91.906        46.1152        68.2252
          633.0         91.003        48.6362        72.4981
          633.5         89.679        52.8616        81.7991
          634.0         88.235        59.0720        90.5963
          634.5         86.851        65.6160       100.0868
          635.0         85.226        71.0859       110.3414
          635.5         83.962        74.4534       123.8767
          636.0         81.920        74.4534       122.7354
          636.5         80.037        74.0444       119.3739
          637.0         78.811        73.0877       117.1842
          637.5         78.064        72.4142       113.9748
          638.0         77.703        70.4310       111.8842
          638.5         78.064        67.4824       105.8396
          639.0         79.027        66.0120       103.8982
          639.5         80.291        63.6125       102.9409
          640.0         81.013        63.0264       103.8982
          640.5         81.626        63.0264       107.8173
          641.0         82.036        62.4457       108.8199
          641.5         82.156        62.4457       111.8842
          642.0         81.795        66.6496       114.0519
          642.5         81.133        63.7759       110.9227
          643.0         80.592        56.6728       100.0567
          643.5         80.050        45.9644        79.6780
          644.0         79.930        35.4278        62.4457
          644.5         81.426        26.9359        50.8560
          645.0         84.142        25.6006        45.6727
