###############################################
##         ENVERUS                           ##
##         ESS - Open Hole                   ##
##         PERMIAN / DELAWARE                ##
##         Nov 02 2023  V4.0                 ##
##         42-109-31550-00-00                ##
###############################################
## Copyright 2017-2023  ENVERUS.  All Rights Reserved. 
## Confidential - Property of ENVERUS, use governed by terms and 
## conditions found within the existing Information Services Subscription Agreement 
## (as may be amended, the “ISSA”) between Customer and ENVERUS. 
## 
~VERSION INFORMATION
# MNEM.UNIT                               DATA : DESCRIPTION OF MNEMONIC
#-----.-----     ----------------------------- : -----------------------------
VERS.                                     2.00 : CWLS LOG ASCII STANDARD - VERSION 2.00
WRAP.                                       NO : MULTIPLE LINES PER DEPTH STEP
VEND.                                  ENVERUS : VENDOR
TYPE.                          ESS - OPEN HOLE : ENVERUS ESSENTIAL CURVES – ACCESSIBLE THROUGH ENVERUS PRISM(TM)
DOC.                                  22584426 : ENVERUS HEADER RAW DOCUMENT ID
#___________________________________________________________________________________________________ 
~WELL INFORMATION 
# ASdzl/zqz3tyMoI2i40d5lqA861uk+/GXWRvioHJ4uiq1sQ7a4yIDDt4z64Puw3+ifUTTkKIB4eyCaXtXAsvCw== 
# MNEM.UNIT                                              DATA : DESCRIPTION OF MNEMONIC 
#-----.-----                    ----------------------------- : ----------------------------- 
CNTY.                                               CULBERSON : COUNTY 
STATE.                                                  TEXAS : STATE 
CNTRY.                                                    USA : COUNTRY 
API.                                             42-109-31550 : API (10 Digit) 
API_14.                                    42-109-31550-00-00 : API (14 Digits) 
API_14_std.                                 42-109-31550-0000 : API (14 Digits Standard) 
UWI.                                           42109315500000 : UNIQUE WELL ID 
WELL.                                       UNIVERSITY_6-46-1 : WELL NAME
STRT.FT                                                 249.5 : START DEPTH
STOP.FT                                               10300.0 : STOP DEPTH
STEP.FT                                                   0.5 : STEP BETWEEN DEPTHS
NULL.                                                 -999.25 : NULL VALUE
COMP.                                    MONSANTO OIL COMPANY : COMPANY 
FLD.                                                  WILDCAT : FIELD 
DATE.                                              10/31/2016 : DATE 
TVD.                                                       NO : TVD FLAG 
WSTA.                                                     LOC : WELL STATUS
#___________________________________________________________________________________________________ 
~PARAMETER INFORMATION 
# MNEM.UNIT                                              DATA : DESCRIPTION OF MNEMONIC 
#-----.-----                    ----------------------------- : ----------------------------- 
RUN.                                                      ONE : RUN NUMBER 
PDAT.                                                      GL : PERMANENT DATUM 
LMF.                                            KELLY BUSHING : LOG MEASURED FROM
#___________________________________________________________________________________________________ 
~CURVE INFORMATION 
# MNEM.UNIT           : CURVE DESCRIPTION 
#-----.-----          : ----------------------------- 
 DEPT.FT               : MEASURED DEPTH 
 DT.US/FT              : SONIC DELTA TRANSIT TIME (DELTA-T) 
 RESS_LL.OHMM          : SHALLOW LATEROLOG (LLS - LATERO-LOG SHALLOW (RESISTIVITY)) 
 RESD_LL.OHMM          : DEEP LATEROLOG (LLD - LATERO-LOG DEEP (RESISTIVITY)) 
 #___________________________________________________________________________________________________ 
~A         DEPT             DT        RESS_LL        RESD_LL
# ...
         1899.5         68.495       149.1072       144.9878
         1900.0         69.450       144.9789       142.3283
         1900.5         69.940       148.7492       166.5839
         1901.0         70.000       157.5841       174.4751
         1901.5         69.639       169.6966       189.6332
         1902.0         69.037       177.7353       198.6163
         1902.5         68.182       195.4661       209.9595
         1903.0         67.402       219.1457       228.2004
         1903.5         66.138       246.5735       262.1911
         1904.0         65.238       264.6294       250.3326
         1904.5         64.809       255.0102       248.0261
         1905.0         65.005       239.0105       232.4645
         1905.5         65.667       224.0145       215.3655
         1906.0         66.209       217.8793       216.3344
         1906.5         66.060       230.8883       215.0166
         1907.0         65.405       274.6113       272.0811
         1907.5         63.955       349.3342       336.6361
         1908.0         61.731       425.8643       412.6700
         1908.5         59.779       565.3095       549.8269
         1909.0         59.228       517.1218       482.9972
         1909.5         59.769       459.8199       432.2185
         1910.0         61.153       369.2850       383.2146
         1910.5         61.826       382.6607       386.7784
         1911.0         61.996       405.1004       408.8677
         1911.5         61.815       416.5076       436.2380
         1912.0         61.876       379.6837       366.5996
         1912.5         63.112       321.4106       321.1603
         1913.0         64.644       292.9943       301.2922
         1913.5         65.787       282.3441       282.3441
         1914.0         65.065       342.9263       390.3752
         1914.5         62.839       408.8677       478.5469
         1915.0         60.853       432.2185       487.4888
         1915.5         59.829       420.3810       358.1999
         1916.0         60.431       339.3476       257.3817
         1916.5         62.297       250.3326       211.7915
         1917.0         64.704       186.1548       166.6370
         1917.5         67.352       147.6970       134.3300
         1918.0         69.870       129.7449       129.9315
         1918.5         70.361       134.6389       142.1711
         1919.0         69.278       154.6936       169.5650
         1919.5         66.690       174.4751       188.0303
         1920.0         64.885       181.0564       166.6000
         1920.5         66.028       156.1321       153.3816
         1921.0         67.894       139.8556       137.5909
         1921.5         68.736       134.5614       133.2743
         1922.0         68.694       133.3477       133.4348
         1922.5         68.616       135.8910       132.1391
         1923.0         68.857       135.8910       133.3984
         1923.5         69.157       132.1693       137.1548
         1924.0         68.781       137.0980       144.8191
         1924.5         68.020       149.7304       162.3125
         1925.0         67.654       165.2935       174.8037
         1925.5         67.590       164.9448       181.3211
         1926.0         67.713       169.6966       186.1548
         1926.5         67.713       175.4570       199.6070
         1927.0         67.051       186.1548       217.5602
         1927.5         65.908       219.9055       237.1281
         1928.0         65.185       234.6263       259.7753
         1928.5         64.762       230.3226       262.0819
         1929.0         64.832       243.6581       264.6294
         1929.5         65.383       234.6513       221.6368
         1930.0         66.384       206.1547       189.6332
         1930.5         67.713       174.7409       171.2747
         1931.0         69.338       157.9802       157.5841
         1931.5         70.241       143.3738       149.0705
         1932.0         70.980       144.8109       146.3584
         1932.5         71.324       142.3424       144.9518
         1933.0         71.143       137.1375       149.1293
         1933.5         70.241       141.0169       152.0204
         1934.0         69.491       142.3283       153.2988
         1934.5         68.796       141.3633       153.2721
         1935.0         68.315       141.0169       152.7853
         1935.5         67.764       139.7176       152.1342
         1936.0         67.759       135.8910       149.0291
         1936.5         68.078       131.8839       144.2047
         1937.0         68.438       125.1294       138.3764
         1937.5         68.857       120.4447       132.1634
         1938.0         69.116       116.1045       128.1822
         1938.5         69.218       113.2282       124.4069
         1939.0         69.278       111.8842       120.7981
         1939.5         69.758       108.8199       118.2740
         1940.0         69.972       103.8982       119.3739
         1940.5         69.889       108.3927       120.4840
         1941.0         69.405       112.8048       122.8815
         1941.5         69.156       113.9247       126.9132
         1942.0         69.185       116.1198       129.0604
         1942.5         69.679       118.0279       131.2440
         1943.0         70.039       118.2740       132.1693
         1943.5         70.465       118.2740       132.1693
         1944.0         70.777       119.3739       131.5285
         1944.5         71.319       116.0838       129.9928
         1945.0         71.564       116.0505       128.5494
         1945.5         71.384       116.0336       132.4081
         1946.0         71.023       121.6045       135.8910
         1946.5         70.060       127.9262       142.0527
         1947.0         68.977       134.6389       145.3305
         1947.5         67.954       137.1548       146.3361
         1948.0         67.773       130.9515       141.8351
         1948.5         68.435       121.6045       133.3984
         1949.0         69.819       109.1691       118.2740
         1949.5         71.505       100.9842       106.8238
         1950.0         72.919       100.9972       111.8842
         1950.5         73.009       101.0526       113.9719
         1951.0         72.828       103.8982       117.1679
         1951.5         71.565       103.8982       118.2298
         1952.0         71.143       103.8982       118.2451
         1952.5         71.324       103.8982       118.2975
         1953.0         71.745       102.9409       118.2193
         1953.5         71.926       100.1215       116.1817
         1954.0         71.926        98.2850       112.0243
         1954.5         71.986        92.1184       108.4549
         1955.0         72.347        87.9521       102.3552
         1955.5         72.768        89.5955       102.8317
         1956.0         72.648        92.1184       106.7730
         1956.5         71.505        97.3794       109.8319
         1957.0         70.542       100.1215       110.8533
         1957.5         70.060       100.1215       111.8842
         1958.0         70.060        97.3794       111.8842
         1958.5         70.060        99.1990       111.8842
         1959.0         70.000       100.1215       111.8842
         1959.5         69.880       101.0526       110.8533
         1960.0         70.175        95.5932       109.3247
         1960.5         71.023        92.9751       105.8396
         1961.0         72.000        87.9521       103.8982
         1961.5         72.295        94.7124       102.9409
         1962.0         72.051        99.1990       111.8842
         1962.5         71.387       102.9409       117.1842
         1963.0         71.083       102.9409       119.3739
         1963.5         71.143       101.0526       117.1842
         1964.0         71.384       101.0526       115.0347
         1964.5         71.926       102.9409       118.3264
         1965.0         72.163       104.8644       119.2433
