~Version Information
 VERS.                  2.0:   CWLS log ASCII Standard -VERSION 2.0
 WRAP.                   NO:   One line per depth step
~Well Information Block
#MNEM.UNIT       Data Type    Information
#---------     -----------    ---------------------------
 STRT.F              3503.5000:
 STOP.F             12186.0000:
 STEP.F                 0.5000:
 NULL.               -999.2500:
 UWI .            42-109-32278:  API WELLHOLE NUMBER
 COMP.     SAMSON LONE STAR LP:  COMPANY NAME
 COUN.               CULBERSON:  COUNTY
 DAT2.                   02000:  LOGGING DATE 2
 DAT3.                   02000:  LOGGING DATE 3
 DAT4.                   02000:  LOGGING DATE 4
 DATE.                   02000:  LOGGING DATE
 DMF .           KELLY BUSHING:  DRILLING MEASURED
 LOC .    1521' FWL AND 2040' FSL:  FIELD LOCATION
 FL1 .    1521' FWL AND 2040' FSL:  FIELD LOCATION LINE 1
 FL2 .        SEC. 14, BLK. 46:  FIELD LOCATION LINE 2
 FLD .                 WILDCAT:  FIELD NAME
 HDAT.                   02000:  DATUM
 LMF .                    K.B.:  LOG MEASURED FROM
 OS1 .                    XRMI:  OTHER SERVICES LINE 1
 OS2 .               LSS / FWS:  OTHER SERVICES LINE 2
 OS3 .                 SDL/DSN:  OTHER SERVICES LINE 3
 OS4 .                DLL/MGRD:  OTHER SERVICES LINE 4
 PDAT.            GROUND LEVEL:  PERMANENT DATUM
 R1  .    TOOLSTRING: RWCH/D4TS/NGRT/LFS_D2/XRMI/CENT:  REMARKS LINE 1
 R2  .    LOGGING INTERVALS AS PER CUSTOMER REQUEST.:  REMARKS LINE 2
 RDT2.                   02000:  CASING DATE 2
 RDT3.                   02000:  CASING DATE 3
 RDT4.                   02000:  CASING DATE 4
 RDT5.                   02000:  CASING DATE 5
 SON .                 4992511:  SERVICE/TICKET ORDER NUMBER
 PROV.                   TEXAS:  STATE
 WELL.    UNIVERSITY LANDS 46-14 No. 2:  WELL NAME
~Parameter Information Block
#MNEM.UNIT       Value        Description
#---------     -----------    ---------------------------
~Curve Information Block
#MNEM.UNIT                 API CODE     Curve Description
#---------               -----------    ---------------------------
 DEPT.F                 00 000 000 000:  
 LLD .ohmm              00 000 000 000:  LLD                                    
 LLS .ohmm              00 000 000 000:  LLS                                    
 NPHI.decp              00 000 000 000:  Neutron Porosity                       
 GR  .api               00 000 000 000:  Gamma API                              
 MGRD.ohmm              00 000 000 000:  MCGRD                                  
 DRHO.g/cc              00 000 000 000:  DensityCorr                            
 DPHI.decp              00 000 000 000:  DensityPorosity                        
 PE  .b/e               00 000 000 000:  Pe                                     
 RHOB.g/cc              00 000 000 000:  Density                                
 XPHI.decp              00 000 000 000:  CrossplotPhi                           
 CALI.in                00 000 000 000:  Caliper                                
 DTC .                  00 000 000 000:  DELTA-T COMPRESSIONAL - FWS
 GR2 .GAPI              00 000 000 000:  NATURAL GAMMA - FWS
 SPHI.DECP              00 000 000 000:  SONIC POROSITY MTX=47.6 (DTC)
~A  DEPT        LLD        LLS        NPHI       GR         MGRD       DRHO       DPHI       PE         RHOB       XPHI       CALI       DTC        GR2        SPHI   
# ...
 3699.5000  -999.2500  -999.2500     0.2113    54.6679  -999.2500    -0.5026     0.1973    10.6160     2.3727  -999.2500     9.1695    61.4806    49.7526     0.0982 
 3700.0000  -999.2500  -999.2500     0.1991    50.7211  -999.2500    -0.4990     0.1743    10.5840     2.4120  -999.2500     9.1695    61.5750    51.7352     0.0988 
 3700.5000  -999.2500  -999.2500     0.1939    49.1211  -999.2500    -0.4966     0.1654    10.6260     2.4272  -999.2500     9.1771    61.8786    52.4075     0.1010 
 3701.0000  -999.2500  -999.2500     0.2042    54.0279  -999.2500    -0.4961     0.1686    10.6426     2.4218  -999.2500     9.1771    62.3413    53.0201     0.1043 
 3701.5000  -999.2500  -999.2500     0.2151    64.5348  -999.2500    -0.4990     0.1677    10.5479     2.4232  -999.2500     9.1771    62.8338    55.5643     0.1077 
 3702.0000  -999.2500  -999.2500     0.2233    72.4816  -999.2500    -0.5038     0.1625    10.4055     2.4320  -999.2500     9.1771    63.5826    58.8574     0.1130 
 3702.5000  -999.2500  -999.2500     0.2223    63.5748  -999.2500    -0.5061     0.1544    10.3782     2.4460  -999.2500     9.1771    64.0644    60.2784     0.1164 
 3703.0000  -999.2500  -999.2500     0.2293    60.3747  -999.2500    -0.5045     0.1452    10.3560     2.4616  -999.2500     9.1771    64.7527    62.8566     0.1213 
 3703.5000  -999.2500  -999.2500     0.2593    80.4818  -999.2500    -0.5025     0.1451    10.2488     2.4619  -999.2500     9.1771    65.7109    71.0254     0.1281 
 3704.0000  -999.2500  -999.2500     0.2770   101.1756  -999.2500    -0.4999     0.1437    10.2745     2.4643  -999.2500     9.1771    66.0335    83.1508     0.1304 
 3704.5000  -999.2500  -999.2500     0.2710    96.6422  -999.2500    -0.5000     0.1424    10.4602     2.4665  -999.2500     9.1771    65.5771    88.8944     0.1271 
 3705.0000  -999.2500  -999.2500     0.2491    81.2818  -999.2500    -0.5061     0.1390    10.6074     2.4723  -999.2500     9.1924    64.6795    87.4564     0.1208 
 3705.5000  -999.2500  -999.2500     0.2464    76.3217  -999.2500    -0.5130     0.1243    10.5253     2.4974  -999.2500     9.1847    64.3513    83.2614     0.1185 
 3706.0000  -999.2500  -999.2500     0.2409    77.3884  -999.2500    -0.5198     0.1221    10.3376     2.5012  -999.2500     9.1847    63.2099    84.4016     0.1104 
 3706.5000  -999.2500  -999.2500     0.2374    72.4816  -999.2500    -0.5246     0.1390    10.3877     2.4722  -999.2500     9.1847    60.5800    85.8056     0.0918 
 3707.0000  -999.2500  -999.2500     0.2040    56.9079  -999.2500    -0.5209     0.1450    10.5872     2.4620  -999.2500     9.1771    59.6091    82.3084     0.0849 
 3707.5000  -999.2500  -999.2500     0.1833    50.2411  -999.2500    -0.5152     0.1340    10.6801     2.4809  -999.2500     9.1771    60.7485    70.6084     0.0930 
 3708.0000  -999.2500  -999.2500     0.1856    59.6280  -999.2500    -0.5122     0.1195    10.7203     2.5057  -999.2500     9.1771    60.6931    61.9462     0.0926 
 3708.5000  -999.2500  -999.2500     0.1947    63.8414  -999.2500    -0.5046     0.0970    10.7774     2.5442  -999.2500     9.1847    59.7364    60.2954     0.0858 
 3709.0000  -999.2500  -999.2500     0.1935    59.5747  -999.2500    -0.4962     0.0846    10.8184     2.5653  -999.2500     9.1924    59.6168    63.0694     0.0850 
 3709.5000  -999.2500  -999.2500     0.1873    62.6681  -999.2500    -0.4927     0.0885    10.8802     2.5587  -999.2500     9.1924    60.2506    65.1200     0.0895 
 3710.0000  -999.2500  -999.2500     0.1833    64.5348  -999.2500    -0.4901     0.0850    10.9262     2.5647  -999.2500     9.1924    61.3705    63.6905     0.0974 
 3710.5000  -999.2500  -999.2500     0.1947    61.1214  -999.2500    -0.4901     0.0845    10.8499     2.5655  -999.2500     9.1924    61.0325    63.5288     0.0950 
 3711.0000  -999.2500  -999.2500     0.2047    56.4279  -999.2500    -0.4932     0.0988    10.6990     2.5411  -999.2500     9.1924    59.7946    61.1293     0.0862 
 3711.5000  -999.2500  -999.2500     0.1861    46.2410  -999.2500    -0.4955     0.1135    10.5909     2.5159  -999.2500     9.1924    59.2457    56.1940     0.0824 
 3712.0000  -999.2500  -999.2500     0.1682    40.8543  -999.2500    -0.5011     0.1295    10.6271     2.4886  -999.2500     9.1924    59.2471    47.8721     0.0824 
 3712.5000  -999.2500  -999.2500     0.1756    48.0011  -999.2500    -0.5100     0.1420    10.7766     2.4671  -999.2500     9.1924    58.5482    44.6302     0.0774 
 3713.0000  -999.2500  -999.2500     0.1859    56.0546  -999.2500    -0.5180     0.1384    10.8612     2.4733  -999.2500     9.1924    57.5300    49.0379     0.0702 
 3713.5000  -999.2500  -999.2500     0.1860    49.9745  -999.2500    -0.5258     0.1391    10.7538     2.4721  -999.2500     9.1924    57.4292    55.1304     0.0695 
 3714.0000  -999.2500  -999.2500     0.1787    41.3876  -999.2500    -0.5241     0.1358    10.5512     2.4777  -999.2500     9.1924    58.0517    57.6150     0.0739 
 3714.5000  -999.2500  -999.2500     0.1803    43.3610  -999.2500    -0.5099     0.1174    10.4275     2.5092  -999.2500     9.1924    59.4763    54.7900     0.0840 
 3715.0000  -999.2500  -999.2500     0.1876    49.4411  -999.2500    -0.4984     0.1072    10.3793     2.5267  -999.2500     9.1924    61.0134    53.7008     0.0949 
 3715.5000  -999.2500  -999.2500     0.2037    60.1080  -999.2500    -0.4910     0.0954    10.4184     2.5469  -999.2500     9.1924    62.7392    55.9898     0.1071 
 3716.0000  -999.2500  -999.2500     0.2269    68.3215  -999.2500    -0.4834     0.0860    10.4597     2.5630  -999.2500     9.1924    63.9620    60.8910     0.1157 
 3716.5000  -999.2500  -999.2500     0.2290    64.1614  -999.2500    -0.4814     0.0999    10.3701     2.5391  -999.2500     9.1924    64.6674    64.9328     0.1207 
 3717.0000  -999.2500  -999.2500     0.2255    61.9214  -999.2500    -0.4844     0.1141    10.2654     2.5149  -999.2500     9.1924    64.9080    68.3280     0.1224 
 3717.5000  -999.2500  -999.2500     0.2218    64.9615  -999.2500    -0.4924     0.1169    10.2875     2.5101  -999.2500     9.1847    64.6962    69.2129     0.1209 
 3718.0000  -999.2500  -999.2500     0.2233    65.9215  -999.2500    -0.5033     0.1208    10.3609     2.5034  -999.2500     9.1924    64.4815    67.8429     0.1194 
 3718.5000  -999.2500  -999.2500     0.2050    67.7882  -999.2500    -0.5070     0.1224    10.3452     2.5007  -999.2500     9.1924    62.9796    65.1711     0.1088 
 3719.0000  -999.2500  -999.2500     0.1908    62.4547  -999.2500    -0.5054     0.1205    10.2836     2.5040  -999.2500     9.1924    61.6263    60.7974     0.0992 
 3719.5000  -999.2500  -999.2500     0.1885    51.3078  -999.2500    -0.5017     0.1123    10.2726     2.5180  -999.2500     9.1924    60.6376    56.2621     0.0922 
 3720.0000  -999.2500  -999.2500     0.1875    45.6010  -999.2500    -0.4949     0.1010    10.3152     2.5374  -999.2500     9.1924    60.1498    52.8499     0.0888 
 3720.5000  -999.2500  -999.2500     0.1828    47.7344  -999.2500    -0.4910     0.1043    10.1774     2.5316  -999.2500     9.1924    60.6192    52.4500     0.0921 
 3721.0000  -999.2500  -999.2500     0.1888    50.7211  -999.2500    -0.4900     0.1193     9.8009     2.5060  -999.2500     9.1847    61.7426    53.6923     0.1000 
 3721.5000  -999.2500  -999.2500     0.1863    52.7479  -999.2500    -0.4923     0.1278     9.6182     2.4915  -999.2500     9.1847    63.3669    52.2118     0.1115 
 3722.0000  -999.2500  -999.2500     0.1834    49.8678  -999.2500    -0.5002     0.1325     9.7522     2.4834  -999.2500     9.1847    64.9916    47.7360     0.1230 
 3722.5000  -999.2500  -999.2500     0.1817    45.3344  -999.2500    -0.5060     0.1410     9.8977     2.4690  -999.2500     9.1847    66.6088    44.6387     0.1344 
 3723.0000  -999.2500  -999.2500     0.1817    46.6144  -999.2500    -0.5081     0.1486     9.9716     2.4559  -999.2500     9.1847    66.7662    44.5451     0.1355 
 3723.5000  -999.2500  -999.2500     0.1855    45.2810  -999.2500    -0.5108     0.1591    10.0460     2.4380  -999.2500     9.1847    65.0305    46.1193     0.1233 
