###############################################
##         ENVERUS                           ##
##         ESS - Open Hole                   ##
##         PERMIAN / DELAWARE                ##
##         Nov 02 2023  V4.0                 ##
##         42-109-00406-00-00                ##
###############################################
## Copyright 2017-2023  ENVERUS.  All Rights Reserved. 
## Confidential - Property of ENVERUS, use governed by terms and 
## conditions found within the existing Information Services Subscription Agreement 
## (as may be amended, the “ISSA”) between Customer and ENVERUS. 
## 
~VERSION INFORMATION
# MNEM.UNIT                               DATA : DESCRIPTION OF MNEMONIC
#-----.-----     ----------------------------- : -----------------------------
VERS.                                     2.00 : CWLS LOG ASCII STANDARD - VERSION 2.00
WRAP.                                       NO : MULTIPLE LINES PER DEPTH STEP
VEND.                                  ENVERUS : VENDOR
TYPE.                          ESS - OPEN HOLE : ENVERUS ESSENTIAL CURVES – ACCESSIBLE THROUGH ENVERUS PRISM(TM)
DOC.                                  31976272 : ENVERUS HEADER RAW DOCUMENT ID
#___________________________________________________________________________________________________ 
~WELL INFORMATION 
# f03iSNYnaQ7mQXX2RIaOYtiytuBBABKYYIB1smJtyZkBcGMChrfvYQpeE0DESEj4BN+caz3q2IoGlEPFhwFUwg== 
# MNEM.UNIT                                              DATA : DESCRIPTION OF MNEMONIC 
#-----.-----                    ----------------------------- : ----------------------------- 
CNTY.                                               CULBERSON : COUNTY 
STATE.                                                  TEXAS : STATE 
CNTRY.                                                    USA : COUNTRY 
API.                                             42-109-00406 : API (10 Digit) 
API_14.                                    42-109-00406-00-00 : API (14 Digits) 
API_14_std.                                 42-109-00406-0000 : API (14 Digits Standard) 
UWI.                                           42109004060000 : UNIQUE WELL ID 
WELL.                                                  DRD_55 : WELL NAME
STRT.FT                                                 100.5 : START DEPTH
STOP.FT                                               12629.5 : STOP DEPTH
STEP.FT                                                   0.5 : STEP BETWEEN DEPTHS
NULL.                                                 -999.25 : NULL VALUE
#___________________________________________________________________________________________________ 
~PARAMETER INFORMATION 
# MNEM.UNIT                                              DATA : DESCRIPTION OF MNEMONIC 
#-----.-----                    ----------------------------- : -----------------------------
#___________________________________________________________________________________________________ 
~CURVE INFORMATION 
# MNEM.UNIT           : CURVE DESCRIPTION 
#-----.-----          : ----------------------------- 
 DEPT.FT               : MEASURED DEPTH 
 GR__A.API             : GAMMA RAY (GAMMA RAY) 
 DT__A.US/FT           : SONIC DELTA TRANSIT TIME (SONIC) 
 #___________________________________________________________________________________________________ 
~A         DEPT          GR__A          DT__A
          100.5         11.006       -999.250
          101.0         10.696       -999.250
          101.5         10.222       -999.250
          102.0          9.463       -999.250
          102.5          8.734       -999.250
          103.0          8.333       -999.250
          103.5          8.333       -999.250
          104.0          8.333       -999.250
          104.5          8.388       -999.250
          105.0          8.692       -999.250
          105.5          8.995       -999.250
          106.0          9.299       -999.250
          106.5          9.603       -999.250
          107.0          9.906       -999.250
          107.5         10.119       -999.250
          108.0         10.022       -999.250
          108.5          9.512       -999.250
          109.0          8.710       -999.250
          109.5          8.564       -999.250
          110.0          9.050       -999.250
          110.5          9.354       -999.250
          111.0          9.524       -999.250
          111.5          9.524       -999.250
          112.0          9.669       -999.250
          112.5         10.049       -999.250
          113.0         10.583       -999.250
          113.5         11.355       -999.250
          114.0         12.435       -999.250
          114.5         13.210       -999.250
          115.0         12.938       -999.250
          115.5         12.367       -999.250
          116.0         11.911       -999.250
          116.5         11.456       -999.250
          117.0         11.310       -999.250
          117.5         11.097       -999.250
          118.0         11.012       -999.250
          118.5         11.236       -999.250
          119.0         11.540       -999.250
          119.5         11.962       -999.250
          120.0         12.418       -999.250
          120.5         11.754       -999.250
          121.0         11.352       -999.250
          121.5         11.310       -999.250
          122.0         11.577       -999.250
          122.5         11.880       -999.250
          123.0         12.184       -999.250
          123.5         12.202       -999.250
          124.0         12.494       -999.250
          124.5         12.797       -999.250
          125.0         13.090       -999.250
          125.5         12.780       -999.250
          126.0         12.307       -999.250
          126.5         11.535       -999.250
          127.0         10.654       -999.250
          127.5         10.083       -999.250
          128.0          9.821       -999.250
          128.5          9.870       -999.250
          129.0         10.065       -999.250
          129.5          9.761       -999.250
          130.0          9.457       -999.250
          130.5          9.226       -999.250
          131.0          9.226       -999.250
          131.5          9.226       -999.250
          132.0          9.317       -999.250
          132.5          9.524       -999.250
          133.0          9.524       -999.250
          133.5          9.633       -999.250
          134.0          9.936       -999.250
          134.5         10.240       -999.250
          135.0         10.417       -999.250
          135.5         10.417       -999.250
          136.0         10.278       -999.250
          136.5          9.829       -999.250
          137.0          9.070       -999.250
          137.5          8.316       -999.250
          138.0          7.872       -999.250
          138.5          7.569       -999.250
          139.0          7.441       -999.250
          139.5          7.259       -999.250
          140.0          7.331       -999.250
          140.5          7.634       -999.250
          141.0          7.938       -999.250
          141.5          8.242       -999.250
          142.0          8.651       -999.250
          142.5          9.107       -999.250
          143.0          9.562       -999.250
          143.5         10.018       -999.250
          144.0         10.355       -999.250
          144.5         10.780       -999.250
          145.0         11.236       -999.250
          145.5         11.564       -999.250
          146.0         10.826       -999.250
          146.5         10.181       -999.250
          147.0          9.574       -999.250
          147.5          9.245       -999.250
          148.0          9.653       -999.250
          148.5         10.254       -999.250
          149.0         10.862       -999.250
          149.5         11.293       -999.250
          150.0         10.405       -999.250
          150.5         10.102       -999.250
          151.0          9.798       -999.250
          151.5          9.524       -999.250
          152.0          9.560       -999.250
          152.5          9.821       -999.250
          153.0          9.774       -999.250
          153.5          9.524       -999.250
          154.0          9.464       -999.250
          154.5          9.160       -999.250
          155.0          8.857       -999.250
          155.5          8.709       -999.250
          156.0          9.139       -999.250
          156.5         10.034       -999.250
          157.0         11.249       -999.250
          157.5         12.361       -999.250
          158.0         13.109       -999.250
          158.5         12.820       -999.250
          159.0         11.422       -999.250
          159.5         10.461       -999.250
          160.0         10.119       -999.250
          160.5         10.258       -999.250
          161.0         10.417       -999.250
          161.5         10.115       -999.250
          162.0          9.821       -999.250
          162.5          9.985       -999.250
          163.0         10.373       -999.250
          163.5         10.916       -999.250
          164.0         11.523       -999.250
          164.5         12.037       -999.250
          165.0         12.396       -999.250
          165.5         12.500       -999.250
          166.0         12.500       -999.250
          166.5         12.500       -999.250
          167.0         12.500       -999.250
          167.5         12.500       -999.250
          168.0         12.500       -999.250
          168.5         12.264       -999.250
          169.0         11.718       -999.250
          169.5         10.863       -999.250
          170.0         10.079       -999.250
          170.5          9.580       -999.250
          171.0          9.258       -999.250
          171.5          9.499       -999.250
          172.0          9.802       -999.250
          172.5         10.106       -999.250
          173.0         11.136       -999.250
          173.5         12.199       -999.250
          174.0         12.202       -999.250
          174.5         12.214       -999.250
          175.0         12.474       -999.250
          175.5         12.007       -999.250
          176.0         11.385       -999.250
          176.5         10.591       -999.250
          177.0          9.569       -999.250
          177.5          8.976       -999.250
          178.0          9.280       -999.250
          178.5          9.583       -999.250
          179.0          9.887       -999.250
          179.5         10.119       -999.250
          180.0         10.119       -999.250
          180.5         10.035       -999.250
          181.0          9.732       -999.250
          181.5          9.908       -999.250
          182.0         10.919       -999.250
          182.5         11.634       -999.250
          183.0         12.488       -999.250
          183.5         13.127       -999.250
          184.0         13.519       -999.250
          184.5         13.889       -999.250
          185.0         14.345       -999.250
          185.5         14.150       -999.250
          186.0         13.540       -999.250
          186.5         13.079       -999.250
          187.0         12.472       -999.250
