###############################################
##         ENVERUS                           ##
##         ESS - Open Hole                   ##
##         PERMIAN / DELAWARE                ##
##         Nov 03 2023  V4.0                 ##
##         42-109-32620-90-00                ##
###############################################
## Copyright 2017-2023  ENVERUS.  All Rights Reserved. 
## Confidential - Property of ENVERUS, use governed by terms and 
## conditions found within the existing Information Services Subscription Agreement 
## (as may be amended, the “ISSA”) between Customer and ENVERUS. 
## 
~VERSION INFORMATION
# MNEM.UNIT                               DATA : DESCRIPTION OF MNEMONIC
#-----.-----     ----------------------------- : -----------------------------
VERS.                                     2.00 : CWLS LOG ASCII STANDARD - VERSION 2.00
WRAP.                                       NO : MULTIPLE LINES PER DEPTH STEP
VEND.                                  ENVERUS : VENDOR
TYPE.                          ESS - OPEN HOLE : ENVERUS ESSENTIAL CURVES – ACCESSIBLE THROUGH ENVERUS PRISM(TM)
DOC.                                  51092952 : ENVERUS HEADER RAW DOCUMENT ID
#___________________________________________________________________________________________________ 
~WELL INFORMATION 
# LYPeWtxrle9FodilXqet+3VuPRh8A73lGXm1Q3+VPjdIM+tEhu367IfA47DlYFnVF+yDwY76OrXOyADpoj01xA== 
# MNEM.UNIT                                              DATA : DESCRIPTION OF MNEMONIC 
#-----.-----                    ----------------------------- : ----------------------------- 
CNTY.                                               CULBERSON : COUNTY 
STATE.                                                  TEXAS : STATE 
CNTRY.                                                    USA : COUNTRY 
API.                                             42-109-32620 : API (10 Digit) 
API_14.                                    42-109-32620-90-00 : API (14 Digits) 
API_14_std.                                 42-109-32620-9000 : API (14 Digits Standard) 
UWI.                                           42109326209000 : UNIQUE WELL ID 
WELL.                               42109326200000_PREV_API14 : WELL NAME
STRT.FT                                                2339.0 : START DEPTH
STOP.FT                                               10866.0 : STOP DEPTH
STEP.FT                                                   0.5 : STEP BETWEEN DEPTHS
NULL.                                                 -999.25 : NULL VALUE
PREV_APII.                                     42109326200000 : WELL IDENTIFIER
#___________________________________________________________________________________________________ 
~PARAMETER INFORMATION 
# MNEM.UNIT                                              DATA : DESCRIPTION OF MNEMONIC 
#-----.-----                    ----------------------------- : ----------------------------- 
EKB.FT                                                   3330 : ELEVATION ABOVE MSL
#___________________________________________________________________________________________________ 
~CURVE INFORMATION 
# MNEM.UNIT           : CURVE DESCRIPTION 
#-----.-----          : ----------------------------- 
 DEPT.FT               : MEASURED DEPTH 
 GR__A.API             : GAMMA RAY (GAMMA RAY) 
 DT__A.US/FT           : SONIC DELTA TRANSIT TIME (SONIC) 
 #___________________________________________________________________________________________________ 
~A         DEPT          GR__A          DT__A
# ...
         3992.0        128.680         68.419
         3992.5        136.144         66.399
         3993.0        141.717         68.221
         3993.5        135.507         73.203
         3994.0        128.793         75.682
         3994.5        129.341         77.683
         3995.0        141.078         77.140
         3995.5        148.935         74.407
         3996.0        147.289         72.350
         3996.5        144.910         70.718
         3997.0        149.473         70.211
         3997.5        157.285         70.010
         3998.0        152.317         70.539
         3998.5        138.611         71.214
         3999.0        142.565         71.364
         3999.5        144.356         72.016
         4000.0        130.195         71.442
         4000.5        126.203         70.829
         4001.0        136.705         71.008
         4001.5        133.043         74.867
         4002.0        124.245         78.619
         4002.5        126.032         75.788
         4003.0        129.814         70.602
         4003.5        135.979         64.443
         4004.0        138.307         65.951
         4004.5        136.527         71.094
         4005.0        135.562         73.989
         4005.5        130.487         73.542
         4006.0        129.290         69.881
         4006.5        149.454         67.268
         4007.0        146.523         66.600
         4007.5        140.649         69.051
         4008.0        136.626         72.367
         4008.5        126.726         72.456
         4009.0        113.648         70.740
         4009.5        109.879         65.654
         4010.0        118.153         65.597
         4010.5        127.375         66.399
         4011.0        135.614         66.800
         4011.5        155.286         68.001
         4012.0        159.582         72.516
         4012.5        148.550         77.233
         4013.0        141.656         81.236
         4013.5        133.225         80.360
         4014.0        135.497         75.744
         4014.5        142.305         75.426
         4015.0        141.904         75.226
         4015.5        141.317         76.965
         4016.0        143.170         77.031
         4016.5        155.725         78.143
         4017.0        153.487         79.439
         4017.5        140.296         80.603
         4018.0        130.593         81.818
         4018.5        123.035         83.033
         4019.0        123.722         82.452
         4019.5        133.327         81.852
         4020.0        127.676         82.648
         4020.5        123.809         83.250
         4021.0        126.148         82.289
         4021.5        125.849         78.208
         4022.0        133.856         76.367
         4022.5        146.870         76.302
         4023.0        149.301         77.717
         4023.5        145.244         81.628
         4024.0        141.505         87.569
         4024.5        140.519         87.127
         4025.0        145.650         82.642
         4025.5        158.196         76.191
         4026.0        164.170         71.112
         4026.5        152.591         69.542
         4027.0        142.170         68.205
         4027.5        135.338         68.128
         4028.0        143.304         67.397
         4028.5        142.389         68.211
         4029.0        127.588         73.102
         4029.5        123.696         87.276
         4030.0        119.282         99.638
         4030.5        115.071         98.190
         4031.0        117.921         85.552
         4031.5        122.374         80.112
         4032.0        123.921         78.351
         4032.5        123.477         77.447
         4033.0        121.782         74.451
         4033.5        143.803         67.609
         4034.0        156.153         67.596
         4034.5        139.966         68.947
         4035.0        122.898         78.777
         4035.5        118.164         89.283
         4036.0        121.703         92.929
         4036.5        123.721         87.333
         4037.0        129.913         73.634
         4037.5        124.486         66.483
         4038.0        118.557         64.739
         4038.5        136.502         75.944
         4039.0        148.822         80.679
         4039.5        143.650         74.887
         4040.0        135.611         65.548
         4040.5        126.148         65.807
         4041.0        130.361         67.371
         4041.5        132.344         69.142
         4042.0        131.337         67.636
         4042.5        141.707         64.623
         4043.0        149.559         67.756
         4043.5        147.845         65.035
         4044.0        142.511         64.801
         4044.5        136.644         74.416
         4045.0        145.363         81.177
         4045.5        152.371         83.651
         4046.0        140.377         82.496
         4046.5        128.523         78.241
         4047.0        125.260         81.926
         4047.5        121.357         85.199
         4048.0        124.352         85.416
         4048.5        134.341         83.975
         4049.0        146.880         81.457
         4049.5        152.515         77.667
         4050.0        153.248         83.936
         4050.5        135.441         85.954
         4051.0        122.386         86.219
         4051.5        125.646         88.442
         4052.0        133.495         89.313
         4052.5        143.593         93.772
         4053.0        140.002         94.532
         4053.5        127.246         92.164
         4054.0        123.805         90.297
         4054.5        125.718         92.632
         4055.0        127.345         97.881
         4055.5        127.593        101.913
         4056.0        136.015        101.879
         4056.5        182.319         97.950
         4057.0        220.486         97.091
         4057.5        237.405         97.493
         4058.0        255.703         96.765
         4058.5        355.382         94.557
         4059.0        442.641         97.231
         4059.5        412.533        100.197
         4060.0        352.316        101.813
         4060.5        321.839        101.427
         4061.0        288.759         97.732
         4061.5        199.885        103.363
         4062.0        176.145        108.477
         4062.5        124.775        112.099
         4063.0        135.787        111.936
         4063.5        148.367        110.755
         4064.0        152.870        108.927
         4064.5        176.034        107.709
         4065.0        221.688        104.860
         4065.5        274.450        102.938
         4066.0        284.939        103.150
         4066.5        223.442        104.119
         4067.0        173.512        107.517
         4067.5        165.521        106.245
         4068.0        164.980        106.319
         4068.5        177.775        106.118
         4069.0        188.236        107.530
         4069.5        175.857        108.704
         4070.0        177.517        109.924
         4070.5        191.392        108.244
         4071.0        229.528        103.780
         4071.5        279.136        101.943
         4072.0        281.888        102.281
         4072.5        271.658        103.782
         4073.0        279.983        107.205
         4073.5        301.233        104.039
         4074.0        373.590         96.585
         4074.5       -999.250         86.638
         4075.0        599.602         81.258
         4075.5        600.148         92.009
         4076.0        447.779        108.446
         4076.5        133.074        128.853
         4077.0         94.658        136.939
         4077.5         87.824        136.669
         4078.0         88.438        131.406
         4078.5         92.209        116.434
