###############################################
##         ENVERUS                           ##
##         ESS - Open Hole                   ##
##         PERMIAN / DELAWARE                ##
##         Nov 02 2023  V4.0                 ##
##         42-109-10071-00-00                ##
###############################################
## Copyright 2017-2023  ENVERUS.  All Rights Reserved. 
## Confidential - Property of ENVERUS, use governed by terms and 
## conditions found within the existing Information Services Subscription Agreement 
## (as may be amended, the “ISSA”) between Customer and ENVERUS. 
## 
~VERSION INFORMATION
# MNEM.UNIT                               DATA : DESCRIPTION OF MNEMONIC
#-----.-----     ----------------------------- : -----------------------------
VERS.                                     2.00 : CWLS LOG ASCII STANDARD - VERSION 2.00
WRAP.                                       NO : MULTIPLE LINES PER DEPTH STEP
VEND.                                  ENVERUS : VENDOR
TYPE.                          ESS - OPEN HOLE : ENVERUS ESSENTIAL CURVES – ACCESSIBLE THROUGH ENVERUS PRISM(TM)
DOC.                                  31950413 : ENVERUS HEADER RAW DOCUMENT ID
#___________________________________________________________________________________________________ 
~WELL INFORMATION 
# OfUh2+mdeFjroaXzMJDg/lRWUsinBwpBr+LWp9Jgnw936lSgPWOOCrYxw0Bz1A8ekYSC2IJg55FhS+cGr4hs3w== 
# MNEM.UNIT                                              DATA : DESCRIPTION OF MNEMONIC 
#-----.-----                    ----------------------------- : ----------------------------- 
CNTY.                                               CULBERSON : COUNTY 
STATE.                                                  TEXAS : STATE 
CNTRY.                                                    USA : COUNTRY 
API.                                             42-109-10071 : API (10 Digit) 
API_14.                                    42-109-10071-00-00 : API (14 Digits) 
API_14_std.                                 42-109-10071-0000 : API (14 Digits Standard) 
UWI.                                           42109100710000 : UNIQUE WELL ID 
WELL.                                                  DRD_55 : WELL NAME
STRT.FT                                                 320.5 : START DEPTH
STOP.FT                                               12359.5 : STOP DEPTH
STEP.FT                                                   0.5 : STEP BETWEEN DEPTHS
NULL.                                                 -999.25 : NULL VALUE
#___________________________________________________________________________________________________ 
~PARAMETER INFORMATION 
# MNEM.UNIT                                              DATA : DESCRIPTION OF MNEMONIC 
#-----.-----                    ----------------------------- : -----------------------------
#___________________________________________________________________________________________________ 
~CURVE INFORMATION 
# MNEM.UNIT           : CURVE DESCRIPTION 
#-----.-----          : ----------------------------- 
 DEPT.FT               : MEASURED DEPTH 
 GR.API                : GAMMA RAY (GAMMA RAY) 
 DT.US/FT              : SONIC DELTA TRANSIT TIME (SONIC) 
 #___________________________________________________________________________________________________ 
~A         DEPT             GR             DT
          320.5         15.992       -999.250
          321.0         15.992       -999.250
          321.5         15.992       -999.250
          322.0         15.582       -999.250
          322.5         16.015       -999.250
          323.0         16.607       -999.250
          323.5         17.526       -999.250
          324.0         17.950       -999.250
          324.5         17.950       -999.250
          325.0         17.252       -999.250
          325.5         16.333       -999.250
          326.0         16.319       -999.250
          326.5         16.319       -999.250
          327.0         16.645       -999.250
          327.5         16.645       -999.250
          328.0         16.645       -999.250
          328.5         16.645       -999.250
          329.0         16.319       -999.250
          329.5         15.992       -999.250
          330.0         15.339       -999.250
          330.5         15.339       -999.250
          331.0         15.666       -999.250
          331.5         16.319       -999.250
          332.0         16.645       -999.250
          332.5         16.433       -999.250
          333.0         17.025       -999.250
          333.5         17.944       -999.250
          334.0         18.862       -999.250
          334.5         18.930       -999.250
          335.0         18.930       -999.250
          335.5         18.930       -999.250
          336.0         18.277       -999.250
          336.5         17.624       -999.250
          337.0         17.298       -999.250
          337.5         17.298       -999.250
          338.0         17.298       -999.250
          338.5         16.645       -999.250
          339.0         16.014       -999.250
          339.5         15.339       -999.250
          340.0         15.196       -999.250
          340.5         15.666       -999.250
          341.0         16.319       -999.250
          341.5         16.973       -999.250
          342.0         17.357       -999.250
          342.5         17.504       -999.250
          343.0         17.298       -999.250
          343.5         17.298       -999.250
          344.0         16.947       -999.250
          344.5         16.608       -999.250
          345.0         16.874       -999.250
          345.5         17.298       -999.250
          346.0         17.298       -999.250
          346.5         17.251       -999.250
          347.0         16.332       -999.250
          347.5         15.992       -999.250
          348.0         16.510       -999.250
          348.5         17.428       -999.250
          349.0         18.277       -999.250
          349.5         18.603       -999.250
          350.0         18.277       -999.250
          350.5         17.736       -999.250
          351.0         17.470       -999.250
          351.5         17.391       -999.250
          352.0         17.950       -999.250
          352.5         18.901       -999.250
          353.0         18.692       -999.250
          353.5         18.603       -999.250
          354.0         18.487       -999.250
          354.5         18.658       -999.250
          355.0         18.930       -999.250
          355.5         19.256       -999.250
          356.0         19.256       -999.250
          356.5         19.256       -999.250
          357.0         18.930       -999.250
          357.5         18.586       -999.250
          358.0         18.277       -999.250
          358.5         18.499       -999.250
          359.0         18.930       -999.250
          359.5         19.256       -999.250
          360.0         19.909       -999.250
          360.5         19.909       -999.250
          361.0         19.582       -999.250
          361.5         18.745       -999.250
          362.0         18.153       -999.250
          362.5         17.687       -999.250
          363.0         17.953       -999.250
          363.5         18.871       -999.250
          364.0         20.116       -999.250
          364.5         20.235       -999.250
          365.0         19.822       -999.250
          365.5         19.582       -999.250
          366.0         19.582       -999.250
          366.5         19.582       -999.250
          367.0         19.582       -999.250
          367.5         19.909         59.148
          368.0         20.235         66.556
          368.5         20.888         62.813
          369.0         20.888         53.654
          369.5         20.042         59.054
          370.0         18.797         64.147
          370.5         18.277         54.525
          371.0         18.277         55.756
          371.5         18.277         63.358
          372.0         18.061         74.436
          372.5         18.277         62.021
          373.0         18.277         48.291
          373.5         18.603         54.430
          374.0         18.930         51.345
          374.5         19.582         48.835
          375.0         19.909         49.612
          375.5         19.582         57.085
          376.0         19.256         64.312
          376.5         19.909         51.348
          377.0         19.909         51.102
          377.5         19.909         52.054
          378.0         19.722         51.716
          378.5         19.909         50.645
          379.0         20.235         49.574
          379.5         20.519         49.080
          380.0         20.785         49.121
          380.5         21.214         49.399
          381.0         20.785         49.685
          381.5         19.214         50.089
          382.0         18.296         50.158
          382.5         17.624         50.217
          383.0         17.950         50.573
          383.5         19.055         50.678
          384.0         19.582         50.221
          384.5         19.909         49.387
          385.0         19.909         50.064
          385.5         20.235         50.191
          386.0         20.710         49.424
          386.5         21.214         48.854
          387.0         21.214         49.377
          387.5         20.595         50.341
          388.0         19.677         51.482
          388.5         19.256         50.311
          389.0         19.256         49.786
          389.5         20.285         57.107
          390.0         21.214         59.199
          390.5         22.122         49.619
          391.0         22.714         48.065
          391.5         22.520         47.559
          392.0         22.520         47.384
          392.5         22.181         46.880
          393.0         21.867         47.643
          393.5         21.867         48.792
          394.0         21.384         50.054
          394.5         20.792         49.551
          395.0         19.582         49.635
          395.5         18.955         65.255
          396.0         18.930         53.092
          396.5         19.582         50.355
          397.0         20.235         49.843
          397.5         20.561         50.014
          398.0         20.885         50.158
          398.5         20.625         50.221
          399.0         19.909         50.443
          399.5         19.114         50.585
          400.0         18.930         50.709
          400.5         18.930         50.787
          401.0         18.930         50.787
          401.5         19.256         51.078
          402.0         19.092         51.498
          402.5         18.603         50.747
          403.0         18.603         47.056
          403.5         18.603         46.503
          404.0         18.277         45.610
          404.5         17.950         45.309
          405.0         17.824         44.770
          405.5         17.690         46.278
          406.0         17.950         48.505
          406.5         18.277         49.310
          407.0         18.603         49.449
