#--------------------------------------------------#
#----------------DRILLING INFO, INC.---------------#
#---------------WWW.DRILLINGINFO.COM---------------#
#------------------COPYRIGHT 2018------------------#
#--------------------------------------------------#
#THIS FILE MAY BE USED ONLY IN ACCORDANCE WITH A CURRENT SUBSCRIPTION AGREEMENT BETWEEN
#THE USER AND DRILLING INFO, INC. NO PART OF THIS FILE MAY BE REPRODUCED, USED, COPIED,
#MODIFIED, PROPAGATED, OR DISTRIBUTED EXCEPT IN ACCORDANCE WITH THE SUBSCRIPTION
#AGREEMENT. UNAUTHORIZED USE OR DISTRIBUTION OF ALL OR ANY PART OF THIS FILE MAY VIOLATE
#COPYRIGHT, TRADEMARK, AND/OR OTHER LAWS AND IS SUBJECT TO CIVIL AS WELL AS CRIMINAL
#SANCTIONS.
#--------------------------------------------------#
#THIS FILE IS PROVIDED "AS-IS" AND ALL WARRANTIES ARE EXPRESSLY DISCLAIMED, WHETHER
#EXPRESS, ORAL, IMPLIED, STATUTORY OR OTHERWISE, INCLUDING ANY IMPLIED WARRANTY OF FITNESS
#FOR A PARTICULAR PURPOSE, MERCHANTABILITY, TITLE OR NON-INFRINGEMENT, AND ANY WARRANTIES
#ARISING BY VIRTUE OF CUSTOM OF TRADE OR COURSE OF DEALING.  FURTHER, DRILLING INFO,
#INC. AND ITS LICENSORS DO NOT REPRESENT OR WARRANT THAT THIS FILE WILL MEET USER'S
#REQUIREMENTS OR ARE SUITABLE FOR USER'S NEEDS OR THAT THE DATA OR RESULTS PROVIDED IN
#CONJUNCTION THEREWITH ARE CORRECT, ACCURATE, TIMELY OR RELIABLE. THESE DISCLAIMERS SHALL
#APPLY REGARDLESS OF ANY FAILURE OF ESSENTIAL PURPOSE OF ANY LIMITED REMEDY.  SOME
#JURISDICTIONS DO NOT ALLOW THE EXCLUSION OF CERTAIN WARRANTIES SO SOME OF THE ABOVE
#EXCLUSIONS MAY NOT APPLY. IN NO EVENT SHALL DRILLING INFO, INC. OR ANY OF ITS AFFILIATES
#BE LIABLE UNDER ANY LEGAL THEORY, WHETHER IN TORT (INCLUDING WITHOUT LIMITATION
#NEGLIGENCE), CONTRACT, STRICT LIABILITY, STATUTORY OR OTHERWISE, FOR ANY SPECIAL,
#INCIDENTAL, CONSEQUENTIAL, EXEMPLARY, PUNITIVE OR INDIRECT DAMAGE OF ANY KIND, INCLUDING
#WITHOUT LIMITATION LOSS OF REVENUE, PROFITS, GOODWILL, USE, AND/OR DATA OR THE COST OF
#PROCUREMENT OF SUBSTITUTE GOODS OR SERVICES, EVEN IF APPRISED OF THE POSSIBILITY OF SUCH
#DAMAGES IN ADVANCE.
#--------------------------------------------------#
# Exported from DI Transform
# DI Transform - A Product of Drillinginfo, Inc. - www.drillinginfo.com
#--------------------------------------------------#
#
~VERSION INFORMATION
 VERS.        2.0 : LAS ASCII STANDARD - VERSION 2.0
 WRAP.         NO : ONE LINE PER DEPTH STEP

~WELL INFORMATION
#MNEM.UNIT       DATA TYPE       INFORMATION
#---------       ---------       -----------
 STRT.ft          9043 : Start Depth
 STOP.ft         16870 : Stop Depth
 STEP.ft           0.5 : Step Length
 NULL.         -999.25 : Null Value
 COMP.                 : Company
 WELL.          DRD_55 : Well Name
 FLD.                  : Field Name
 LOC.                  : Well Location
 CNTY.                 : County
 STAT.                 : State or Province
 CTRY.                 : Country
 SRVC.                 : Service Company
 DATE.                 : Date
 API.   42109326310000 : Well Identifier

~CURVE INFORMATION
#MNEM.UNIT       API CODE       CURVE DESCRIPTION
#---------       --------       -----------------
 DEPT.ft          : <Measured Depth>
 CAL.in           : Caliper
 DPHI.%           : Density Porosity
 DT.us/ft         : Sonic
 GR.gAPI          : Gamma Ray
 ILD.ohmm         : Deep Resistivity
 ILS.ohmm         : Shallow Resistivity
 RHOB.g/cm3       : Density

~PARAMETER INFORMATION
#MNEM.UNIT       VALUE       DESCRIPTION
#---------       -----       -----------
 EKB.ft      3382 : Elevation above MSL

~A       DEPT         CAL        DPHI          DT          GR         ILD         ILS        RHOB
# ...
        11052      6.0434     11.8062     66.8163    327.1277      41.774     38.8112      2.5033
      11052.5      6.0434     12.0123     66.8163    321.8316     38.0767     34.1509      2.5025
        11053      6.0434       11.88     66.8163    320.3125     30.1688     28.3834      2.5115
      11053.5      6.0434     11.5857     66.8163    320.4063     26.8647     24.8722      2.5151
        11054      6.0434      11.304     66.8163    323.6842     27.5463     25.0536      2.5173
      11054.5      6.0434     11.1972     66.9388     323.854     28.8842     26.2831      2.5155
        11055      6.0434     11.3115     67.1299    323.6842     30.2847     27.5575      2.5173
      11055.5      6.0434     11.2595     67.1924    323.6842     32.8245     28.8961      2.5194
        11056      6.0434     11.1354     67.2722    323.1867     36.5941     33.4176      2.5214
      11056.5      6.0434     10.9294     67.2947    314.8702     39.0527     35.5499      2.5216
        11057      6.0434      10.916     66.9872    306.9654     36.1984     31.9458      2.5196
      11057.5      6.0434     11.0401     66.6798    302.1055     32.4845     29.2265      2.5175
        11058      6.0434     11.2462     66.3723    308.1325     30.8262     27.9589      2.5155
      11058.5      6.0434     11.3934     66.0648    316.0969     32.5737     28.1653      2.5174
        11059      6.0434     11.2295     65.9618    323.6842      34.619     30.0575      2.5154
      11059.5      6.0434     11.1475     66.1011    326.9153     36.1909     30.3152      2.5174
        11060      6.0434     11.1521     66.2041    322.8086     34.4842      29.122      2.5195
      11060.5      6.0434     11.1475     66.3265    320.3125     31.1684     26.2466      2.5195
        11061      6.0434     11.0656     66.3265    317.9604     30.4263     24.9672      2.5195
      11061.5      6.0434     11.0656     66.4738    323.6842     33.0583     27.0813      2.5174
        11062      6.0434     11.1734     66.6939    325.2534     34.6619     27.7811      2.5154
      11062.5      6.0434     11.3795     66.7064    320.8865     35.5107     28.4943      2.5134
        11063      6.0434     11.4754     66.6939    313.7755     32.8351     25.3627      2.5154
      11063.5      6.0434     11.4754     66.6939    313.7755     31.2311     25.2735      2.5175
        11064      6.0434      11.281     66.5714       307.5     31.4595     25.6847      2.5195
      11064.5      6.0434     11.0749     66.5714    304.8031     32.4799     26.4741      2.5195
        11065      6.0434     11.0983     66.4759    297.3959     33.2599     27.0208      2.5195
      11065.5      6.0434     11.1475     66.1685    292.8571     33.2921     27.5033      2.5196
        11066      6.0434     11.1125      65.861    298.9709     32.6697     27.4496      2.5215
      11066.5      6.0434     10.9836     65.4889    310.3366     31.6197     27.0208      2.5194
        11067      6.0434      11.021     65.5703    324.4876     30.8713      27.229      2.5173
      11067.5      6.0434      11.227     65.8367    323.7878     31.9116     28.1821      2.5155
        11068      6.0434     11.3538     65.8367    318.7145     33.2921     28.7476      2.5177
      11068.5      6.0434     11.2297     65.8367    310.6126     33.3019     29.2031      2.5208
        11069      6.0434     11.1056     65.8367    310.6061     33.2921     29.8593      2.5238
      11069.5      6.0434     10.8995     65.6058     308.528     33.2921     30.0481      2.5253
        11070      6.0434     10.8197     65.7143    311.7328     32.0589     29.9664      2.5223
      11070.5      6.0434      10.988     65.8367    318.3483     30.9775     29.0497      2.5195
        11071      6.0434     11.1941     65.9483    321.6698     29.5442     28.4497      2.5192
      11071.5      6.0434     11.2979     65.9592    322.8132     28.1763     27.1326      2.5178
        11072      6.0434     10.9025     66.0735    321.6698     28.8184      27.232      2.5282
      11072.5      6.0434     10.4259     66.0816     319.284     31.8166      30.276      2.5305
        11073      6.0434     10.6505     66.2041    318.2878     34.7402     33.5291      2.5217
      11073.5      6.0434     11.0472     66.2041     313.791     37.8717     34.8853      2.5147
        11074      6.0434     11.3917     66.2041    315.8849     37.7136     35.5499       2.511
      11074.5      6.0434     11.4618     66.2041    323.6842     35.9671     34.9848      2.5151
        11075      6.0434     11.2557     66.3265    324.5185     34.3034     32.1837      2.5203
      11075.5      6.0434     11.0497      66.449    316.3823     32.7147     30.6043      2.5253
        11076      6.0434     10.7446     66.5714    308.4141      34.031     31.6966      2.5292
      11076.5      6.0434     10.5556     66.6939    314.4942     36.5352     34.2982      2.5322
        11077      6.0434     10.3495     66.6939    322.7947     38.3275     36.4606      2.5339
      11077.5      6.0434     10.2459     66.6939    322.8406     40.1859     37.4788      2.5335
        11078      6.0434     10.3085     66.7018    314.5382     39.8454     38.0109      2.5315
      11078.5      6.0434     10.3507     66.8868    311.5315     37.2917     36.1893      2.5298
        11079      6.0434     10.5567     66.9388    319.6265     35.5648     34.4654      2.5302
      11079.5      6.0434     10.5169     67.0612     328.205     33.9264     33.4145      2.5322
        11080      6.0434     10.4918     67.0612    334.5463     32.9652     33.4145      2.5343
      11080.5      6.0434     10.3005     67.0612    325.9765     31.4278     33.0684      2.5364
        11081      6.0434     10.1764     67.0612    317.5112     29.4237     30.3939      2.5384
      11081.5      6.0403     10.1342     67.0612    313.7755      28.658     28.7476      2.5407
        11082      6.0264      9.9282     67.0612    313.7755     30.0497     29.4088      2.5439
      11082.5      6.0264      9.8361     67.0612    313.1847     31.6756     30.8565      2.5453
        11083      6.0264        9.68     66.9388    313.7755     32.2468     30.8565      2.5396
      11083.5      6.0264      9.9047     66.8548    318.3919     31.6091     30.0481      2.5327
        11084      6.0264     10.2786     66.6939    326.8949     31.1807     30.0481      2.5236
      11084.5      6.0264     10.8475     66.6939    331.3666     30.9355     29.2609      2.5164
        11085      6.0264     11.3066     66.6939    323.8205      30.794     29.4732      2.5126
      11085.5      6.0264     11.4724     66.6939    315.4756     31.0497     30.5846      2.5129
        11086      6.0264     11.3944     66.6939    307.5358     33.0775     30.5846      2.5217
      11086.5      6.0264     11.1062     66.6939    302.9556     32.1637     30.2269      2.5303
        11087      6.0264     10.5301     66.6939    301.4706     29.4425      26.464      2.5385
      11087.5      6.0264      10.077     66.6939    301.4706     28.0522      23.662      2.5426
        11088      6.0264      9.8324     66.6939    301.5116     29.0075     23.9571      2.5426
      11088.5      6.0264      9.8361     66.7913    306.1559     30.9945     27.1114      2.5426
        11089      6.0264      9.8301     66.9388    313.7755     32.0589     25.8513      2.5472
      11089.5      6.0264         9.6     66.9388    313.7755     32.6697     25.7987      2.5573
        11090      6.0264      9.3278     66.9388    313.7755     32.6697     25.6236      2.5558
      11090.5      6.0264      8.8927     66.9388    315.7636     34.0898     26.4919      2.5531
        11091      6.0264      9.0269     66.9388     317.435     35.2315      27.261      2.5488
      11091.5      6.0264      9.3003     66.8333    324.6098     35.3452     27.3275      2.5475
        11092      6.0264      9.5088     66.5259    319.7953     35.2315     27.0724      2.5541
      11092.5      6.0264      9.2343     66.3409    311.6499     34.3814     26.4776       2.562
