~Version Information
 VERS.                  2.0:   CWLS log ASCII Standard -VERSION 2.0
 WRAP.                   NO:   One line per depth step
~Well Information Block
#MNEM.UNIT     VALUE/NAME     DESCRIPTION
#---------     -----------    ---------------------------
 STRT.F              8400.0000: START DEPTH
 STOP.F             13890.0000: STOP DEPTH
 STEP.F                 0.5000: STEP DEPTH
 NULL.                 -999.25: NULL VALUE
 LOC .     506' FEL & 344' FSL:  LOCATION
 FL6 .       API  42-109-33224:  LOCATIONLINE6
 FL4 .           ABSTRACT 4479:  LOCATIONLINE4
 FL3 .        T&P RR CO SURVEY:  LOCATIONLINE3
 FL2 .     SECTION 30, BLOCK 58 T2:  LOCATIONLINE2
 FL1 .     506' FEL & 344' FSL:  LOCATIONLINE1
 DMF .                      KB:  DRILL MEAS FROM
 PDAT.                      GL:  PERMANENT DATUM
 CNTY.               CULBERSON:  COUNTY NAME
 FLD .     FORD, WEST (WOLFCAMP):  FIELD NAME
 WELL.      LAUREN STATE 30 2H:  WELL NAME
 COMP.     CAPITAN ENERGY, INC.:  COMPANY
 DATE.             19-Feb-2018:  DATE
 SVCO.             Halliburton:  SERVICECONAME
 PROV.                   TEXAS:  PROVINCE
 STAT.                   TEXAS:  STATE NAME
 CTRY.                     USA:  COUNTRY NAME
 HIDE.                        :  WELLNAMEOPERAT
 BASI.                 PERMIAN:  BASIN
 UWI .            42-109-33224:  UNIQUE WELL IDENTIFIER
 API .            42-109-33224:  API NUMBER
 RANG.                     N/A:  RANGE
 TOWN.                     N/A:  TOWNSHIP
 SECT.                     N/A:  SECTION
 SON .               904646015:  JOB NUMBER
 SRVC.             Halliburton:  SERVICE COMPANY
 LMF .                      KB:  LOG MEASURED FROM
 EGL .ft             3168.0000:  GROUND ELEVATION
 BAP .ft                0.0000:  GL ELEV ONSHORE
 GVFD.g                 1.0000:  GRAVITY FIELD
 EKB .ft             3194.0000:  KB ELEVATION
 EDF .ft             3193.0000:  DF ELEVATION
~Curve Information Block
#MNEM.UNIT                 API CODE     Curve Description
#---------               -----------    ---------------------------
 DEPT.F                 00 000 000 000:  Depth
 CCL .V                 00 000 000 000:  Casing Collar Locator
 NPHI_OH.pu             00 000 000 000:  NPHI_OH
 NPHI_CHI.pu            00 000 000 000:  NPHI_CHI
 GR_OH.api              00 000 000 000:  GR_OH
 GR_CHI.api             00 000 000 000:  GR_CHI
 RHOB_OH.g/cc           00 000 000 000:  RHOB_OH
 RHOB_CHI.g/cc          00 000 000 000:  RHOB_CHI
 PE_OH.b/e              00 000 000 000:  PE_OH
 PE_CHI.b/e             00 000 000 000:  PE_CHI
 RT10_OH.ohmm           00 000 000 000:  RT10_OH
 RT10_CHI.ohmm          00 000 000 000:  RT10_CHI
 RT30_OH.ohmm           00 000 000 000:  RT30_OH
 RT30_CHI.ohmm          00 000 000 000:  RT30_CHI
 RT90_OH.ohmm           00 000 000 000:  RT90_OH
 RT90_CHI.ohmm          00 000 000 000:  RT90_CHI
 DTC_OH.uspf            00 000 000 000:  DTC_OH
 DTC_CHI.uspf           00 000 000 000:  DTC_CHI
 SPHI_CHI.pu            00 000 000 000:  SPHI_CHI
 SGF .cu                00 000 000 000:  Formation Sigma
 CRNF.NONE              00 000 000 000:  CM GrsCaptRatio
 RIN .NONE              00 000 000 000:  CM GrsInelRatio
#Other Information
#
#WARRANTY: Halliburton will use its best efforts to furnish customers with 
#accurate information and interpretations that are part of, and incident to, the services 
#provided.  However, Halliburton cannot and does not warrant the accuracy 
#or correctness of such information and interpretations.  Under no circumstances should any 
#such information or interpretation be relied upon as the sole basis for any drilling, 
#completion, production, or financial decision or any procedure involving any risk to the 
#safety of any drilling venture, drilling rig or its crew or any other third party.  The 
#Customer has full responsibility for all drilling, completion and production operation.  
#Halliburton makes no representations or warranties, either expressed or 
#implied, including, but not limited to, the implied warranties of merchantability or fitness 
#for a particular purpose, with respect to the services rendered.  In no event will 
#Halliburton be liable for failure to obtain any particular results or for 
#any damages, including, but not limited to, indirect, special or consequential damages, 
#resulting from the use of any information or interpretation provided by Halliburton.
#
~A    DEPT      CCL   NPHI_OH NPHI_CHI  GR_OH    GR_CHI  RHOB_OH RHOB_CHI  PE_OH  PE_CHI  RT10_OH  RT10_CHI RT30_OH  RT30_CHI RT90_OH  RT90_CHI DTC_OH  DTC_CHI SPHI_CHI   SGF    CRNF   RIN   
# ...
   10941.0000  0.0000 -999.25  19.7659  -999.25 152.2029 -999.25   2.4896 -999.25  2.7905  -999.25  31.1578  -999.25  29.2962  -999.25  32.1514 -999.25 76.4142  20.3800 31.8995 1.1779 1.1181
   10941.5000  0.0000 -999.25  19.7878  -999.25 155.8374 -999.25   2.4879 -999.25  2.8224  -999.25  31.9473  -999.25  29.9657  -999.25  32.7749 -999.25 76.5945  20.5100 31.6155 1.1580 1.1096
   10942.0000  0.0000 -999.25  19.6442  -999.25 159.9202 -999.25   2.4876 -999.25  2.8841  -999.25  32.8290  -999.25  30.6788  -999.25  33.3259 -999.25 76.6649  20.5600 31.4537 1.1508 1.1038
   10942.5000  0.0000 -999.25  19.1307  -999.25 159.2741 -999.25   2.4928 -999.25  2.9389  -999.25  33.2673  -999.25  30.9795  -999.25  33.2245 -999.25 76.3910  20.3600 31.6468 1.1546 1.1011
   10943.0000  0.0000 -999.25  18.3204  -999.25 150.4440 -999.25   2.5031 -999.25  2.9609  -999.25  33.4974  -999.25  31.1535  -999.25  33.0287 -999.25 75.7906  19.9400 31.8413 1.1676 1.0993
   10943.5000  0.0000 -999.25  17.3581  -999.25 135.6913 -999.25   2.5171 -999.25  2.9427  -999.25  32.2247  -999.25  29.9760  -999.25  31.5146 -999.25 74.8828  19.2900 31.7566 1.1705 1.0960
   10944.0000  0.0000 -999.25  17.4175  -999.25 135.4937 -999.25   2.5166 -999.25  2.9116  -999.25  32.6893  -999.25  30.4117  -999.25  31.8696 -999.25 75.0220  19.3900 31.5811 1.1652 1.0914
   10944.5000  0.0000 -999.25  16.8591  -999.25 122.4055 -999.25   2.5252 -999.25  2.8887  -999.25  32.4831  -999.25  30.3206  -999.25  31.9542 -999.25 74.3128  18.8900 31.1701 1.1536 1.0868
   10945.0000  0.0000 -999.25  16.5707  -999.25 116.8732 -999.25   2.5294 -999.25  2.9026  -999.25  32.1020  -999.25  30.0089  -999.25  31.7751 -999.25 73.8774  18.5800 30.9790 1.1352 1.0858
   10945.5000  0.0000 -999.25  16.0256  -999.25 109.5807 -999.25   2.5364 -999.25  2.9563  -999.25  31.1337  -999.25  29.1357  -999.25  31.0218 -999.25 73.1144  18.0400 30.9417 1.1265 1.0893
   10946.0000  0.0000 -999.25  16.0253  -999.25 112.9844 -999.25   2.5356 -999.25  3.0007  -999.25  30.5552  -999.25  28.5485  -999.25  30.3890 -999.25 73.1257  18.0500 31.0538 1.1222 1.0928
   10946.5000  0.0000 -999.25  16.6136  -999.25 127.9896 -999.25   2.5261 -999.25  3.0440  -999.25  30.0815  -999.25  27.9821  -999.25  29.6584 -999.25 73.9091  18.6100 31.0742 1.1244 1.0951
   10947.0000  0.0000 -999.25  16.0024  -999.25 120.2115 -999.25   2.5348 -999.25  3.0493  -999.25  28.7271  -999.25  26.7376  -999.25  28.1999 -999.25 73.2689  18.1500 31.0263 1.1254 1.0944
   10947.5000  0.0000 -999.25  15.8918  -999.25 119.6370 -999.25   2.5364 -999.25  3.0668  -999.25  27.6224  -999.25  25.7095  -999.25  27.1463 -999.25 73.0746  18.0200 30.9793 1.1258 1.0946
   10948.0000  0.0000 -999.25  15.8044  -999.25 117.6644 -999.25   2.5379 -999.25  3.0790  -999.25  27.0018  -999.25  25.1557  -999.25  26.6802 -999.25 72.8437  17.8500 30.8648 1.1232 1.0950
   10948.5000  0.0000 -999.25  15.3821  -999.25 110.4981 -999.25   2.5441 -999.25  3.0851  -999.25  26.4977  -999.25  24.7348  -999.25  26.2758 -999.25 72.2861  17.4600 30.7033 1.1290 1.0959
   10949.0000  0.0000 -999.25  15.2028  -999.25 107.4920 -999.25   2.5464 -999.25  3.0878  -999.25  26.8302  -999.25  25.0611  -999.25  26.6232 -999.25 72.1041  17.3300 30.5658 1.1330 1.0946
   10949.5000  0.0000 -999.25  15.2633  -999.25 109.1810 -999.25   2.5446 -999.25  3.0794  -999.25  28.4409  -999.25  26.5341  -999.25  28.0471 -999.25 72.4089  17.5500 30.4908 1.1368 1.0893
   10950.0000  0.0000 -999.25  15.2508  -999.25 107.3348 -999.25   2.5445 -999.25  3.0612  -999.25  30.0046  -999.25  28.0111  -999.25  29.5904 -999.25 72.4939  17.6100 30.5300 1.1304 1.0828
   10950.5000  0.0000 -999.25  15.0613  -999.25 103.1071 -999.25   2.5472 -999.25  3.0492  -999.25  30.5838  -999.25  28.5866  -999.25  30.2015 -999.25 72.3101  17.4800 30.6875 1.1224 1.0776
   10951.0000  0.0000 -999.25  15.3760  -999.25 107.1593 -999.25   2.5429 -999.25  3.0399  -999.25  31.1255  -999.25  29.0768  -999.25  30.7493 -999.25 72.6657  17.7300 30.5869 1.1159 1.0750
   10951.5000  0.0000 -999.25  15.0488  -999.25 103.5256 -999.25   2.5476 -999.25  3.0394  -999.25  29.9956  -999.25  28.0182  -999.25  29.5085 -999.25 72.3197  17.4800 30.3811 1.1109 1.0741
   10952.0000  0.0000 -999.25  15.3093  -999.25 110.0057 -999.25   2.5429 -999.25  3.0444  -999.25  31.0867  -999.25  28.9869  -999.25  30.3580 -999.25 72.8504  17.8600 30.0071 1.1107 1.0719
   10952.5000  0.0000 -999.25  14.6416  -999.25 100.9451 -999.25   2.5515 -999.25  3.0454  -999.25  30.8864  -999.25  28.8597  -999.25  30.0919 -999.25 72.2901  17.4600 29.6876 1.1064 1.0672
   10953.0000  0.0000 -999.25  13.7689  -999.25  88.3414 -999.25   2.5628 -999.25  3.0637  -999.25  30.0559  -999.25  28.2111  -999.25  29.4457 -999.25 71.3665  16.8100 29.5557 1.1011 1.0633
   10953.5000  0.0000 -999.25  14.7004  -999.25 103.6177 -999.25   2.5484 -999.25  3.0785  -999.25  33.7126  -999.25  31.5862  -999.25  32.9641 -999.25 72.6271  17.7000 29.5674 1.0942 1.0597
   10954.0000  0.0000 -999.25  14.9297  -999.25 108.6610 -999.25   2.5447 -999.25  3.1025  -999.25  34.5949  -999.25  32.3663  -999.25  33.7797 -999.25 72.8913  17.8900 29.5312 1.0904 1.0606
   10954.5000  0.0000 -999.25  14.3760  -999.25 101.1913 -999.25   2.5526 -999.25  3.1182  -999.25  32.8916  -999.25  30.7966  -999.25  32.1376 -999.25 72.1909  17.3900 29.4361 1.0897 1.0625
   10955.0000  0.0000 -999.25  14.3131  -999.25 102.1424 -999.25   2.5531 -999.25  3.1346  -999.25  32.6037  -999.25  30.5106  -999.25  31.7749 -999.25 72.1612  17.3700 29.1434 1.0914 1.0633
   10955.5000  0.0000 -999.25  14.3448  -999.25 103.8037 -999.25   2.5524 -999.25  3.1532  -999.25  32.6880  -999.25  30.5764  -999.25  31.8556 -999.25 72.1931  17.3900 28.7605 1.0886 1.0629
   10956.0000  0.0000 -999.25  13.4081  -999.25  88.9913 -999.25   2.5651 -999.25  3.1679  -999.25  31.9163  -999.25  30.0072  -999.25  31.3581 -999.25 71.0739  16.6000 28.3082 1.0860 1.0592
   10956.5000  0.0000 -999.25  13.6017  -999.25  91.8518 -999.25   2.5616 -999.25  3.1928  -999.25  33.6877  -999.25  31.6840  -999.25  33.2528 -999.25 71.3085  16.7700 28.2418 1.0793 1.0579
   10957.0000  0.0000 -999.25  13.8413  -999.25  96.7650 -999.25   2.5571 -999.25  3.2314  -999.25  35.4914  -999.25  33.3644  -999.25  35.1360 -999.25 71.6355  17.0000 28.3720 1.0780 1.0592
   10957.5000  0.0000 -999.25  14.1503  -999.25 102.5269 -999.25   2.5523 -999.25  3.2407  -999.25  36.2482  -999.25  34.0249  -999.25  35.8052 -999.25 72.0469  17.2900 28.6018 1.0826 1.0610
   10958.0000  0.0000 -999.25  13.3841  -999.25  92.0286 -999.25   2.5635 -999.25  3.2549  -999.25  33.6559  -999.25  31.6599  -999.25  33.2956 -999.25 71.0470  16.5800 28.8588 1.0851 1.0634
   10958.5000  0.0000 -999.25  13.4604  -999.25  93.4542 -999.25   2.5627 -999.25  3.2321  -999.25  33.4238  -999.25  31.4265  -999.25  32.8994 -999.25 71.2226  16.7100 28.9258 1.0857 1.0613
   10959.0000  0.0000 -999.25  13.9019  -999.25  99.1385 -999.25   2.5571 -999.25  3.2047  -999.25  33.6146  -999.25  31.5335  -999.25  32.9526 -999.25 71.7438  17.0700 29.0756 1.0807 1.0600
   10959.5000  0.0000 -999.25  14.1386  -999.25 102.2346 -999.25   2.5540 -999.25  3.1979  -999.25  33.8480  -999.25  31.7176  -999.25  33.1563 -999.25 71.9978  17.2500 29.1836 1.0769 1.0601
   10960.0000  0.0000 -999.25  13.7532  -999.25  95.8335 -999.25   2.5601 -999.25  3.2019  -999.25  31.9604  -999.25  29.9701  -999.25  31.3977 -999.25 71.3796  16.8200 29.2522 1.0725 1.0622
   10960.5000  0.0000 -999.25  13.1787  -999.25  88.0053 -999.25   2.5687 -999.25  3.2222  -999.25  29.6408  -999.25  27.8434  -999.25  29.2138 -999.25 70.5378  16.2200 29.2674 1.0667 1.0642
   10961.0000  0.0000 -999.25  13.6071  -999.25  96.0182 -999.25   2.5627 -999.25  3.2375  -999.25  29.1013  -999.25  27.2660  -999.25  28.6284 -999.25 71.0146  16.5600 28.9317 1.0590 1.0632
   10961.5000  0.0000 -999.25  13.0618  -999.25  88.4473 -999.25   2.5704 -999.25  3.2438  -999.25  28.1942  -999.25  26.4825  -999.25  27.7666 -999.25 70.3627  16.1000 28.6208 1.0533 1.0606
