###############################################
##         ENVERUS                           ##
##         ESS - Open Hole                   ##
##         PERMIAN / DELAWARE                ##
##         Nov 03 2023  V4.0                 ##
##         42-109-32507-90-00                ##
###############################################
## Copyright 2017-2023  ENVERUS.  All Rights Reserved. 
## Confidential - Property of ENVERUS, use governed by terms and 
## conditions found within the existing Information Services Subscription Agreement 
## (as may be amended, the “ISSA”) between Customer and ENVERUS. 
## 
~VERSION INFORMATION
# MNEM.UNIT                               DATA : DESCRIPTION OF MNEMONIC
#-----.-----     ----------------------------- : -----------------------------
VERS.                                     2.00 : CWLS LOG ASCII STANDARD - VERSION 2.00
WRAP.                                       NO : MULTIPLE LINES PER DEPTH STEP
VEND.                                  ENVERUS : VENDOR
TYPE.                          ESS - OPEN HOLE : ENVERUS ESSENTIAL CURVES – ACCESSIBLE THROUGH ENVERUS PRISM(TM)
DOC.                                  51094130 : ENVERUS HEADER RAW DOCUMENT ID
#___________________________________________________________________________________________________ 
~WELL INFORMATION 
# OeTAuI96vYP/1gAnXdiC+b2e5mg9bdq0rVS4GA6NX+ctg1PKQ5RhcqUsdOd2aOUDNf5EtC5635oDT1THDUi6iw== 
# MNEM.UNIT                                              DATA : DESCRIPTION OF MNEMONIC 
#-----.-----                    ----------------------------- : ----------------------------- 
CNTY.                                               CULBERSON : COUNTY 
STATE.                                                  TEXAS : STATE 
CNTRY.                                                    USA : COUNTRY 
API.                                             42-109-32507 : API (10 Digit) 
API_14.                                    42-109-32507-90-00 : API (14 Digits) 
API_14_std.                                 42-109-32507-9000 : API (14 Digits Standard) 
UWI.                                           42109325079000 : UNIQUE WELL ID 
WELL.                               42109325070000_PREV_API14 : WELL NAME
STRT.FT                                                2104.5 : START DEPTH
STOP.FT                                                9085.0 : STOP DEPTH
STEP.FT                                                   0.5 : STEP BETWEEN DEPTHS
NULL.                                                 -999.25 : NULL VALUE
PREV_APII.                                     42109325070000 : WELL IDENTIFIER
#___________________________________________________________________________________________________ 
~PARAMETER INFORMATION 
# MNEM.UNIT                                              DATA : DESCRIPTION OF MNEMONIC 
#-----.-----                    ----------------------------- : ----------------------------- 
EKB.FT                                                 3578.5 : ELEVATION ABOVE MSL
#___________________________________________________________________________________________________ 
~CURVE INFORMATION 
# MNEM.UNIT           : CURVE DESCRIPTION 
#-----.-----          : ----------------------------- 
 DEPT.FT               : MEASURED DEPTH 
 GR__A.API             : GAMMA RAY (GAMMA RAY) 
 DT__A.US/FT           : SONIC DELTA TRANSIT TIME (SONIC) 
 #___________________________________________________________________________________________________ 
~A         DEPT          GR__A          DT__A
# ...
         2539.5         91.228         52.837
         2540.0         91.167         56.311
         2540.5         89.352         57.997
         2541.0         95.771         53.105
         2541.5        102.241         47.226
         2542.0         96.968         45.764
         2542.5         94.924         45.570
         2543.0        102.276         46.742
         2543.5        104.237         52.159
         2544.0        104.483         56.553
         2544.5        104.483         57.032
         2545.0        105.653         55.271
         2545.5        104.688         56.945
         2546.0        100.947         67.676
         2546.5         97.856         78.075
         2547.0         98.636         80.006
         2547.5        101.601         70.263
         2548.0        104.342         61.609
         2548.5        108.839         61.683
         2549.0        119.678         66.124
         2549.5        125.820         67.186
         2550.0        107.402         66.065
         2550.5        102.505         65.628
         2551.0        101.365         66.062
         2551.5        101.695         67.351
         2552.0        105.681         68.331
         2552.5        114.403         75.097
         2553.0        114.237         82.887
         2553.5        104.522         87.229
         2554.0         98.246         85.688
         2554.5        102.355         78.344
         2555.0        102.902         73.601
         2555.5         91.923         72.817
         2556.0         88.109         72.662
         2556.5         88.975         73.392
         2557.0         91.228         78.392
         2557.5         90.448         89.166
         2558.0         97.020         95.665
         2558.5        112.217         95.800
         2559.0        117.776         91.026
         2559.5        121.439         86.467
         2560.0        130.647         86.925
         2560.5        143.106         89.073
         2561.0        145.743         90.547
         2561.5        139.238         91.529
         2562.0        135.469         92.545
         2562.5        138.812         94.844
         2563.0        149.062         96.899
         2563.5        152.684         98.260
         2564.0        158.128         98.734
         2564.5        171.375         98.734
         2565.0        179.114         98.153
         2565.5        163.512         94.395
         2566.0        171.828         88.616
         2566.5        245.554         82.842
         2567.0        301.534         81.748
         2567.5        308.532         83.645
         2568.0        235.640         84.876
         2568.5        168.312         85.102
         2569.0        129.605         88.518
         2569.5        107.273         92.564
         2570.0        100.042         93.290
         2570.5        103.806         92.313
         2571.0        111.517         92.414
         2571.5        105.004         97.992
         2572.0         97.046        106.846
         2572.5         96.902        105.759
         2573.0        103.360        101.596
         2573.5        111.534         92.551
         2574.0        119.296         86.817
         2574.5        125.474         84.863
         2575.0        127.385         85.133
         2575.5        126.818         91.032
         2576.0        132.287         96.264
         2576.5        141.705         97.828
         2577.0        152.587         98.345
         2577.5        160.407         97.761
         2578.0        163.743         97.286
         2578.5        167.084         96.456
         2579.0        174.769         95.813
         2579.5        170.225         96.454
         2580.0        156.933         97.480
         2580.5        147.876         98.734
         2581.0        142.060         95.473
         2581.5        147.105         86.001
         2582.0        202.615         82.439
         2582.5        228.963         81.264
         2583.0        359.363         77.804
         2583.5        364.522         77.118
         2584.0        403.010         69.176
         2584.5        444.556         62.536
         2585.0        468.673         61.733
         2585.5        497.032         59.484
         2586.0        478.779         62.829
         2586.5        425.744         78.193
         2587.0        355.189         90.320
         2587.5        272.902         96.986
         2588.0        214.800         97.753
         2588.5        194.227         95.774
         2589.0        188.304         94.060
         2589.5        189.474         94.584
         2590.0        181.657         95.649
         2590.5        168.667         96.787
         2591.0        143.996         97.422
         2591.5        132.019        104.961
         2592.0        128.547        112.031
         2592.5        126.092        111.954
         2593.0        121.896        106.843
         2593.5        121.072         99.009
         2594.0        130.914         93.788
         2594.5        148.355         92.892
         2595.0        162.751         91.687
         2595.5        157.470         89.244
         2596.0        134.113         86.459
         2596.5        123.752         86.421
         2597.0        111.943         89.881
         2597.5        108.493         93.615
         2598.0        105.653         93.936
         2598.5        109.163         92.762
         2599.0        116.061         89.177
         2599.5        117.243         87.537
         2600.0        119.593         89.339
         2600.5        123.993         89.818
         2601.0        128.006         87.033
         2601.5        108.033         83.297
         2602.0         97.729         82.181
         2602.5        103.695         84.903
         2603.0        117.312         89.180
         2603.5        126.303         88.435
         2604.0        123.203         81.698
         2604.5        118.898         77.107
         2605.0        120.145         78.131
         2605.5        124.612         83.223
         2606.0        126.797         86.826
         2606.5        111.810         88.748
         2607.0        102.008         86.356
         2607.5        106.675         81.704
         2608.0        111.491         77.295
         2608.5        115.322         75.307
         2609.0        118.129         73.818
         2609.5        118.129         72.056
         2610.0        123.336         71.171
         2610.5        123.210         69.799
         2611.0        114.880         68.038
         2611.5        111.173         66.276
         2612.0        101.484         65.239
         2612.5         97.466         64.556
         2613.0        103.162         64.961
         2613.5        110.910         68.478
         2614.0        118.318         70.806
         2614.5        123.907         71.860
         2615.0        131.629         69.857
         2615.5        137.500         67.235
         2616.0        136.673         64.472
         2616.5        128.373         62.441
         2617.0        122.420         62.317
         2617.5        110.865         61.498
         2618.0        112.933         59.249
         2618.5        123.822         53.644
         2619.0        125.307         53.104
         2619.5        113.022         58.052
         2620.0        102.584         59.972
         2620.5         98.251         60.567
         2621.0        107.725         57.048
         2621.5        127.345         53.633
         2622.0        118.878         51.981
         2622.5        102.200         50.160
         2623.0         95.570         49.270
         2623.5        106.012         51.623
         2624.0        117.036         55.929
         2624.5        118.040         59.843
         2625.0        115.734         61.149
         2625.5        110.970         55.597
         2626.0        107.479         50.878
