~Version Information
 VERS.                  2.0:   CWLS log ASCII Standard -VERSION 2.0
 WRAP.                   NO:   One line per depth step
~Well Information Block
#MNEM.UNIT     VALUE/NAME     DESCRIPTION
#---------     -----------    ---------------------------
 STRT.F              8650.0000: START DEPTH
 STOP.F             14150.0000: STOP DEPTH
 STEP.F                 0.5000: STEP DEPTH
 NULL.                 -999.25: NULL VALUE
 LOC .     A1759-SEC34-BLK58-T2-:  LOCATION
 FL4 .        API 42-109-33169:  LOCATIONLINE4
 FL2 .     T&P RR CO-337FSL-25:  LOCATIONLINE2
 FL1 .     A1759-SEC34-BLK58-T2-:  LOCATIONLINE1
 DMF .                      KB:  DRILL MEAS FROM
 PDAT.                      GL:  PERMANENT DATUM
 CNTY.               CULBERSON:  COUNTY NAME
 FLD .     FORD, WEST (WOLFCAMP):  FIELD NAME
 WELL.         ALICE FEE 34 2H:  WELL NAME
 COMP.     CAPITAN ENERGY INC.:  COMPANY
 DATE.             27-Mar-2018:  DATE
 SVCO.             Halliburton:  SERVICECONAME
 PROV.                   TEXAS:  PROVINCE
 STAT.                   TEXAS:  STATE NAME
 CTRY.                     USA:  COUNTRY NAME
 HIDE.                        :  WELLNAMEOPERAT
 BASI.                 PERMIAN:  BASIN
 UWI .            42-109-33169LAT:  UNIQUE WELL IDENTIFIER
 API .            42-109-33169LAT:  API NUMBER
 RANG.                     N/A:  RANGE
 TOWN.                     N/A:  TOWNSHIP
 SECT.                     N/A:  SECTION
 SRVC.             Halliburton:  SERVICE COMPANY
 LMF .                      KB:  LOG MEASURED FROM
 TVDS.ft             3088.0000:  TVDSS CORRECTN
 EGL .ft             3063.0000:  GROUND ELEVATION
 APD .ft               25.0000:  DEPTH ABOVE PD
 EPD .ft             3063.0000:  ELEVATION
 BAP .ft                0.0000:  GL ELEV ONSHORE
 GVFD.g                 1.0000:  GRAVITY FIELD
 EKB .ft             3088.0000:  KB ELEVATION
 EDF .ft             3087.0000:  DF ELEVATION
~Curve Information Block
#MNEM.UNIT                 API CODE     Curve Description
#---------               -----------    ---------------------------
 DEPT.F                 00 000 000 000:  Depth
 CCL .mV                00 000 000 000:  Casing Collar Locator
 NPHI_OH.pu             00 000 000 000:  NPHI_OH
 NPHI_CHI.pu            00 000 000 000:  NPHI_CHI
 GR_OH.api              00 000 000 000:  GR_OH
 GR_CHI.api             00 000 000 000:  GR_CHI
 RHOB_OH.g/cc           00 000 000 000:  RHOB_OH
 RHOB_CHI.g/cc          00 000 000 000:  RHOB_CHI
 PE_OH.b/e              00 000 000 000:  PE_OH
 PE_CHI.b/e             00 000 000 000:  PE_CHI
 MSFL_OH.ohmm           00 000 000 000:  MSFL_OH
 MSFL_CHI.ohmm          00 000 000 000:  MSFL_CHI
 LLS_OH.ohmm            00 000 000 000:  LLS_OH
 LLS_CHI.ohmm           00 000 000 000:  LLS_CHI
 LLD_OH.ohmm            00 000 000 000:  LLD_OH
 LLD_CHI.ohmm           00 000 000 000:  LLD_CHI
 DTC_OH.uspf            00 000 000 000:  DTC_OH
 DTC_CHI.uspf           00 000 000 000:  DTC_CHI
 SPHI_CHI.pu            00 000 000 000:  SPHI_CHI
 SGF .cu                00 000 000 000:  Formation Sigma
 CRNF.NONE              00 000 000 000:  CM GrsCaptRatio
 RIN .NONE              00 000 000 000:  CM GrsInelRatio
#Other Information
#
#WARRANTY: Halliburton will use its best efforts to furnish customers with 
#accurate information and interpretations that are part of, and incident to, the services 
#provided.  However, Halliburton cannot and does not warrant the accuracy 
#or correctness of such information and interpretations.  Under no circumstances should any 
#such information or interpretation be relied upon as the sole basis for any drilling, 
#completion, production, or financial decision or any procedure involving any risk to the 
#safety of any drilling venture, drilling rig or its crew or any other third party.  The 
#Customer has full responsibility for all drilling, completion and production operation.  
#Halliburton makes no representations or warranties, either expressed or 
#implied, including, but not limited to, the implied warranties of merchantability or fitness 
#for a particular purpose, with respect to the services rendered.  In no event will 
#Halliburton be liable for failure to obtain any particular results or for 
#any damages, including, but not limited to, indirect, special or consequential damages, 
#resulting from the use of any information or interpretation provided by Halliburton.
#
~A    DEPT       CCL    NPHI_OH NPHI_CHI  GR_OH    GR_CHI  RHOB_OH RHOB_CHI  PE_OH  PE_CHI  MSFL_OH   MSFL_CHI  LLS_OH   LLS_CHI   LLD_OH   LLD_CHI  DTC_OH  DTC_CHI SPHI_CHI   SGF    CRNF   RIN   
# ...
   10474.5000    0.0000 -999.25   8.4736  -999.25  70.9990 -999.25   2.6197 -999.25 4.1757    -999.25  60.0874   -999.25 118.0030   -999.25 127.5818 -999.25 63.0504  10.9300 17.0297 0.5893 0.9636
   10475.0000    0.0000 -999.25   8.9423  -999.25  78.2728 -999.25   2.6132 -999.25 4.1203    -999.25  55.0407   -999.25 104.9279   -999.25 113.3080 -999.25 63.6424  11.3500 17.1504 0.5824 0.9624
   10475.5000    0.0000 -999.25   8.5000  -999.25  68.0140 -999.25   2.6194 -999.25 4.1583    -999.25  52.3409   -999.25 102.2953   -999.25 111.3039 -999.25 63.3238  11.1200 17.2464 0.5781 0.9628
   10476.0000    0.0000 -999.25   8.1400  -999.25  61.3618 -999.25   2.6244 -999.25 4.1869    -999.25  52.5854   -999.25 103.8686   -999.25 113.4809 -999.25 62.9479  10.8500 17.3221 0.5784 0.9639
   10476.5000    0.0000 -999.25   8.2920  -999.25  65.9542 -999.25   2.6225 -999.25 4.1613    -999.25  55.9954   -999.25 109.6397   -999.25 119.2807 -999.25 62.9920  10.8900 17.3256 0.5775 0.9643
   10477.0000    0.0000 -999.25   8.5319  -999.25  71.4884 -999.25   2.6192 -999.25 4.1303    -999.25  59.1180   -999.25 114.4201   -999.25 124.0244 -999.25 63.1346  10.9900 17.3584 0.5779 0.9662
   10477.5000    0.0000 -999.25   8.4458  -999.25  68.9438 -999.25   2.6204 -999.25 4.1424    -999.25  59.5224   -999.25 116.4814   -999.25 126.6335 -999.25 63.0183  10.9000 17.2644 0.5759 0.9645
   10478.0000    0.0000 -999.25   8.4552  -999.25  69.4950 -999.25   2.6203 -999.25 4.1366    -999.25  59.7947   -999.25 116.6064   -999.25 126.6925 -999.25 63.0211  10.9100 17.1632 0.5742 0.9625
   10478.5000    0.0000 -999.25   8.7431  -999.25  75.6222 -999.25   2.6163 -999.25 4.1080    -999.25  60.0753   -999.25 115.0324   -999.25 124.4298 -999.25 63.3152  11.1100 17.0000 0.5692 0.9579
   10479.0000    0.0000 -999.25   9.2449  -999.25  87.6916 -999.25   2.6093 -999.25 4.0569    -999.25  58.6150   -999.25 107.2343   -999.25 114.8679 -999.25 63.7837  11.4500 16.8996 0.5663 0.9519
   10479.5000    0.0000 -999.25   8.2841  -999.25  69.6036 -999.25   2.6226 -999.25 4.1589    -999.25  57.3635   -999.25 110.2070   -999.25 118.9420 -999.25 62.9791  10.8800 16.8315 0.5638 0.9510
   10480.0000    0.0000 -999.25   8.5007  -999.25  75.0016 -999.25   2.6196 -999.25 4.1423    -999.25  57.9467   -999.25 109.9476   -999.25 118.0657 -999.25 63.1491  11.0000 16.7934 0.5661 0.9506
   10480.5000    0.0000 -999.25   8.9871  -999.25  86.5006 -999.25   2.6129 -999.25 4.0950    -999.25  58.1049   -999.25 106.3420   -999.25 113.2317 -999.25 63.5076  11.2500 16.7284 0.5729 0.9527
   10481.0000    0.0000 -999.25   8.1356  -999.25  71.5514 -999.25   2.6247 -999.25 4.1786    -999.25  59.0480   -999.25 111.5621   -999.25 119.3682 -999.25 62.8025  10.7500 16.6738 0.5833 0.9539
   10481.5000    0.0000 -999.25   7.9114  -999.25  69.0286 -999.25   2.6278 -999.25 4.1974    -999.25  54.7253   -999.25 100.7185   -999.25 107.6810 -999.25 62.7662  10.7300 16.6565 0.5916 0.9507
   10482.0000    0.0000 -999.25   7.7527  -999.25  64.8382 -999.25   2.6299 -999.25 4.2193    -999.25  51.5012   -999.25  94.1100   -999.25 101.0576 -999.25 62.7654  10.7300 16.7220 0.5924 0.9470
   10482.5000  -84.1678 -999.25   7.4716  -999.25  57.5288 -999.25   2.6337 -999.25 4.2535    -999.25  48.1680   -999.25  86.5160   -999.25  93.6787 -999.25 62.7115  10.6900 16.8531 0.5883 0.9392
   10483.0000    0.0000 -999.25   7.7056  -999.25  60.4134 -999.25   2.6304 -999.25 4.2304    -999.25  43.8944   -999.25  78.0743   -999.25  84.5585 -999.25 63.0592  10.9300 16.9930 0.5780 0.9344
   10483.5000    0.0000 -999.25   7.7805  -999.25  60.3608 -999.25   2.6294 -999.25 4.2220    -999.25  45.0299   -999.25  81.9632   -999.25  88.8834 -999.25 63.0564  10.9300 17.0754 0.5718 0.9324
   10484.0000    0.0000 -999.25   8.6481  -999.25  76.4436 -999.25   2.6174 -999.25 4.1267    -999.25  43.9573   -999.25  79.8719   -999.25  85.8083 -999.25 63.7330  11.4100 17.0185 0.5641 0.9339
   10484.5000    0.0000 -999.25   8.6711  -999.25  76.9526 -999.25   2.6172 -999.25 4.1196    -999.25  51.1627   -999.25  95.1616   -999.25 102.2393 -999.25 63.5115  11.2500 16.8285 0.5625 0.9373
   10485.0000    0.0000 -999.25   8.5585  -999.25  76.1020 -999.25   2.6189 -999.25 4.1281    -999.25  56.2111   -999.25 105.6182   -999.25 113.3681 -999.25 63.2549  11.0700 16.5598 0.5629 0.9407
   10485.5000    0.0000 -999.25   8.0909  -999.25  67.6516 -999.25   2.6253 -999.25 4.1923    -999.25  60.3983   -999.25 117.2534   -999.25 126.2967 -999.25 62.7104  10.6900 16.4774 0.5680 0.9464
   10486.0000    0.0000 -999.25   8.4780  -999.25  76.1328 -999.25   2.6198 -999.25 4.1681    -999.25  63.4441   -999.25 121.8056   -999.25 130.3720 -999.25 62.9580  10.8600 16.5369 0.5795 0.9537
   10486.5000    0.0000 -999.25   8.0578  -999.25  66.9104 -999.25   2.6256 -999.25 4.2213    -999.25  64.1762   -999.25 127.1669   -999.25 136.9525 -999.25 62.5553  10.5800 16.7560 0.5947 0.9639
   10487.0000    0.0000 -999.25   8.1281  -999.25  66.7530 -999.25   2.6246 -999.25 4.2142    -999.25  61.9424   -999.25 122.7943   -999.25 132.5470 -999.25 62.6748  10.6600 17.0767 0.6141 0.9736
   10487.5000    0.0000 -999.25   8.6085  -999.25  73.5026 -999.25   2.6179 -999.25 4.1562    -999.25  56.8075   -999.25 109.9192   -999.25 118.6709 -999.25 63.2763  11.0900 17.5404 0.6345 0.9841
   10488.0000    0.0000 -999.25   9.1656  -999.25  80.2250 -999.25   2.6100 -999.25 4.1016    -999.25  51.8233   -999.25  98.1112   -999.25 106.1733 -999.25 63.9600  11.5700 18.2000 0.6530 0.9953
   10488.5000    0.0000 -999.25   9.4378  -999.25  81.6148 -999.25   2.6062 -999.25 4.0631    -999.25  51.7274   -999.25  97.5884   -999.25 106.2192 -999.25 64.2755  11.7900 18.9154 0.6703 1.0075
   10489.0000    0.0000 -999.25   9.2543  -999.25  71.5988 -999.25   2.6088 -999.25 4.0629    -999.25  46.5828   -999.25  90.4993   -999.25  99.9193 -999.25 64.2990  11.8100 19.7208 0.6861 1.0200
   10489.5000    0.0000 -999.25  10.5718  -999.25  92.1284 -999.25   2.5903 -999.25 3.9102    -999.25  48.1236   -999.25  86.2174   -999.25  95.1220 -999.25 65.7262  12.8200 20.2992 0.6980 1.0274
   10490.0000   50.6564 -999.25  10.5915  -999.25  88.4262 -999.25   2.5903 -999.25 3.8709    -999.25  43.2651   -999.25  77.8353   -999.25  86.4916 -999.25 65.9891  13.0100 20.8359 0.7095 1.0315
   10490.5000   32.4029 -999.25  10.7297  -999.25  85.8336 -999.25   2.5886 -999.25 3.8121    -999.25  39.0931   -999.25  69.9112   -999.25  78.5053 -999.25 66.3342  13.2500 21.1303 0.7142 1.0347
   10491.0000    0.0000 -999.25  11.1116  -999.25  89.6774 -999.25   2.5833 -999.25 3.7550    -999.25  36.6253   -999.25  64.1221   -999.25  72.1355 -999.25 66.9747  13.7000 21.1933 0.7206 1.0346
   10491.5000    0.0000 -999.25  10.7546  -999.25  78.4456 -999.25   2.5883 -999.25 3.7769    -999.25  31.6488   -999.25  57.2025   -999.25  65.0866 -999.25 66.7730  13.5600 21.0647 0.7175 1.0341
   10492.0000    0.0000 -999.25  10.5109  -999.25  71.6094 -999.25   2.5917 -999.25 3.7992    -999.25  29.1115   -999.25  53.5865   -999.25  61.3731 -999.25 66.5546  13.4000 20.7624 0.7095 1.0295
   10492.5000    0.0000 -999.25  11.2923  -999.25  86.9594 -999.25   2.5805 -999.25 3.7421    -999.25  33.7277   -999.25  59.6948   -999.25  67.6374 -999.25 67.4646  14.0500 20.3914 0.6892 1.0252
   10493.0000    0.0000 -999.25  11.1815  -999.25  84.4714 -999.25   2.5820 -999.25 3.7621    -999.25  34.3066   -999.25  61.4397   -999.25  69.7978 -999.25 67.2687  13.9100 20.0345 0.6707 1.0204
   10493.5000   31.5378 -999.25  11.1704  -999.25  84.5886 -999.25   2.5819 -999.25 3.7849    -999.25  35.9889   -999.25  64.8957   -999.25  73.6664 -999.25 67.1816  13.8500 19.4928 0.6540 1.0162
   10494.0000    0.0000 -999.25  11.1079  -999.25  86.3578 -999.25   2.5828 -999.25 3.8062    -999.25  39.2148   -999.25  70.5599   -999.25  79.8215 -999.25 66.9091  13.6600 18.9566 0.6373 1.0124
   10494.5000   54.0957 -999.25  10.6910  -999.25  82.7272 -999.25   2.5887 -999.25 3.8576    -999.25  41.2754   -999.25  75.6311   -999.25  85.3013 -999.25 66.2214  13.1700 18.3570 0.6193 1.0053
