###############################################
##         ENVERUS                           ##
##         ESS - Open Hole                   ##
##         PERMIAN / DELAWARE                ##
##         Nov 02 2023  V4.0                 ##
##         42-109-32297-90-00                ##
###############################################
## Copyright 2017-2023  ENVERUS.  All Rights Reserved. 
## Confidential - Property of ENVERUS, use governed by terms and 
## conditions found within the existing Information Services Subscription Agreement 
## (as may be amended, the “ISSA”) between Customer and ENVERUS. 
## 
~VERSION INFORMATION
# MNEM.UNIT                               DATA : DESCRIPTION OF MNEMONIC
#-----.-----     ----------------------------- : -----------------------------
VERS.                                     2.00 : CWLS LOG ASCII STANDARD - VERSION 2.00
WRAP.                                       NO : MULTIPLE LINES PER DEPTH STEP
VEND.                                  ENVERUS : VENDOR
TYPE.                          ESS - OPEN HOLE : ENVERUS ESSENTIAL CURVES – ACCESSIBLE THROUGH ENVERUS PRISM(TM)
DOC.                                  52921007 : ENVERUS HEADER RAW DOCUMENT ID
#___________________________________________________________________________________________________ 
~WELL INFORMATION 
# EM3SY5Bwx6x9YoJmjxbMXtwK21/gMzSEmeWIZ71LA4UD3Y8PQw/mHJ0IHc4n7dRi3zAL189RIdETacnakexX1Q== 
# MNEM.UNIT                                              DATA : DESCRIPTION OF MNEMONIC 
#-----.-----                    ----------------------------- : ----------------------------- 
CNTY.                                               CULBERSON : COUNTY 
STATE.                                                  TEXAS : STATE 
CNTRY.                                                    USA : COUNTRY 
API.                                             42-109-32297 : API (10 Digit) 
API_14.                                    42-109-32297-90-00 : API (14 Digits) 
API_14_std.                                 42-109-32297-9000 : API (14 Digits Standard) 
UWI.                                           42109322979000 : UNIQUE WELL ID 
WELL.                          MELISSA TAYLOR STATE 105-3  1H : WELL NAME
STRT.FT                                                 200.0 : START DEPTH
STOP.FT                                               10260.0 : STOP DEPTH
STEP.FT                                                   0.5 : STEP BETWEEN DEPTHS
NULL.                                                 -999.25 : NULL VALUE
PREV_API.                                        421093229700 : API NUMBER 
COMP.                              CHESAPEAKE OPERATING  INC. : COMPANY 
DATE.                                             17-JUN-2008 : LOG DATE
#___________________________________________________________________________________________________ 
~CURVE INFORMATION 
# MNEM.UNIT           : CURVE DESCRIPTION 
#-----.-----          : ----------------------------- 
 DEPT.FT               : MEASURED DEPTH 
 CALI.IN               : CALIPER (CAL - CAL) 
 GR.API                : GAMMA RAY (GR) 
 DT.US/FT              : SONIC DELTA TRANSIT TIME (DT) 
 RESS.OHMM             : SHALLOW INDUCTION RESISTIVITY (ILS - ILS) 
 RESD.OHMM             : DEEP INDUCTION RESISTIVITY (ILD - ILD) 
 DPHI.V/V              : DENSITY POROSITY (DPHI) 
 NPHI.V/V              : NEUTRON POROSITY (NPHI) 
 RHOB.G/CC             : BULK DENSITY (RHOB) 
 #___________________________________________________________________________________________________ 
~A         DEPT           CALI             GR             DT           RESS           RESD           DPHI           NPHI           RHOB
# ...
         9610.5         12.299         42.641         52.948        712.455        942.973       -0.00595        0.01122         2.7160
         9611.0         12.296         43.567         53.292        631.625        724.334        0.00043        0.00814         2.7090
         9611.5         12.295         40.592         53.423        550.794        669.425        0.00284        0.00506         2.7080
         9612.0         12.295         37.616         53.554        764.705        679.312        0.00302        0.00198         2.7070
         9612.5         12.295         37.248         54.580        758.283        849.534        0.00420        0.00059         2.7060
         9613.0         12.295         43.690         56.775        511.209        585.810        0.00735        0.00673         2.7050
         9613.5         12.296         50.132         58.970        264.134        190.873        0.01074        0.02736         2.6940
         9614.0         12.296         58.704         61.854        181.282        160.185        0.01524        0.04798         2.6800
         9614.5         12.291         64.667         62.975        156.442        129.498        0.02710        0.06861         2.6670
         9615.0         12.278         66.246         62.999        150.859        128.016        0.03350        0.07648         2.6600
         9615.5         12.265         67.825         63.015        149.332        128.014        0.03337        0.07565         2.6560
         9616.0         12.252         69.404         62.181        146.314        118.809        0.03324        0.07483         2.6520
         9616.5         12.235         68.722         60.833        119.107        106.598        0.03831        0.06629         2.6480
         9617.0         12.219         62.851         57.937        137.793        121.971        0.04189        0.05596         2.6500
         9617.5         12.216         56.981         55.679        238.712        193.658        0.03619        0.04563         2.6690
         9618.0         12.248         51.110         53.422        339.631        323.899        0.01721        0.03530         2.6880
         9618.5         12.279         45.640         51.165        440.551        461.072       -0.01208        0.02693         2.7070
         9619.0         12.299         42.298         51.090        539.064        598.245       -0.01945        0.01925         2.7270
         9619.5         12.302         39.804         51.133        607.353        698.810       -0.02133        0.01477         2.7450
         9620.0         12.305         38.125         51.223        675.642        797.032       -0.02556        0.01414         2.7500
         9620.5         12.309         38.526         51.686        660.087        881.096       -0.02883        0.01351         2.7560
         9621.0         12.312         39.258         52.148        613.022        937.506       -0.02743        0.02108         2.7600
         9621.5         12.313         40.685         51.874        565.957        731.036       -0.02586        0.03014         2.7580
         9622.0         12.314         47.515         53.032        444.554        351.340       -0.01729        0.03919         2.7560
         9622.5         12.314         54.346         55.957        258.918        180.471        0.00534        0.04825         2.7430
         9623.0         12.314         57.019         56.675        155.586        154.538        0.04379        0.05109         2.6870
         9623.5         12.314         51.713         57.241        348.548        162.729        0.04864        0.04709         2.6360
         9624.0         12.314         42.452         56.857        872.502        585.953        0.03270        0.03298         2.6500
         9624.5         12.314         33.191         54.367       1396.455       1036.789        0.01644        0.01887         2.6630
         9625.0         12.308         25.957         51.876       1920.409       2122.209        0.01617        0.00476         2.6770
         9625.5         12.284         20.415         50.218       3785.150       5942.371        0.01874       -0.00436         2.6890
         9626.0         12.261         18.588         49.925       3914.279       9153.462        0.01745       -0.00698         2.6870
         9626.5         12.238         19.358         49.862       4043.407      10302.045        0.01598       -0.00553         2.6840
         9627.0         12.225         22.147         49.851       2141.115       2653.636        0.01675       -0.00223         2.6820
         9627.5         12.224         26.596         49.945       1648.151       1515.724        0.01537        0.00081         2.6840
         9628.0         12.222         31.452         50.039       1155.188        782.017        0.00962        0.00369         2.6890
         9628.5         12.221         37.105         51.124        662.224        611.645        0.00140        0.00657         2.7030
         9629.0         12.219         43.098         52.608        404.954        441.274       -0.00768        0.00945         2.7160
         9629.5         12.218         48.485         54.091        288.912        270.902       -0.01267        0.01233         2.7300
         9630.0         12.217         49.900         55.398        308.143        302.378       -0.00854        0.01522         2.7300
         9630.5         12.215         48.347         54.416        368.174        337.672       -0.00230        0.01810         2.7250
         9631.0         12.214         44.357         53.434        528.806        599.043        0.00393        0.02098         2.7200
         9631.5         12.211         39.985         52.703        689.438        924.341        0.00406        0.02103         2.7140
         9632.0         12.197         38.025         53.004        762.745        896.512        0.00312        0.01813         2.7100
         9632.5         12.183         36.787         53.305        802.313        786.799        0.00620        0.01523         2.7070
         9633.0         12.195         36.682         53.605        841.881        931.588        0.01438        0.01232         2.7040
         9633.5         12.207         37.320         53.594        866.473        959.896        0.02243        0.00942         2.6960
         9634.0         12.220         40.000         53.605        857.753        988.203        0.03047        0.00651         2.6830
         9634.5         12.234         42.681         53.827        849.033       1016.511        0.02700        0.00460         2.6710
         9635.0         12.247         44.146         54.048        900.330       1044.819        0.02133        0.00661         2.6650
         9635.5         12.261         43.358         54.229       1002.831       1548.619        0.01566        0.00862         2.6830
         9636.0         12.275         42.571         54.145       1105.332       1666.746        0.01456        0.00877         2.6870
         9636.5         12.289         45.078         54.060        900.611       1341.688        0.01770        0.00839         2.6860
         9637.0         12.303         48.776         54.285        320.105        818.756        0.01518        0.01010         2.6840
         9637.5         12.334         53.070         55.268        272.426        238.768        0.01692        0.02196         2.6820
         9638.0         12.367         58.690         57.262        237.933        219.669        0.02602        0.03381         2.6810
         9638.5         12.399         64.311         59.225        224.914        200.569        0.05488        0.04567         2.6620
         9639.0         12.432         70.240         60.841        211.896        181.470        0.06773        0.05752         2.6410
         9639.5         12.424         76.205         62.904        198.878        171.714        0.06830        0.07901         2.6220
