###############################################
##         ENVERUS                           ##
##         ESS - Open Hole                   ##
##         PERMIAN / DELAWARE                ##
##         Nov 02 2023  V4.0                 ##
##         42-109-30915-00-00                ##
###############################################
## Copyright 2017-2023  ENVERUS.  All Rights Reserved. 
## Confidential - Property of ENVERUS, use governed by terms and 
## conditions found within the existing Information Services Subscription Agreement 
## (as may be amended, the “ISSA”) between Customer and ENVERUS. 
## 
~VERSION INFORMATION
# MNEM.UNIT                               DATA : DESCRIPTION OF MNEMONIC
#-----.-----     ----------------------------- : -----------------------------
VERS.                                     2.00 : CWLS LOG ASCII STANDARD - VERSION 2.00
WRAP.                                       NO : MULTIPLE LINES PER DEPTH STEP
VEND.                                  ENVERUS : VENDOR
TYPE.                          ESS - OPEN HOLE : ENVERUS ESSENTIAL CURVES – ACCESSIBLE THROUGH ENVERUS PRISM(TM)
DOC.                                  32305988 : ENVERUS HEADER RAW DOCUMENT ID
#___________________________________________________________________________________________________ 
~WELL INFORMATION 
# YiEbrulvYUtXh1D3opxUtnvhUVpPAvxlEBgV2kjbCTHvWrxGcz1+vOa1jEIuqGtoxi0rQ+ZQV9RU/rHAPCAAKQ== 
# MNEM.UNIT                                              DATA : DESCRIPTION OF MNEMONIC 
#-----.-----                    ----------------------------- : ----------------------------- 
CNTY.                                               CULBERSON : COUNTY 
STATE.                                                  TEXAS : STATE 
CNTRY.                                                    USA : COUNTRY 
API.                                             42-109-30915 : API (10 Digit) 
API_14.                                    42-109-30915-00-00 : API (14 Digits) 
API_14_std.                                 42-109-30915-0000 : API (14 Digits Standard) 
UWI.                                           42109309150000 : UNIQUE WELL ID 
WELL.                             VELMA CASEY ROUNSAVILLE A 1 : WELL NAME
STRT.FT                                                  82.0 : START DEPTH
STOP.FT                                               11225.0 : STOP DEPTH
STEP.FT                                                   0.5 : STEP BETWEEN DEPTHS
NULL.                                                 -999.25 : NULL VALUE
#___________________________________________________________________________________________________ 
~CURVE INFORMATION 
# MNEM.UNIT           : CURVE DESCRIPTION 
#-----.-----          : ----------------------------- 
 DEPT.FT               : MEASURED DEPTH 
 CALI.IN               : CALIPER (CAL - CAL) 
 GR.API                : GAMMA RAY (GR) 
 DT.US/FT              : SONIC DELTA TRANSIT TIME (DT) 
 NPHI.V/V              : NEUTRON POROSITY (NPHI) 
 RHOB.G/CC             : BULK DENSITY (RHOB) 
 #___________________________________________________________________________________________________ 
~A         DEPT           CALI             GR             DT           NPHI           RHOB
# ...
         9850.0          7.490         98.563         57.449        0.09200         2.6438
         9850.5          7.490        100.716         56.892        0.09360         2.6651
         9851.0          7.490         98.819         56.335        0.09655         2.6864
         9851.5          7.490         95.014         57.389        0.12354         2.6882
         9852.0          7.490         91.209         60.539        0.15053         2.6750
         9852.5          7.489         87.404         63.689        0.17752         2.6618
         9853.0          7.489        107.544         66.839        0.19053         2.6486
         9853.5          7.489        126.866         68.808        0.17176         2.6354
         9854.0          7.489        121.899         67.276        0.15299         2.6419
         9854.5          7.489        116.932         65.745        0.13423         2.6526
         9855.0          7.488        111.965         64.214        0.12154         2.6633
         9855.5          7.488        106.997         62.683        0.11302         2.6740
         9856.0          7.488        102.030         61.151        0.10451         2.6848
         9856.5          7.488         97.063         59.620        0.09599         2.6955
         9857.0          7.488         92.096         58.089        0.08747         2.7062
         9857.5          7.488         87.128         57.765        0.07896         2.7169
         9858.0          7.487         84.171         58.400        0.07044         2.7018
         9858.5          7.487         91.268         59.035        0.06477         2.6775
         9859.0          7.487         98.366         59.670        0.07037         2.6726
         9859.5          7.487         99.678         59.857        0.07598         2.6813
         9860.0          7.487         99.060         59.230        0.08159         2.6899
         9860.5          7.487         98.443         58.603        0.08719         2.6985
         9861.0          7.486         97.826         57.976        0.09280         2.7072
         9861.5          7.486         97.209         58.198        0.09769         2.7097
         9862.0          7.486         97.005         58.618        0.10080         2.7066
         9862.5          7.486        100.882         59.039        0.10391         2.7034
         9863.0          7.486        100.977         59.422        0.10703         2.7002
         9863.5          7.485        100.472         59.498        0.11014         2.6971
         9864.0          7.485         99.966         59.575        0.11325         2.6939
         9864.5          7.485         99.461         59.651        0.11636         2.6907
         9865.0          7.485         98.956         60.394        0.12050         2.6931
         9865.5          7.485        105.334         61.924        0.12610         2.7104
         9866.0          7.485        112.895         63.455        0.13169         2.7277
         9866.5          7.484        114.501         64.986        0.13729         2.7449
         9867.0          7.484        116.108         66.517        0.14289         2.7416
         9867.5          7.484        117.714         66.294        0.14848         2.7320
         9868.0          7.484        119.321         64.868        0.15408         2.7224
         9868.5          7.484        115.676         63.442        0.15601         2.7128
         9869.0          7.484        109.548         62.015        0.15779         2.7032
         9869.5          7.483        103.419         62.136        0.15958         2.6936
         9870.0          7.483         97.290         65.747        0.16136         2.6840
         9870.5          7.483        104.501         68.753        0.16315         2.6744
         9871.0          7.483        115.211         68.400        0.16493         2.6677
         9871.5          7.483        120.919         68.047        0.16604         2.6655
         9872.0          7.482        119.711         67.693        0.16316         2.6633
         9872.5          7.482        118.504         67.340        0.16028         2.6611
         9873.0          7.482        117.296         66.986        0.15740         2.6589
         9873.5          7.482        116.088         66.633        0.15451         2.6571
         9874.0          7.482        114.880         66.279        0.15163         2.6567
         9874.5          7.482        113.672         65.926        0.14875         2.6563
         9875.0          7.481        112.464         65.429        0.14585         2.6559
         9875.5          7.481        111.256         64.332        0.14056         2.6555
         9876.0          7.481        110.048         63.235        0.13527         2.6554
         9876.5          7.481        105.424         62.379        0.12998         2.6595
         9877.0          7.481        100.849         62.844        0.12469         2.6636
         9877.5          7.481        103.071         63.310        0.12548         2.6677
         9878.0          7.480        105.293         63.775        0.13270         2.6717
         9878.5          7.480        107.515         64.241        0.13991         2.6758
         9879.0          7.480        107.087         63.576        0.14406         2.6799
         9879.5          7.480        100.796         62.884        0.13788         2.6840
         9880.0          7.480         94.505         62.192        0.13171         2.6881
         9880.5          7.480         88.214         61.500        0.12553         2.6922
         9881.0          7.479         86.250         60.807        0.11936         2.6881
         9881.5          7.479         90.181         61.609        0.11318         2.6828
         9882.0          7.479         94.113         63.117        0.10701         2.6775
         9882.5          7.479         98.044         64.625        0.10525         2.6723
         9883.0          7.479        101.975         66.133        0.11841         2.6670
         9883.5          7.478        105.907         66.119        0.11086         2.6618
         9884.0          7.478        104.858         62.446        0.08552         2.6565
         9884.5          7.478         91.112         58.773        0.06019         2.6512
         9885.0          7.478         77.366         55.968        0.05952         2.6460
         9885.5          7.478         63.620         57.644        0.06364         2.6407
         9886.0          7.478         68.264         59.320        0.06775         2.6354
         9886.5          7.477         74.785         59.989        0.07186         2.6419
         9887.0          7.477         81.306         60.244        0.07598         2.6486
         9887.5          7.477         87.827         60.499        0.08009         2.6554
         9888.0          7.477         94.348         60.754        0.08420         2.6622
         9888.5          7.477         95.571         61.099        0.08456         2.6690
         9889.0          7.477         90.330         61.512        0.07900         2.6758
         9889.5          7.476         85.088         61.925        0.07345         2.6825
         9890.0          7.476         79.846         62.338        0.06790         2.6893
         9890.5          7.476         74.605         57.143        0.06235         2.6961
         9891.0          7.476         72.781         58.283        0.05680         2.7029
         9891.5          7.476         78.993         59.423        0.05125         2.7096
         9892.0          7.475         85.205         60.563        0.05934         2.7147
         9892.5          7.475         91.416         61.704        0.08551         2.7150
         9893.0          7.475         97.628         62.844        0.10913         2.7152
         9893.5          7.475        100.177         63.470        0.11461         2.7155
