# Exported from Transform Software 5.2.0 on 21-Oct-2019 by user kathryn.gehrke
# DI Transform - A Product of Drillinginfo, Inc. - www.drillinginfo.com
#
~VERSION INFORMATION
 VERS.        2.0 : LAS ASCII STANDARD - VERSION 2.0
 WRAP.         NO : ONE LINE PER DEPTH STEP

~WELL INFORMATION
#MNEM.UNIT       DATA TYPE       INFORMATION
#---------       ---------       -----------
 STRT.ft                  30 : Start Depth
 STOP.ft                9000 : Stop Depth
 STEP.ft                 0.5 : Step Length
 NULL.               -999.25 : Null Value
 COMP.                       : Company
 WELL.  42109330470000_API14 : Well Name
 FLD.                        : Field Name
 LOC.                        : Well Location
 CNTY.                       : County
 STAT.                       : State or Province
 CTRY.                       : Country
 SRVC.                       : Service Company
 DATE.                       : Date
 API.         42109330470000 : Well Identifier

~CURVE INFORMATION
#MNEM.UNIT       API CODE       CURVE DESCRIPTION
#---------       --------       -----------------
 DEPT.ft        : <Measured Depth>
 DT.us/ft       : Sonic
 GR.gAPI        : Gamma Ray

~PARAMETER INFORMATION
#MNEM.UNIT       VALUE       DESCRIPTION
#---------       -----       -----------
 EKB.ft      3201 : Elevation above MSL

~A      DEPT          DT          GR
# ...
        6540    327.5884     79.5875
      6540.5    327.5884      88.351
        6541    327.5884     83.1544
      6541.5    327.5884      69.358
        6542    327.5884     56.0499
      6542.5    327.5884     39.6708
        6543    327.5884     31.7863
      6543.5    327.5884     37.6524
        6544    327.5884     54.2472
      6544.5    327.5884     71.0169
        6545    327.5884     77.4956
      6545.5    327.5884     75.1294
        6546    327.5884     65.0545
      6546.5    327.5884     50.6045
        6547    327.5884     41.6787
      6547.5    327.5884       44.93
        6548    327.5884     58.1115
      6548.5    327.5884     67.0791
        6549    327.5884     67.4214
      6549.5    327.5884     64.4461
        6550    327.5884       63.31
      6550.5    327.5884     64.2759
        6551    327.5884     69.0133
      6551.5    327.5884     79.0904
        6552    327.5884      90.913
      6552.5    327.5884     96.8512
        6553    327.5884     99.9674
      6553.5    327.5884    105.0788
        6554    327.5884     97.9133
      6554.5    327.5884     90.3678
        6555    327.5884     96.1743
      6555.5    327.5884    104.1251
        6556    327.7844    102.3056
      6556.5    327.9387     97.3627
        6557    327.5884     90.4339
      6557.5    327.5884      83.357
        6558    327.5884     86.8882
      6558.5    327.5884      94.145
        6559    327.5884       89.18
      6559.5    327.5884     76.5069
        6560    327.5884      73.494
      6560.5    327.5884      79.173
        6561    327.5884     80.8599
      6561.5    327.5884     77.8387
        6562    327.5884     71.9345
      6562.5    327.5884     58.8784
        6563    327.5884     49.5465
      6563.5    327.5884      53.272
        6564    327.5884     61.8378
      6564.5    327.5884      61.104
        6565    327.5884     59.1068
      6565.5    327.5884     58.4762
        6566    327.5884      54.798
      6566.5    327.5884     56.7703
        6567    327.5884      70.566
      6567.5    327.5884     82.7786
        6568    327.5884     87.4781
      6568.5    327.5884     82.8743
        6569    327.5884     66.5476
      6569.5    327.5884     47.7165
        6570    327.5884     30.6169
      6570.5    327.5884     20.4577
        6571    327.5884      16.495
      6571.5    327.5884       18.16
        6572    327.5884     26.2282
      6572.5    327.5884     36.2115
        6573    327.5884     43.3051
      6573.5    327.5884     53.6629
        6574    327.5884     64.9984
      6574.5    327.5884     64.2856
        6575    327.5884     53.3076
      6575.5    327.5884     48.9363
        6576    327.5884     48.3932
      6576.5    327.5884     50.9291
        6577    327.5884      57.908
      6577.5    327.5884     55.8719
        6578    327.5884     46.0614
      6578.5    327.5884     45.2264
        6579    327.5884     52.1885
      6579.5    327.5884     52.4227
        6580    327.5884     49.9124
      6580.5    327.5884     56.0444
        6581    327.5884     66.1729
      6581.5    327.5884     67.4669
        6582    327.5884      59.454
      6582.5    327.5884     54.5218
        6583    327.5884     51.3092
      6583.5    327.5884     47.8822
        6584    327.5884      49.305
      6584.5    327.5884     54.4991
        6585    327.5884     54.7218
      6585.5    327.5884     51.4886
        6586    327.5884     58.5443
      6586.5    327.5884     71.2433
        6587    327.5884     71.4705
      6587.5    327.5884      58.351
        6588    327.4133     47.0999
      6588.5    327.4133     46.0961
        6589    327.4133     58.1533
      6589.5    327.4133        75.7
        6590    327.4133     87.4661
      6590.5    327.4133      84.017
        6591    327.4133     67.0716
      6591.5    327.4133     62.5804
        6592    327.4133     74.8512
      6592.5    327.4133     87.5976
        6593    327.4133     94.0455
      6593.5    327.4133     90.5695
        6594    327.4133     82.6907
      6594.5    327.4133     76.9702
        6595    327.4133     83.5948
      6595.5    327.4133     101.854
        6596    327.4133    113.3527
      6596.5    327.4133    114.2732
        6597    327.4133    113.4851
      6597.5    327.4133    112.3028
        6598    327.4133      99.428
      6598.5    327.4133     81.5645
        6599    327.4133     71.8435
      6599.5    327.4133     57.5235
        6600    327.4133     44.9836
      6600.5    327.4133     49.7889
        6601    327.4133     62.8578
      6601.5    327.4133     65.6743
        6602    327.4133     62.7769
      6602.5    327.4133     53.3826
        6603    327.4133     46.8188
      6603.5    327.4133     46.7601
        6604    327.4133     46.6917
      6604.5    327.4133     43.9959
        6605    327.4133     41.7688
      6605.5    327.4133     50.9277
        6606    327.4133     73.9298
      6606.5    327.4133     89.9813
        6607    327.4133     84.2244
      6607.5    327.4133     70.0452
        6608    327.4133     56.5849
      6608.5    327.4133     50.1751
        6609    327.4133     55.3969
      6609.5    327.4133     66.6843
        6610    327.4133     70.6655
      6610.5    327.4133      71.656
        6611    327.4133     75.6567
      6611.5    327.4133     68.3977
        6612    327.4133     60.5396
      6612.5    327.4133     60.5641
        6613    327.4133     67.8736
      6613.5    327.4133      79.972
        6614    327.4133     93.0221
      6614.5    327.4133     95.0095
        6615    327.4133     86.5152
      6615.5    327.4133     89.7558
        6616    327.4133    100.7596
      6616.5    327.4133      93.515
        6617    327.4133      74.205
      6617.5    327.4133     63.2195
        6618    327.4133     60.6089
      6618.5    327.4133     57.9643
        6619    327.4133     51.0768
      6619.5    327.4133     50.3812
        6620    327.5884     54.5282
      6620.5    327.5884     56.4799
        6621    327.4133     52.6879
      6621.5    327.4133     43.1542
        6622    327.4133     35.4994
      6622.5    327.4133     32.6298
        6623    327.4133     31.4474
      6623.5    327.4133     30.2102
        6624    327.4133     38.4413
      6624.5    327.4133      57.248
        6625    327.4133     70.4798
      6625.5    327.4133     67.6214
        6626    327.4133     65.3341
      6626.5    327.4133      58.641
        6627    327.4133     39.6769
      6627.5    327.4133     30.0008
        6628    327.4133     30.2884
      6628.5    327.4133     32.3117
        6629    327.4133     32.5744
      6629.5    327.4133      34.571
        6630    327.4133     36.2777
      6630.5    327.4133     31.1024
        6631    327.4133     32.7091
      6631.5    327.4133     53.6034
        6632    327.4133     78.1117
      6632.5    327.4133     89.0543
        6633    327.4133     85.5004
      6633.5    327.4133      79.648
        6634    327.4133     80.5467
      6634.5    327.4133      81.062
        6635    327.4133     72.8869
      6635.5    327.4133     66.8251
        6636    327.4133     61.5707
      6636.5    327.4133     58.3683
        6637    327.7636     58.9261
      6637.5    327.7636     63.6878
        6638    327.4133     70.4695
      6638.5    327.4133     76.6099
        6639    327.4133     79.5972
      6639.5    327.4133     78.3805
        6640    327.4133     74.0937
      6640.5    327.4133     67.3944
        6641    327.4133     61.2204
      6641.5    327.4133     55.3091
        6642    327.4133     43.3772
      6642.5    327.4133     31.7122
        6643    327.4133      32.912
      6643.5    327.4133     43.8527
        6644    327.4133     51.2259
      6644.5    327.4133     44.8901
        6645    327.4133     39.4968
      6645.5    327.4133     40.8889
        6646    327.4133     44.2187
      6646.5    327.4133     47.7198
        6647    327.4133     54.3737
      6647.5    327.4133     52.2395
        6648    327.4133     38.5367
