~Version Information
 VERS.                  2.0:   CWLS log ASCII Standard -VERSION 2.0
 WRAP.                   NO:   One line per depth step
~Well Information Block
#MNEM.UNIT     VALUE/NAME     DESCRIPTION
#---------     -----------    ---------------------------
 STRT.F              8683.0000: START DEPTH
 STOP.F             14089.5000: STOP DEPTH
 STEP.F                 0.5000: STEP DEPTH
 NULL.                 -999.25: NULL VALUE
 LOC .       API  42-109-32906:  LOCATION
 FL1 .       API  42-109-32906:  LOCATIONLINE1
 DMF .                      KB:  DRILL MEAS FROM
 PDAT.                      GL:  PERMANENT DATUM
 PROV.                   TEXAS:  PROVINCE
 STAT.                   TEXAS:  STATE NAME
 CNTY.               CULBERSON:  COUNTY NAME
 LUL .                  ODESSA:  LOGGINGUNITLOC
 FLD .     FORD, WEST (WOLFCAMP):  FIELD NAME
 WELL.     SHELLY FEE 40 No. 2H:  WELL NAME
 COMP.     CAPITAN ENERGY, INC.:  COMPANY
 DATE.             08-Jun-2018:  DATE
 SVCO.             Halliburton:  SERVICECONAME
 HIDE.                        :  WELLNAMEOPERAT
 BASI.                   BACIA:  BASIN
 UWI .            42-109-32906Lat:  UNIQUE WELL IDENTIFIER
 API .            42-109-32906Lat:  API NUMBER
 RANG.                     N/A:  RANGE
 TOWN.                     N/A:  TOWNSHIP
 SECT.                     N/A:  SECTION
 SON .               902848974:  JOB NUMBER
 CTRY.                        :  COUNTRY
 SRVC.             Halliburton:  SERVICE COMPANY
 LMF .                      KB:  LOG MEASURED FROM
 BAP .ft                0.0000:  GL ELEV ONSHORE
 GVFD.g                 1.0000:  GRAVITY FIELD
~Curve Information Block
#MNEM.UNIT                 API CODE     Curve Description
#---------               -----------    ---------------------------
 DEPT.F                 00 000 000 000:  Depth
 CCL .mV                00 000 000 000:  Casing Collar Locator
 DTC_CHI.uspf           00 000 000 000:  DTC_CHI
 DTC_OH.uspf            00 000 000 000:  DTC_OH
 GR_CHI.api             00 000 000 000:  GR_CHI
 GR_OH.api              00 000 000 000:  GR_OH
 LLD_CHI.ohmm           00 000 000 000:  LLD_CHI
 LLD_OH.ohmm            00 000 000 000:  LLD_OH
 LLS_CHI.ohmm           00 000 000 000:  LLS_CHI
 LLS_OH.ohmm            00 000 000 000:  LLS_OH
 MSFL_CHI.ohmm          00 000 000 000:  MSFL_CHI
 MSFL_OH.ohmm           00 000 000 000:  MSFL_OH
 NPHI_CHI.pu            00 000 000 000:  NPHI_CHI
 NPHI_OH.pu             00 000 000 000:  NPHI_OH
 PE_CHI.b/e             00 000 000 000:  PE_CHI
 PE_OH.NONE             00 000 000 000:  Pe_OH
 RHOB_CHI.g/cc          00 000 000 000:  RHOB_CHI
 RHOB_OH.g/cc           00 000 000 000:  RHOB_OH
 SPHI_CHI.pu            00 000 000 000:  SPHI_CHI
#Other Information
#
#WARRANTY: Halliburton will use its best efforts to furnish customers with 
#accurate information and interpretations that are part of, and incident to, the services 
#provided.  However, Halliburton cannot and does not warrant the accuracy 
#or correctness of such information and interpretations.  Under no circumstances should any 
#such information or interpretation be relied upon as the sole basis for any drilling, 
#completion, production, or financial decision or any procedure involving any risk to the 
#safety of any drilling venture, drilling rig or its crew or any other third party.  The 
#Customer has full responsibility for all drilling, completion and production operation.  
#Halliburton makes no representations or warranties, either expressed or 
#implied, including, but not limited to, the implied warranties of merchantability or fitness 
#for a particular purpose, with respect to the services rendered.  In no event will 
#Halliburton be liable for failure to obtain any particular results or for 
#any damages, including, but not limited to, indirect, special or consequential damages, 
#resulting from the use of any information or interpretation provided by Halliburton.
#
~A    DEPT       CCL    DTC_CHI DTC_OH   GR_CHI   GR_OH   LLD_CHI   LLD_OH   LLS_CHI   LLS_OH   MSFL_CHI  MSFL_OH     NPHI_CHI   NPHI_OH   PE_CHI    PE_OH   RHOB_CHI  RHOB_OH SPHI_CHI 
# ...
   12269.0000   -1.8576 68.6305 -999.25 124.8472  -999.25  57.6238   -999.25  52.2113   -999.25  27.1807    -999.25      14.4113 -999.25     3.2182 -999.25     2.5268 -999.25 14.8700
   12269.5000   -1.8613 68.5929 -999.25 114.2246  -999.25  58.8764   -999.25  53.9745   -999.25  27.9815    -999.25      14.4437 -999.25     3.2580 -999.25     2.5318 -999.25 14.8500
   12270.0000   -1.8688 68.8173 -999.25 113.8584  -999.25  59.4581   -999.25  54.7860   -999.25  28.3132    -999.25      14.7599 -999.25     3.2677 -999.25     2.5284 -999.25 15.0100
   12270.5000   -1.8762 68.9984 -999.25 119.1066  -999.25  59.0427   -999.25  54.2300   -999.25  28.0843    -999.25      15.0148 -999.25     3.2492 -999.25     2.5231 -999.25 15.1300
   12271.0000   -1.8824 69.0353 -999.25 126.8301  -999.25  58.3114   -999.25  53.0467   -999.25  27.7496    -999.25      15.2168 -999.25     3.2264 -999.25     2.5190 -999.25 15.1600
   12271.5000   -1.8899 68.2810 -999.25 118.8592  -999.25  57.5147   -999.25  51.9844   -999.25  27.5905    -999.25      14.4697 -999.25     3.2386 -999.25     2.5342 -999.25 14.6300
   12272.0000   -1.8973 68.2485 -999.25 122.8248  -999.25  55.9196   -999.25  50.1287   -999.25  26.8283    -999.25      14.4974 -999.25     3.2006 -999.25     2.5323 -999.25 14.6000
   12272.5000   -1.9035 68.6838 -999.25 129.2923  -999.25  55.4354   -999.25  49.6944   -999.25  26.4247    -999.25      14.8961 -999.25     3.1697 -999.25     2.5222 -999.25 14.9100
   12273.0000   -1.9110 69.1442 -999.25 136.2677  -999.25  55.1923   -999.25  49.4339   -999.25  26.1971    -999.25      15.4274 -999.25     3.1443 -999.25     2.5116 -999.25 15.2400
   12273.5000   -1.9184 68.6496 -999.25 118.8992  -999.25  56.5585   -999.25  51.3807   -999.25  26.9953    -999.25      14.6935 -999.25     3.2054 -999.25     2.5276 -999.25 14.8900
   12274.0000   -1.9284 68.6378 -999.25 111.3765  -999.25  56.8666   -999.25  52.1036   -999.25  27.1495    -999.25      14.5391 -999.25     3.2216 -999.25     2.5310 -999.25 14.8800
   12274.5000   -1.9358 68.6334 -999.25 108.5096  -999.25  57.1608   -999.25  52.5417   -999.25  27.3378    -999.25      14.5448 -999.25     3.2329 -999.25     2.5324 -999.25 14.8800
   12275.0000   -1.9432 69.1273 -999.25 112.7222  -999.25  57.5686   -999.25  53.1865   -999.25  27.4572    -999.25      15.0860 -999.25     3.2256 -999.25     2.5229 -999.25 15.2200
   12275.5000   -1.9507 69.2254 -999.25 112.7195  -999.25  57.2034   -999.25  52.8513   -999.25  27.4011    -999.25      15.3309 -999.25     3.2195 -999.25     2.5211 -999.25 15.2900
   12276.0000   -1.9569 69.5684 -999.25 122.2133  -999.25  57.3043   -999.25  52.6611   -999.25  27.4006    -999.25      15.8582 -999.25     3.1998 -999.25     2.5116 -999.25 15.5400
   12276.5000   -1.9644 70.2119 -999.25 133.2867  -999.25  58.2012   -999.25  53.4808   -999.25  27.5691    -999.25      16.5043 -999.25     3.1879 -999.25     2.4974 -999.25 15.9900
   12277.0000   -1.9718 69.5464 -999.25 117.8602  -999.25  58.9979   -999.25  54.7216   -999.25  28.0943    -999.25      15.6285 -999.25     3.2404 -999.25     2.5148 -999.25 15.5200
   12277.5000   -1.9780 69.2560 -999.25 112.7163  -999.25  60.3235   -999.25  56.1545   -999.25  28.7213    -999.25      15.2315 -999.25     3.2797 -999.25     2.5222 -999.25 15.3200
   12278.0000   -1.9855 69.6380 -999.25 122.0557  -999.25  59.9244   -999.25  55.5493   -999.25  28.4186    -999.25      15.6904 -999.25     3.2507 -999.25     2.5121 -999.25 15.5900
   12278.5000   -1.9929 69.4647 -999.25 115.5618  -999.25  59.9604   -999.25  55.7489   -999.25  28.6582    -999.25      15.6308 -999.25     3.2681 -999.25     2.5174 -999.25 15.4600
   12279.0000   -2.0004 69.2842 -999.25 111.0669  -999.25  59.7011   -999.25  55.5677   -999.25  28.6100    -999.25      15.4316 -999.25     3.2738 -999.25     2.5221 -999.25 15.3400
   12279.5000   -2.0103 69.1932 -999.25 110.5403  -999.25  59.7289   -999.25  55.5541   -999.25  28.6033    -999.25      15.3005 -999.25     3.2758 -999.25     2.5237 -999.25 15.2700
   12280.0000   -2.0177 69.2814 -999.25 119.4987  -999.25  59.0156   -999.25  54.4125   -999.25  28.1023    -999.25      15.3718 -999.25     3.2432 -999.25     2.5183 -999.25 15.3300
   12280.5000   -2.0252 69.0647 -999.25 125.8976  -999.25  58.3553   -999.25  53.2034   -999.25  27.6972    -999.25      15.1415 -999.25     3.2258 -999.25     2.5190 -999.25 15.1800
   12281.0000   -2.0314 68.8256 -999.25 126.6443  -999.25  57.5035   -999.25  52.0817   -999.25  27.3216    -999.25      14.9137 -999.25     3.2129 -999.25     2.5223 -999.25 15.0100
   12281.5000   -2.0388 68.8112 -999.25 132.3030  -999.25  56.4362   -999.25  50.7194   -999.25  26.6877    -999.25      14.8391 -999.25     3.1842 -999.25     2.5200 -999.25 15.0000
   12282.0000   -2.0463 68.9555 -999.25 132.6510  -999.25  56.8418   -999.25  51.2833   -999.25  26.7479    -999.25      14.8425 -999.25     3.1874 -999.25     2.5179 -999.25 15.1000
   12282.5000   -2.0537 69.0753 -999.25 129.1064  -999.25  58.0617   -999.25  52.8112   -999.25  27.3466    -999.25      14.9530 -999.25     3.2131 -999.25     2.5178 -999.25 15.1900
   12283.0000   -2.0599 69.6503 -999.25 136.1920  -999.25  59.6524   -999.25  54.5416   -999.25  27.9661    -999.25      15.6047 -999.25     3.2285 -999.25     2.5066 -999.25 15.5900
   12283.5000   -2.0674 69.7745 -999.25 135.4598  -999.25  59.7682   -999.25  54.8162   -999.25  28.0034    -999.25      15.7087 -999.25     3.2277 -999.25     2.5048 -999.25 15.6800
   12284.0000   -2.0748 70.0434 -999.25 146.5542  -999.25  59.2271   -999.25  53.8147   -999.25  27.6131    -999.25      16.0820 -999.25     3.2027 -999.25     2.4961 -999.25 15.8700
   12284.5000   -2.0848 69.6227 -999.25 145.1120  -999.25  58.7113   -999.25  53.0576   -999.25  27.3924    -999.25      15.5967 -999.25     3.2047 -999.25     2.5035 -999.25 15.5700
   12285.0000   -2.0922 68.9977 -999.25 137.8362  -999.25  59.1401   -999.25  53.3517   -999.25  27.8068    -999.25      14.9903 -999.25     3.2385 -999.25     2.5169 -999.25 15.1300
   12285.5000   -2.0997 68.0884 -999.25 128.1682  -999.25  58.7423   -999.25  52.6300   -999.25  27.9125    -999.25      14.1071 -999.25     3.2648 -999.25     2.5358 -999.25 14.4900
   12286.0000   -2.1059 68.2508 -999.25 134.5712  -999.25  58.0659   -999.25  51.7653   -999.25  27.4828    -999.25      14.2817 -999.25     3.2418 -999.25     2.5304 -999.25 14.6000
   12286.5000   -2.1133 67.7312 -999.25 126.0402  -999.25  58.0802   -999.25  51.7391   -999.25  27.6914    -999.25      13.7679 -999.25     3.2635 -999.25     2.5424 -999.25 14.2400
   12287.0000   -2.1208 67.6107 -999.25 132.9037  -999.25  56.3646   -999.25  49.5425   -999.25  26.9456    -999.25      13.8412 -999.25     3.2296 -999.25     2.5409 -999.25 14.1500
   12287.5000   -2.1282 66.9042 -999.25 120.3053  -999.25  56.7887   -999.25  49.9417   -999.25  27.5123    -999.25      13.2335 -999.25     3.2748 -999.25     2.5577 -999.25 13.6500
   12288.0000   -2.1344 67.2486 -999.25 124.0610  -999.25  57.9228   -999.25  51.1982   -999.25  28.0144    -999.25      13.6209 -999.25     3.2896 -999.25     2.5511 -999.25 13.9000
   12288.5000   -2.1419 67.9530 -999.25 128.3986  -999.25  59.8641   -999.25  53.6003   -999.25  28.7373    -999.25      14.2535 -999.25     3.3075 -999.25     2.5386 -999.25 14.3900
   12289.0000   -2.1493 68.3088 -999.25 128.5118  -999.25  60.8450   -999.25  54.9510   -999.25  29.0325    -999.25      14.4780 -999.25     3.3136 -999.25     2.5331 -999.25 14.6500
   12289.5000   -2.1593 68.2174 -999.25 123.0778  -999.25  60.7443   -999.25  55.0459   -999.25  29.0272    -999.25      14.3413 -999.25     3.3133 -999.25     2.5363 -999.25 14.5800
   12290.0000   -2.1667 68.1331 -999.25 121.4608  -999.25  60.0742   -999.25  54.3485   -999.25  28.7736    -999.25      14.2970 -999.25     3.3016 -999.25     2.5377 -999.25 14.5200
   12290.5000   -2.1742 68.1445 -999.25 122.1450  -999.25  59.5863   -999.25  53.8167   -999.25  28.5433    -999.25      14.3276 -999.25     3.2894 -999.25     2.5369 -999.25 14.5300
