###############################################
##         ENVERUS                           ##
##         ESS - Open Hole                   ##
##         PERMIAN / DELAWARE                ##
##         Nov 02 2023  V4.0                 ##
##         42-109-10071-00-00                ##
###############################################
## Copyright 2017-2023  ENVERUS.  All Rights Reserved. 
## Confidential - Property of ENVERUS, use governed by terms and 
## conditions found within the existing Information Services Subscription Agreement 
## (as may be amended, the “ISSA”) between Customer and ENVERUS. 
## 
~VERSION INFORMATION
# MNEM.UNIT                               DATA : DESCRIPTION OF MNEMONIC
#-----.-----     ----------------------------- : -----------------------------
VERS.                                     2.00 : CWLS LOG ASCII STANDARD - VERSION 2.00
WRAP.                                       NO : MULTIPLE LINES PER DEPTH STEP
VEND.                                  ENVERUS : VENDOR
TYPE.                          ESS - OPEN HOLE : ENVERUS ESSENTIAL CURVES – ACCESSIBLE THROUGH ENVERUS PRISM(TM)
DOC.                                  31950413 : ENVERUS HEADER RAW DOCUMENT ID
#___________________________________________________________________________________________________ 
~WELL INFORMATION 
# OfUh2+mdeFjroaXzMJDg/lRWUsinBwpBr+LWp9Jgnw936lSgPWOOCrYxw0Bz1A8ekYSC2IJg55FhS+cGr4hs3w== 
# MNEM.UNIT                                              DATA : DESCRIPTION OF MNEMONIC 
#-----.-----                    ----------------------------- : ----------------------------- 
CNTY.                                               CULBERSON : COUNTY 
STATE.                                                  TEXAS : STATE 
CNTRY.                                                    USA : COUNTRY 
API.                                             42-109-10071 : API (10 Digit) 
API_14.                                    42-109-10071-00-00 : API (14 Digits) 
API_14_std.                                 42-109-10071-0000 : API (14 Digits Standard) 
UWI.                                           42109100710000 : UNIQUE WELL ID 
WELL.                                                  DRD_55 : WELL NAME
STRT.FT                                                 320.5 : START DEPTH
STOP.FT                                               12359.5 : STOP DEPTH
STEP.FT                                                   0.5 : STEP BETWEEN DEPTHS
NULL.                                                 -999.25 : NULL VALUE
#___________________________________________________________________________________________________ 
~PARAMETER INFORMATION 
# MNEM.UNIT                                              DATA : DESCRIPTION OF MNEMONIC 
#-----.-----                    ----------------------------- : -----------------------------
#___________________________________________________________________________________________________ 
~CURVE INFORMATION 
# MNEM.UNIT           : CURVE DESCRIPTION 
#-----.-----          : ----------------------------- 
 DEPT.FT               : MEASURED DEPTH 
 GR.API                : GAMMA RAY (GAMMA RAY) 
 DT.US/FT              : SONIC DELTA TRANSIT TIME (SONIC) 
 #___________________________________________________________________________________________________ 
~A         DEPT             GR             DT
# ...
         9890.5        100.360         69.604
         9891.0         99.187         70.295
         9891.5        101.144         72.217
         9892.0        114.340         74.144
         9892.5        117.526         76.070
         9893.0        124.788         77.039
         9893.5        131.447         77.964
         9894.0        123.539         77.878
         9894.5        112.627         75.813
         9895.0        101.716         73.630
         9895.5         90.148         71.446
         9896.0         86.853         69.266
         9896.5         91.408         68.601
         9897.0         95.160         67.928
         9897.5         92.509         67.975
         9898.0         87.927         67.933
         9898.5         83.344         67.744
         9899.0         76.414         67.010
         9899.5         87.953         65.763
         9900.0         95.393         66.004
         9900.5         95.019         66.642
         9901.0         94.785         67.110
         9901.5         94.550         68.395
         9902.0         94.316         69.679
         9902.5         94.081         70.630
         9903.0         93.847         70.972
         9903.5         93.575         70.934
         9904.0         92.403         70.452
         9904.5         96.820         69.918
         9905.0        101.296         69.363
         9905.5        105.315         68.773
         9906.0         96.546         69.444
         9906.5         93.635         70.115
         9907.0        100.539         70.786
         9907.5        107.442         71.487
         9908.0        112.393         71.957
         9908.5        111.475         72.358
         9909.0        109.623         72.245
         9909.5        110.484         72.649
         9910.0        117.134         73.604
         9910.5        123.963         75.881
         9911.0        130.793         78.157
         9911.5        137.623         81.479
         9912.0        144.453         85.640
         9912.5        151.283         86.132
         9913.0        155.474         85.489
         9913.5        147.033         83.441
         9914.0        131.793         80.444
         9914.5        116.554         77.447
         9915.0        103.764         74.450
         9915.5         97.801         72.398
         9916.0         97.673         72.358
         9916.5         97.500         72.796
         9917.0         96.081         73.613
         9917.5         91.329         73.863
         9918.0         85.621         74.153
         9918.5         87.207         74.188
         9919.0         89.081         73.531
         9919.5         91.868         73.122
         9920.0         96.647         72.819
         9920.5        101.426         73.220
         9921.0        106.206         73.817
         9921.5        111.377         74.205
         9922.0        120.169         75.730
         9922.5        128.961         77.455
         9923.0        136.384         79.180
         9923.5        139.780         80.905
         9924.0        139.780         82.048
         9924.5        129.194         81.937
         9925.0        110.437         78.341
         9925.5         91.681         74.745
         9926.0         72.924         71.148
         9926.5         60.896         67.552
         9927.0         63.767         63.955
         9927.5         73.536         62.692
         9928.0         78.766         64.638
         9928.5         79.622         66.507
         9929.0         77.909         65.514
         9929.5         72.861         66.892
         9930.0         52.661         65.903
         9930.5         54.389         65.502
         9931.0         64.015         65.643
         9931.5         86.423         67.160
         9932.0       -999.250         69.830
         9932.5         99.934         72.447
         9933.0         96.558         74.437
         9933.5         90.940         74.025
         9934.0         92.210         72.741
         9934.5         92.196         71.456
         9935.0         90.005         70.337
         9935.5         85.509         69.445
         9936.0         87.894         69.181
         9936.5         90.267         68.874
         9937.0         90.078         69.322
         9937.5         90.207         69.857
         9938.0         92.039         70.560
         9938.5         96.899         70.355
         9939.0        102.950         70.072
         9939.5        105.248         70.134
         9940.0        104.662         71.149
         9940.5        104.051         71.574
         9941.0        101.542         71.788
         9941.5         98.863         71.852
         9942.0         95.075         71.810
         9942.5         87.463         71.594
         9943.0         80.317         71.304
         9943.5         77.379         70.916
         9944.0         72.545         69.493
         9944.5         77.197         68.256
         9945.0         80.075         68.284
         9945.5         82.767         69.171
         9946.0         87.428         69.600
         9946.5         93.517         70.153
         9947.0         97.379         72.043
         9947.5        106.277         73.391
         9948.0        108.420         73.785
         9948.5        109.010         74.381
         9949.0        109.987         74.617
         9949.5        115.443         74.275
         9950.0        114.271         73.703
         9950.5        111.928         74.345
         9951.0        114.896         74.645
         9951.5        123.939         74.823
         9952.0        131.478         74.999
         9952.5        129.749         75.298
         9953.0        128.168         75.392
         9953.5        127.611         75.253
         9954.0        127.611         74.682
         9954.5        122.293         73.969
         9955.0        113.823         73.396
         9955.5        106.939         72.806
         9956.0        104.194         71.602
         9956.5         97.279         70.531
         9957.0         90.518         67.962
         9957.5         81.404         66.712
         9958.0         74.304         65.797
         9958.5         77.837         65.266
         9959.0         81.276         65.162
         9959.5         86.798         64.975
         9960.0         89.406         66.973
         9960.5         90.263         68.160
         9961.0         89.021         68.840
         9961.5         85.554         68.317
         9962.0         80.865         67.793
         9962.5         76.176         67.270
         9963.0         75.506         66.747
         9963.5         75.511         66.272
         9964.0         77.498         66.186
         9964.5         79.729         66.543
         9965.0         82.372         67.141
         9965.5         80.490         67.194
         9966.0         74.729         66.963
         9966.5         73.482         67.144
         9967.0         73.433         67.493
         9967.5         77.601         67.843
         9968.0         78.844         68.168
         9968.5         80.314         68.424
         9969.0         80.697         68.435
         9969.5         81.317         68.649
         9970.0         82.669         69.011
         9970.5         83.121         69.229
         9971.0         78.583         69.538
         9971.5         73.619         69.555
         9972.0         76.389         68.924
         9972.5         76.037         68.677
         9973.0         75.259         69.339
         9973.5         74.543         69.821
         9974.0         80.922         69.477
         9974.5         84.713         69.331
         9975.0         85.299         69.953
         9975.5         88.245         71.505
         9976.0         92.870         71.136
         9976.5        102.023         70.914
         9977.0        111.176         70.883
