~Version Information
 VERS.                  2.0:   CWLS log ASCII Standard -VERSION 2.0
 WRAP.                   NO:   One line per depth step
~Well Information Block
#MNEM.UNIT     VALUE/NAME     DESCRIPTION
#---------     -----------    ---------------------------
 STRT.F              8400.0000: START DEPTH
 STOP.F             13890.0000: STOP DEPTH
 STEP.F                 0.5000: STEP DEPTH
 NULL.                 -999.25: NULL VALUE
 LOC .     506' FEL & 344' FSL:  LOCATION
 FL6 .       API  42-109-33224:  LOCATIONLINE6
 FL4 .           ABSTRACT 4479:  LOCATIONLINE4
 FL3 .        T&P RR CO SURVEY:  LOCATIONLINE3
 FL2 .     SECTION 30, BLOCK 58 T2:  LOCATIONLINE2
 FL1 .     506' FEL & 344' FSL:  LOCATIONLINE1
 DMF .                      KB:  DRILL MEAS FROM
 PDAT.                      GL:  PERMANENT DATUM
 CNTY.               CULBERSON:  COUNTY NAME
 FLD .     FORD, WEST (WOLFCAMP):  FIELD NAME
 WELL.      LAUREN STATE 30 2H:  WELL NAME
 COMP.     CAPITAN ENERGY, INC.:  COMPANY
 DATE.             19-Feb-2018:  DATE
 SVCO.             Halliburton:  SERVICECONAME
 PROV.                   TEXAS:  PROVINCE
 STAT.                   TEXAS:  STATE NAME
 CTRY.                     USA:  COUNTRY NAME
 HIDE.                        :  WELLNAMEOPERAT
 BASI.                 PERMIAN:  BASIN
 UWI .            42-109-33224:  UNIQUE WELL IDENTIFIER
 API .            42-109-33224:  API NUMBER
 RANG.                     N/A:  RANGE
 TOWN.                     N/A:  TOWNSHIP
 SECT.                     N/A:  SECTION
 SON .               904646015:  JOB NUMBER
 SRVC.             Halliburton:  SERVICE COMPANY
 LMF .                      KB:  LOG MEASURED FROM
 EGL .ft             3168.0000:  GROUND ELEVATION
 BAP .ft                0.0000:  GL ELEV ONSHORE
 GVFD.g                 1.0000:  GRAVITY FIELD
 EKB .ft             3194.0000:  KB ELEVATION
 EDF .ft             3193.0000:  DF ELEVATION
~Curve Information Block
#MNEM.UNIT                 API CODE     Curve Description
#---------               -----------    ---------------------------
 DEPT.F                 00 000 000 000:  Depth
 CCL .V                 00 000 000 000:  Casing Collar Locator
 NPHI_OH.pu             00 000 000 000:  NPHI_OH
 NPHI_CHI.pu            00 000 000 000:  NPHI_CHI
 GR_OH.api              00 000 000 000:  GR_OH
 GR_CHI.api             00 000 000 000:  GR_CHI
 RHOB_OH.g/cc           00 000 000 000:  RHOB_OH
 RHOB_CHI.g/cc          00 000 000 000:  RHOB_CHI
 PE_OH.b/e              00 000 000 000:  PE_OH
 PE_CHI.b/e             00 000 000 000:  PE_CHI
 RT10_OH.ohmm           00 000 000 000:  RT10_OH
 RT10_CHI.ohmm          00 000 000 000:  RT10_CHI
 RT30_OH.ohmm           00 000 000 000:  RT30_OH
 RT30_CHI.ohmm          00 000 000 000:  RT30_CHI
 RT90_OH.ohmm           00 000 000 000:  RT90_OH
 RT90_CHI.ohmm          00 000 000 000:  RT90_CHI
 DTC_OH.uspf            00 000 000 000:  DTC_OH
 DTC_CHI.uspf           00 000 000 000:  DTC_CHI
 SPHI_CHI.pu            00 000 000 000:  SPHI_CHI
 SGF .cu                00 000 000 000:  Formation Sigma
 CRNF.NONE              00 000 000 000:  CM GrsCaptRatio
 RIN .NONE              00 000 000 000:  CM GrsInelRatio
#Other Information
#
#WARRANTY: Halliburton will use its best efforts to furnish customers with 
#accurate information and interpretations that are part of, and incident to, the services 
#provided.  However, Halliburton cannot and does not warrant the accuracy 
#or correctness of such information and interpretations.  Under no circumstances should any 
#such information or interpretation be relied upon as the sole basis for any drilling, 
#completion, production, or financial decision or any procedure involving any risk to the 
#safety of any drilling venture, drilling rig or its crew or any other third party.  The 
#Customer has full responsibility for all drilling, completion and production operation.  
#Halliburton makes no representations or warranties, either expressed or 
#implied, including, but not limited to, the implied warranties of merchantability or fitness 
#for a particular purpose, with respect to the services rendered.  In no event will 
#Halliburton be liable for failure to obtain any particular results or for 
#any damages, including, but not limited to, indirect, special or consequential damages, 
#resulting from the use of any information or interpretation provided by Halliburton.
#
~A    DEPT      CCL   NPHI_OH NPHI_CHI  GR_OH    GR_CHI  RHOB_OH RHOB_CHI  PE_OH  PE_CHI  RT10_OH  RT10_CHI RT30_OH  RT30_CHI RT90_OH  RT90_CHI DTC_OH  DTC_CHI SPHI_CHI   SGF    CRNF   RIN   
    8400.0000  0.0000  2.8000   6.6339  33.7046  56.9321  2.6638   2.6143  5.0330  4.5163 161.9784  86.3336 181.0343  90.9773 202.2572 102.1748 53.6765 64.8577  12.2000 14.0279 0.7626 0.9337
    8400.5000  0.0000  3.1200   6.0931  28.4010  47.5878  2.6666   2.6210  5.0885  4.5566 180.4324  88.3863 206.2061  94.7490 229.4292 106.6597 52.9179 63.6942  11.3800 13.7140 0.7681 0.9345
    8401.0000  0.0000  2.4200   5.2848  25.4784  28.5879  2.6832   2.6318  5.1604  4.5886 203.5745  91.4383 234.4996 100.5285 258.4608 113.6024 52.7222 61.6655   9.9500 13.7378 0.7864 0.9399
    8401.5000  0.0000  1.7500   5.0967  27.0098  24.8997  2.6872   2.6340  5.2075  4.6127 199.4072  92.1229 226.6143 101.8701 246.7499 115.4758 53.3562 61.1943   9.6100 14.1716 0.8061 0.9477
    8402.0000  0.0000  1.9500   5.4286  39.7541  33.6489  2.6913   2.6292  5.2697  4.6107 160.6367  91.5485 173.8840 100.1384 185.3845 113.4746 54.2233 62.1002  10.2500 14.8767 0.8217 0.9531
    8402.5000  0.0000  3.1100   6.0208  47.5278  46.0804  2.6741   2.6216  5.2186  4.5730 139.9194  89.2827 146.6156  95.8265 154.1863 108.1891 54.5276 63.5294  11.2700 15.4108 0.8215 0.9539
    8403.0000  0.0000  3.7800   6.5930  47.3245  56.5847  2.6603   2.6147  5.2194  4.5075 129.2814  90.0367 132.2144  95.3031 137.4424 106.6475 55.4374 64.8428  12.1900 15.5131 0.8132 0.9489
    8403.5000  0.0000  3.8100   6.4630  44.2686  48.4753  2.6741   2.6177  5.3473  4.4524 128.9308  89.3417 129.7593  94.8227 133.7495 105.7283 55.2728 64.3755  11.8600 15.3228 0.8069 0.9455
    8404.0000  0.0000  3.2400   6.0420  41.7873  36.6069  2.6862   2.6239  5.5017  4.4402 128.4469  89.3420 128.0163  95.8868 131.2432 106.9289 55.2527 63.2834  11.0900 15.1153 0.8068 0.9446
    8404.5000  0.0000  2.5600   6.4365  37.5791  50.1255  2.6823   2.6178  5.5402  4.4718 123.7875  88.8555 122.8279  94.4330 125.5332 105.3442 55.6229 64.3741  11.8600 15.1146 0.8085 0.9470
    8405.0000  0.0000  2.5500   6.2898  35.1638  47.8318  2.6858   2.6195  5.4894  4.4957 125.3710  87.5237 124.1011  93.2795 126.6671 104.4022 55.7244 64.0266  11.6200 15.2997 0.8123 0.9493
    8405.5000  0.0000  2.5900   6.1397  39.5708  43.5806  2.6912   2.6216  5.3660  4.4852 125.7736  90.7273 124.7425  97.2718 127.1008 108.6698 55.6194 63.6908  11.3800 15.4984 0.8132 0.9466
    8406.0000  0.0000  2.6200   6.6910  43.0223  58.4164  2.6870   2.6137  5.2014  4.4634 120.0281  95.3463 120.2103 101.2312 121.9092 112.2258 55.6264 65.1833  12.4400 15.5979 0.8167 0.9420
    8406.5000  0.0000  2.7900   7.0412  39.9360  66.6752  2.6815   2.6086  5.1274  4.4215 117.9051 100.9890 120.5666 106.9005 121.2342 117.4863 55.5307 66.1881  13.1500 15.7213 0.8327 0.9386
    8407.0000  0.0000  3.0300   6.2390  35.3285  44.3034  2.6780   2.6199  5.1767  4.3851 125.0340  96.4282 131.3623 104.2571 130.3595 114.8243 56.2231 64.3326  11.8300 16.1496 0.8620 0.9429
    8407.5000  0.0000  2.8800   6.4524  35.5997  49.1997  2.6757   2.6169  5.2503  4.3589 138.2686  92.1942 149.5083  99.3700 145.8115 109.3007 58.5008 64.9733  12.2900 17.1375 0.9111 0.9556
    8408.0000  0.0000  3.7200   6.9375  41.1538  57.8492  2.6771   2.6111  5.1261  4.3252 162.2814  91.4687 173.3642  97.3630 164.0965 106.7501 61.7276 65.9816  13.0000 19.0768 0.9625 0.9758
    8408.5000  0.0000  5.2000   7.6201  54.0696  67.2825  2.6622   2.6039  4.8694  4.2514 157.2113  86.7154 158.5401  90.6528 146.7092  98.8378 64.2951 67.1976  13.8600 21.3286 1.0027 0.9950
    8409.0000  0.0000  6.6600   8.8802  72.3873  84.4142  2.6232   2.5912  4.4244  4.1323 118.2780  76.6388 111.8495  77.2257 104.0615  83.4121 67.1372 69.0651  15.1800 23.2510 0.9977 1.0066
    8409.5000  0.0000  9.4500  10.7916  83.1331 114.6248  2.5672   2.5703  3.9234  3.9932  87.9581  61.5180  80.8295  59.3449  76.4314  63.6384 68.6445 71.7307  17.0700 23.2216 0.9531 1.0049
    8410.0000  0.0000 12.7300  10.6491  77.7767  99.0704  2.5400   2.5767  3.6592  3.8615  78.2935  50.0717  71.3127  47.9101  68.0354  51.3549 68.3596 70.9068  16.4800 21.3513 0.9069 0.9927
    8410.5000  0.0000 11.0900   9.7755  62.7340  79.7917  2.5610   2.5883  3.9071  3.8490  82.6820  51.1651  75.4585  49.7434  72.3842  53.1782 66.7007 69.4837  15.4800 19.2884 0.8930 0.9772
    8411.0000  0.0000 10.0900   9.0699  48.3462  76.1266  2.5876   2.5932  4.4109  3.9605  97.1095  61.6407  89.8928  61.5540  86.8462  65.9002 65.4764 68.9667  15.1100 17.9609 0.9018 0.9664
    8411.5000  0.0000  6.0900   7.7988  40.1611  58.4452  2.6190   2.6061  4.8169  4.0951 119.3462  68.4070 113.2516  70.7499 110.9836  76.6867 65.2180 66.9891  13.7100 17.5138 0.9193 0.9652
    8412.0000  0.0000  4.3400   7.0371  55.0933  43.1075  2.6542   2.6145  5.1663  4.1719 146.5511  72.9915 145.1779  77.0090 148.0941  84.5894 65.2251 65.4063  12.5900 17.8296 0.9269 0.9687
    8412.5000  0.0000  5.4200   7.7827  71.0739  60.3240  2.6315   2.6038  4.9973  4.2090 136.8688  81.3695 137.0847  83.9734 142.7584  92.2639 64.6697 66.9471  13.6800 18.1742 0.9101 0.9710
    8413.0000  0.0000  7.3400   9.6440  68.6025 101.2098  2.5640   2.5791  4.1442  4.1867 123.2189  82.7925 129.2247  82.4491 137.1655  89.8116 63.4657 70.5037  16.2000 17.8502 0.8885 0.9664
    8413.5000  0.0000  9.1200   9.3690  50.2490  92.2030  2.5431   2.5834  3.6550  4.1446 128.6065  81.8069 141.6836  82.1163 152.1031  89.3423 62.0650 70.0400  15.8700 17.2556 0.8825 0.9582
    8414.0000  0.0000  6.1800   7.5549  32.5702  51.8633  2.6014   2.6074  4.0506  4.1474 148.3472  71.8641 173.0478  75.2835 186.0617  82.9532 61.1040 66.5690  13.4200 17.1077 0.9085 0.9553
    8414.5000  0.0000  3.1800   6.8122  25.5090  38.4849  2.6785   2.6160  4.7881  4.1778 179.7202  65.6806 217.9566  70.4628 232.3807  78.3082 60.9511 65.1778  12.4300 18.1156 0.9586 0.9655
    8415.0000  0.0000  2.5600   7.3467  30.3843  54.3652  2.7146   2.6080  5.2315  4.1977 205.6572  73.4212 247.4359  77.7817 259.7240  85.8278 61.5486 66.5637  13.4100 20.8359 1.0173 0.9850
    8415.5000  0.0000  3.0700   8.0391  44.6260  64.5141  2.6990   2.6008  5.1711  4.1366 182.0932  74.2545 206.4417  77.0306 212.6136  84.2697 63.7512 67.7045  14.2200 24.9368 1.0561 1.0052
    8416.0000  0.0000  6.4200  10.0091  64.6203  97.1437  2.6492   2.5793  4.7022  3.9586 134.9494  68.4184 140.5511  67.9750 142.0431  72.6870 68.2556 70.9715  16.5300 27.1357 1.0597 1.0151
    8416.5000  0.0000 14.1200  12.4841  98.3928 136.5230  2.5522   2.5534  3.3317  3.6787  93.6571  57.3621  89.3711  55.0051  88.6886  57.0795 72.6017 74.5222  19.0400 25.8744 1.0416 1.0128
    8417.0000  0.0000 14.1200  13.4914 106.1081 148.3341  2.5522   2.5439  3.3317  3.5043  86.4403  49.9511  81.4843  47.5527  80.7000  48.8833 73.2104 75.8998  20.0100 23.8943 1.0360 1.0064
    8417.5000  0.0000 15.6100  12.3808 103.3807 121.4949  2.5219   2.5573  2.9997  3.5514  81.2047  46.6408  76.0799  45.1522  75.2693  47.4077 73.7501 74.3140  18.8900 22.9207 1.0372 1.0008
    8418.0000  0.0000 14.4400  10.6175  93.5884  86.3984  2.5254   2.5780  3.0901  3.6757  83.6467  43.9832  78.4960  43.5416  77.6981  46.8131 73.8141 71.4135  16.8400 23.1925 1.0376 1.0003
    8418.5000  0.0000  8.7800  10.2506  71.0096  79.9113  2.5752   2.5816  3.5619  3.7376  97.7222  46.8618  92.5881  46.6637  92.0231  50.5796 73.2024 70.7606  16.3800 23.8745 1.0380 1.0014
    8419.0000  0.0000  8.7800  11.9673  65.8111 119.5848  2.5752   2.5583  3.5619  3.7195 107.1138  59.3555 102.2806  58.1773 102.1121  61.9559 71.8775 73.8651  18.5800 24.3283 1.0372 1.0007
    8419.5000  0.0000  6.1500  12.8403  74.4443 139.6693  2.6148   2.5473  4.0992  3.6815 120.4770  63.5018 117.6481  61.8494 119.0967  65.0344 70.0934 75.2284  19.5400 24.4502 1.0428 0.9996
    8420.0000  0.0000  7.1200  10.8962  84.4690  93.6988  2.6199   2.5747  4.2728  3.6586 121.2732  44.6147 119.9346  43.8975 122.3246  46.8212 69.7660 71.9489  17.2200 24.6099 1.0458 0.9987
    8420.5000  0.0000  8.2600  10.0222  98.3877  73.3963  2.5996   2.5870  4.0618  3.6564 114.8411  38.4136 116.4489  38.0892 120.6594  40.8842 68.9749 70.2197  16.0000 25.1951 1.0497 1.0013
