###############################################
##         ENVERUS                           ##
##         ESS - Open Hole                   ##
##         PERMIAN / DELAWARE                ##
##         Nov 03 2023  V4.0                 ##
##         42-109-33144-00-00                ##
###############################################
## Copyright 2017-2023  ENVERUS.  All Rights Reserved. 
## Confidential - Property of ENVERUS, use governed by terms and 
## conditions found within the existing Information Services Subscription Agreement 
## (as may be amended, the “ISSA”) between Customer and ENVERUS. 
## 
~VERSION INFORMATION
# MNEM.UNIT                               DATA : DESCRIPTION OF MNEMONIC
#-----.-----     ----------------------------- : -----------------------------
VERS.                                     2.00 : CWLS LOG ASCII STANDARD - VERSION 2.00
WRAP.                                       NO : MULTIPLE LINES PER DEPTH STEP
VEND.                                  ENVERUS : VENDOR
TYPE.                          ESS - OPEN HOLE : ENVERUS ESSENTIAL CURVES – ACCESSIBLE THROUGH ENVERUS PRISM(TM)
DOC.                                  44408038 : ENVERUS HEADER RAW DOCUMENT ID
#___________________________________________________________________________________________________ 
~WELL INFORMATION 
# jhvnPe+1QU9E4rmF00QVhgJB4IQXrbTj+4JQBaOQ+xeerJB1ro+a2ny8/YeKPBUHGPa8yPZn1kHe7+9ZkyRs1A== 
# MNEM.UNIT                                              DATA : DESCRIPTION OF MNEMONIC 
#-----.-----                    ----------------------------- : ----------------------------- 
CNTY.                                               CULBERSON : COUNTY 
STATE.                                                  TEXAS : STATE 
CNTRY.                                                    USA : COUNTRY 
API.                                             42-109-33144 : API (10 Digit) 
API_14.                                    42-109-33144-00-00 : API (14 Digits) 
API_14_std.                                 42-109-33144-0000 : API (14 Digits Standard) 
UWI.                                           42109331440000 : UNIQUE WELL ID 
WELL.                                        PAT FEE 4 NO. 3H : WELL NAME
STRT.FT                                                8880.0 : START DEPTH
STOP.FT                                               14320.0 : STOP DEPTH
STEP.FT                                                   0.5 : STEP BETWEEN DEPTHS
NULL.                                                 -999.25 : NULL VALUE
LOC.                                     API  42-109-33144LAT : LOCATION 
FL1.                                     API  42-109-33144LAT : LOCATIONLINE1 
DMF.                                                       KB : DRILL MEAS FROM 
PDAT.                                                      GL : PERMANENT DATUM 
FLD.                                    FORD, WEST (WOLFCAMP) : FIELD NAME 
COMP.                            CAPITAN ENERGY, INCORPORATED : COMPANY 
DATE.                                             21-SEP-2017 : DATE 
SVCO.                                             HALLIBURTON : SERVICECONAME 
PROV.                                                   TEXAS : PROVINCE 
BASI.                                                 PERMIAN : BASIN 
RANG.                                                     N/A : RANGE 
TOWN.                                                     N/A : TOWNSHIP 
SECT.                                                     N/A : SECTION 
SON.                                                      N/A : JOB NUMBER 
SRVC.                                             HALLIBURTON : SERVICE COMPANY 
LMF.                                                       KB : LOG MEASURED FROM 
EGL.FT                                              3093.0000 : GROUND ELEVATION 
BAP.FT                                                 0.0000 : GL ELEV ONSHORE 
GVFD.G                                                 1.0000 : GRAVITY FIELD 
EKB.FT                                              3114.0000 : KB ELEVATION 
EDF.FT                                              3113.0000 : DF ELEVATION
#___________________________________________________________________________________________________ 
~CURVE INFORMATION 
# MNEM.UNIT           : CURVE DESCRIPTION 
#-----.-----          : ----------------------------- 
 DEPT.FT               : MEASURED DEPTH 
 GR.API                : GAMMA RAY (GR_CHI - GR_CHI) 
 GR__01.API            : GAMMA RAY (GR_OH - GR_OH) 
 DT.US/FT              : SONIC DELTA TRANSIT TIME (DTC_CHI - DTC_CHI) 
 DT__01.US/FT          : SONIC DELTA TRANSIT TIME (DTC_OH - DTC_OH) 
 PE.B/E                : PHOTOELECTRIC EFFECT/FACTOR (PE_CHI - PE_CHI) 
 PE__01.B/E            : PHOTOELECTRIC EFFECT/FACTOR (PE_OH - PE_OH) 
 RESS_LL.OHMM          : SHALLOW LATEROLOG (LLS_CHI - LLS_CHI) 
 RESS_LL__01.OHMM      : SHALLOW LATEROLOG (LLS_OH - LLS_OH) 
 RESD_LL.OHMM          : DEEP LATEROLOG (LLD_CHI - LLD_CHI) 
 RESD_LL__01.OHMM      : DEEP LATEROLOG (LLD_OH - LLD_OH) 
 NPHI.V/V              : NEUTRON POROSITY (NPHI_CHI - NPHI_CHI) 
 NPHI__01.V/V          : NEUTRON POROSITY (NPHI_OH - NPHI_OH) 
 SPHI.V/V              : SONIC POROSITY (SPHI_CHI - SPHI_CHI) 
 RHOB.G/CC             : BULK DENSITY (RHOB_CHI - RHOB_CHI) 
 RHOB__01.G/CC         : BULK DENSITY (RHOB_OH - RHOB_OH) 
 #___________________________________________________________________________________________________ 
~A         DEPT             GR         GR__01             DT         DT__01             PE         PE__01        RESS_LL    RESS_LL__01        RESD_LL    RESD_LL__01           NPHI       NPHI__01           SPHI           RHOB       RHOB__01
# ...
        12501.0         57.545       -999.250         59.527       -999.250         3.8877      -999.2500       107.4382      -999.2500       106.0668      -999.2500        0.09445     -999.25000        0.08430         2.6167      -999.2500
        12501.5         49.297       -999.250         58.900       -999.250         3.8900      -999.2500       101.0371      -999.2500        99.7032      -999.2500        0.09105     -999.25000        0.07990         2.6216      -999.2500
        12502.0         51.633       -999.250         58.896       -999.250         3.8909      -999.2500       101.2029      -999.2500        99.8234      -999.2500        0.09116     -999.25000        0.07990         2.6206      -999.2500
        12502.5         53.673       -999.250         58.965       -999.250         3.9093      -999.2500       103.0685      -999.2500       101.6359      -999.2500        0.09131     -999.25000        0.08040         2.6197      -999.2500
        12503.0         49.873       -999.250         58.670       -999.250         3.9254      -999.2500       100.7859      -999.2500        99.3729      -999.2500        0.08944     -999.25000        0.07830         2.6221      -999.2500
        12503.5         51.581       -999.250         58.845       -999.250         3.9789      -999.2500       103.1913      -999.2500       101.9296      -999.2500        0.08900     -999.25000        0.07950         2.6217      -999.2500
        12504.0         55.931       -999.250         59.282       -999.250         4.0329      -999.2500       107.5027      -999.2500       106.4906      -999.2500        0.08974     -999.25000        0.08260         2.6198      -999.2500
        12504.5         54.715       -999.250         59.355       -999.250         4.0355      -999.2500       105.7988      -999.2500       105.0424      -999.2500        0.08953     -999.25000        0.08310         2.6204      -999.2500
        12505.0         53.728       -999.250         59.398       -999.250         4.0167      -999.2500       104.2420      -999.2500       103.6012      -999.2500        0.08983     -999.25000        0.08340         2.6207      -999.2500
        12505.5         59.011       -999.250         59.935       -999.250         4.0315      -999.2500       108.9742      -999.2500       108.5230      -999.2500        0.09203     -999.25000        0.08720         2.6176      -999.2500
        12506.0         56.453       -999.250         59.685       -999.250         4.0057      -999.2500       106.5290      -999.2500       105.9264      -999.2500        0.09146     -999.25000        0.08550         2.6189      -999.2500
        12506.5         57.701       -999.250         59.684       -999.250         4.0004      -999.2500       108.2060      -999.2500       107.4212      -999.2500        0.09193     -999.25000        0.08550         2.6181      -999.2500
        12507.0         59.232       -999.250         59.592       -999.250         3.9715      -999.2500       108.1623      -999.2500       107.1341      -999.2500        0.09249     -999.25000        0.08480         2.6172      -999.2500
        12507.5         62.206       -999.250         59.681       -999.250         3.9229      -999.2500       108.4888      -999.2500       107.2790      -999.2500        0.09425     -999.25000        0.08540         2.6151      -999.2500
        12508.0         58.301       -999.250         59.382       -999.250         3.8426      -999.2500       102.6539      -999.2500       101.3569      -999.2500        0.09440     -999.25000        0.08330         2.6164      -999.2500
        12508.5         62.732       -999.250         59.795       -999.250         3.7744      -999.2500       102.6536      -999.2500       101.4339      -999.2500        0.09763     -999.25000        0.08620         2.6132      -999.2500
        12509.0         62.060       -999.250         59.936       -999.250         3.7298      -999.2500       101.9119      -999.2500       100.7150      -999.2500        0.09915     -999.25000        0.08720         2.6128      -999.2500
        12509.5         60.049       -999.250         59.809       -999.250         3.7016      -999.2500       100.6338      -999.2500        99.3234      -999.2500        0.09930     -999.25000        0.08630         2.6135      -999.2500
        12510.0         61.083       -999.250         59.874       -999.250         3.7296      -999.2500       102.6990      -999.2500       101.3793      -999.2500        0.09913     -999.25000        0.08680         2.6131      -999.2500
        12510.5         56.181       -999.250         59.401       -999.250         3.7288      -999.2500       100.1720      -999.2500        98.6644      -999.2500        0.09716     -999.25000        0.08350         2.6159      -999.2500
        12511.0         56.816       -999.250         59.431       -999.250         3.7311      -999.2500       100.8352      -999.2500        99.2983      -999.2500        0.09734     -999.25000        0.08370         2.6155      -999.2500
        12511.5         51.738       -999.250         59.039       -999.250         3.6977      -999.2500        96.9515      -999.2500        95.3156      -999.2500        0.09623     -999.25000        0.08090         2.6180      -999.2500
        12512.0         56.112       -999.250         59.349       -999.250         3.6793      -999.2500        98.4023      -999.2500        96.7956      -999.2500        0.09810     -999.25000        0.08310         2.6154      -999.2500
        12512.5         57.289       -999.250         59.451       -999.250         3.6741      -999.2500        96.6752      -999.2500        95.2939      -999.2500        0.09816     -999.25000        0.08380         2.6151      -999.2500
        12513.0         57.731       -999.250         59.531       -999.250         3.6795      -999.2500        95.5244      -999.2500        94.3445      -999.2500        0.09795     -999.25000        0.08440         2.6151      -999.2500
        12513.5         52.099       -999.250         59.350       -999.250         3.6469      -999.2500        92.5998      -999.2500        91.4462      -999.2500        0.09757     -999.25000        0.08310         2.6176      -999.2500
        12514.0         56.433       -999.250         59.889       -999.250         3.6716      -999.2500        97.4612      -999.2500        96.4267      -999.2500        0.09963     -999.25000        0.08690         2.6150      -999.2500
        12514.5         61.942       -999.250         60.489       -999.250         3.6700      -999.2500       103.6765      -999.2500       102.6161      -999.2500        0.10293     -999.25000        0.09120         2.6113      -999.2500
        12515.0         67.556       -999.250         60.973       -999.250         3.6701      -999.2500       108.3245      -999.2500       107.3012      -999.2500        0.10543     -999.25000        0.09460         2.6079      -999.2500
        12515.5         64.324       -999.250         60.632       -999.250         3.6174      -999.2500       104.7603      -999.2500       103.4636      -999.2500        0.10522     -999.25000        0.09220         2.6091      -999.2500
        12516.0         63.837       -999.250         60.625       -999.250         3.5940      -999.2500       104.1349      -999.2500       102.7759      -999.2500        0.10578     -999.25000        0.09210         2.6090      -999.2500
        12516.5         57.667       -999.250         60.174       -999.250         3.5894      -999.2500        99.5995      -999.2500        98.2543      -999.2500        0.10351     -999.25000        0.08890         2.6126      -999.2500
        12517.0         61.068       -999.250         60.577       -999.250         3.6445      -999.2500       103.1796      -999.2500       102.1418      -999.2500        0.10386     -999.25000        0.09180         2.6112      -999.2500
        12517.5         64.858       -999.250         60.912       -999.250         3.6955      -999.2500       106.3989      -999.2500       105.6354      -999.2500        0.10408     -999.25000        0.09410         2.6097      -999.2500
