~Version Information
 VERS.                  2.0:   CWLS log ASCII Standard -VERSION 2.0
 WRAP.                   NO:   One line per depth step
~Well Information Block
#MNEM.UNIT     VALUE/NAME     DESCRIPTION
#---------     -----------    ---------------------------
 STRT.F              8580.0000: START DEPTH
 STOP.F             14491.0000: STOP DEPTH
 STEP.F                 0.5000: STEP DEPTH
 NULL.               -999.2500: NULL VALUE
 LOC .     1072' FWL & 424' FNL:  LOCATION
 FL2 .     A2085 SEC 12 BLK 113:  LOCATIONLINE2
 FL1 .     1072' FWL & 424' FNL:  LOCATIONLINE1
 CNTY.               CULBERSON:  COUNTY NAME
 FLD .              WOLFCAMP B:  FIELD NAME
 WELL.           DALE STATE 2H:  WELL NAME
 COMP.     CAPITAN ENERGY INC.:  COMPANY
 DMF .                      KB:  DRILL MEAS FROM
 PDAT.                      GL:  PERMANENT DATUM
 DATE.             11-Feb-2020:  DATE
 SVCO.             Halliburton:  SERVICECONAME
 PROV.                      TX:  PROVINCE
 STAT.                      TX:  STATE NAME
 CTRY.                     USA:  COUNTRY NAME
 HIDE.                        :  WELLNAMEOPERAT
 UWI .            42-109-33544:  UNIQUE WELL IDENTIFIER
 API .            42-109-33544:  API NUMBER
 RANG.                     N/A:  RANGE
 TOWN.                     N/A:  TOWNSHIP
 SECT.                     N/A:  SECTION
 SON .               906290231:  JOB NUMBER
 SRVC.             Halliburton:  SERVICE COMPANY
 LMF .                      KB:  LOG MEASURED FROM
 TVDS.ft           3291.000000:  TVDSS CORRECTN
 EGL .ft           3266.000000:  GROUND ELEVATION
 APD .ft             25.000000:  DEPTH ABOVE PD
 EPD .ft           3266.000000:  ELEVATION
 BAP .ft              0.000000:  GL ELEV ONSHORE
 GVFD.g               1.000000:  GRAVITY FIELD
 EKB .ft           3291.000000:  KB ELEVATION
 EDF .ft           3291.000000:  DF ELEVATION
~Parameter Information Block
#MNEM.UNIT       Value        Description
#---------     -----------    ---------------------------
 BARI.                     OFF:  BARITE CORR 
 BRMP.                      No:  BromidePresent 
 CSF5.        Conductor Casing:  Casing Func5 
 CSF6.        Conductor Casing:  Casing Func6 
 DATE.               07-Feb-20:  Run Date 
 DCS .               07-Feb-20:  DateCircEndT 
 DLAB.               07-Feb-20:  LogStartDateT 
 ENGI.                John Doe:  Engineer Name 
 LSRV.             OH WIRELINE:  NameOfService 
 LSTM.ucts  09.26.51 07-Feb-20:  Log Start Time 
 LTYP.                     RAW:  LogDataType 
 LUL .                  ODESSA:  LoggingUnitLoc 
 LUN .                12100315:  LoggingUnitNum 
 SCT1.               07-Feb-20:  StartDateRun1 
 TCS .                   09 26:  Time Ciculation Ended 
 TDCE.ucts  09.26.51 07-Feb-20:  Time Circ End 
 TLAB.                   09 26:  LogStartTimeT 
~Curve Information Block
#MNEM.UNIT                 API CODE     Curve Description
#---------               -----------    ---------------------------
 DEPT.F                 00 000 000 000:  Depth
 CCL .V                 00 000 000 000:  Casing Collar Locator
 NPHI_OH.pu             00 000 000 000:  NPHI_OH
 NPHI_CHI.decp          00 000 000 000:  NPHI_CHI
 GR  .api               00 000 000 000:  Gamma API
 GR_CHI.api             00 000 000 000:  GR_CHI
 RHOB_OH.g/cc           00 000 000 000:  RHOB_OH
 RHOB_CHI.g/cc          00 000 000 000:  RHOB_CHI
 PE_OH.b/e              00 000 000 000:  PE_OH
 PE_CHI.b/e             00 000 000 000:  PE_CHI
 LLS_CHI.ohmm           00 000 000 000:  LLS_CHI
 LLS_OH.ohmm            00 000 000 000:  LLS_OH
 LLD_OH.ohmm            00 000 000 000:  LLD_OH
 LLD_CHI.ohmm           00 000 000 000:  LLD_CHI
 DTC_OH.uspf            00 000 000 000:  DTC_OH
 DTC_CHI.uspf           00 000 000 000:  DTC_CHI
 SPHW_CHI.decp          00 000 000 000:  SPHW_CHI
#Other Information
#
#WARRANTY: Halliburton will use its best efforts to furnish customers with 
#accurate information and interpretations that are part of, and incident to, the services 
#provided.  However, Halliburton cannot and does not warrant the accuracy 
#or correctness of such information and interpretations.  Under no circumstances should any 
#such information or interpretation be relied upon as the sole basis for any drilling, 
#completion, production, or financial decision or any procedure involving any risk to the 
#safety of any drilling venture, drilling rig or its crew or any other third party.  The 
#Customer has full responsibility for all drilling, completion and production operation.  
#Halliburton makes no representations or warranties, either expressed or 
#implied, including, but not limited to, the implied warranties of merchantability or fitness 
#for a particular purpose, with respect to the services rendered.  In no event will 
#Halliburton be liable for failure to obtain any particular results or for 
#any damages, including, but not limited to, indirect, special or consequential damages, 
#resulting from the use of any information or interpretation provided by Halliburton.
#
~A    DEPT       CCL     NPHI_OH  NPHI_CHI    GR      GR_CHI   RHOB_OH  RHOB_CHI   PE_OH   PE_CHI LLS_CHI   LLS_OH     LLD_OH   LLD_CHI   DTC_OH   DTC_CHI SPHW_CHI 
# ...
   10530.0000    0.0000 -999.2500   0.0966 -999.2500  96.3745 -999.2500   2.5956 -999.2500 3.0240  15.5055 -999.2500  -999.2500  18.1481 -999.2500 72.7053 0.1775
   10530.5000   53.4140 -999.2500   0.0911 -999.2500  83.5726 -999.2500   2.6045 -999.2500 2.9970  12.4175 -999.2500  -999.2500  14.5993 -999.2500 71.5706 0.1695
   10531.0000  -85.0483 -999.2500   0.0882 -999.2500  86.6090 -999.2500   2.6068 -999.2500 3.0605  15.3971 -999.2500  -999.2500  18.1265 -999.2500 71.7331 0.1707
   10531.5000    0.0000 -999.2500   0.0863 -999.2500  91.9816 -999.2500   2.6072 -999.2500 3.1277  20.1707 -999.2500  -999.2500  23.7668 -999.2500 72.0686 0.1730
   10532.0000    0.0000 -999.2500   0.0791 -999.2500  80.5403 -999.2500   2.6180 -999.2500 3.1277  17.7231 -999.2500  -999.2500  21.0205 -999.2500 71.0263 0.1657
   10532.5000  -28.8479 -999.2500   0.0822 -999.2500  86.7302 -999.2500   2.6136 -999.2500 3.1162  18.8069 -999.2500  -999.2500  22.2713 -999.2500 71.5966 0.1697
   10533.0000    0.0000 -999.2500   0.0857 -999.2500  92.5752 -999.2500   2.6087 -999.2500 3.0968  19.2765 -999.2500  -999.2500  22.7801 -999.2500 72.1600 0.1737
   10533.5000    0.0000 -999.2500   0.0917 -999.2500 100.8737 -999.2500   2.6005 -999.2500 3.0777  20.2866 -999.2500  -999.2500  23.8881 -999.2500 72.9389 0.1792
   10534.0000  -41.0443 -999.2500   0.0940 -999.2500 100.9467 -999.2500   2.5977 -999.2500 3.0485  18.9745 -999.2500  -999.2500  22.3118 -999.2500 72.9343 0.1792
   10534.5000    0.0000 -999.2500   0.0997 -999.2500 108.6734 -999.2500   2.5890 -999.2500 3.0490  21.3187 -999.2500  -999.2500  24.9562 -999.2500 73.5588 0.1836
   10535.0000   27.8149 -999.2500   0.0936 -999.2500  95.3576 -999.2500   2.5989 -999.2500 3.0273  16.6849 -999.2500  -999.2500  19.6040 -999.2500 72.4252 0.1756
   10535.5000   47.8384 -999.2500   0.0873 -999.2500  88.9181 -999.2500   2.6075 -999.2500 3.0785  16.9448 -999.2500  -999.2500  19.9825 -999.2500 71.9015 0.1719
   10536.0000    0.0000 -999.2500   0.0824 -999.2500  85.9808 -999.2500   2.6137 -999.2500 3.1215  17.5773 -999.2500  -999.2500  20.7462 -999.2500 71.6831 0.1703
   10536.5000  -17.0133 -999.2500   0.0829 -999.2500  94.2715 -999.2500   2.6113 -999.2500 3.1699  21.7381 -999.2500  -999.2500  25.5675 -999.2500 72.4047 0.1754
   10537.0000   25.0305 -999.2500   0.0847 -999.2500  99.0372 -999.2500   2.6083 -999.2500 3.1529  22.3836 -999.2500  -999.2500  26.2630 -999.2500 72.7705 0.1780
   10537.5000  -15.2725 -999.2500   0.0773 -999.2500  78.3727 -999.2500   2.6213 -999.2500 3.0822  14.6789 -999.2500  -999.2500  17.3417 -999.2500 70.9752 0.1653
   10538.0000    0.0000 -999.2500   0.0842 -999.2500  95.5838 -999.2500   2.6100 -999.2500 3.1137  19.3239 -999.2500  -999.2500  22.6912 -999.2500 72.4952 0.1761
   10538.5000   35.1717 -999.2500   0.0824 -999.2500  85.8501 -999.2500   2.6149 -999.2500 3.0919  15.6151 -999.2500  -999.2500  18.4164 -999.2500 71.8418 0.1714
   10539.0000  -32.3227 -999.2500   0.0825 -999.2500  78.0073 -999.2500   2.6174 -999.2500 3.0822  13.0966 -999.2500  -999.2500  15.5029 -999.2500 71.4330 0.1686
   10539.5000    0.0000 -999.2500   0.0921 -999.2500  95.5890 -999.2500   2.6040 -999.2500 3.1149  16.4080 -999.2500  -999.2500  19.3142 -999.2500 73.2426 0.1813
   10540.0000   11.5903 -999.2500   0.0981 -999.2500 106.2886 -999.2500   2.5954 -999.2500 3.1361  19.1547 -999.2500  -999.2500  22.4846 -999.2500 74.3005 0.1888
   10540.5000    0.0000 -999.2500   0.0953 -999.2500 101.8868 -999.2500   2.5996 -999.2500 3.1223  17.2499 -999.2500  -999.2500  20.2562 -999.2500 73.9238 0.1862
   10541.0000  -16.7072 -999.2500   0.0903 -999.2500  91.6522 -999.2500   2.6073 -999.2500 3.0908  14.4367 -999.2500  -999.2500  17.0093 -999.2500 72.9458 0.1792
   10541.5000    0.0000 -999.2500   0.0866 -999.2500  81.0377 -999.2500   2.6137 -999.2500 3.0493  11.7857 -999.2500  -999.2500  13.9516 -999.2500 71.9835 0.1724
   10542.0000    0.0000 -999.2500   0.0910 -999.2500  89.1069 -999.2500   2.6070 -999.2500 3.0597  13.5167 -999.2500  -999.2500  15.9843 -999.2500 72.6856 0.1774
   10542.5000    0.0000 -999.2500   0.0937 -999.2500  91.3231 -999.2500   2.6037 -999.2500 3.0560  13.8923 -999.2500  -999.2500  16.4428 -999.2500 72.9162 0.1790
   10543.0000  -12.7253 -999.2500   0.0939 -999.2500  90.2037 -999.2500   2.6035 -999.2500 3.0560  13.6894 -999.2500  -999.2500  16.2013 -999.2500 72.8187 0.1784
   10543.5000    0.0000 -999.2500   0.0952 -999.2500  93.9351 -999.2500   2.6011 -999.2500 3.0670  14.8596 -999.2500  -999.2500  17.5658 -999.2500 73.1123 0.1804
   10544.0000   66.4695 -999.2500   0.0961 -999.2500  98.7538 -999.2500   2.5990 -999.2500 3.0677  15.9392 -999.2500  -999.2500  18.8113 -999.2500 73.4707 0.1830
   10544.5000   14.4106 -999.2500   0.0951 -999.2500 100.6779 -999.2500   2.5998 -999.2500 3.0692  16.3087 -999.2500  -999.2500  19.2184 -999.2500 73.5844 0.1838
   10545.0000    0.0000 -999.2500   0.0928 -999.2500 101.8715 -999.2500   2.6021 -999.2500 3.0956  17.3170 -999.2500  -999.2500  20.3724 -999.2500 73.6841 0.1845
   10545.5000   19.2620 -999.2500   0.0919 -999.2500 102.5138 -999.2500   2.6028 -999.2500 3.1127  17.9719 -999.2500  -999.2500  21.1116 -999.2500 73.7383 0.1849
   10546.0000    0.0000 -999.2500   0.0948 -999.2500 111.3081 -999.2500   2.5976 -999.2500 3.1677  22.9813 -999.2500  -999.2500  26.9342 -999.2500 74.5308 0.1905
   10546.5000    0.0000 -999.2500   0.0920 -999.2500 102.4820 -999.2500   2.6035 -999.2500 3.1458  19.0566 -999.2500  -999.2500  22.4121 -999.2500 73.9192 0.1861
   10547.0000    0.0000 -999.2500   0.0898 -999.2500  93.5404 -999.2500   2.6089 -999.2500 3.1182  15.4282 -999.2500  -999.2500  18.2034 -999.2500 73.3246 0.1819
   10547.5000   16.0909 -999.2500   0.0959 -999.2500 103.8023 -999.2500   2.6001 -999.2500 3.1430  18.3720 -999.2500  -999.2500  21.6374 -999.2500 74.3076 0.1889
   10548.0000  -47.1892 -999.2500   0.0968 -999.2500 105.3266 -999.2500   2.5991 -999.2500 3.1606  18.9583 -999.2500  -999.2500  22.2947 -999.2500 74.5505 0.1906
   10548.5000    0.0000 -999.2500   0.0999 -999.2500 112.8524 -999.2500   2.5939 -999.2500 3.2019  22.8500 -999.2500  -999.2500  26.7942 -999.2500 75.2346 0.1954
   10549.0000   30.0305 -999.2500   0.0902 -999.2500  89.0211 -999.2500   2.6113 -999.2500 3.1427  14.0194 -999.2500  -999.2500  16.4998 -999.2500 73.4042 0.1825
   10549.5000   51.4645 -999.2500   0.0913 -999.2500  88.0791 -999.2500   2.6113 -999.2500 3.1361  13.1175 -999.2500  -999.2500  15.4297 -999.2500 73.5177 0.1833
   10550.0000    0.0000 -999.2500   0.0963 -999.2500  93.0323 -999.2500   2.6057 -999.2500 3.1302  13.4684 -999.2500  -999.2500  15.8613 -999.2500 74.1500 0.1878
   10550.5000    0.0000 -999.2500   0.0969 -999.2500  89.9109 -999.2500   2.6062 -999.2500 3.1303  13.0218 -999.2500  -999.2500  15.3391 -999.2500 74.0132 0.1868
   10551.0000   29.4867 -999.2500   0.1023 -999.2500  99.2580 -999.2500   2.5980 -999.2500 3.1642  16.8437 -999.2500  -999.2500  19.8567 -999.2500 74.7876 0.1923
   10551.5000    0.0000 -999.2500   0.1033 -999.2500 101.2649 -999.2500   2.5958 -999.2500 3.1871  19.5041 -999.2500  -999.2500  23.0143 -999.2500 74.8745 0.1929
   10552.0000  -42.7712 -999.2500   0.1062 -999.2500 108.4445 -999.2500   2.5905 -999.2500 3.2120  23.9365 -999.2500  -999.2500  28.2637 -999.2500 75.3856 0.1965
   10552.5000  -15.5997 -999.2500   0.1080 -999.2500 112.2050 -999.2500   2.5879 -999.2500 3.2176  25.8577 -999.2500  -999.2500  30.5435 -999.2500 75.7089 0.1988
   10553.0000    0.0000 -999.2500   0.1081 -999.2500 109.8964 -999.2500   2.5887 -999.2500 3.2002  24.1052 -999.2500  -999.2500  28.5251 -999.2500 75.5667 0.1978
   10553.5000  -10.3730 -999.2500   0.1053 -999.2500  96.9919 -999.2500   2.5956 -999.2500 3.1377  16.6543 -999.2500  -999.2500  19.7731 -999.2500 74.6585 0.1914
   10554.0000    0.0000 -999.2500   0.1074 -999.2500  96.7566 -999.2500   2.5937 -999.2500 3.1173  15.3652 -999.2500  -999.2500  18.2709 -999.2500 74.7237 0.1918
   10554.5000    0.0000 -999.2500   0.1162 -999.2500 114.5351 -999.2500   2.5795 -999.2500 3.1812  22.7434 -999.2500  -999.2500  26.9587 -999.2500 76.2327 0.2025
