~VERSION INFORMATION
 VERS.                2.0:   CWLS LOG ASCII STANDARD - VERSION 2.0
 WRAP.                 NO:   ONE LINE PER DEPTH STEP
~WELL INFORMATION
#MNEM.UNIT      DATA TYPE    INFORMATION
#----------   ------------   ------------------------------
 STRT.FT          68.0000:   START DEPTH
 STOP.FT        1517.0000:   STOP DEPTH
 STEP.FT           0.5000:   STEP LENGTH
 NULL.          -999.2500:   NULL VALUE
 COMP. LINCOLN ROCK CORPORATION:   COMPANY
 WELL.        HOLLER #602:   WELL
 FLD .            UNNAMED:   FIELD
 LOC .                   :   LOCATION
 CNTY.          CULBERSON:   COUNTY
 STAT.              TEXAS:   STATE
 CTRY. UNITED STATES OF AMERICA:   COUNTRY
 SRVC.           Gearhart:   SERVICE COMPANY
 DATE.        24-Jun-1984:   LOGDATE
 API .     42109317410000:   API NUMBER
~CURVE INFORMATION
#MNEM.UNIT       API CODE    CURVE DESCRIPTION
#----------   ------------   ------------------------------
 DEPT.F                  :   
 CALXS.IN    60 280 13 00:   CALIPER FROM X AXIS OF X-Y CALIPER(S) FROM SONIC LOG
 GRD .GAPI   45 310 01 00:   GAMMA RAY FROM DENSITY LOG
 GRS .GAPI   60 310 01 00:   GAMMA RAY FROM SONIC LOG
 TEND.LB     45 635 00 00:   TENSION FROM DENSITY LOG
 TENR.LB     11 635 00 00:   TENSION FROM RESISTIVITY LOG
 TENS.LB     60 635 00 00:   TENSION FROM SONIC LOG
 CALYD.IN    45 280 24 00:   CALIPER FROM X AXIS OF X-Y CALIPER(S) FROM DENSITY LOG
 CNS_LS.DEC  42 890 01 00:   COMPENSATED NEUTRON POROSITY
 CDL_LS.DEC  45 890 10 00:   COMPENSATED DENSITY POROSITY LIMESTONE
 RHOB.G/C3   45 350 01 00:   BULK DENSITY
 DRHO.G/C3   45 356 01 00:   BULK DENSITY CORRECTION
 GRR .GAPI   11 310 01 00:   GAMMA RAY FROM RESISTIVITY LOG
 RLLD.OHMM   11 220 10 00:   RAW LATEROLOG DEEP RESISTIVITY
 RLLS.OHMM   11 220 09 00:   RAW LATEROLOG SHALLOW RESISTIVITY
 DT  .US/F   60 500 00 00:   DELTA-T (INTERVAL TRANSIT TIME)
 SPHI.DEC    60 890 00 00:   SONIC POROSITY
~PARAMETER INFORMATION
#MNEM.UNIT          VALUE    DESCRIPTION
#----------   ------------   ------------------------------
 PD  .                 GL:   PERMANENT DATUM
 EPD .FT             3532:   ELEVATION PERMANENT DATUM
 LMF .                 GL:   LOG MEASURED FROM
 DMF .                RKB:   DRILLING MEASURED FROM
 EKB .FT             3544:   KELLY BUSHING
 EDF .FT             3543:   DRILLING FLOOR
 EGL .FT             3532:   GROUND LEVEL
 DATE.           06/24/84:   RUN DATE
 RUN .                  1:   RUN NUMBER
 DD  .FT             1502:   DEPTH DRILLER
 DL  .FT             1506:   DEPTH LOGGER
 BLI .FT             1505:   BOTTOM LOG INTERVAL
 TLI .FT               90:   TOP LOG INTERVAL
 CS  .IN              4.5:   CASING SIZE
 CBD .FT              101:   CASING BOTTOM DRILLER
 CBL .FT             1502:   CASING BOTTOM LOGGER
 BS  .IN            7.875:   BIT SIZE
 BSD .FT             1502:   BIT SIZE AT DEPTH
 DFT .          FRESH H2O:   DRILLING FLUID TYPE
 DFD .                8.4:   DRILLING FLUID DENSITY
 DFV .                 27:   DRILLING FLUID VISCOSITY
 DFPH.                 12:   DRILLING FLUID PH
 MSS .                PIT:   MUD SAMPLE SOURCE
 RMS .OHMM           2.32:   RESISTIVITY MUD SAMPLE
 MST .DEGF             77:   MUD SAMPLE TEMPERATURE
 RMF .OHMM           2.32:   RESISTIVITY MUD FILTRATE SAMPLE
 MFST.DEGF             77:   MUD FILTRATE SAMPLE TEMPERATURE
 MFSS.               MEAS:   MUD FILTRATE SAMPLE SOURCE
 TCS .HRS            0940:   TIME CIRCULATED STOPPED
 TLAB.HRS            1319:   TIME LOGGER AT BOTTOM
 MRT .DEGF            770:   MAXIMUM RECORDED TEMPERATURE
 LUN .               7583:   LOGGING UNIT NUMBER
 LUL .              HOBBS:   LOGGING UNIT LOCATION
 ENGI.             BRYANT:   RECORDING ENGINEER
 WITN.             BURROW:   WITNESSED BY
 CLNT.            :   CLIENT CODE
 ORIG.      1" 2.5" PRINT:   ORIGIN OF DATA
 UWI .     42109317410000:   UNIQUE WELL ID
 
~OTHER INFORMATION
~A   DEPT    CALXS        GRD        GRS       TEND       TENR       TENS      CALYD      CNS_LS     CDL_LS      RHOB       DRHO          GRR     RLLD       RLLS         DT       SPHI   
# ...
  756.0000     8.2603     7.6621     5.3891   983.1443   682.3160   810.2526     8.1277    -0.0028     0.2596     2.9460    -0.0043     5.8704 59762.9297 50311.8398    49.4710    -0.0156
  756.5000     8.2576     7.7875     6.6208   979.9263   680.1684   811.8119     8.1266    -0.0034     0.2548     2.9585    -0.0023     5.8704 50753.9648 44976.8125    49.4850    -0.0168
  757.0000     8.2554     7.1749     8.5575   984.6663   682.1018   813.3724     8.1292    -0.0040     0.2583     2.9519    -0.0060     5.8704 49814.5703 45258.6094    49.3686    -0.0180
  757.5000     8.2552     6.2625    10.4983   991.6218   679.9555   814.9321     8.1276    -0.0046     0.2631     2.9421    -0.0098     5.8704 55241.4297 46111.2227    49.1600    -0.0195
  758.0000     8.2554     6.3226     9.1571   998.5770   677.8081   816.4926     8.1259    -0.0052     0.2679     2.9322    -0.0133     5.8704 60668.2852 43327.2852    49.1090    -0.0215
  758.5000     8.2557     7.1836     7.3426   998.5090   679.7437   818.0523     8.1277    -0.0058     0.2743     2.9287    -0.0165     5.8704 62078.3438 40711.3359    48.8182    -0.0225
  759.0000     8.2560     7.8945     6.7156   999.4590   677.5964   819.6128     8.1260    -0.0063     0.2720     2.9297    -0.0196     6.1457 57879.0625 42734.7656    48.8889    -0.0228
  759.5000     8.2471     8.1485     7.0526   998.1916   679.5295   821.1721     8.1279    -0.0069     0.2690     2.9357    -0.0224     7.1619 53679.7852 46517.6172    49.0501    -0.0186
  760.0000     8.2231     7.9568     7.5008   997.1178   681.3181   823.1888     8.1282    -0.0069     0.2625     2.9460    -0.0268     8.0364 69080.7734 48466.6523    49.2112    -0.0148
  760.5000     8.2321     7.2755     6.9647  1017.3892   680.1909   824.6304     8.1221    -0.0069     0.2537     2.9562    -0.0205     7.8097 69100.4375 48482.7422    49.3044    -0.0177
  761.0000     8.2490     6.6762     5.7167  1017.3274   680.9581   826.1910     8.1221    -0.0069     0.2393     2.9665    -0.0142     6.7935 61568.2031 48494.7656    49.6080    -0.0165
  761.5000     8.2440     6.1692     4.7587  1017.2656   679.8334   826.9030     8.1221    -0.0069     0.2418     2.9828    -0.0082     5.7773 57905.0977 48511.3281    49.8633    -0.0156
  762.0000     8.2548     5.9027     4.6476  1017.2039   678.7062   829.6486     8.1221    -0.0069     0.2491     2.9787    -0.0130     4.8895 57924.4336 48527.7109    49.8068    -0.0160
  762.5000     8.2556     5.9968     5.0277  1017.1433   679.4734   827.1474     8.1221    -0.0067     0.2563     2.9674    -0.0255     4.3088 60151.0977 48544.2969    49.5132    -0.0170
  763.0000     8.2563     6.0810     5.4644  1017.0816   680.2419   824.6453     8.1221    -0.0065     0.2629     2.9535    -0.0293     3.7282 61882.4688 48556.5352    49.5330    -0.0174
  763.5000     8.2471     6.1589     5.6023  1017.0198   679.1160   824.3439     8.1221    -0.0064     0.2682     2.9432    -0.0271     3.5698 60948.7031 47971.5039    49.4021    -0.0181
  764.0000     8.2440     6.2367     5.6754  1016.9580   677.9875   824.0412     8.1221    -0.0062     0.2695     2.9399    -0.0248     3.8462 56194.6055 47200.1250    49.2475    -0.0199
  764.5000     8.2524     6.3144     5.7847  1016.8962   678.7560   821.5388     8.1221    -0.0060     0.2711     2.9367    -0.0224     4.5415 51440.5039 46533.9258    49.1669    -0.0216
  765.0000     8.2571     6.4579     5.8410  1016.8345   679.5232   831.1049     8.1221    -0.0059     0.2781     2.9310    -0.0303     5.3036 48594.0781 45684.1445    49.4143    -0.0189
  765.5000     8.2643     6.3537     5.9368  1016.7739   678.3973   838.4717     8.1221    -0.0057     0.2868     2.9185    -0.0386     6.0658 49066.3672 45699.4727    49.5645    -0.0170
  766.0000     8.2616     6.1876     5.8746  1016.7122   679.1658   843.4935     8.1221    -0.0055     0.2923     2.9060    -0.0449     6.0297 54577.8242 48711.7148    49.4642    -0.0183
  766.5000     8.2530     6.3066     5.4517  1016.6504   678.0386   841.3360     8.1221    -0.0054     0.2923     2.8957    -0.0384     5.6910 59838.0469 51161.7734    49.3900    -0.0189
  767.0000     8.2498     6.8533     5.2383  1021.8625   676.9113   839.1775     8.1221    -0.0052     0.2746     2.9102    -0.0289     4.6559 65217.2539 51392.0352    49.3751    -0.0190
  767.5000     8.2539     7.4626     5.5003  1030.5905   677.6798   834.8156     8.1221    -0.0050     0.2662     2.9224    -0.0195     4.4180 70626.2109 51192.7148    49.3601    -0.0191
  768.0000     8.2580     7.6557     5.7622  1034.0161   678.4483   830.4537     8.1221    -0.0048     0.2589     2.9347    -0.0102     4.3555 73489.6172 48717.7773    49.0781    -0.0200
  768.5000     8.3658     7.5432     5.9573  1033.6925   677.3224   828.2940     8.1221    -0.0047     0.2575     2.9469    -0.0102     4.6603 56571.8555 46944.1367    48.9929    -0.0217
  769.0000     8.3375     7.0764     5.9764  1033.3688   676.1951   826.1302     8.1221    -0.0045     0.2556     2.9585    -0.0102     4.9652 49641.7617 47067.2305    48.9077    -0.0229
  769.5000     8.2178     7.0202     5.7547  1033.0439   676.9624   821.7683     8.1221    -0.0045     0.2545     2.9626    -0.0102     5.2700 47387.6367 53410.6016    48.8109    -0.0238
  770.0000     8.2884     7.2378     5.4572  1031.3726   675.8364   797.4105     8.1221    -0.0045     0.2552     2.9626    -0.0149     5.3094 40763.3594 64072.6992    48.7062    -0.0250
  770.5000     8.3118     7.4554     5.7332  1027.6775   696.1376   795.8983     8.1221    -0.0045     0.2572     2.9484    -0.0190     4.8739 35133.5391 64799.9102    48.6529    -0.0238
  771.0000     8.2783     7.6730     6.0276  1023.9837   696.0305   792.5514     8.1221    -0.0045     0.2584     2.9518    -0.0230     4.4384 32905.3594 63528.8086    48.8049    -0.0207
  771.5000     8.2663     7.1369     5.7097  1030.2939   702.5375   789.2054     8.1221    -0.0045     0.2578     2.9554    -0.0265     4.6370 31994.2188 64941.1172    49.9115    -0.0163
  772.0000     8.3013     6.0318     4.3548  1034.0815   712.9157   785.8585     8.1221    -0.0045     0.2548     2.9589    -0.0275     4.8493 31400.8516 65534.3555    50.3841    -0.0114
  772.5000     8.2789     5.1180     5.1566  1033.1180   699.1046   782.5114     8.1221    -0.0045     0.2515     2.9625    -0.0283     4.2848 30531.3711 65758.8672    50.6249    -0.0099
  773.0000     8.2732     5.1451     9.7469  1032.1532   723.0712   779.1644     8.1221    -0.0045     0.2589     2.9666    -0.0337     3.7202 28144.0410 66366.2344    50.5796    -0.0105
  773.5000     8.2798     6.0050    15.8778  1031.1897   697.0432   775.8173     8.1221    -0.0045     0.2671     2.9510    -0.0408     3.1556 24544.3926 71988.7344    50.3296    -0.0127
  774.0000     8.2740     7.1385    18.3301  1030.5819   699.1681   762.8286     8.1221    -0.0045     0.2753     2.9326    -0.0419     4.2389 20944.7422 73161.4453    50.1903    -0.0138
  774.5000     8.2682     7.7073    14.7950  1030.5090   701.2945   778.4881     8.1221    -0.0045     0.2817     2.9142    -0.0429     5.7632 20224.8125 67286.2266    50.1990    -0.0139
  775.0000     8.2713     7.7144    10.0234  1030.4348   703.4194   794.1467     8.1221    -0.0045     0.2817     2.9145    -0.0429     7.2874 21095.1172 64294.8125    50.2078    -0.0135
  775.5000     8.2760     7.4970     6.9320  1030.3621   705.5443   794.1467     8.1221    -0.0053     0.2797     2.9194    -0.0416     7.0389 22209.3027 67169.6328    50.1614    -0.0139
  776.0000     8.2782     7.6192     6.1100  1030.2878   711.3949   798.8882     8.1221    -0.0053     0.2760     2.9240    -0.0385     5.6162 30865.9258 69030.7734    49.7578    -0.0155
  776.5000     8.2805     7.3793     6.9473  1030.2137   732.1428   822.8991     8.1221    -0.0053     0.2716     2.9286    -0.0354     5.1220 42785.8164 65447.3555    49.4325    -0.0174
  777.0000     8.2713     6.8145    11.1338  1030.1407   732.9698   816.9469     8.1121    -0.0053     0.2677     2.9332    -0.0327     5.4124 46090.2539 57784.1484    49.3438    -0.0193
