###############################################
##         ENVERUS                           ##
##         ESS - Open Hole                   ##
##         PERMIAN / DELAWARE                ##
##         Nov 02 2023  V4.0                 ##
##         42-109-00406-00-00                ##
###############################################
## Copyright 2017-2023  ENVERUS.  All Rights Reserved. 
## Confidential - Property of ENVERUS, use governed by terms and 
## conditions found within the existing Information Services Subscription Agreement 
## (as may be amended, the “ISSA”) between Customer and ENVERUS. 
## 
~VERSION INFORMATION
# MNEM.UNIT                               DATA : DESCRIPTION OF MNEMONIC
#-----.-----     ----------------------------- : -----------------------------
VERS.                                     2.00 : CWLS LOG ASCII STANDARD - VERSION 2.00
WRAP.                                       NO : MULTIPLE LINES PER DEPTH STEP
VEND.                                  ENVERUS : VENDOR
TYPE.                          ESS - OPEN HOLE : ENVERUS ESSENTIAL CURVES – ACCESSIBLE THROUGH ENVERUS PRISM(TM)
DOC.                                  31976272 : ENVERUS HEADER RAW DOCUMENT ID
#___________________________________________________________________________________________________ 
~WELL INFORMATION 
# f03iSNYnaQ7mQXX2RIaOYtiytuBBABKYYIB1smJtyZkBcGMChrfvYQpeE0DESEj4BN+caz3q2IoGlEPFhwFUwg== 
# MNEM.UNIT                                              DATA : DESCRIPTION OF MNEMONIC 
#-----.-----                    ----------------------------- : ----------------------------- 
CNTY.                                               CULBERSON : COUNTY 
STATE.                                                  TEXAS : STATE 
CNTRY.                                                    USA : COUNTRY 
API.                                             42-109-00406 : API (10 Digit) 
API_14.                                    42-109-00406-00-00 : API (14 Digits) 
API_14_std.                                 42-109-00406-0000 : API (14 Digits Standard) 
UWI.                                           42109004060000 : UNIQUE WELL ID 
WELL.                                                  DRD_55 : WELL NAME
STRT.FT                                                 100.5 : START DEPTH
STOP.FT                                               12629.5 : STOP DEPTH
STEP.FT                                                   0.5 : STEP BETWEEN DEPTHS
NULL.                                                 -999.25 : NULL VALUE
#___________________________________________________________________________________________________ 
~PARAMETER INFORMATION 
# MNEM.UNIT                                              DATA : DESCRIPTION OF MNEMONIC 
#-----.-----                    ----------------------------- : -----------------------------
#___________________________________________________________________________________________________ 
~CURVE INFORMATION 
# MNEM.UNIT           : CURVE DESCRIPTION 
#-----.-----          : ----------------------------- 
 DEPT.FT               : MEASURED DEPTH 
 GR__A.API             : GAMMA RAY (GAMMA RAY) 
 DT__A.US/FT           : SONIC DELTA TRANSIT TIME (SONIC) 
 #___________________________________________________________________________________________________ 
~A         DEPT          GR__A          DT__A
# ...
        10018.5         59.826         65.718
        10019.0         59.100         60.762
        10019.5         59.719         63.461
        10020.0         60.873         64.955
        10020.5         62.429         71.043
        10021.0         63.421         77.893
        10021.5         61.229         81.971
        10022.0         59.071         84.148
        10022.5         56.627         85.507
        10023.0         55.301         85.639
        10023.5         54.532         84.036
        10024.0         54.000         79.618
        10024.5         53.293         79.173
        10025.0         52.824         78.983
        10025.5         52.654         76.797
        10026.0         52.500         73.589
        10026.5         52.616         76.018
        10027.0         52.500         76.828
        10027.5         52.500         77.121
        10028.0         52.707         78.840
        10028.5         51.938         80.839
        10029.0         51.600         82.121
        10029.5         51.901         80.651
        10030.0         52.970         81.034
        10030.5         53.760         80.443
        10031.0         54.809         81.288
        10031.5         54.900         80.235
        10032.0         54.900         81.002
        10032.5         54.900         83.197
        10033.0         54.900         83.106
        10033.5         55.200         84.134
        10034.0         55.826         81.637
        10034.5         56.595         78.754
        10035.0         57.000         75.721
        10035.5         57.000         73.946
        10036.0         57.300         69.999
        10036.5         57.027         67.847
        10037.0         56.487         69.217
        10037.5         55.321         71.172
        10038.0         53.579         70.950
        10038.5         51.174         69.631
        10039.0         49.620         71.471
        10039.5         49.589         62.638
        10040.0         50.059         60.627
        10040.5         51.042         61.651
        10041.0         52.493         69.474
        10041.5         53.950         80.034
        10042.0         55.704         85.921
        10042.5         57.111         90.484
        10043.0         55.688         92.270
        10043.5         53.211         90.705
        10044.0         52.386         83.038
        10044.5         52.183         75.016
        10045.0         52.953         77.184
        10045.5         53.883         79.474
        10046.0         55.037         78.608
        10046.5         56.217         80.081
        10047.0         54.589         80.219
        10047.5         53.000         81.176
        10048.0         52.904         78.451
        10048.5         54.058         78.115
        10049.0         55.362         79.976
        10049.5         56.516         81.632
        10050.0         57.520         85.979
        10050.5         55.284         85.295
        10051.0         54.900         80.776
        10051.5         54.900         78.183
        10052.0         54.600         79.962
        10052.5         55.491         80.779
        10053.0         52.800         77.591
        10053.5         52.233         79.927
        10054.0         52.702         80.401
        10054.5         53.100         80.589
        10055.0         52.859         81.425
        10055.5         52.090         82.849
        10056.0         51.320         84.727
        10056.5         49.951         79.965
        10057.0         49.022         78.498
        10057.5         48.112         74.046
        10058.0         47.343         72.274
        10058.5         47.100         82.080
        10059.0         47.400         79.561
        10059.5         47.966         77.875
        10060.0         49.087         79.885
        10060.5         50.704         86.902
        10061.0         51.126         87.937
        10061.5         51.000         83.122
        10062.0         50.700         80.712
        10062.5         50.782         78.866
        10063.0         51.551         80.142
        10063.5         51.900         80.248
        10064.0         52.190         79.844
        10064.5         52.960         79.512
        10065.0         53.894         80.949
        10065.5         54.498         82.616
        10066.0         54.900         84.489
        10066.5         54.363         85.822
        10067.0         53.593         84.357
        10067.5         52.824         83.709
        10068.0         52.955         82.725
        10068.5         52.485         81.373
        10069.0         51.900         80.246
        10069.5         51.546         79.124
        10070.0         51.077         77.246
        10070.5         50.793         76.244
        10071.0         51.562         79.751
        10071.5         52.547         77.984
        10072.0         53.100         78.762
        10072.5         53.100         78.298
        10073.0         52.800         77.920
        10073.5         53.009         78.040
        10074.0         53.400         79.418
        10074.5         53.700         84.963
        10075.0         53.700         83.842
        10075.5         53.700         81.573
        10076.0         54.000         84.675
        10076.5         54.325         84.255
        10077.0         54.900         83.188
        10077.5         54.900         81.080
        10078.0         54.366         81.941
        10078.5         53.297         83.170
        10079.0         52.105         84.216
        10079.5         50.637         83.090
        10080.0         49.811         82.476
        10080.5         50.821         82.998
        10081.0         52.325         84.011
        10081.5         53.620         81.302
        10082.0         53.400         79.938
        10082.5         53.142         79.678
        10083.0         52.672         80.177
        10083.5         52.497         79.305
        10084.0         53.350         79.760
        10084.5         54.300         80.402
        10085.0         54.600         80.680
        10085.5         55.612         80.830
        10086.0         57.038         80.725
        10086.5         57.186         83.910
        10087.0         56.275         83.920
        10087.5         54.821         83.257
        10088.0         53.678         82.260
        10088.5         52.909         83.326
        10089.0         52.139         84.598
        10089.5         52.130         82.712
        10090.0         52.900         81.921
        10090.5         53.953         80.293
        10091.0         55.038         76.265
        10091.5         55.188         69.669
        10092.0         53.796         67.903
        10092.5         51.530         73.865
        10093.0         50.226         75.366
        10093.5         49.500         77.376
        10094.0         49.500         76.645
        10094.5         49.076         78.098
        10095.0         48.894         79.473
        10095.5         49.895         77.224
        10096.0         51.049         78.251
        10096.5         52.555         79.682
        10097.0         54.028         82.143
        10097.5         55.952         81.769
        10098.0         57.820         81.202
        10098.5         60.099         79.202
        10099.0         61.798         75.571
        10099.5         62.400         77.117
        10100.0         62.212         77.995
        10100.5         61.414         80.291
        10101.0         59.434         85.114
        10101.5         58.104         83.524
        10102.0         57.335         82.805
        10102.5         56.565         83.293
        10103.0         55.796         77.913
        10103.5         55.026         80.515
        10104.0         53.957         82.069
        10104.5         52.763         83.632
        10105.0         50.986         84.694
