###############################################
##         ENVERUS                           ##
##         ESS - Open Hole                   ##
##         PERMIAN / DELAWARE                ##
##         Nov 02 2023  V4.0                 ##
##         42-109-10071-00-00                ##
###############################################
## Copyright 2017-2023  ENVERUS.  All Rights Reserved. 
## Confidential - Property of ENVERUS, use governed by terms and 
## conditions found within the existing Information Services Subscription Agreement 
## (as may be amended, the “ISSA”) between Customer and ENVERUS. 
## 
~VERSION INFORMATION
# MNEM.UNIT                               DATA : DESCRIPTION OF MNEMONIC
#-----.-----     ----------------------------- : -----------------------------
VERS.                                     2.00 : CWLS LOG ASCII STANDARD - VERSION 2.00
WRAP.                                       NO : MULTIPLE LINES PER DEPTH STEP
VEND.                                  ENVERUS : VENDOR
TYPE.                          ESS - OPEN HOLE : ENVERUS ESSENTIAL CURVES – ACCESSIBLE THROUGH ENVERUS PRISM(TM)
DOC.                                  31950413 : ENVERUS HEADER RAW DOCUMENT ID
#___________________________________________________________________________________________________ 
~WELL INFORMATION 
# OfUh2+mdeFjroaXzMJDg/lRWUsinBwpBr+LWp9Jgnw936lSgPWOOCrYxw0Bz1A8ekYSC2IJg55FhS+cGr4hs3w== 
# MNEM.UNIT                                              DATA : DESCRIPTION OF MNEMONIC 
#-----.-----                    ----------------------------- : ----------------------------- 
CNTY.                                               CULBERSON : COUNTY 
STATE.                                                  TEXAS : STATE 
CNTRY.                                                    USA : COUNTRY 
API.                                             42-109-10071 : API (10 Digit) 
API_14.                                    42-109-10071-00-00 : API (14 Digits) 
API_14_std.                                 42-109-10071-0000 : API (14 Digits Standard) 
UWI.                                           42109100710000 : UNIQUE WELL ID 
WELL.                                                  DRD_55 : WELL NAME
STRT.FT                                                 320.5 : START DEPTH
STOP.FT                                               12359.5 : STOP DEPTH
STEP.FT                                                   0.5 : STEP BETWEEN DEPTHS
NULL.                                                 -999.25 : NULL VALUE
#___________________________________________________________________________________________________ 
~PARAMETER INFORMATION 
# MNEM.UNIT                                              DATA : DESCRIPTION OF MNEMONIC 
#-----.-----                    ----------------------------- : -----------------------------
#___________________________________________________________________________________________________ 
~CURVE INFORMATION 
# MNEM.UNIT           : CURVE DESCRIPTION 
#-----.-----          : ----------------------------- 
 DEPT.FT               : MEASURED DEPTH 
 GR.API                : GAMMA RAY (GAMMA RAY) 
 DT.US/FT              : SONIC DELTA TRANSIT TIME (SONIC) 
 #___________________________________________________________________________________________________ 
~A         DEPT             GR             DT
# ...
         6671.5         69.374         64.801
         6672.0         68.131         64.955
         6672.5         66.201         64.662
         6673.0         69.572         64.702
         6673.5         71.970         65.258
         6674.0         74.403         64.510
         6674.5         77.995         65.385
         6675.0         82.821         66.323
         6675.5         84.502         67.177
         6676.0         87.646         66.416
         6676.5         87.600         66.053
         6677.0         82.926         65.666
         6677.5         81.320         65.272
         6678.0         81.036         65.284
         6678.5         92.967         65.424
         6679.0         93.037         65.647
         6679.5         89.532         65.628
         6680.0         76.204         64.797
         6680.5         54.498         61.427
         6681.0         39.026         59.073
         6681.5         26.834         55.941
         6682.0         27.338         52.770
         6682.5         30.749         49.693
         6683.0         38.251         49.897
         6683.5         51.198         52.924
         6684.0         65.935         57.748
         6684.5         80.672         59.904
         6685.0         94.268         60.164
         6685.5         93.767         60.955
         6686.0         86.276         63.378
         6686.5         90.373         63.433
         6687.0         97.406         62.081
         6687.5        101.249         62.274
         6688.0        103.239         66.532
         6688.5        107.430         68.829
         6689.0        120.559         68.624
         6689.5        121.963         68.199
         6690.0        112.774         67.704
         6690.5        104.546         68.099
         6691.0        109.174         69.106
         6691.5        116.620         70.113
         6692.0        116.653         71.120
         6692.5        113.242         72.273
         6693.0        101.626         71.575
         6693.5         90.010         70.761
         6694.0         80.502         68.911
         6694.5         78.773         67.205
         6695.0         83.429         66.556
         6695.5         91.342         66.253
         6696.0         94.883         66.739
         6696.5         89.662         68.044
         6697.0         88.227         68.249
         6697.5         88.113         68.325
         6698.0         91.713         67.954
         6698.5         93.345         68.085
         6699.0         91.865         68.770
         6699.5         90.030         69.455
         6700.0         94.367         70.141
         6700.5         95.806         70.281
         6701.0         95.622         70.208
         6701.5         94.256         69.867
         6702.0         90.602         69.102
         6702.5         87.006         66.391
         6703.0         78.628         63.589
         6703.5         53.046         60.787
         6704.0         42.184         57.985
         6704.5         36.909         55.183
         6705.0         31.633         52.382
         6705.5         30.112         51.216
         6706.0         29.157         50.478
         6706.5         28.383         50.153
         6707.0         27.786         50.097
         6707.5         30.399         50.097
         6708.0         36.113         50.688
         6708.5         42.092         52.156
         6709.0         46.804         53.625
         6709.5         52.062         55.093
         6710.0         52.980         55.035
         6710.5         53.648         54.548
         6711.0         53.648         54.598
         6711.5         55.904         56.942
         6712.0         64.662         58.428
         6712.5         74.710         60.826
         6713.0         80.957         61.977
         6713.5         86.575         65.005
         6714.0         90.651         68.455
         6714.5         92.956         69.650
         6715.0         99.319         70.185
         6715.5        102.884         71.014
         6716.0        102.198         69.992
         6716.5         96.197         68.230
         6717.0         87.138         67.063
         6717.5         78.080         66.228
         6718.0         73.821         65.153
         6718.5         74.122         64.483
         6719.0         79.805         64.263
         6719.5         80.019         63.036
         6720.0         78.278         62.893
         6720.5         74.644         63.849
         6721.0         75.288         65.904
         6721.5         82.948         67.150
         6722.0         94.336         67.532
         6722.5         96.103         68.968
         6723.0         82.042         69.200
         6723.5         74.477         68.445
         6724.0         73.343         66.900
         6724.5         74.262         64.936
         6725.0         75.659         64.784
         6725.5         74.916         65.735
         6726.0         72.831         67.387
         6726.5         76.094         68.417
         6727.0         80.783         67.418
         6727.5         83.869         67.473
         6728.0         85.541         69.193
         6728.5         87.105         71.081
         6729.0         91.518         71.285
         6729.5         97.143         69.102
         6730.0         98.408         69.521
         6730.5         93.652         71.811
         6731.0         91.569         72.220
         6731.5         90.947         71.721
         6732.0         94.627         69.881
         6732.5         97.406         70.416
         6733.0         98.884         70.656
         6733.5         95.918         69.445
         6734.0         90.074         68.221
         6734.5         89.373         67.793
         6735.0         91.690         67.749
         6735.5         91.951         67.749
         6736.0         89.932         67.606
         6736.5         87.441         67.133
         6737.0         83.814         66.481
         6737.5         82.176         65.546
         6738.0         81.088         63.065
         6738.5         72.008         60.048
         6739.0         63.021         59.754
         6739.5         55.599         57.899
         6740.0         50.668         55.922
         6740.5         45.293         53.945
         6741.0         42.630         51.967
         6741.5         36.769         51.243
         6742.0         30.372         50.427
         6742.5         27.184         49.611
         6743.0         28.639         49.095
         6743.5         31.802         49.019
         6744.0         35.604         48.801
         6744.5         37.146         48.633
         6745.0         34.435         50.097
         6745.5         32.803         50.446
         6746.0         33.951         50.024
         6746.5         37.963         50.562
         6747.0         43.129         52.109
         6747.5         50.765         53.703
         6748.0         61.529         54.944
         6748.5         72.293         56.621
         6749.0         78.266         59.222
         6749.5         78.266         60.615
         6750.0         67.759         60.334
         6750.5         61.904         58.652
         6751.0         61.341         58.448
         6751.5         61.341         57.651
         6752.0         61.341         57.847
         6752.5         59.575         58.467
         6753.0         56.700         58.626
         6753.5         53.896         57.858
         6754.0         49.541         56.882
         6754.5         46.934         56.223
         6755.0         39.931         54.296
         6755.5         29.069         53.994
         6756.0         25.262         53.613
         6756.5         25.090         53.177
         6757.0         27.045         52.077
         6757.5         29.492         51.493
         6758.0         31.622         52.584
