###############################################
##         ENVERUS                           ##
##         ESS - Open Hole                   ##
##         PERMIAN / DELAWARE                ##
##         Nov 03 2023  V4.0                 ##
##         42-109-32507-90-00                ##
###############################################
## Copyright 2017-2023  ENVERUS.  All Rights Reserved. 
## Confidential - Property of ENVERUS, use governed by terms and 
## conditions found within the existing Information Services Subscription Agreement 
## (as may be amended, the “ISSA”) between Customer and ENVERUS. 
## 
~VERSION INFORMATION
# MNEM.UNIT                               DATA : DESCRIPTION OF MNEMONIC
#-----.-----     ----------------------------- : -----------------------------
VERS.                                     2.00 : CWLS LOG ASCII STANDARD - VERSION 2.00
WRAP.                                       NO : MULTIPLE LINES PER DEPTH STEP
VEND.                                  ENVERUS : VENDOR
TYPE.                          ESS - OPEN HOLE : ENVERUS ESSENTIAL CURVES – ACCESSIBLE THROUGH ENVERUS PRISM(TM)
DOC.                                  51094130 : ENVERUS HEADER RAW DOCUMENT ID
#___________________________________________________________________________________________________ 
~WELL INFORMATION 
# OeTAuI96vYP/1gAnXdiC+b2e5mg9bdq0rVS4GA6NX+ctg1PKQ5RhcqUsdOd2aOUDNf5EtC5635oDT1THDUi6iw== 
# MNEM.UNIT                                              DATA : DESCRIPTION OF MNEMONIC 
#-----.-----                    ----------------------------- : ----------------------------- 
CNTY.                                               CULBERSON : COUNTY 
STATE.                                                  TEXAS : STATE 
CNTRY.                                                    USA : COUNTRY 
API.                                             42-109-32507 : API (10 Digit) 
API_14.                                    42-109-32507-90-00 : API (14 Digits) 
API_14_std.                                 42-109-32507-9000 : API (14 Digits Standard) 
UWI.                                           42109325079000 : UNIQUE WELL ID 
WELL.                               42109325070000_PREV_API14 : WELL NAME
STRT.FT                                                2104.5 : START DEPTH
STOP.FT                                                9085.0 : STOP DEPTH
STEP.FT                                                   0.5 : STEP BETWEEN DEPTHS
NULL.                                                 -999.25 : NULL VALUE
PREV_APII.                                     42109325070000 : WELL IDENTIFIER
#___________________________________________________________________________________________________ 
~PARAMETER INFORMATION 
# MNEM.UNIT                                              DATA : DESCRIPTION OF MNEMONIC 
#-----.-----                    ----------------------------- : ----------------------------- 
EKB.FT                                                 3578.5 : ELEVATION ABOVE MSL
#___________________________________________________________________________________________________ 
~CURVE INFORMATION 
# MNEM.UNIT           : CURVE DESCRIPTION 
#-----.-----          : ----------------------------- 
 DEPT.FT               : MEASURED DEPTH 
 GR__A.API             : GAMMA RAY (GAMMA RAY) 
 DT__A.US/FT           : SONIC DELTA TRANSIT TIME (SONIC) 
 #___________________________________________________________________________________________________ 
~A         DEPT          GR__A          DT__A
         2104.5         23.782        151.126
         2105.0         22.967        151.521
         2105.5         20.663        153.067
         2106.0         21.903        152.596
         2106.5         25.234        150.472
         2107.0         26.051        141.941
         2107.5         22.838        158.366
         2108.0         18.971        158.715
         2108.5         18.692        158.131
         2109.0         22.982        158.004
         2109.5         23.201        157.257
         2110.0         18.807        160.852
         2110.5         18.856        158.951
         2111.0         24.694        159.790
         2111.5         25.731        163.695
         2112.0         24.951        169.137
         2112.5         26.320        164.019
         2113.0         29.271        163.283
         2113.5         32.581        162.220
         2114.0         33.528        162.220
         2114.5         33.283        162.804
         2115.0         30.413        162.094
         2115.5         28.581        160.662
         2116.0         29.131        160.717
         2116.5         32.261        159.250
         2117.0         42.807        161.052
         2117.5         58.444        159.104
         2118.0         65.637        157.510
         2118.5         67.133        158.689
         2119.0         61.657        196.290
         2119.5         64.345        193.982
         2120.0         76.788        160.280
         2120.5         95.284        111.941
         2121.0        118.459        101.146
         2121.5        140.146         85.794
         2122.0        148.725         82.278
         2122.5        156.768         98.214
         2123.0        168.358        102.919
         2123.5        176.384        106.592
         2124.0        180.195        111.470
         2124.5        191.239        111.790
         2125.0        223.360        106.551
         2125.5        255.864         98.270
         2126.0        268.218         93.936
         2126.5        265.196         93.871
         2127.0        243.369         94.329
         2127.5        228.332         97.907
         2128.0        215.970        103.688
         2128.5        181.141        107.394
         2129.0        166.277        106.573
         2129.5        178.009        102.898
         2130.0        188.054        101.157
         2130.5        209.382         95.486
         2131.0        207.006         94.765
         2131.5        193.861         96.869
         2132.0        185.287         99.918
         2132.5        169.301        104.127
         2133.0        154.199        108.417
         2133.5        159.787        111.617
         2134.0        166.861        112.366
         2134.5        179.520        111.345
         2135.0        195.551        106.882
         2135.5        213.972        101.914
         2136.0        219.243         96.218
         2136.5        231.559         92.615
         2137.0        227.915         91.918
         2137.5        222.020         94.754
         2138.0        215.362         98.742
         2138.5        185.734        107.364
         2139.0        164.484        111.022
         2139.5        170.039        111.757
         2140.0        174.892        111.392
         2140.5        186.191        108.908
         2141.0        172.453        104.676
         2141.5        169.434         99.733
         2142.0        187.726         94.956
         2142.5        245.254         90.186
         2143.0        252.109         91.696
         2143.5        237.718         99.025
         2144.0        229.240        106.874
         2144.5        236.961        113.838
         2145.0        269.304        112.471
         2145.5        282.261        105.618
         2146.0        282.074         98.473
         2146.5        316.857         83.764
         2147.0        383.652         76.487
         2147.5        415.417         76.641
         2148.0        348.516         82.601
         2148.5        231.046        100.691
         2149.0        175.596        112.220
         2149.5        155.366        111.550
         2150.0        150.747        105.367
         2150.5        233.164         77.829
         2151.0        337.162         71.895
         2151.5        397.184         76.825
         2152.0        297.354         83.131
         2152.5        276.088         91.583
         2153.0        177.400         92.136
         2153.5        151.084         86.613
         2154.0        142.300         79.455
         2154.5        123.363         71.851
         2155.0        109.194         71.390
         2155.5        102.109         73.867
         2156.0        101.708         81.449
         2156.5         98.929         88.846
         2157.0         91.938         88.610
         2157.5         94.017         85.308
         2158.0        100.475         77.850
         2158.5        103.599         67.823
         2159.0        101.112         71.508
         2159.5         95.909         83.107
         2160.0         93.817         91.988
         2160.5         90.838         96.084
         2161.0         91.392         92.986
         2161.5         92.398         78.565
         2162.0         93.848         75.472
         2162.5        106.379         78.437
         2163.0        137.616         83.051
         2163.5        168.192         85.603
         2164.0        172.797         85.375
         2164.5        151.274         85.297
         2165.0        144.772         85.297
         2165.5        149.956         85.492
         2166.0        152.827         85.881
         2166.5        153.216         85.930
         2167.0        158.853         85.687
         2167.5        167.771         85.297
         2168.0        169.918         84.744
         2168.5        174.117         84.908
         2169.0        177.388         84.343
         2169.5        175.090         83.363
         2170.0        176.592         82.579
         2170.5        181.283         81.792
         2171.0        183.836         81.188
         2171.5        187.914         77.264
         2172.0        185.154         73.792
         2172.5        176.069         69.296
         2173.0        164.976         67.424
         2173.5        160.459         65.253
         2174.0        165.732         63.038
         2174.5        162.094         61.539
         2175.0        148.617         61.149
         2175.5        141.484         60.898
         2176.0        137.497         60.113
         2176.5        129.484         60.107
         2177.0        127.485         57.160
         2177.5        131.229         43.918
         2178.0        119.127         35.163
         2178.5        101.551         22.969
         2179.0         95.030         16.720
         2179.5         91.205         22.723
         2180.0         86.332         39.642
         2180.5         82.696         47.632
         2181.0         77.583         46.199
         2181.5         86.110         39.013
         2182.0         98.386         32.709
         2182.5        103.337         31.159
         2183.0         99.677         31.692
         2183.5         96.686         31.743
         2184.0         95.517         27.238
         2184.5        100.775         30.323
         2185.0        102.479         34.428
         2185.5        104.592         34.015
         2186.0        107.483         32.732
         2186.5        101.979         27.513
         2187.0         97.856         27.021
         2187.5        104.034         38.079
         2188.0        100.531         41.877
         2188.5         97.466         41.285
         2189.0        105.207         36.447
         2189.5        105.157         26.217
         2190.0         95.002         21.014
         2190.5         92.082         33.143
         2191.0         92.355         34.512
