# Exported from Transform Software 5.2.0 on 17-Oct-2019 by user kathryn.gehrke
# DI Transform - A Product of Drillinginfo, Inc. - www.drillinginfo.com
#
~VERSION INFORMATION
 VERS.        2.0 : LAS ASCII STANDARD - VERSION 2.0
 WRAP.         NO : ONE LINE PER DEPTH STEP

~WELL INFORMATION
#MNEM.UNIT       DATA TYPE       INFORMATION
#---------       ---------       -----------
 STRT.ft                 100 : Start Depth
 STOP.ft               10126 : Stop Depth
 STEP.ft                 0.5 : Step Length
 NULL.               -999.25 : Null Value
 COMP.                       : Company
 WELL.  42109329790000_API14 : Well Name
 FLD.                        : Field Name
 LOC.                        : Well Location
 CNTY.                       : County
 STAT.                       : State or Province
 CTRY.                       : Country
 SRVC.                       : Service Company
 DATE.                       : Date
 API.         42109329790000 : Well Identifier

~CURVE INFORMATION
#MNEM.UNIT       API CODE       CURVE DESCRIPTION
#---------       --------       -----------------
 DEPT.ft        : <Measured Depth>
 DT.us/ft       : Sonic
 GR.gAPI        : Gamma Ray

~PARAMETER INFORMATION
#MNEM.UNIT       VALUE       DESCRIPTION
#---------       -----       -----------
 EKB.ft      3282 : Elevation above MSL

~A      DEPT          DT          GR
# ...
      8020.5    264.4258     49.4201
        8021    264.4258      46.491
      8021.5    264.4258     45.3988
        8022    264.4258     42.6047
      8022.5    264.4258     39.8215
        8023    264.4258     37.9205
      8023.5    264.4258     37.6686
        8024    264.4258     36.9748
      8024.5    264.4258     38.8855
        8025    264.4258     38.2971
      8025.5    264.4258     39.8094
        8026    264.4258     40.9016
      8026.5    264.4258     42.8342
        8027    264.4258     43.5062
      8027.5    264.4258     44.4772
        8028    264.4258      43.385
      8028.5    264.4258     43.1331
        8029    264.4258     42.8571
      8029.5    264.4258     43.9252
        8030    264.4258     45.4673
      8030.5    264.4258     47.7903
        8031    264.4258     46.8443
      8031.5    264.4258     42.9204
        8032    264.4258     37.8625
      8032.5    264.4258     34.9675
        8033    264.4258     32.3079
      8033.5    264.4258     31.0924
        8034    265.1409     32.5233
      8034.5    264.4258     37.2308
        8035    264.4258     40.4218
      8035.5    264.4258     42.6903
        8036    264.4258     44.6785
      8036.5    264.4258     44.5655
        8037    264.4258     44.1176
      8037.5    264.4258     45.4341
        8038    264.4258     45.7983
      8038.5    264.4258     45.7983
        8039    264.4258       47.03
      8039.5    264.4258     46.4156
        8040    264.4258     45.7983
      8040.5    264.4258     45.7983
        8041    264.4258     44.8197
      8041.5    264.4258     43.1122
        8042    264.4258     39.9916
      8042.5    264.4258     35.6072
        8043    264.4258     33.7282
      8043.5    264.4258     33.3304
        8044    264.4258     34.4226
      8044.5    264.4258     36.7859
        8045    264.4258     39.5744
      8045.5    264.4258     43.1396
        8046    264.4258     45.9343
      8046.5    264.4258     46.6387
        8047    264.4258     45.1586
      8047.5    264.4258     45.4294
        8048    264.4258     46.6387
      8048.5    264.4258     46.3533
        8049    264.4258      48.059
      8049.5    264.4258     49.7982
        8050    265.6129     48.0342
      8050.5    267.6294     44.9517
        8051    267.7871     40.0118
      8051.5    267.7871     34.3478
        8052    267.7871     33.8306
      8052.5    267.8523     34.4538
        8053    267.6935     36.4064
      8053.5    264.9608     42.1926
        8054    266.1489     46.5848
      8054.5    264.4258     48.6433
        8055    264.4258      50.888
      8055.5    264.4258     50.2412
        8056    264.4258     45.0632
      8056.5    264.4258     40.8119
        8057    264.4258     36.3209
      8057.5    264.4258     30.9994
        8058    264.4258     29.4118
      8058.5    264.4258     31.4176
        8059    264.4258     35.4278
      8059.5    264.4258     38.4525
        8060    264.4258     40.8016
      8060.5    264.4258     42.4626
        8061    264.4258     42.6638
      8061.5    264.4258     40.3755
        8062    264.4258     39.4958
      8062.5    264.4258      39.916
        8063    264.4258     40.0401
      8063.5    264.4258     40.7378
        8064    264.4258      41.217
      8064.5    264.4258     41.9136
        8065    264.4258     43.7405
      8065.5    264.4258     43.6975
        8066    264.4258     42.7306
      8066.5    264.4258     41.6384
        8067    264.4258     39.6007
      8067.5    264.4258     34.5593
        8068    264.4258     31.7023
      8068.5    264.4258     30.1267
        8069    264.4258      30.818
      8069.5    264.4258     34.2403
        8070    264.4258     37.4356
      8070.5    264.4258     39.8069
        8071    264.4258      42.141
      8071.5    264.4258     41.6407
        8072    264.4258     39.8144
      8072.5    264.4258     38.2353
        8073    264.4258     37.1036
      8073.5    264.4258     36.1345
        8074    264.4258     35.3394
      8074.5    264.4258     34.8739
        8075    264.4258     35.3324
      8075.5    264.7574        37.2
        8076    264.4258     39.2584
      8076.5    264.4258     43.0916
        8077    264.4258     47.6844
      8077.5    264.4258      50.513
        8078    264.4258      52.232
      8078.5    264.4258     51.8014
        8079    264.4258     50.5154
      8079.5    264.4258     48.9438
        8080    264.4258     48.2834
      8080.5    264.4258      47.479
        8081    264.4258      47.479
      8081.5    264.4258     46.6387
        8082    264.4258     44.8704
      8082.5    264.4258      42.437
        8083    264.4258     41.7302
      8083.5    264.4258     40.2178
        8084    264.4258     38.7054
      8084.5    264.4258     38.2353
        8085    264.4258     39.0756
      8085.5    264.4258     39.2103
        8086    264.4258     39.0756
      8086.5    264.4258     39.0245
        8087    264.4258     38.8749
      8087.5    264.4258      37.395
        8088    264.4258     36.5546
      8088.5    264.4258     36.4386
        8089    264.4258     35.2941
      8089.5    264.4258     35.9139
        8090    264.4258     36.5234
      8090.5    264.4258     35.8513
        8091    264.4258     35.8291
      8091.5    264.4258     36.5546
        8092    264.4258     35.1074
      8092.5    264.4258     33.5834
        8093    265.9222     33.3315
      8093.5    269.2918     32.6595
        8094    268.3473     31.5126
      8094.5    268.3473     31.7098
        8095    268.3473     33.2222
      8095.5    268.3473     35.9961
        8096    268.3353     37.9276
      8096.5     264.452     40.0144
        8097    264.4258      42.633
      8097.5    264.4258     42.3954
        8098    264.4258     40.7563
      8098.5    264.4258     40.8676
        8099    264.4258     41.2335
      8099.5    264.4258     39.3009
        8100    264.4258     39.5224
      8100.5    264.4258     40.7563
        8101    264.2789     40.3361
      8101.5    263.8655      39.554
        8102    263.8655     38.8492
      8102.5    263.8655     39.4704
        8103    263.8655     38.2353
      8103.5    263.8655     39.6048
        8104    263.8655      40.697
      8104.5    263.8655     40.9839
        8105    264.4258     39.4716
      8105.5    264.4258      37.473
        8106    264.4258     34.9817
      8106.5    264.4258     36.1345
        8107    264.4258     36.3258
      8107.5    263.8655     36.1575
        8108    263.8655     37.8073
      8108.5    263.8655     39.3892
        8109    263.8655     38.5938
      8109.5    263.8655     40.9266
        8110    263.8655     43.9404
      8110.5    263.8655     45.1044
        8111    263.8655     44.2231
      8111.5    264.4258     45.0208
        8112    264.4258     41.5966
      8112.5    264.4258     43.1086
        8113    263.8655     45.2306
      8113.5    263.8655     44.8016
        8114    263.8655      42.501
      8114.5    263.8655     43.8853
        8115    263.8655     44.1372
      8115.5    263.8655      46.131
        8116    263.8655     49.9961
      8116.5    263.8655     52.6333
        8117    263.8655     54.3883
      8117.5    263.8655     55.0237
        8118    263.8655     54.2017
      8118.5    263.8655     54.9401
        8119    264.4258     54.2017
      8119.5    264.4258     53.1759
        8120    264.4258     51.2175
      8120.5    264.4258      48.546
        8121    264.4258     46.5379
      8121.5    264.4258     45.7983
        8122    264.4258     44.6815
      8122.5    264.4258     41.7747
        8123    264.0686      39.094
      8123.5    263.8655     36.9748
        8124    263.8655     36.9748
      8124.5    263.8655     36.1345
        8125    263.8655     38.7296
      8125.5    263.8655     44.7844
        8126    263.8655     47.0588
      8126.5    263.8655     46.2884
        8127    263.8655     45.3782
      8127.5    264.0508     42.3687
        8128    263.8655     34.9396
      8128.5    263.8655     29.4274
