###############################################
##         ENVERUS                           ##
##         ESS - Open Hole                   ##
##         PERMIAN / DELAWARE                ##
##         Nov 02 2023  V4.0                 ##
##         42-109-31375-00-00                ##
###############################################
## Copyright 2017-2023  ENVERUS.  All Rights Reserved. 
## Confidential - Property of ENVERUS, use governed by terms and 
## conditions found within the existing Information Services Subscription Agreement 
## (as may be amended, the “ISSA”) between Customer and ENVERUS. 
## 
~VERSION INFORMATION
# MNEM.UNIT                               DATA : DESCRIPTION OF MNEMONIC
#-----.-----     ----------------------------- : -----------------------------
VERS.                                     2.00 : CWLS LOG ASCII STANDARD - VERSION 2.00
WRAP.                                       NO : MULTIPLE LINES PER DEPTH STEP
VEND.                                  ENVERUS : VENDOR
TYPE.                          ESS - OPEN HOLE : ENVERUS ESSENTIAL CURVES – ACCESSIBLE THROUGH ENVERUS PRISM(TM)
DOC.                                  32006335 : ENVERUS HEADER RAW DOCUMENT ID
#___________________________________________________________________________________________________ 
~WELL INFORMATION 
# Eb7Zbut2Nwqt2ftj1i2q6V2Ye1Joym9Qrd6BFF0aHeZ6Mf1z+VAuEcbs4uVngcAWjTW62nvWGWatc34NWk2mnA== 
# MNEM.UNIT                                              DATA : DESCRIPTION OF MNEMONIC 
#-----.-----                    ----------------------------- : ----------------------------- 
CNTY.                                               CULBERSON : COUNTY 
STATE.                                                  TEXAS : STATE 
CNTRY.                                                    USA : COUNTRY 
API.                                             42-109-31375 : API (10 Digit) 
API_14.                                    42-109-31375-00-00 : API (14 Digits) 
API_14_std.                                 42-109-31375-0000 : API (14 Digits Standard) 
UWI.                                           42109313750000 : UNIQUE WELL ID 
WELL.                                      7806 JV-P DUVAL  1 : WELL NAME
STRT.FT                                                     0 : START DEPTH
STOP.FT                                               15739.0 : STOP DEPTH
STEP.FT                                                   0.5 : STEP BETWEEN DEPTHS
NULL.                                                 -999.25 : NULL VALUE
COMP.                                  BTA OIL PRODUCERS  LLC : COMPANY 
DATE.                                             26-MAY-1978 : LOG DATE
#___________________________________________________________________________________________________ 
~CURVE INFORMATION 
# MNEM.UNIT           : CURVE DESCRIPTION 
#-----.-----          : ----------------------------- 
 DEPT.FT               : MEASURED DEPTH 
 CALI.IN               : CALIPER (CAL - CAL) 
 GR.API                : GAMMA RAY (GR) 
 DT.US/FT              : SONIC DELTA TRANSIT TIME (DT) 
 #___________________________________________________________________________________________________ 
~A         DEPT           CALI             GR             DT
# ...
         8514.0         12.723         66.107         73.007
         8514.5         12.724         48.910         68.245
         8515.0         12.724         32.745         63.483
         8515.5         12.725         35.068         61.878
         8516.0         12.726         39.625         64.745
         8516.5         12.727         45.163         67.612
         8517.0         12.727         52.055         70.479
         8517.5         12.728         60.393         73.346
         8518.0         12.729         68.731         74.291
         8518.5         12.729         75.941         74.732
         8519.0         12.730         78.487         75.172
         8519.5         12.731         73.569         73.822
         8520.0         12.732         67.538         71.241
         8520.5         12.732         60.747         68.660
         8521.0         12.733         53.955         66.888
         8521.5         12.734         47.163         65.319
         8522.0         12.735         40.371         63.749
         8522.5         12.736         34.808         62.179
         8523.0         12.737         31.174         60.610
         8523.5         12.738         27.540         59.040
         8524.0         12.740         24.490         57.470
         8524.5         12.741         26.560         66.604
         8525.0         12.742         39.312         68.573
         8525.5         12.744         45.983         70.541
         8526.0         12.745         52.132         72.510
         8526.5         12.746         58.281         72.940
         8527.0         12.747         63.698         70.585
         8527.5         12.749         58.735         68.229
         8528.0         12.750         50.807         65.874
         8528.5         12.751         42.880         63.519
         8529.0         12.752         34.952         61.163
         8529.5         12.754         36.776         62.686
         8530.0         12.755         41.726         66.010
         8530.5         12.757         47.195         69.333
         8531.0         12.759         52.663         72.657
         8531.5         12.761         58.132         72.814
         8532.0         12.763         62.270         69.602
         8532.5         12.760         61.621         66.390
         8533.0         12.735         47.052         63.178
         8533.5         12.711         39.261         62.322
         8534.0         12.731         35.536         61.557
         8534.5         12.759         31.811         61.719
         8535.0         12.786         31.578         63.518
         8535.5         12.778         35.753         65.318
         8536.0         12.769         40.169         67.117
         8536.5         12.761         44.839         68.917
         8537.0         12.752         49.508         67.008
         8537.5         12.744         54.178         65.081
         8538.0         12.738         46.442         63.154
         8538.5         12.735         43.274         61.227
         8539.0         12.731         40.105         59.299
         8539.5         12.727         37.249         59.581
         8540.0         12.724         35.336         61.258
         8540.5         12.720         33.423         62.935
         8541.0         12.718         31.511         64.613
         8541.5         12.730         35.564         66.981
         8542.0         12.742         42.404         69.559
         8542.5         12.754         49.490         71.110
         8543.0         12.751         56.577         69.454
         8543.5         12.730         59.488         67.798
         8544.0         12.708         54.226         66.142
         8544.5         12.686         48.964         65.294
         8545.0         12.685         43.703         72.801
         8545.5         12.688         39.603         72.085
         8546.0         12.691         46.205         71.369
         8546.5         12.695         52.806         70.654
         8547.0         12.698         59.407         69.938
         8547.5         12.702         60.589         69.558
         8548.0         12.697         56.968         69.210
         8548.5         12.687         53.593         68.861
         8549.0         12.677         51.685         67.478
         8549.5         12.667         49.460         64.456
         8550.0         12.658         43.698         61.437
         8550.5         12.648         37.937         60.487
         8551.0         12.639         32.176         59.572
         8551.5         12.631         29.539         58.750
         8552.0         12.622         28.066         57.929
         8552.5         12.614         26.594         57.107
         8553.0         12.606         25.141         56.285
         8553.5         12.598         23.763         57.212
         8554.0         12.589         22.385         59.901
         8554.5         12.581         21.008         62.589
         8555.0         12.572         21.248         65.277
         8555.5         12.562         43.599         61.853
         8556.0         12.555         42.675         59.548
         8556.5         12.556         40.322         58.623
         8557.0         12.557         34.730         57.698
         8557.5         12.558         28.340         56.772
         8558.0         12.559         25.961         55.847
         8558.5         12.561         23.755         55.476
         8559.0         12.562         21.549         55.398
         8559.5         12.563         19.655         55.320
         8560.0         12.564         20.253         55.241
         8560.5         12.565         20.850         55.244
         8561.0         12.567         20.761         55.603
         8561.5         12.568         18.375         55.963
         8562.0         12.569         17.181         56.322
         8562.5         12.570         17.433         56.543
         8563.0         12.571         17.685         55.491
         8563.5         12.572         17.936         55.347
         8564.0         12.574         17.997         56.739
         8564.5         12.577         16.593         58.131
         8565.0         12.600         15.189         59.523
         8565.5         12.623         18.161         60.617
         8566.0         12.646         22.926         59.443
         8566.5         12.663         31.591         58.269
         8567.0         12.658         28.947         57.096
         8567.5         12.653         26.302         55.922
         8568.0         12.648         23.658         56.674
         8568.5         12.643         21.599         57.842
         8569.0         12.638         22.582         59.009
         8569.5         12.633         23.565         60.177
         8570.0         12.630         25.129         60.316
         8570.5         12.637         28.118         59.777
         8571.0         12.644         30.938         59.237
         8571.5         12.650         28.682         58.698
         8572.0         12.657         26.425         58.158
         8572.5         12.663         24.169         57.619
         8573.0         12.670         22.660         57.080
         8573.5         12.676         21.959         56.540
         8574.0         12.683         21.258         56.001
         8574.5         12.689         19.840         55.978
         8575.0         12.696         17.858         56.823
         8575.5         12.698         15.876         65.580
         8576.0         12.701         34.536         67.661
         8576.5         12.703         43.908         69.743
         8577.0         12.705         53.280         71.824
         8577.5         12.708         62.652         72.818
         8578.0         12.710         66.195         71.098
         8578.5         12.713         62.328         69.378
         8579.0         12.715         58.255         67.659
         8579.5         12.718         49.539         68.631
