~Version Information
 VERS.                  2.0:   CWLS log ASCII Standard -VERSION 2.0
 WRAP.                   NO:   One line per depth step
~Well Information Block
#MNEM.UNIT     VALUE/NAME     DESCRIPTION
#---------     -----------    ---------------------------
 STRT.F              8564.0000: START DEPTH
 STOP.F             14132.0000: STOP DEPTH
 STEP.F                 0.5000: STEP DEPTH
 NULL.                 -999.25: NULL VALUE
 FL6 .       API  42-109-33219:  LOCATIONLINE6
 LOC .     253' FEL & 408' FNL:  LOCATION
 FL4 .           ABSTRACT 1760:  LOCATIONLINE4
 FL3 .        T&P RR CO SURVEY:  LOCATIONLINE3
 FL2 .     SECTION 32, BLOCK 58 T2:  LOCATIONLINE2
 FL1 .     253' FEL & 408' FNL:  LOCATIONLINE1
 DMF .                      KB:  DRILL MEAS FROM
 PDAT.                      GL:  PERMANENT DATUM
 CTRY.                     USA:  COUNTRY NAME
 PROV.                   TEXAS:  PROVINCE
 STAT.                   TEXAS:  STATE NAME
 CNTY.               CULBERSON:  COUNTY NAME
 FLD .     FORD, WEST (WOLFCAMP):  FIELD NAME
 WELL.        MOTHER FEE 28 2H:  WELL NAME
 COMP.     CAPITAN ENERGY INC.:  COMPANY
 DATE.             24-Jan-2018:  DATE
 SVCO.             Halliburton:  SERVICECONAME
 HIDE.                        :  WELLNAMEOPERAT
 BASI.                 PERMIAN:  BASIN
 UWI .            42-109-33219LAT:  UNIQUE WELL IDENTIFIER
 API .            42-109-33219LAT:  API NUMBER
 RANG.                     N/A:  RANGE
 TOWN.                     N/A:  TOWNSHIP
 SECT.                     N/A:  SECTION
 SON .               904563795:  JOB NUMBER
 SRVC.             Halliburton:  SERVICE COMPANY
 LMF .                      KB:  LOG MEASURED FROM
 EGL .ft             3142.0000:  GROUND ELEVATION
 BAP .ft                0.0000:  GL ELEV ONSHORE
 GVFD.g                 1.0000:  GRAVITY FIELD
 EKB .ft             3167.0000:  KB ELEVATION
 EDF .ft             3166.0000:  DF ELEVATION
~Curve Information Block
#MNEM.UNIT                 API CODE     Curve Description
#---------               -----------    ---------------------------
 DEPT.F                 00 000 000 000:  Depth
 CCL .V                 00 000 000 000:  Casing Collar Locator
 NPHI_OH.pu             00 000 000 000:  NPHI_OH
 NPHI_CHI.pu            00 000 000 000:  NPHI_CHI
 GR_OH.api              00 000 000 000:  GR_OH
 GR_CHI.api             00 000 000 000:  GR_CHI
 RHOB_OH.g/cc           00 000 000 000:  RHOB_OH
 RHOB_CHI.g/cc          00 000 000 000:  RHOB_CHI
 PE_OH.b/e              00 000 000 000:  PE_OH
 PE_CHI.b/e             00 000 000 000:  PE_CHI
 DTC_OH.uspf            00 000 000 000:  DTC_OH
 DTC_CHI.uspf           00 000 000 000:  DTC_CHI
 SPHI_CHI.pu            00 000 000 000:  SPHI_CHI
 RT10_OH.ohmm           00 000 000 000:  RT10_OH
 RT10_CHI.ohmm          00 000 000 000:  RT10_CHI
 RT30_OH.ohmm           00 000 000 000:  RT30_OH
 RT30_CHI.ohmm          00 000 000 000:  RT30_CHI
 RT90_OH.ohmm           00 000 000 000:  RT90_OH
 RT90_CHI.ohmm          00 000 000 000:  RT90_CHI
 SGF .cu                00 000 000 000:  Formation Sigma
 CRNF.NONE              00 000 000 000:  CaptMode Capt Ratio
 RIN .NONE              00 000 000 000:  CaptMode Gross Inel Ratio
#Other Information
#
#WARRANTY: Halliburton will use its best efforts to furnish customers with 
#accurate information and interpretations that are part of, and incident to, the services 
#provided.  However, Halliburton cannot and does not warrant the accuracy 
#or correctness of such information and interpretations.  Under no circumstances should any 
#such information or interpretation be relied upon as the sole basis for any drilling, 
#completion, production, or financial decision or any procedure involving any risk to the 
#safety of any drilling venture, drilling rig or its crew or any other third party.  The 
#Customer has full responsibility for all drilling, completion and production operation.  
#Halliburton makes no representations or warranties, either expressed or 
#implied, including, but not limited to, the implied warranties of merchantability or fitness 
#for a particular purpose, with respect to the services rendered.  In no event will 
#Halliburton be liable for failure to obtain any particular results or for 
#any damages, including, but not limited to, indirect, special or consequential damages, 
#resulting from the use of any information or interpretation provided by Halliburton.
#
~A    DEPT       CCL    NPHI_OH NPHI_CHI  GR_OH    GR_CHI  RHOB_OH RHOB_CHI  PE_OH   PE_CHI   DTC_OH  DTC_CHI SPHI_CHI RT10_OH  RT10_CHI RT30_OH  RT30_CHI RT90_OH  RT90_CHI   SGF    CRNF   RIN   
# ...
   12638.0000   -2.4494 -999.25  11.4045  -999.25 113.1602 -999.25   2.5845 -999.25    3.1605 -999.25 69.9927  15.8400  -999.25  35.2264  -999.25  34.2104  -999.25  38.0255 23.5169 1.0476 1.0943
   12638.5000   -2.4762 -999.25  11.3065  -999.25 103.5317 -999.25   2.5829 -999.25    3.0700 -999.25 70.7589  16.3800  -999.25  37.6308  -999.25  36.8364  -999.25  40.9011 23.6431 1.0369 1.0971
   12639.0000   -2.5029 -999.25  11.0123  -999.25  93.7375 -999.25   2.5843 -999.25    3.0153 -999.25 71.1545  16.6600  -999.25  40.5830  -999.25  39.9968  -999.25  44.4085 23.5749 1.0250 1.0977
   12639.5000   -2.5297 -999.25  11.0528  -999.25  90.6758 -999.25   2.5839 -999.25    2.9884 -999.25 71.6819  17.0300  -999.25  39.4027  -999.25  38.7353  -999.25  42.8217 23.3963 1.0011 1.0985
   12640.0000   -2.5565 -999.25  11.2324  -999.25  97.3544 -999.25   2.5831 -999.25    3.0177 -999.25 71.4621  16.8800  -999.25  37.2282  -999.25  36.3493  -999.25  40.1381 23.3197 0.9796 1.0996
   12640.5000   -2.5833 -999.25  11.5780  -999.25 107.7803 -999.25   2.5820 -999.25    3.0776 -999.25 71.2740  16.7400  -999.25  32.7889  -999.25  31.6269  -999.25  34.7885 23.2487 0.9662 1.1051
   12641.0000   -2.6101 -999.25  11.4592  -999.25 112.6516 -999.25   2.5861 -999.25    3.1775 -999.25 70.7159  16.3500  -999.25  31.0398  -999.25  29.7686  -999.25  32.7672 23.3486 0.9697 1.1123
   12641.5000   -2.6369 -999.25  12.1383  -999.25 131.8946 -999.25   2.5845 -999.25    3.2859 -999.25 70.3146  16.0600  -999.25  23.8529  -999.25  22.2655  -999.25  24.2500 23.6837 0.9799 1.1176
   12642.0000   -2.6637 -999.25  11.4106  -999.25 120.8691 -999.25   2.5929 -999.25    3.3567 -999.25 70.1442  15.9400  -999.25  26.4526  -999.25  24.9917  -999.25  27.4144 23.9735 0.9937 1.1195
   12642.5000   -2.6905 -999.25  10.9449  -999.25 110.0036 -999.25   2.5979 -999.25    3.3700 -999.25 70.3457  16.0900  -999.25  27.8029  -999.25  26.4591  -999.25  29.0322 24.2685 1.0021 1.1193
   12643.0000   -2.7173 -999.25  11.4114  -999.25 115.6684 -999.25   2.5932 -999.25    3.3145 -999.25 70.8191  16.4200  -999.25  24.3527  -999.25  22.8237  -999.25  24.7919 24.3532 1.0066 1.1196
   12643.5000   -2.7441 -999.25  11.8874  -999.25 121.4185 -999.25   2.5873 -999.25    3.2330 -999.25 71.2495  16.7300  -999.25  22.5373  -999.25  20.8771  -999.25  22.4992 24.1942 1.0033 1.1210
   12644.0000   -2.7709 -999.25  12.1147  -999.25 121.5282 -999.25   2.5839 -999.25    3.1710 -999.25 71.7217  17.0600  -999.25  21.9843  -999.25  20.2930  -999.25  21.7678 24.0186 0.9960 1.1218
   12644.5000   -2.7977 -999.25  11.3822  -999.25 104.8822 -999.25   2.5896 -999.25    3.1732 -999.25 71.8047  17.1200  -999.25  26.0082  -999.25  24.5392  -999.25  26.5591 23.8710 0.9859 1.1201
   12645.0000   -2.8245 -999.25  11.5629  -999.25 108.9142 -999.25   2.5885 -999.25    3.1922 -999.25 71.8197  17.1300  -999.25  24.8901  -999.25  23.4124  -999.25  25.3184 23.8090 0.9819 1.1191
   12645.5000   -2.8513 -999.25  11.8076  -999.25 116.2335 -999.25   2.5875 -999.25    3.2294 -999.25 71.6088  16.9800  -999.25  23.1805  -999.25  21.6507  -999.25  23.3748 23.6280 0.9888 1.1186
   12646.0000   -2.8781 -999.25  11.3938  -999.25 111.1008 -999.25   2.5922 -999.25    3.2763 -999.25 71.2487  16.7200  -999.25  24.8399  -999.25  23.3851  -999.25  25.3835 23.4826 0.9997 1.1192
   12646.5000   -2.9049 -999.25  11.4923  -999.25 114.8927 -999.25   2.5917 -999.25    3.2994 -999.25 71.0665  16.6000  -999.25  24.5441  -999.25  23.0842  -999.25  25.0910 23.3241 1.0105 1.1157
   12647.0000   -2.9317 -999.25  10.8843  -999.25 100.1529 -999.25   2.5960 -999.25    3.2846 -999.25 71.1969  16.6900  -999.25  28.8537  -999.25  27.6818  -999.25  30.3001 23.2767 1.0069 1.1112
   12647.5000   -2.9585 -999.25  10.9674  -999.25 101.7887 -999.25   2.5938 -999.25    3.2612 -999.25 71.1615  16.6600  -999.25  30.1829  -999.25  29.0739  -999.25  31.9328 23.2616 0.9993 1.1075
   12648.0000   -2.9853 -999.25  10.6559  -999.25  92.4951 -999.25   2.5939 -999.25    3.2063 -999.25 71.2230  16.7100  -999.25  35.3009  -999.25  34.5885  -999.25  38.2499 23.2033 0.9899 1.1076
   12648.5000   -3.0121 -999.25  10.8403  -999.25  96.0143 -999.25   2.5912 -999.25    3.1740 -999.25 71.1933  16.6900  -999.25  35.0766  -999.25  34.2588  -999.25  37.8658 23.1691 0.9843 1.1099
   12649.0000   -3.0389 -999.25  11.3515  -999.25 108.3189 -999.25   2.5875 -999.25    3.1891 -999.25 71.0580  16.5900  -999.25  30.9564  -999.25  29.7922  -999.25  32.7757 23.1307 0.9806 1.1114
   12649.5000   -3.0656 -999.25  11.0573  -999.25 104.8789 -999.25   2.5919 -999.25    3.2513 -999.25 70.9080  16.4800  -999.25  31.4251  -999.25  30.3629  -999.25  33.4787 23.3001 0.9815 1.1098
   12650.0000   -3.0924 -999.25  10.5853  -999.25  98.2992 -999.25   2.5974 -999.25    3.3027 -999.25 70.5611  16.2400  -999.25  34.1603  -999.25  33.3202  -999.25  36.9236 23.5396 0.9870 1.1096
   12650.5000   -3.1192 -999.25  11.0818  -999.25 110.0656 -999.25   2.5931 -999.25    3.2898 -999.25 70.4618  16.1700  -999.25  30.3056  -999.25  29.0667  -999.25  32.0284 23.6323 0.9968 1.1112
   12651.0000   -3.1460 -999.25  11.2072  -999.25 112.3075 -999.25   2.5917 -999.25    3.2630 -999.25 70.5185  16.2100  -999.25  29.3185  -999.25  27.9428  -999.25  30.6893 23.7221 1.0082 1.1134
   12651.5000   -3.1728 -999.25  10.6681  -999.25  99.0267 -999.25   2.5957 -999.25    3.2461 -999.25 70.6566  16.3100  -999.25  33.2600  -999.25  32.1790  -999.25  35.4825 23.7104 1.0150 1.1151
   12652.0000   -3.2086 -999.25  10.9715  -999.25 101.6736 -999.25   2.5922 -999.25    3.2052 -999.25 71.0972  16.6200  -999.25  31.2454  -999.25  30.0480  -999.25  32.9830 23.7797 1.0072 1.1147
   12652.5000    0.0000 -999.25  10.7009  -999.25  93.1244 -999.25   2.5941 -999.25    3.1908 -999.25 71.3291  16.7800  -999.25  33.1318  -999.25  32.1454  -999.25  35.3272 23.7294 0.9983 1.1163
   12653.0000    0.0000 -999.25  11.0503  -999.25  97.1756 -999.25   2.5903 -999.25    3.1557 -999.25 71.7249  17.0600  -999.25  31.1165  -999.25  30.0001  -999.25  32.8425 23.6494 0.9875 1.1212
   12653.5000    0.0000 -999.25  10.9727  -999.25  95.6319 -999.25   2.5912 -999.25    3.1595 -999.25 71.7133  17.0500  -999.25  31.3153  -999.25  30.2164  -999.25  33.0781 23.5262 0.9775 1.1275
   12654.0000    0.0000 -999.25  10.5793  -999.25  89.9560 -999.25   2.5960 -999.25    3.2110 -999.25 71.3917  16.8300  -999.25  32.9498  -999.25  32.0272  -999.25  35.1759 23.3082 0.9614 1.1287
   12654.5000    0.0000 -999.25  10.6310  -999.25  90.7959 -999.25   2.5996 -999.25    3.3087 -999.25 71.4957  16.9000  -999.25  28.7077  -999.25  27.7227  -999.25  30.3001 23.1438 0.9395 1.1248
   12655.0000    0.0000 -999.25  10.2766  -999.25  87.0847 -999.25   2.6064 -999.25    3.4226 -999.25 70.9446  16.5100  -999.25  28.7318  -999.25  27.8851  -999.25  30.5621 23.0193 0.9314 1.1182
   12655.5000 -111.1289 -999.25  10.0119  -999.25  85.9293 -999.25   2.6121 -999.25    3.5249 -999.25 70.3402  16.0800  -999.25  28.8716  -999.25  28.0984  -999.25  30.8827 22.9727 0.9352 1.1116
   12656.0000    0.0000 -999.25   9.7375  -999.25  88.6422 -999.25   2.6173 -999.25    3.6281 -999.25 69.4766  15.4700  -999.25  30.5364  -999.25  29.7873  -999.25  32.9387 23.0770 0.9565 1.1096
   12656.5000    0.0000 -999.25  10.0398  -999.25  99.9827 -999.25   2.6142 -999.25    3.6333 -999.25 69.2696  15.3300  -999.25  29.7036  -999.25  28.7198  -999.25  31.8156 23.1752 0.9699 1.1079
   12657.0000    0.0000 -999.25  10.0591  -999.25  99.8697 -999.25   2.6127 -999.25    3.5977 -999.25 69.3437  15.3800  -999.25  30.4817  -999.25  29.4992  -999.25  32.6930 23.3881 0.9842 1.1063
   12657.5000    0.0000 -999.25  10.4319  -999.25 106.6772 -999.25   2.6064 -999.25    3.5156 -999.25 69.5526  15.5300  -999.25  30.0353  -999.25  28.8947  -999.25  31.9899 23.4171 0.9957 1.1043
   12658.0000    0.0000 -999.25  10.0223  -999.25  92.9002 -999.25   2.6054 -999.25    3.3953 -999.25 69.8294  15.7200  -999.25  36.3349  -999.25  35.6068  -999.25  39.5852 23.3969 1.0078 1.1038
   12658.5000    0.0000 -999.25  10.6357  -999.25 101.8692 -999.25   2.5973 -999.25    3.2991 -999.25 70.3132  16.0600  -999.25  33.1519  -999.25  32.0768  -999.25  35.4606 23.1729 1.0148 1.1052
