~Version Information
 VERS.                  2.0:   CWLS log ASCII Standard -VERSION 2.0
 WRAP.                   NO:   One line per depth step
~Well Information Block
#MNEM.UNIT     VALUE/NAME     DESCRIPTION
#---------     -----------    ---------------------------
 STRT.F              8683.0000: START DEPTH
 STOP.F             14089.5000: STOP DEPTH
 STEP.F                 0.5000: STEP DEPTH
 NULL.                 -999.25: NULL VALUE
 LOC .       API  42-109-32906:  LOCATION
 FL1 .       API  42-109-32906:  LOCATIONLINE1
 DMF .                      KB:  DRILL MEAS FROM
 PDAT.                      GL:  PERMANENT DATUM
 PROV.                   TEXAS:  PROVINCE
 STAT.                   TEXAS:  STATE NAME
 CNTY.               CULBERSON:  COUNTY NAME
 LUL .                  ODESSA:  LOGGINGUNITLOC
 FLD .     FORD, WEST (WOLFCAMP):  FIELD NAME
 WELL.     SHELLY FEE 40 No. 2H:  WELL NAME
 COMP.     CAPITAN ENERGY, INC.:  COMPANY
 DATE.             08-Jun-2018:  DATE
 SVCO.             Halliburton:  SERVICECONAME
 HIDE.                        :  WELLNAMEOPERAT
 BASI.                   BACIA:  BASIN
 UWI .            42-109-32906Lat:  UNIQUE WELL IDENTIFIER
 API .            42-109-32906Lat:  API NUMBER
 RANG.                     N/A:  RANGE
 TOWN.                     N/A:  TOWNSHIP
 SECT.                     N/A:  SECTION
 SON .               902848974:  JOB NUMBER
 CTRY.                        :  COUNTRY
 SRVC.             Halliburton:  SERVICE COMPANY
 LMF .                      KB:  LOG MEASURED FROM
 BAP .ft                0.0000:  GL ELEV ONSHORE
 GVFD.g                 1.0000:  GRAVITY FIELD
~Curve Information Block
#MNEM.UNIT                 API CODE     Curve Description
#---------               -----------    ---------------------------
 DEPT.F                 00 000 000 000:  Depth
 CCL .mV                00 000 000 000:  Casing Collar Locator
 DTC_CHI.uspf           00 000 000 000:  DTC_CHI
 DTC_OH.uspf            00 000 000 000:  DTC_OH
 GR_CHI.api             00 000 000 000:  GR_CHI
 GR_OH.api              00 000 000 000:  GR_OH
 LLD_CHI.ohmm           00 000 000 000:  LLD_CHI
 LLD_OH.ohmm            00 000 000 000:  LLD_OH
 LLS_CHI.ohmm           00 000 000 000:  LLS_CHI
 LLS_OH.ohmm            00 000 000 000:  LLS_OH
 MSFL_CHI.ohmm          00 000 000 000:  MSFL_CHI
 MSFL_OH.ohmm           00 000 000 000:  MSFL_OH
 NPHI_CHI.pu            00 000 000 000:  NPHI_CHI
 NPHI_OH.pu             00 000 000 000:  NPHI_OH
 PE_CHI.b/e             00 000 000 000:  PE_CHI
 PE_OH.NONE             00 000 000 000:  Pe_OH
 RHOB_CHI.g/cc          00 000 000 000:  RHOB_CHI
 RHOB_OH.g/cc           00 000 000 000:  RHOB_OH
 SPHI_CHI.pu            00 000 000 000:  SPHI_CHI
#Other Information
#
#WARRANTY: Halliburton will use its best efforts to furnish customers with 
#accurate information and interpretations that are part of, and incident to, the services 
#provided.  However, Halliburton cannot and does not warrant the accuracy 
#or correctness of such information and interpretations.  Under no circumstances should any 
#such information or interpretation be relied upon as the sole basis for any drilling, 
#completion, production, or financial decision or any procedure involving any risk to the 
#safety of any drilling venture, drilling rig or its crew or any other third party.  The 
#Customer has full responsibility for all drilling, completion and production operation.  
#Halliburton makes no representations or warranties, either expressed or 
#implied, including, but not limited to, the implied warranties of merchantability or fitness 
#for a particular purpose, with respect to the services rendered.  In no event will 
#Halliburton be liable for failure to obtain any particular results or for 
#any damages, including, but not limited to, indirect, special or consequential damages, 
#resulting from the use of any information or interpretation provided by Halliburton.
#
~A    DEPT       CCL    DTC_CHI DTC_OH   GR_CHI   GR_OH   LLD_CHI   LLD_OH   LLS_CHI   LLS_OH   MSFL_CHI  MSFL_OH     NPHI_CHI   NPHI_OH   PE_CHI    PE_OH   RHOB_CHI  RHOB_OH SPHI_CHI 
# ...
   11191.0000   35.2750 65.3118 -999.25  82.8298  -999.25 109.0533   -999.25 102.7675   -999.25  49.5695    -999.25       9.0274 -999.25     4.2409 -999.25     2.6312 -999.25 12.5300
   11191.5000    0.0000 65.5160 -999.25  87.5654  -999.25 105.7870   -999.25  99.6374   -999.25  48.1402    -999.25       9.2565 -999.25     4.1930 -999.25     2.6254 -999.25 12.6700
   11192.0000    0.0000 64.7661 -999.25  76.9360  -999.25 105.5211   -999.25  98.2608   -999.25  48.4062    -999.25       8.7083 -999.25     4.2010 -999.25     2.6403 -999.25 12.1400
   11192.5000    0.0000 64.3730 -999.25  71.7973  -999.25 103.3492   -999.25  95.6591   -999.25  47.9274    -999.25       8.5015 -999.25     4.1982 -999.25     2.6479 -999.25 11.8600
   11193.0000    0.0000 64.5739 -999.25  78.8338  -999.25  97.6388   -999.25  90.2522   -999.25  45.8247    -999.25       8.7885 -999.25     4.1435 -999.25     2.6418 -999.25 12.0000
   11193.5000   10.2175 64.6667 -999.25  82.8232  -999.25  92.7934   -999.25  85.7466   -999.25  44.2818    -999.25       9.0396 -999.25     4.1174 -999.25     2.6391 -999.25 12.0700
   11194.0000    0.0000 64.4317 -999.25  82.5078  -999.25  90.1547   -999.25  82.8091   -999.25  43.4747    -999.25       8.9257 -999.25     4.1015 -999.25     2.6427 -999.25 11.9000
   11194.5000    0.0000 64.3541 -999.25  85.1874  -999.25  86.0250   -999.25  78.5367   -999.25  41.9329    -999.25       9.0189 -999.25     4.0560 -999.25     2.6421 -999.25 11.8500
   11195.0000   52.4499 63.9232 -999.25  83.0954  -999.25  83.5661   -999.25  75.2426   -999.25  40.7184    -999.25       8.7351 -999.25     3.9966 -999.25     2.6473 -999.25 11.5400
   11195.5000    0.0000 63.1795 -999.25  73.9598  -999.25  82.0236   -999.25  72.8127   -999.25  40.0921    -999.25       8.2411 -999.25     3.9733 -999.25     2.6602 -999.25 11.0200
   11196.0000  -29.7928 63.2093 -999.25  79.7427  -999.25  79.0552   -999.25  69.6767   -999.25  38.6530    -999.25       8.3180 -999.25     3.9131 -999.25     2.6562 -999.25 11.0400
   11196.5000  -15.0517 63.3894 -999.25  80.9752  -999.25  78.2578   -999.25  68.8931   -999.25  37.8213    -999.25       8.4926 -999.25     3.8559 -999.25     2.6504 -999.25 11.1700
   11197.0000    0.0000 64.4381 -999.25  85.3690  -999.25  79.0168   -999.25  70.7848   -999.25  37.5146    -999.25       9.3927 -999.25     3.8023 -999.25     2.6299 -999.25 11.9100
   11197.5000  -21.0739 65.5869 -999.25  88.3346  -999.25  79.9403   -999.25  73.0198   -999.25  37.1451    -999.25      10.3467 -999.25     3.7402 -999.25     2.6073 -999.25 12.7200
   11198.0000    0.0000 66.1780 -999.25  87.1128  -999.25  77.8807   -999.25  71.8753   -999.25  36.2081    -999.25      11.0591 -999.25     3.6844 -999.25     2.5951 -999.25 13.1400
   11198.5000    0.0000 66.7158 -999.25  95.6214  -999.25  71.0459   -999.25  65.2504   -999.25  33.2276    -999.25      11.8171 -999.25     3.5456 -999.25     2.5789 -999.25 13.5200
   11199.0000  -12.4306 67.2338 -999.25 100.7680  -999.25  67.3061   -999.25  61.8782   -999.25  31.7181    -999.25      12.5982 -999.25     3.4675 -999.25     2.5657 -999.25 13.8900
   11199.5000    0.0000 67.0471 -999.25  90.7067  -999.25  66.5001   -999.25  61.3062   -999.25  31.5353    -999.25      12.4956 -999.25     3.4635 -999.25     2.5711 -999.25 13.7500
   11200.0000  -23.1409 67.3386 -999.25  90.9861  -999.25  64.1002   -999.25  59.1965   -999.25  30.5934    -999.25      12.9642 -999.25     3.4163 -999.25     2.5644 -999.25 13.9600
   11200.5000    0.0000 67.8727 -999.25  97.0214  -999.25  61.8936   -999.25  57.2281   -999.25  29.6115    -999.25      13.6503 -999.25     3.3580 -999.25     2.5519 -999.25 14.3400
   11201.0000   13.3333 68.1775 -999.25 102.0406  -999.25  60.6991   -999.25  56.0536   -999.25  29.1091    -999.25      14.1057 -999.25     3.3249 -999.25     2.5442 -999.25 14.5500
   11201.5000  -25.6466 67.5854 -999.25  94.9707  -999.25  58.4355   -999.25  53.4732   -999.25  28.4032    -999.25      13.7273 -999.25     3.3105 -999.25     2.5554 -999.25 14.1300
   11202.0000    0.0000 66.9044 -999.25  82.9979  -999.25  57.6807   -999.25  52.6076   -999.25  28.3929    -999.25      13.1912 -999.25     3.3393 -999.25     2.5709 -999.25 13.6500
   11202.5000   14.6732 67.5081 -999.25  98.4525  -999.25  55.1234   -999.25  49.8438   -999.25  27.0459    -999.25      13.9374 -999.25     3.2451 -999.25     2.5534 -999.25 14.0800
   11203.0000    0.0000 67.9285 -999.25 102.5736  -999.25  52.9045   -999.25  47.8156   -999.25  25.8670    -999.25      14.2825 -999.25     3.1821 -999.25     2.5439 -999.25 14.3800
   11203.5000    0.0000 68.0817 -999.25 101.7512  -999.25  48.9715   -999.25  44.1118   -999.25  24.0796    -999.25      14.4300 -999.25     3.1085 -999.25     2.5403 -999.25 14.4800
   11204.0000   11.0971 67.6356 -999.25  88.7163  -999.25  47.2985   -999.25  42.6758   -999.25  23.6440    -999.25      14.1307 -999.25     3.1277 -999.25     2.5530 -999.25 14.1700
   11204.5000    0.0000 67.9836 -999.25  96.8834  -999.25  46.8578   -999.25  42.0737   -999.25  23.4272    -999.25      14.7141 -999.25     3.0902 -999.25     2.5434 -999.25 14.4200
   11205.0000    0.0000 67.8589 -999.25  96.2878  -999.25  48.3076   -999.25  43.3784   -999.25  24.1765    -999.25      14.7087 -999.25     3.1204 -999.25     2.5460 -999.25 14.3300
   11205.5000    0.0000 67.4552 -999.25  95.3898  -999.25  50.9664   -999.25  45.6990   -999.25  25.4854    -999.25      14.3641 -999.25     3.1787 -999.25     2.5533 -999.25 14.0400
   11206.0000    0.0000 67.3133 -999.25  98.4005  -999.25  52.8416   -999.25  47.3212   -999.25  26.2623    -999.25      14.1211 -999.25     3.2094 -999.25     2.5551 -999.25 13.9400
   11206.5000  -27.6990 67.7382 -999.25 105.0122  -999.25  56.8540   -999.25  51.4348   -999.25  27.8968    -999.25      14.3495 -999.25     3.2680 -999.25     2.5477 -999.25 14.2400
   11207.0000    0.0000 67.6942 -999.25 102.2323  -999.25  59.9063   -999.25  54.7124   -999.25  29.1751    -999.25      14.0332 -999.25     3.3345 -999.25     2.5515 -999.25 14.2100
   11207.5000    0.0000 67.7821 -999.25 102.2107  -999.25  60.8278   -999.25  55.7637   -999.25  29.4936    -999.25      14.0018 -999.25     3.3484 -999.25     2.5507 -999.25 14.2700
   11208.0000    0.0000 67.3593 -999.25  98.6106  -999.25  58.9065   -999.25  53.5382   -999.25  28.8125    -999.25      13.7344 -999.25     3.3278 -999.25     2.5580 -999.25 13.9700
   11208.5000    0.0000 67.0400 -999.25  97.6354  -999.25  56.4445   -999.25  50.7790   -999.25  27.7534    -999.25      13.5075 -999.25     3.2870 -999.25     2.5622 -999.25 13.7500
   11209.0000  -13.3659 66.7368 -999.25 100.0258  -999.25  56.0113   -999.25  49.9704   -999.25  27.4033    -999.25      13.0466 -999.25     3.2787 -999.25     2.5665 -999.25 13.5300
   11209.5000    0.0000 66.4369 -999.25  97.5328  -999.25  57.9902   -999.25  51.7770   -999.25  28.2486    -999.25      12.5684 -999.25     3.3293 -999.25     2.5741 -999.25 13.3200
   11210.0000    0.0000 66.6601 -999.25 104.6590  -999.25  59.3266   -999.25  53.0024   -999.25  28.7014    -999.25      12.6981 -999.25     3.3422 -999.25     2.5690 -999.25 13.4800
   11210.5000    0.0000 66.9580 -999.25 110.3170  -999.25  61.1533   -999.25  54.8833   -999.25  29.3985    -999.25      12.9013 -999.25     3.3682 -999.25     2.5635 -999.25 13.6900
   11211.0000  -15.7456 67.4892 -999.25 119.8712  -999.25  60.5556   -999.25  54.3377   -999.25  28.9727    -999.25      13.4871 -999.25     3.3338 -999.25     2.5506 -999.25 14.0700
   11211.5000    0.0000 67.6711 -999.25 126.3706  -999.25  57.0353   -999.25  50.6030   -999.25  27.2707    -999.25      13.7977 -999.25     3.2426 -999.25     2.5424 -999.25 14.1900
   11212.0000    0.0000 67.2285 -999.25 117.0666  -999.25  52.3083   -999.25  45.9804   -999.25  25.3415    -999.25      13.5101 -999.25     3.1602 -999.25     2.5497 -999.25 13.8800
   11212.5000  -13.1846 66.6764 -999.25 106.9496  -999.25  47.0548   -999.25  40.8924   -999.25  23.3090    -999.25      13.3183 -999.25     3.0866 -999.25     2.5590 -999.25 13.4900
