###############################################
##         ENVERUS                           ##
##         ESS - Open Hole                   ##
##         PERMIAN / DELAWARE                ##
##         Nov 03 2023  V4.0                 ##
##         42-109-32572-90-00                ##
###############################################
## Copyright 2017-2023  ENVERUS.  All Rights Reserved. 
## Confidential - Property of ENVERUS, use governed by terms and 
## conditions found within the existing Information Services Subscription Agreement 
## (as may be amended, the “ISSA”) between Customer and ENVERUS. 
## 
~VERSION INFORMATION
# MNEM.UNIT                               DATA : DESCRIPTION OF MNEMONIC
#-----.-----     ----------------------------- : -----------------------------
VERS.                                     2.00 : CWLS LOG ASCII STANDARD - VERSION 2.00
WRAP.                                       NO : MULTIPLE LINES PER DEPTH STEP
VEND.                                  ENVERUS : VENDOR
TYPE.                          ESS - OPEN HOLE : ENVERUS ESSENTIAL CURVES – ACCESSIBLE THROUGH ENVERUS PRISM(TM)
DOC.                                  51093467 : ENVERUS HEADER RAW DOCUMENT ID
#___________________________________________________________________________________________________ 
~WELL INFORMATION 
# 8gl1O6v4swiPFL4GH+dnL3Th7drW/gNnufiOMC39xBbatiyIUGjWQRxOO2UkOAKZqu0QrDKM70MxnzzovQmAYg== 
# MNEM.UNIT                                              DATA : DESCRIPTION OF MNEMONIC 
#-----.-----                    ----------------------------- : ----------------------------- 
CNTY.                                               CULBERSON : COUNTY 
STATE.                                                  TEXAS : STATE 
CNTRY.                                                    USA : COUNTRY 
API.                                             42-109-32572 : API (10 Digit) 
API_14.                                    42-109-32572-90-00 : API (14 Digits) 
API_14_std.                                 42-109-32572-9000 : API (14 Digits Standard) 
UWI.                                           42109325729000 : UNIQUE WELL ID 
WELL.                               42109325720000_PREV_API14 : WELL NAME
STRT.FT                                                2248.5 : START DEPTH
STOP.FT                                               10757.5 : STOP DEPTH
STEP.FT                                                   0.5 : STEP BETWEEN DEPTHS
NULL.                                                 -999.25 : NULL VALUE
PREV_APII.                                     42109325720000 : WELL IDENTIFIER
#___________________________________________________________________________________________________ 
~PARAMETER INFORMATION 
# MNEM.UNIT                                              DATA : DESCRIPTION OF MNEMONIC 
#-----.-----                    ----------------------------- : ----------------------------- 
EKB.FT                                                   3340 : ELEVATION ABOVE MSL
#___________________________________________________________________________________________________ 
~CURVE INFORMATION 
# MNEM.UNIT           : CURVE DESCRIPTION 
#-----.-----          : ----------------------------- 
 DEPT.FT               : MEASURED DEPTH 
 CALI.IN               : CALIPER (CAL - CALIPER) 
 GR.API                : GAMMA RAY (GAMMA RAY) 
 DT.US/FT              : SONIC DELTA TRANSIT TIME (SONIC) 
 #___________________________________________________________________________________________________ 
~A         DEPT           CALI             GR             DT
# ...
         4492.5          9.308        168.498         71.816
         4493.0          9.366        188.458         72.202
         4493.5          9.425        181.161         73.054
         4494.0          9.444        145.328         71.867
         4494.5          9.444        126.026         67.946
         4495.0          9.464         83.658         65.928
         4495.5          9.464         65.572         65.225
         4496.0          9.464         63.129         64.874
         4496.5          9.464         57.174         64.435
         4497.0          9.464         56.169         63.498
         4497.5          9.464         58.397         62.364
         4498.0          9.464         61.117         61.967
         4498.5          9.464         62.043         63.551
         4499.0          9.464         61.261         64.666
         4499.5          9.464         65.679         65.098
         4500.0          9.464         67.957         65.544
         4500.5          9.464         87.973         66.092
         4501.0          9.464        108.207         68.269
         4501.5          9.464        101.110         69.176
         4502.0          9.464         98.449         69.238
         4502.5          9.464         71.444         67.544
         4503.0          9.464         64.808         66.241
         4503.5          9.464         67.070         65.867
         4504.0          9.464         68.083         66.303
         4504.5          9.464         66.997         67.656
         4505.0          9.464         63.586         67.402
         4505.5          9.483         61.872         65.537
         4506.0          9.483         62.294         65.144
         4506.5          9.464         64.691         65.603
         4507.0          9.464         66.511         66.536
         4507.5          9.464         68.024         67.397
         4508.0          9.464         70.089         66.823
         4508.5          9.464         74.532         66.551
         4509.0          9.465         75.005         66.660
         4509.5          9.479         79.443         67.954
         4510.0          9.488         82.098         68.409
         4510.5          9.488         88.813         68.945
         4511.0          9.488         88.683         68.887
         4511.5          9.437         89.767         68.838
         4512.0          9.464         88.872         68.546
         4512.5          9.444         81.446         68.253
         4513.0          9.444         76.163         68.054
         4513.5          9.444         86.301         67.844
         4514.0          9.444         98.372         68.289
         4514.5          9.444        125.304         69.519
         4515.0          9.444        144.833         70.191
         4515.5          9.429        155.466         70.410
         4516.0          9.405        152.294         69.737
         4516.5          9.405        140.167         69.076
         4517.0          9.405        127.274         68.725
         4517.5          9.405        105.542         67.449
         4518.0          9.405        100.458         66.733
         4518.5          9.405        104.082         66.946
         4519.0          9.405        117.999         68.579
         4519.5          9.405        132.289         68.785
         4520.0          9.405        138.187         68.551
         4520.5          9.405        152.784         66.165
         4521.0          9.405        152.481         65.441
         4521.5          9.405        151.217         64.801
         4522.0          9.405        151.960         65.120
         4522.5          9.405        131.377         67.673
         4523.0          9.405        116.888         66.762
         4523.5          9.405        121.653         66.268
         4524.0          9.405        130.801         68.463
         4524.5          9.405        159.365         69.571
         4525.0          9.405        163.211         70.165
         4525.5          9.422        123.343         65.918
         4526.0          9.425        108.797         63.838
         4526.5          9.425         74.900         58.849
         4527.0          9.425         62.658         57.482
         4527.5          9.425         62.552         58.818
         4528.0          9.425         67.505         59.754
         4528.5          9.425         73.071         62.885
         4529.0          9.425         79.543         63.592
         4529.5          9.425        108.493         65.680
         4530.0          9.425        115.426         68.674
         4530.5          9.483        135.671         68.323
         4531.0          9.452        129.759         67.503
         4531.5          9.444        109.380         66.411
         4532.0          9.444        101.463         65.505
         4532.5          9.444         75.285         63.672
         4533.0          9.444         72.196         65.277
         4533.5          9.464         77.186         65.547
         4534.0          9.464         79.230         65.860
         4534.5          9.464         73.958         65.445
         4535.0          9.464         68.298         64.735
         4535.5          9.483         74.235         64.342
         4536.0          9.483         79.855         64.434
         4536.5          9.483         88.476         64.642
         4537.0          9.483         88.650         64.551
         4537.5          9.483         95.047         64.817
         4538.0          9.483        100.979         64.812
         4538.5          9.483         98.525         65.817
         4539.0          9.503         99.213         66.133
         4539.5          9.542        104.799         66.450
         4540.0          9.542        104.986         67.370
         4540.5          9.542        107.300         68.652
         4541.0          9.562        108.969         68.535
         4541.5          9.591         98.819         67.302
         4542.0          9.601         94.133         65.958
         4542.5          9.620         88.555         64.449
         4543.0          9.669         84.158         63.643
         4543.5          9.699         82.286         63.175
         4544.0          9.708         83.068         63.348
         4544.5          9.738         82.491         64.316
         4545.0          9.757         83.209         64.695
         4545.5          9.777         85.022         65.078
         4546.0          9.786         84.406         65.222
         4546.5          9.816         83.170         66.316
         4547.0          9.844         82.278         66.602
         4547.5          9.864         79.296         65.464
         4548.0          9.894         79.617         64.881
         4548.5          9.903         83.153         64.350
         4549.0          9.914         78.195         64.152
         4549.5          9.973         80.196         65.018
         4550.0         10.000         82.117         65.781
         4550.5         10.012         81.525         65.130
         4551.0         10.012         76.496         64.820
         4551.5         10.012         75.265         64.551
         4552.0         10.012         75.811         64.750
         4552.5         10.012         78.549         65.195
         4553.0         10.012         78.520         65.371
         4553.5         10.012         75.303         65.115
         4554.0         10.031         76.770         65.078
         4554.5         10.031         88.134         65.334
         4555.0         10.051         89.166         65.430
         4555.5         10.071         86.669         65.371
         4556.0         10.071         87.808         65.371
         4556.5         10.071         89.472         65.410
         4557.0         10.071         90.607         65.137
         4557.5         10.071         87.867         65.215
         4558.0         10.057         85.848         65.488
