###############################################
##         ENVERUS                           ##
##         ESS - Open Hole                   ##
##         PERMIAN / DELAWARE                ##
##         Nov 02 2023  V4.0                 ##
##         42-109-31375-00-00                ##
###############################################
## Copyright 2017-2023  ENVERUS.  All Rights Reserved. 
## Confidential - Property of ENVERUS, use governed by terms and 
## conditions found within the existing Information Services Subscription Agreement 
## (as may be amended, the “ISSA”) between Customer and ENVERUS. 
## 
~VERSION INFORMATION
# MNEM.UNIT                               DATA : DESCRIPTION OF MNEMONIC
#-----.-----     ----------------------------- : -----------------------------
VERS.                                     2.00 : CWLS LOG ASCII STANDARD - VERSION 2.00
WRAP.                                       NO : MULTIPLE LINES PER DEPTH STEP
VEND.                                  ENVERUS : VENDOR
TYPE.                          ESS - OPEN HOLE : ENVERUS ESSENTIAL CURVES – ACCESSIBLE THROUGH ENVERUS PRISM(TM)
DOC.                                  32006335 : ENVERUS HEADER RAW DOCUMENT ID
#___________________________________________________________________________________________________ 
~WELL INFORMATION 
# Eb7Zbut2Nwqt2ftj1i2q6V2Ye1Joym9Qrd6BFF0aHeZ6Mf1z+VAuEcbs4uVngcAWjTW62nvWGWatc34NWk2mnA== 
# MNEM.UNIT                                              DATA : DESCRIPTION OF MNEMONIC 
#-----.-----                    ----------------------------- : ----------------------------- 
CNTY.                                               CULBERSON : COUNTY 
STATE.                                                  TEXAS : STATE 
CNTRY.                                                    USA : COUNTRY 
API.                                             42-109-31375 : API (10 Digit) 
API_14.                                    42-109-31375-00-00 : API (14 Digits) 
API_14_std.                                 42-109-31375-0000 : API (14 Digits Standard) 
UWI.                                           42109313750000 : UNIQUE WELL ID 
WELL.                                      7806 JV-P DUVAL  1 : WELL NAME
STRT.FT                                                     0 : START DEPTH
STOP.FT                                               15739.0 : STOP DEPTH
STEP.FT                                                   0.5 : STEP BETWEEN DEPTHS
NULL.                                                 -999.25 : NULL VALUE
COMP.                                  BTA OIL PRODUCERS  LLC : COMPANY 
DATE.                                             26-MAY-1978 : LOG DATE
#___________________________________________________________________________________________________ 
~CURVE INFORMATION 
# MNEM.UNIT           : CURVE DESCRIPTION 
#-----.-----          : ----------------------------- 
 DEPT.FT               : MEASURED DEPTH 
 CALI.IN               : CALIPER (CAL - CAL) 
 GR.API                : GAMMA RAY (GR) 
 DT.US/FT              : SONIC DELTA TRANSIT TIME (DT) 
 #___________________________________________________________________________________________________ 
~A         DEPT           CALI             GR             DT
# ...
         4092.0         14.669         34.514         70.013
         4092.5         14.635         34.000         69.961
         4093.0         14.605         31.827         69.908
         4093.5         14.585         29.654         69.783
         4094.0         14.564         29.931         67.646
         4094.5         14.544         31.066         66.777
         4095.0         14.524         32.202         67.085
         4095.5         14.504         32.578         67.442
         4096.0         14.494         31.060         67.799
         4096.5         14.486         29.542         68.157
         4097.0         14.477         28.024         68.266
         4097.5         14.468         26.938         67.933
         4098.0         14.459         28.120         67.600
         4098.5         14.450         29.301         66.093
         4099.0         14.408         30.483         65.158
         4099.5         14.286         43.537         65.287
         4100.0         14.167         45.539         65.416
         4100.5         14.137         46.823         65.546
         4101.0         14.107         48.108         65.477
         4101.5         14.083         49.392         65.379
         4102.0         14.076         51.040         65.280
         4102.5         14.069         57.405         65.447
         4103.0         14.063         62.306         66.280
         4103.5         14.056         65.199         67.113
         4104.0         14.049         68.092         67.946
         4104.5         14.043         65.200         67.420
         4105.0         14.036         61.454         66.854
         4105.5         14.029         57.470         66.287
         4106.0         14.023         54.348         65.721
         4106.5         14.016         53.706         65.512
         4107.0         14.009         53.064         65.530
         4107.5         14.003         52.777         65.549
         4108.0         13.996         53.200         65.823
         4108.5         13.990         53.622         66.403
         4109.0         14.016         58.176         66.982
         4109.5         14.042         64.280         67.562
         4110.0         14.055         70.384         68.142
         4110.5         14.029         68.996         67.429
         4111.0         14.002         62.259         66.385
         4111.5         13.976         56.077         65.341
         4112.0         13.949         50.841         64.297
         4112.5         13.923         45.606         63.278
         4113.0         13.908         41.861         62.435
         4113.5         13.912         39.670         61.591
         4114.0         13.917         38.616         61.799
         4114.5         13.921         39.158         62.886
         4115.0         13.925         41.036         63.973
         4115.5         13.929         43.360         65.060
         4116.0         13.936         46.865         65.967
         4116.5         13.944         50.370         66.240
         4117.0         13.953         50.668         66.512
         4117.5         13.961         46.817         66.785
         4118.0         13.970         42.966         68.238
         4118.5         13.978         39.392         67.713
         4119.0         13.987         36.193         67.189
         4119.5         13.995         32.994         66.665
         4120.0         14.004         32.323         66.140
         4120.5         14.013         32.579         66.085
         4121.0         14.023         32.834         66.269
         4121.5         14.033         33.090         66.453
         4122.0         14.042         33.345         66.337
         4122.5         14.052         34.014         65.891
         4123.0         14.056         34.784         65.444
         4123.5         14.059         35.554         66.034
         4124.0         14.063         36.634         66.819
         4124.5         14.071         38.323         67.604
         4125.0         14.089         40.012         68.388
         4125.5         14.107         41.701         69.099
         4126.0         14.125         41.910         69.292
         4126.5         14.143         41.956         69.386
         4127.0         14.161         42.002         69.254
         4127.5         14.180         43.201         69.123
         4128.0         14.189         46.030         68.991
         4128.5         14.193         48.859         68.859
         4129.0         14.197         52.994         69.232
         4129.5         14.201         47.457         70.402
         4130.0         14.205         41.186         71.571
         4130.5         14.209         38.788         71.677
         4131.0         14.213         38.936         71.758
         4131.5         14.217         39.084         71.839
         4132.0         14.221         39.263         71.806
         4132.5         14.219         39.757         71.568
         4133.0         14.211         40.251         70.944
         4133.5         14.203         40.744         67.883
         4134.0         14.195         38.755         65.092
         4134.5         14.187         36.509         63.280
         4135.0         14.179         35.134         62.066
         4135.5         14.174         34.517         63.695
         4136.0         14.172         33.899         65.030
         4136.5         14.170         33.282         65.111
         4137.0         14.168         32.594         65.191
         4137.5         14.166         31.880         65.272
         4138.0         14.164         31.301         66.314
         4138.5         14.162         31.899         68.077
         4139.0         14.160         32.496         69.839
         4139.5         14.158         32.879         71.040
         4140.0         14.156         32.458         71.820
         4140.5         14.154         32.037         71.865
         4141.0         14.137         31.615         71.578
         4141.5         14.103         31.134         71.252
         4142.0         14.069         30.244         69.638
         4142.5         14.036         29.353         69.531
         4143.0         14.011         28.462         69.822
         4143.5         13.992         27.572         70.113
         4144.0         14.001         27.866         70.405
         4144.5         14.027         28.591         70.696
         4145.0         14.053         29.642         69.539
         4145.5         14.042         30.692         67.909
         4146.0         14.023         31.743         66.280
         4146.5         14.004         32.794         64.643
         4147.0         13.986         29.779         62.833
         4147.5         13.949         27.447         61.023
         4148.0         13.883         28.931         62.134
         4148.5         13.816         30.416         63.261
         4149.0         13.791         31.900         64.388
         4149.5         13.773         33.384         65.516
         4150.0         13.756         34.869         61.240
         4150.5         13.738         36.353         63.004
         4151.0         13.724         37.837         64.768
         4151.5         13.736         39.597         65.921
         4152.0         13.747         43.002         66.535
         4152.5         13.758         46.407         67.149
         4153.0         13.753         47.564         67.763
         4153.5         13.748         48.435         66.062
         4154.0         13.717         49.304         65.870
         4154.5         13.662         49.756         65.678
         4155.0         13.617         50.208         65.486
         4155.5         13.580         50.661         65.294
         4156.0         13.551         50.267         65.027
         4156.5         13.540         49.125         64.083
         4157.0         13.529         47.982         63.139
         4157.5         13.518         46.839         62.195
