###############################################
##         ENVERUS                           ##
##         ESS - Open Hole                   ##
##         PERMIAN / DELAWARE                ##
##         Nov 02 2023  V4.0                 ##
##         42-109-32346-90-00                ##
###############################################
## Copyright 2017-2023  ENVERUS.  All Rights Reserved. 
## Confidential - Property of ENVERUS, use governed by terms and 
## conditions found within the existing Information Services Subscription Agreement 
## (as may be amended, the “ISSA”) between Customer and ENVERUS. 
## 
~VERSION INFORMATION
# MNEM.UNIT                               DATA : DESCRIPTION OF MNEMONIC
#-----.-----     ----------------------------- : -----------------------------
VERS.                                     2.00 : CWLS LOG ASCII STANDARD - VERSION 2.00
WRAP.                                       NO : MULTIPLE LINES PER DEPTH STEP
VEND.                                  ENVERUS : VENDOR
TYPE.                          ESS - OPEN HOLE : ENVERUS ESSENTIAL CURVES – ACCESSIBLE THROUGH ENVERUS PRISM(TM)
DOC.                                  51092887 : ENVERUS HEADER RAW DOCUMENT ID
#___________________________________________________________________________________________________ 
~WELL INFORMATION 
# XhrHiXkIrwGIJmPLTIo0+WseqdI1VWn+o0JF90EYfb9BJ/ikjsIPmHpj3yVLlwnYQ/npclNvflN3Ll99f4ZCqQ== 
# MNEM.UNIT                                              DATA : DESCRIPTION OF MNEMONIC 
#-----.-----                    ----------------------------- : ----------------------------- 
CNTY.                                               CULBERSON : COUNTY 
STATE.                                                  TEXAS : STATE 
CNTRY.                                                    USA : COUNTRY 
API.                                             42-109-32346 : API (10 Digit) 
API_14.                                    42-109-32346-90-00 : API (14 Digits) 
API_14_std.                                 42-109-32346-9000 : API (14 Digits Standard) 
UWI.                                           42109323469000 : UNIQUE WELL ID 
WELL.                                                  DRD_55 : WELL NAME
STRT.FT                                                 334.5 : START DEPTH
STOP.FT                                                4950.0 : STOP DEPTH
STEP.FT                                                   0.5 : STEP BETWEEN DEPTHS
NULL.                                                 -999.25 : NULL VALUE
PREV_APII.                                     42109323460000 : WELL IDENTIFIER
#___________________________________________________________________________________________________ 
~PARAMETER INFORMATION 
# MNEM.UNIT                                              DATA : DESCRIPTION OF MNEMONIC 
#-----.-----                    ----------------------------- : -----------------------------
#___________________________________________________________________________________________________ 
~CURVE INFORMATION 
# MNEM.UNIT           : CURVE DESCRIPTION 
#-----.-----          : ----------------------------- 
 DEPT.FT               : MEASURED DEPTH 
 CALI.IN               : CALIPER (CAL - CALIPER) 
 GR.API                : GAMMA RAY (GAMMA RAY) 
 DT.US/FT              : SONIC DELTA TRANSIT TIME (SONIC) 
 #___________________________________________________________________________________________________ 
~A         DEPT           CALI             GR             DT
# ...
         1852.5         10.142         36.647         90.276
         1853.0         10.187         35.312         91.549
         1853.5         10.217         32.260         91.915
         1854.0         10.245         31.774         92.012
         1854.5         10.274         33.938         91.740
         1855.0         10.306         35.478         91.167
         1855.5         10.309         34.893         89.664
         1856.0         10.309         35.204         88.648
         1856.5         10.309         41.384         86.338
         1857.0         10.309         44.386         86.218
         1857.5         10.314         42.369         87.778
         1858.0         10.319         40.779         88.537
         1858.5         10.340         32.902         89.842
         1859.0         10.340         32.625         89.369
         1859.5         10.340         33.333         89.037
         1860.0         10.308         33.333         89.361
         1860.5         10.271         34.840         90.064
         1861.0         10.234         37.169         90.360
         1861.5         10.197         37.622         91.302
         1862.0         10.161         37.579         92.141
         1862.5         10.158         37.232         92.444
         1863.0         10.130         36.647         91.488
         1863.5         10.109         36.842         90.098
         1864.0         10.064         36.075         89.345
         1864.5         10.035         34.698         88.186
         1865.0         10.011         35.693         86.891
         1865.5          9.957         37.024         87.520
         1866.0          9.822         34.192         88.252
         1866.5          9.784         35.664         89.724
         1867.0          9.768         38.936         90.219
         1867.5          9.753         39.376         89.651
         1868.0          9.732         39.376         88.838
         1868.5          9.709         38.626         87.411
         1869.0          9.709         35.544         87.402
         1869.5          9.698         31.188         87.453
         1870.0          9.676         30.433         87.438
         1870.5          9.646         34.914         87.371
         1871.0          9.625         37.427         87.371
         1871.5          9.609         38.248         87.736
         1872.0          9.593         38.869         88.694
         1872.5          9.593         40.997         87.861
         1873.0          9.597         42.500         86.175
         1873.5          9.551         50.470         84.701
         1874.0          9.551         53.184         84.409
         1874.5          9.557         48.871         88.651
         1875.0          9.565         40.622         90.488
         1875.5          9.634         35.082         88.372
         1876.0          9.635         34.113         87.332
         1876.5          9.635         35.426         84.026
         1877.0          9.635         38.373         82.541
         1877.5          9.656         41.831         84.861
         1878.0          9.708         42.474         85.552
         1878.5          9.782         43.676         86.352
         1879.0          9.825         41.328         87.229
         1879.5          9.899         41.436         87.730
         1880.0          9.938         42.514         88.116
         1880.5          9.971         41.881         88.338
         1881.0          9.993         36.471         87.860
         1881.5         10.022         34.430         86.252
         1882.0         10.025         34.861         83.867
         1882.5         10.021         43.526         79.881
         1883.0          9.962         49.577         77.027
         1883.5          9.911         57.266         75.986
         1884.0          9.872         59.070         76.268
         1884.5          9.846         59.344         76.301
         1885.0          9.846         58.554         76.479
         1885.5          9.846         60.764         76.502
         1886.0          9.840         65.124         76.502
         1886.5          9.840         74.927         77.421
         1887.0          9.840         78.914         78.880
         1887.5          9.823         74.378         80.785
         1888.0          9.821         68.240         81.755
         1888.5          9.801         52.258         80.945
         1889.0          9.782         53.745         82.603
         1889.5          9.782         58.433         85.437
         1890.0          9.804         55.225         87.538
         1890.5          9.844         46.923         89.609
         1891.0          9.879         44.713         89.992
         1891.5          9.879         43.665         90.384
         1892.0          9.879         44.055         90.810
         1892.5          9.879         43.450         91.289
         1893.0          9.879         43.080         88.967
         1893.5          9.850         44.250         89.301
         1894.0          9.840         43.946         89.329
         1894.5          9.821         43.199         90.290
         1895.0          9.782         43.860         88.260
         1895.5          9.709         43.136         88.218
         1896.0          9.669         43.080         87.783
         1896.5          9.606         47.598         83.149
         1897.0          9.570         48.928         81.884
         1897.5          9.549         48.343         80.507
         1898.0          9.509         48.343         80.118
         1898.5          9.450         47.049         78.393
         1899.0          9.392         41.565         77.742
         1899.5          9.350         43.100         79.725
         1900.0          9.333         46.305         80.302
         1900.5          9.309         47.524         80.785
         1901.0          9.294         45.405         81.224
         1901.5          9.294         44.215         81.084
         1902.0          9.294         43.123         81.805
         1902.5          9.294         42.495         84.049
         1903.0          9.294         41.473         83.967
         1903.5          9.275         40.467         82.308
         1904.0          9.263         41.832         81.522
         1904.5          9.255         41.784         81.070
         1905.0          9.255         38.402         81.091
         1905.5          9.255         39.770         81.071
         1906.0          9.255         39.804         79.370
         1906.5          9.293         34.336         75.959
         1907.0          9.199         33.333         73.848
         1907.5          9.081         38.734         74.652
         1908.0          9.080         40.770         75.924
         1908.5          9.060         44.834         76.847
         1909.0          9.021         44.284         76.669
         1909.5          9.002         45.994         76.292
         1910.0          9.002         51.340         75.740
         1910.5          9.002         56.608         74.142
         1911.0          8.983         52.958         73.334
         1911.5          8.983         52.766         72.459
         1912.0          8.963         52.827         71.857
         1912.5          8.944         51.462         71.517
         1913.0          8.944         50.877         71.281
         1913.5          8.924         51.594         71.079
         1914.0          8.912         53.731         70.808
         1914.5          8.885         56.530         70.612
         1915.0          8.885         55.800         70.336
         1915.5          8.850         53.492         69.540
         1916.0          8.846         52.106         69.271
         1916.5          8.827         51.638         69.265
         1917.0          8.827         55.807         69.560
         1917.5          8.827         58.283         69.738
         1918.0          8.827         57.872         69.974
