# Exported from Transform Software 5.2.0 on 25-May-2018 by user brian.umlang
# DI Transform - A Product of Drillinginfo, Inc. - www.drillinginfo.com
#
~VERSION INFORMATION
 VERS.        2.0 : LAS ASCII STANDARD - VERSION 2.0
 WRAP.         NO : ONE LINE PER DEPTH STEP

~WELL INFORMATION
#MNEM.UNIT       DATA TYPE       INFORMATION
#---------       ---------       -----------
# Enverus has updated the API/UWI.  The previous names are renamed to  PREV_API / PREV_UWI
API.         42-109-32508-00-00 : API (14 Digits with Dashes)
UWI.             42109325080000 : UNIQUE WELL ID

 STRT.ft                1970 : Start Depth
 STOP.ft                8730 : Stop Depth
 STEP.ft                 0.5 : Step Length
 NULL.               -999.25 : Null Value
 COMP.                       : Company
 WELL.  42109325080000_API14 : Well Name
 FLD.                        : Field Name
 LOC.                        : Well Location
 CNTY.                       : County
 STAT.                       : State or Province
 CTRY.                       : Country
 SRVC.                       : Service Company
 DATE.                       : Date
PREV_APII.         42109325080000 : Well Identifier

~CURVE INFORMATION
#MNEM.UNIT       API CODE       CURVE DESCRIPTION
#---------       --------       -----------------
 DEPT.ft        : <Measured Depth>
 CAL.in         : Caliper
 DT.us/ft       : Pressure Wave Sonic
 GR.gAPI        : Gamma Ray

~PARAMETER INFORMATION
#MNEM.UNIT       VALUE       DESCRIPTION
#---------       -----       -----------
 EKB.ft      3552 : Elevation above MSL

~A      DEPT         CAL          DT          GR
# ...
        2380      9.5156     70.2915     54.6262
      2380.5      9.5388     72.5644     52.9224
        2381      9.5938      76.235     55.3539
      2381.5      9.5938      75.412     57.2176
        2382      9.5938     73.5387      58.764
      2382.5      9.5938     71.9411     58.7366
        2383      9.5686     71.0603     56.7793
      2383.5        9.49       70.49     58.8801
        2384      9.3855     70.2339     62.3999
      2384.5      9.2812     70.2339     67.8423
        2385      9.2812     70.3727     71.1009
      2385.5      9.2735     70.9233     80.2653
        2386      9.2617     71.3108     83.1445
      2386.5      9.2422     71.5205     86.6513
        2387      9.2227     71.6374     87.0814
      2387.5      9.2422     71.6374     80.7873
        2388      9.2422     71.7251     74.9546
      2388.5      9.2617     71.8129     67.7244
        2389      9.1926     71.8445     72.8003
      2389.5       9.125     72.4121     88.7072
        2390      9.1136     74.0398     97.6846
      2390.5      9.0937     76.0355    155.5332
        2391      9.0347     77.3756    174.1575
      2391.5      8.9366     78.5965    177.9396
        2392      8.9102     78.3236    198.3724
      2392.5      8.8906     79.7953    218.1946
        2393      8.8906     82.1126    234.0578
      2393.5      8.8906     83.0361    241.2109
        2394      8.9297     83.5964      229.32
      2394.5      8.9492     81.2583    199.6944
        2395      9.0233     75.9741    167.6811
      2395.5      9.0664      72.942    121.3355
        2396      9.1022      71.462    108.1201
      2396.5      9.1445     72.0883     97.0672
        2397      9.1836     72.5001    103.9319
      2397.5      9.1836     72.9764     96.2813
        2398      9.1836     72.9336     90.0526
      2398.5      9.2215      72.807     69.8343
        2399      9.2422     72.6901     66.6134
      2399.5      9.2812     72.3988     65.2344
        2400      9.2812     72.5734     63.4761
      2400.5      9.2812     73.7545      59.837
        2401      9.3407     75.7945     56.5133
      2401.5       9.418     76.1366     53.2952
        2402      9.4392     74.7405     51.7245
      2402.5      9.5156      71.461      51.419
        2403      9.5156     68.6411     55.2643
      2403.5      9.5576     70.2772     59.6316
        2404      9.6361     72.6423     60.5799
      2404.5      9.7342     74.8368     58.2452
        2405      9.8086     75.0599     53.8392
      2405.5      9.8717     73.8596      51.029
        2406      9.9307     74.6057       49.56
      2406.5     10.0288      75.763     48.6328
        2407     10.0487     77.0039     47.9091
      2407.5     10.1077     78.0486     48.6944
        2408     10.1277     78.2456     48.9577
      2408.5     10.1602     78.0493     48.6328
        2409     10.1602     77.6751     50.5991
      2409.5     10.1602     77.3451     51.9724
        2410     10.1602     76.9345     52.5391
      2410.5     10.1992     76.8421     52.1484
        2411     10.1902      77.247     51.9531
      2411.5     10.1797     77.8343     51.2729
        2412     10.1797      78.334     50.6828
      2412.5     10.1899     78.8918     51.0791
        2413     10.2383     79.2398     51.0653
      2413.5     10.2493     78.4815     48.6328
        2414     10.2773     75.3084      49.563
      2414.5     10.2773     72.1105     53.4604
        2415     10.2188     70.2339     54.8828
      2415.5     10.2705     71.4767     53.7792
        2416     10.2969     74.9957     51.6267
      2416.5     10.3495     78.6144     50.9766
        2417     10.4141     79.0979     51.5065
      2417.5     10.4141     78.5417     52.6824
        2418     10.4336     76.8982     52.1963
      2418.5     10.5073     76.6536     50.6516
        2419     10.6054     77.6133     50.7416
      2419.5     10.7035     79.2822     51.7222
        2420     10.8015     80.9942     52.1169
      2420.5     10.8996      81.227     53.8514
        2421     10.9023     79.6701     57.8796
      2421.5     10.9023     79.0174     61.9636
        2422     10.8828     79.7344     60.7573
      2422.5     10.8633     81.3737     52.2645
        2423     10.8633     82.1742     47.5795
      2423.5      10.805     78.7891     46.0966
        2424     10.7069     76.1974     46.2878
      2424.5     10.6484     76.6683     45.1013
        2425     10.6884     79.3877     42.6617
      2425.5     10.7865     83.5612     43.2045
        2426      10.865     85.2632     45.5342
      2426.5     10.9631     85.0877     46.4627
        2427     11.0612     85.5633     45.8984
      2427.5     11.1397     85.6725     46.3786
        2428     11.2182     84.5691     48.2422
      2428.5     11.2772     83.2521     47.4229
        2429      11.332      83.112     47.1756
      2429.5     11.3516     84.1489     48.6328
        2430     11.4347     85.4687      47.606
      2430.5     11.5328     86.0722     44.1729
        2431     11.6308     86.6432     42.8319
      2431.5     11.7289     87.0363     46.4026
        2432     11.8465     87.3099     51.2385
      2432.5      11.925     87.3472     52.2397
        2433     11.9766      87.193     47.1763
      2433.5     12.0626     87.5911     47.0741
        2434     12.1411      88.788     50.4149
      2434.5     12.2001     89.3567     53.9392
        2435     12.2891     88.9786     54.1601
      2435.5     12.3767     88.8889     51.5173
        2436     12.4062     89.0069     45.0179
      2436.5     12.4648     89.7076     41.0041
        2437     12.4648     89.8246     45.9576
      2437.5     12.3532      86.792      54.492
        2438     12.1212     81.3819     60.0766
      2438.5     11.8669     78.9264     70.4452
        2439     11.8131     79.1057     68.9834
      2439.5     11.8526     81.4781     65.2748
        2440     11.8789     82.1053     62.8219
      2440.5     11.8984     82.3215     57.9309
        2441     11.9515     82.9585     55.0631
      2441.5     12.0496     84.6478     52.6709
        2442     12.1477      85.352     49.2149
      2442.5      12.427     86.8493     45.1266
        2443     12.5586     88.1528     43.5151
      2443.5      12.694     88.7031     40.0863
        2444     12.8164     88.7628     37.5306
      2444.5     12.8945      85.845     38.6189
        2445     12.9899     84.5748      47.413
      2445.5      13.088     84.7314     51.8043
        2446     13.1484     84.6826     48.4517
      2446.5     13.2451     82.8837     39.7396
        2447     13.3431     81.5844        37.5
      2447.5     13.4412     82.3368     39.3516
        2448     13.5393     86.0825     40.8203
      2448.5     13.6178     87.0064     42.6093
        2449     13.7262     84.3613     46.7106
      2449.5      13.853     82.8569     48.8569
        2450     13.8711     82.6845     50.6599
      2450.5     13.8929      83.525     52.8924
        2451     13.9741     86.3585     57.6172
      2451.5      14.089     87.6115     56.2762
        2452     14.1445     87.7778     53.6623
      2452.5     14.1641     87.8363     45.4303
        2453     14.1641     88.0959     41.5585
      2453.5     14.1641     88.8142     41.2816
        2454     14.1641     89.3721     43.0759
      2454.5     14.1445     90.0916     44.9219
        2455     14.1445     90.6026     43.7289
      2455.5     14.1641     90.4678     42.5781
        2456     14.1708     90.5465     43.0363
      2456.5     14.1836     91.1326       43.75
        2457     14.1836     89.8998     43.0883
      2457.5      14.117     87.2703     43.4833
        2458      13.991     84.2435     47.7966
      2458.5     13.8579     81.5436     58.0958
        2459     13.7108     79.4804     67.4526
      2459.5     13.6271     77.0796     74.1513
        2460      13.529     75.3216      77.985
      2460.5     13.3528     75.3609     81.6406
        2461     13.2049     77.7907     78.9504
      2461.5     13.1875     79.7839     67.7872
