###############################################
##         ENVERUS                           ##
##         ESS - Open Hole                   ##
##         PERMIAN / DELAWARE                ##
##         Nov 03 2023  V4.0                 ##
##         42-109-32538-90-00                ##
###############################################
## Copyright 2017-2023  ENVERUS.  All Rights Reserved. 
## Confidential - Property of ENVERUS, use governed by terms and 
## conditions found within the existing Information Services Subscription Agreement 
## (as may be amended, the “ISSA”) between Customer and ENVERUS. 
## 
~VERSION INFORMATION
# MNEM.UNIT                               DATA : DESCRIPTION OF MNEMONIC
#-----.-----     ----------------------------- : -----------------------------
VERS.                                     2.00 : CWLS LOG ASCII STANDARD - VERSION 2.00
WRAP.                                       NO : MULTIPLE LINES PER DEPTH STEP
VEND.                                  ENVERUS : VENDOR
TYPE.                          ESS - OPEN HOLE : ENVERUS ESSENTIAL CURVES – ACCESSIBLE THROUGH ENVERUS PRISM(TM)
DOC.                                  51093252 : ENVERUS HEADER RAW DOCUMENT ID
#___________________________________________________________________________________________________ 
~WELL INFORMATION 
# oCCetX3e+0pvkDd8h//i1tmWwvIHyfHqsQII3M49Y6eU5HggNAlLoqtwY+vCuZvzOG9Fr+Tv1xe2vto6NUMufQ== 
# MNEM.UNIT                                              DATA : DESCRIPTION OF MNEMONIC 
#-----.-----                    ----------------------------- : ----------------------------- 
CNTY.                                               CULBERSON : COUNTY 
STATE.                                                  TEXAS : STATE 
CNTRY.                                                    USA : COUNTRY 
API.                                             42-109-32538 : API (10 Digit) 
API_14.                                    42-109-32538-90-00 : API (14 Digits) 
API_14_std.                                 42-109-32538-9000 : API (14 Digits Standard) 
UWI.                                           42109325389000 : UNIQUE WELL ID 
WELL.                                                  DRD_55 : WELL NAME
STRT.FT                                                2546.5 : START DEPTH
STOP.FT                                               11260.0 : STOP DEPTH
STEP.FT                                                   0.5 : STEP BETWEEN DEPTHS
NULL.                                                 -999.25 : NULL VALUE
PREV_APII.                                     42109325380000 : WELL IDENTIFIER
#___________________________________________________________________________________________________ 
~PARAMETER INFORMATION 
# MNEM.UNIT                                              DATA : DESCRIPTION OF MNEMONIC 
#-----.-----                    ----------------------------- : ----------------------------- 
EKB.FT                                                   3182 : ELEVATION ABOVE MSL
#___________________________________________________________________________________________________ 
~CURVE INFORMATION 
# MNEM.UNIT           : CURVE DESCRIPTION 
#-----.-----          : ----------------------------- 
 DEPT.FT               : MEASURED DEPTH 
 CALI.IN               : CALIPER (CAL - CALIPER) 
 GR.API                : GAMMA RAY (GAMMA RAY) 
 DT.US/FT              : SONIC DELTA TRANSIT TIME (SONIC) 
 RESS.OHMM             : SHALLOW INDUCTION RESISTIVITY (ILS - SHALLOW RESISTIVITY) 
 RESD.OHMM             : DEEP INDUCTION RESISTIVITY (ILD - DEEP RESISTIVITY) 
 DPHI.V/V              : DENSITY POROSITY (DENSITY POROSITY) 
 NPHI.V/V              : NEUTRON POROSITY (NEUTRON POROSITY) 
 RHOB.G/CC             : BULK DENSITY (DENSITY) 
 #___________________________________________________________________________________________________ 
~A         DEPT           CALI             GR             DT           RESS           RESD           DPHI           NPHI           RHOB
# ...
         9892.0          6.180         35.071         66.158         13.353         16.915        0.00000        0.20080         2.7447
         9892.5          6.180         54.340         67.407         13.903         13.661        0.00000        0.22980         2.7541
         9893.0          6.179         91.904         70.185          9.752         10.375        0.00000        0.21177         2.6724
         9893.5          6.179         99.789         74.030          7.560          8.115        0.01715        0.21721         2.5393
         9894.0          6.178        102.981         78.398          7.272          7.460        0.10812        0.22894         2.5115
         9894.5          6.178        102.060         81.380          7.954          7.842        0.12327        0.23735         2.5222
         9895.0          6.177        103.506         83.185          8.333          8.359        0.11193        0.23751         2.5359
         9895.5          6.177        102.804         84.214          8.305          8.349        0.10070        0.22259         2.5497
         9896.0          6.176         99.150         84.581          7.600          7.770        0.09575        0.22495         2.5322
         9896.5          6.176         99.539         84.172          7.122          7.312        0.10457        0.24626         2.5270
         9897.0          6.175         95.385         83.905          7.267          7.389        0.11657        0.24659         2.5248
         9897.5          6.175         92.887         82.876          7.591          7.935        0.11716        0.22345         2.5237
         9898.0          6.174         93.813         82.127          7.446          8.371        0.11530        0.21350         2.5236
         9898.5          6.174         97.272         81.227          7.429          8.809        0.11623        0.21283         2.5128
         9899.0          6.173         98.800         80.198          7.524          8.918        0.12385        0.21364         2.5278
         9899.5          6.173         96.879         79.168          7.659          8.182        0.11849        0.22104         2.5458
         9900.0          6.173         96.115         78.957          7.581          7.237        0.10756        0.22465         2.5638
         9900.5          6.173         83.813         77.669          6.900          6.274        0.10000        0.22773         2.5818
         9901.0          6.173         62.770         76.330          6.561          5.929        0.08472        0.22673         2.5997
         9901.5          6.173         51.813         74.643          7.102          6.379        0.06380        0.23259         2.6177
         9902.0          6.173         50.475         73.613          8.845          7.678        0.05873        0.20190         2.6232
         9902.5          6.173         50.840         73.674         10.974          9.481        0.05361        0.18325         2.6234
         9903.0          6.174         64.795         74.876         12.138          9.585        0.06339        0.18068         2.6234
         9903.5          6.174         98.366         77.332          9.403          8.047        0.06744        0.17389         2.5985
         9904.0          6.175        108.415         80.009          6.094          5.745        0.06364        0.22784         2.5728
         9904.5          6.175        108.672         81.757          5.703          5.185        0.07716        0.23271         2.5471
         9905.0          6.176        105.931         82.910          5.572          5.238        0.09951        0.22951         2.5447
         9905.5          6.176         99.439         82.945          6.266          6.171        0.10765        0.20319         2.5379
         9906.0          6.177         95.682         82.149          8.292          8.656        0.10675        0.18108         2.5312
         9906.5          6.177         92.584         81.528         10.722         12.193        0.10984        0.20972         2.5244
         9907.0          6.178         94.860         80.900         14.364         15.366        0.11690        0.22442         2.5206
         9907.5          6.178         99.923         80.900         21.224         23.150        0.11902        0.21305         2.5205
         9908.0          6.179        108.056         81.718         15.206         17.433        0.11779        0.24688         2.5309
         9908.5          6.179        110.503         82.343          8.555         10.255        0.11557        0.25444         2.5412
         9909.0          6.180        106.941         82.554          7.591          8.015        0.10656        0.25479         2.5477
         9909.5          6.180        106.056         82.945          7.284          7.402        0.10537        0.26496         2.5388
         9910.0          6.181        110.135         82.127          7.810          7.633        0.10936        0.25318         2.5299
         9910.5          6.181        101.997         81.718          8.852          8.538        0.11411        0.23251         2.5210
         9911.0          6.182         92.072         80.900          9.222          9.089        0.12783        0.23477         2.5121
         9911.5          6.182         98.376         80.234          9.582          9.662        0.12797        0.24385         2.5033
         9912.0          6.183         99.561         80.491         11.119         11.084        0.13168        0.24505         2.4952
         9912.5          6.183         99.124         81.170         13.320         13.651        0.13610        0.22313         2.4995
         9913.0          6.184         99.950         81.381         13.072         12.769        0.12054        0.20400         2.5405
         9913.5          6.184         99.168         82.001          9.993          9.788        0.09857        0.18158         2.5611
         9914.0          6.185         94.144         81.718          7.653          7.847        0.09227        0.17867         2.5661
         9914.5          6.185         89.834         81.421          6.883          7.496        0.09042        0.19430         2.5626
         9915.0          6.186         88.321         80.392          7.713          8.859        0.10050        0.18445         2.5150
         9915.5          6.186         84.151         79.363         10.342         12.288        0.13007        0.19205         2.4969
         9916.0          6.187         82.381         77.925         13.387         16.239        0.12846        0.20541         2.5147
         9916.5          6.187         82.512         76.895         12.607         15.151        0.12202        0.20823         2.5251
         9917.0          6.188         81.319         75.992         11.206         13.616        0.11424        0.21825         2.5459
         9917.5          6.188         83.454         75.583         10.518         13.204        0.10160        0.20426         2.5555
         9918.0          6.189         82.276         75.174         10.174         13.954        0.09777        0.18414         2.5358
         9918.5          6.189         79.037         75.174         13.216         20.065        0.10894        0.17879         2.5243
         9919.0          6.190         84.873         75.583         16.326         24.029        0.11839        0.17544         2.5132
         9919.5          6.190         92.045         75.992         16.915         24.243        0.12244        0.18677         2.5089
         9920.0          6.191         95.342         75.992         15.305         21.385        0.12586        0.18620         2.5140
         9920.5          6.182         98.858         76.401         15.338         21.542        0.11860        0.17847         2.5261
         9921.0          6.199         74.515         76.989         16.321         22.604        0.11106        0.16773         2.5228
