###############################################
##         ENVERUS                           ##
##         ESS - Open Hole                   ##
##         PERMIAN / DELAWARE                ##
##         Nov 02 2023  V4.0                 ##
##         42-109-32346-90-00                ##
###############################################
## Copyright 2017-2023  ENVERUS.  All Rights Reserved. 
## Confidential - Property of ENVERUS, use governed by terms and 
## conditions found within the existing Information Services Subscription Agreement 
## (as may be amended, the “ISSA”) between Customer and ENVERUS. 
## 
~VERSION INFORMATION
# MNEM.UNIT                               DATA : DESCRIPTION OF MNEMONIC
#-----.-----     ----------------------------- : -----------------------------
VERS.                                     2.00 : CWLS LOG ASCII STANDARD - VERSION 2.00
WRAP.                                       NO : MULTIPLE LINES PER DEPTH STEP
VEND.                                  ENVERUS : VENDOR
TYPE.                          ESS - OPEN HOLE : ENVERUS ESSENTIAL CURVES – ACCESSIBLE THROUGH ENVERUS PRISM(TM)
DOC.                                  51092887 : ENVERUS HEADER RAW DOCUMENT ID
#___________________________________________________________________________________________________ 
~WELL INFORMATION 
# XhrHiXkIrwGIJmPLTIo0+WseqdI1VWn+o0JF90EYfb9BJ/ikjsIPmHpj3yVLlwnYQ/npclNvflN3Ll99f4ZCqQ== 
# MNEM.UNIT                                              DATA : DESCRIPTION OF MNEMONIC 
#-----.-----                    ----------------------------- : ----------------------------- 
CNTY.                                               CULBERSON : COUNTY 
STATE.                                                  TEXAS : STATE 
CNTRY.                                                    USA : COUNTRY 
API.                                             42-109-32346 : API (10 Digit) 
API_14.                                    42-109-32346-90-00 : API (14 Digits) 
API_14_std.                                 42-109-32346-9000 : API (14 Digits Standard) 
UWI.                                           42109323469000 : UNIQUE WELL ID 
WELL.                                                  DRD_55 : WELL NAME
STRT.FT                                                 334.5 : START DEPTH
STOP.FT                                                4950.0 : STOP DEPTH
STEP.FT                                                   0.5 : STEP BETWEEN DEPTHS
NULL.                                                 -999.25 : NULL VALUE
PREV_APII.                                     42109323460000 : WELL IDENTIFIER
#___________________________________________________________________________________________________ 
~PARAMETER INFORMATION 
# MNEM.UNIT                                              DATA : DESCRIPTION OF MNEMONIC 
#-----.-----                    ----------------------------- : -----------------------------
#___________________________________________________________________________________________________ 
~CURVE INFORMATION 
# MNEM.UNIT           : CURVE DESCRIPTION 
#-----.-----          : ----------------------------- 
 DEPT.FT               : MEASURED DEPTH 
 CALI.IN               : CALIPER (CAL - CALIPER) 
 GR.API                : GAMMA RAY (GAMMA RAY) 
 DT.US/FT              : SONIC DELTA TRANSIT TIME (SONIC) 
 #___________________________________________________________________________________________________ 
~A         DEPT           CALI             GR             DT
# ...
         2776.5          9.821         43.316         86.272
         2777.0          9.793         41.160         86.832
         2777.5          9.766         41.433         85.074
         2778.0          9.723         42.952         82.431
         2778.5          9.684         48.972         79.433
         2779.0          9.684         51.267         76.965
         2779.5          9.743         50.023         77.669
         2780.0          9.782         46.807         79.086
         2780.5          9.878         42.048         80.491
         2781.0          9.940         40.356         83.199
         2781.5          9.983         38.683         84.316
         2782.0         10.068         37.995         83.899
         2782.5         10.203         38.345         82.865
         2783.0         10.224         40.973         84.174
         2783.5         10.258         41.521         84.505
         2784.0         10.291         41.463         83.768
         2784.5         10.330         42.173         84.587
         2785.0         10.351         42.690         85.137
         2785.5         10.351         40.866         85.865
         2786.0         10.347         39.700         85.918
         2786.5         10.330         41.824         85.140
         2787.0         10.298         42.809         82.854
         2787.5         10.249         44.603         81.780
         2788.0         10.197         45.753         81.125
         2788.5         10.077         45.293         81.444
         2789.0          9.958         46.544         81.633
         2789.5          9.888         49.292         82.387
         2790.0          9.864         49.829         82.391
         2790.5          9.846         45.934         83.711
         2791.0          9.872         41.318         87.293
         2791.5          9.893         39.365         88.284
         2792.0          9.915         41.876         88.506
         2792.5          9.940         41.485         86.748
         2793.0          9.940         41.125         84.820
         2793.5          9.934         44.431         82.603
         2794.0          9.763         44.999         81.441
         2794.5          9.709         47.364         83.070
         2795.0          9.717         48.127         83.900
         2795.5          9.732         45.082         85.830
         2796.0          9.748         43.185         86.404
         2796.5          9.762         40.955         86.496
         2797.0          9.762         42.228         85.190
         2797.5          9.736         44.719         81.584
         2798.0          9.708         46.619         80.443
         2798.5          9.680         49.318         79.024
         2799.0          9.653         48.565         80.131
         2799.5          9.609         45.336         81.971
         2800.0          9.566         43.867         83.205
         2800.5          9.551         39.942         84.491
         2801.0          9.551         38.519         84.293
         2801.5          9.551         43.038         82.891
         2802.0          9.564         46.024         82.317
         2802.5          9.548         46.555         81.613
         2803.0          9.626         44.498         80.935
         2803.5          9.645         50.162         79.534
         2804.0          9.585         53.314         78.445
         2804.5          9.548         52.044         77.460
         2805.0          9.528         45.088         78.482
         2805.5          9.558         44.504         79.509
         2806.0          9.565         45.202         79.877
         2806.5          9.567         46.324         80.058
         2807.0          9.567         48.253         80.000
         2807.5          9.587         49.123         80.058
         2808.0          9.587         49.123         80.292
         2808.5          9.603         51.516         80.341
         2809.0          9.606         53.021         80.292
         2809.5          9.587         51.963         80.092
         2810.0          9.548         51.071         79.636
         2810.5          9.449         50.682         78.386
         2811.0          9.372         50.423         77.529
         2811.5          9.372         47.663         76.443
         2812.0          9.372         47.083         76.493
         2812.5          9.378         48.785         78.144
         2813.0          9.392         49.823         79.906
         2813.5          9.419         46.397         81.685
         2814.0          9.439         45.142         83.385
         2814.5          9.499         42.011         84.619
         2815.0          9.528         41.285         84.953
         2815.5          9.528         45.050         83.976
         2816.0          9.516         46.753         83.120
         2816.5          9.418         50.471         80.031
         2817.0          9.319         51.267         78.499
         2817.5          9.314         53.308         77.682
         2818.0          9.314         53.996         76.839
         2818.5          9.314         47.903         74.943
         2819.0          9.314         44.753         75.008
         2819.5          9.314         47.073         77.022
         2820.0          9.314         48.214         77.950
         2820.5          9.333         55.712         79.050
         2821.0          9.333         58.914         78.011
         2821.5          9.353         59.884         76.670
         2822.0          9.372         61.923         75.939
         2822.5          9.372         66.037         75.627
         2823.0          9.372         67.252         75.510
         2823.5          9.372         67.332         75.394
         2824.0          9.353         68.498         74.820
         2824.5          9.333         70.169         73.115
         2825.0          9.314         69.396         72.499
         2825.5          9.314         71.977         72.150
         2826.0          9.314         73.233         72.070
         2826.5          9.314         72.410         71.953
         2827.0          9.314         66.959         72.452
         2827.5          9.333         64.249         76.062
         2828.0          9.351         62.034         78.151
         2828.5          9.392         47.445         82.061
         2829.0          9.431         41.721         84.254
         2829.5          9.431         39.065         83.486
         2830.0          9.457         37.773         82.669
         2830.5          9.457         35.700         79.567
         2831.0          9.423         38.361         77.011
         2831.5          9.411         41.569         76.581
         2832.0          9.437         42.358         77.232
         2832.5          9.457         42.495         79.924
         2833.0          9.544         41.208         81.085
         2833.5          9.688         38.541         81.516
         2834.0          9.772         38.494         81.282
         2834.5          9.890         38.904         80.667
         2835.0          9.777         42.738         79.726
         2835.5          9.632         43.961         81.066
         2836.0          9.573         44.066         79.866
         2836.5          9.474         43.298         78.556
         2837.0          9.376         41.896         77.869
         2837.5          9.353         40.494         76.561
         2838.0          9.335         39.904         75.707
         2838.5          9.256         40.437         74.610
         2839.0          9.157         42.111         73.904
         2839.5          9.059         42.300         73.892
         2840.0          9.018         42.300         74.466
         2840.5          9.060         44.978         76.629
         2841.0          9.080         48.779         77.071
         2841.5          9.099         51.057         76.426
         2842.0          9.099         49.305         74.865
