# Exported from Transform Software 5.2.0 on 21-Oct-2019 by user kathryn.gehrke
# DI Transform - A Product of Drillinginfo, Inc. - www.drillinginfo.com
#
~VERSION INFORMATION
 VERS.        2.0 : LAS ASCII STANDARD - VERSION 2.0
 WRAP.         NO : ONE LINE PER DEPTH STEP

~WELL INFORMATION
#MNEM.UNIT       DATA TYPE       INFORMATION
#---------       ---------       -----------
 STRT.ft                  30 : Start Depth
 STOP.ft                9000 : Stop Depth
 STEP.ft                 0.5 : Step Length
 NULL.               -999.25 : Null Value
 COMP.                       : Company
 WELL.  42109330470000_API14 : Well Name
 FLD.                        : Field Name
 LOC.                        : Well Location
 CNTY.                       : County
 STAT.                       : State or Province
 CTRY.                       : Country
 SRVC.                       : Service Company
 DATE.                       : Date
 API.         42109330470000 : Well Identifier

~CURVE INFORMATION
#MNEM.UNIT       API CODE       CURVE DESCRIPTION
#---------       --------       -----------------
 DEPT.ft        : <Measured Depth>
 DT.us/ft       : Sonic
 GR.gAPI        : Gamma Ray

~PARAMETER INFORMATION
#MNEM.UNIT       VALUE       DESCRIPTION
#---------       -----       -----------
 EKB.ft      3201 : Elevation above MSL

~A      DEPT          DT          GR
# ...
        4804    331.6165      42.387
      4804.5    331.6165     56.3533
        4805    331.4413     76.9896
      4805.5    331.4413     80.4465
        4806    331.4413     68.3734
      4806.5    331.4413     59.9304
        4807    331.4413     50.2681
      4807.5    331.4413     39.4502
        4808    331.4413     37.4007
      4808.5    331.4413     48.5219
        4809    331.4413     58.5814
      4809.5    331.4413     49.7133
        4810    331.4413     41.0015
      4810.5    331.4413     42.5365
        4811    331.4413     49.0844
      4811.5    331.4413     52.0238
        4812    331.4413     44.3315
      4812.5    331.4413     35.4828
        4813    331.4413     37.6329
      4813.5    331.4413     50.6378
        4814    331.4413      67.303
      4814.5    331.4413     81.1477
        4815    331.4413     80.2957
      4815.5    331.4413     69.3846
        4816    331.4413     66.1679
      4816.5    331.4413     75.8808
        4817    331.4413     85.4853
      4817.5    331.4413     87.2447
        4818    331.4413     66.2993
      4818.5    331.4413     41.2987
        4819    331.4413     36.8754
      4819.5    331.4413     48.8096
        4820    331.6165     66.1493
      4820.5    331.6165     80.3609
        4821    331.6165     84.9766
      4821.5    331.6165     85.1252
        4822    331.6165     76.4777
      4822.5    331.6165      68.317
        4823    331.6165     64.8963
      4823.5    331.6165      59.389
        4824    331.6165     49.1523
      4824.5    331.6165     42.0315
        4825    331.6165     48.7091
      4825.5    331.6165     52.8142
        4826    331.6165      36.163
      4826.5    331.6165      26.007
        4827    331.6165     33.7326
      4827.5    331.6165     45.9527
        4828    331.6165     53.5842
      4828.5    331.6165     55.1636
        4829    331.6165     56.4799
      4829.5    331.6165     53.3347
        4830    331.6165     44.4046
      4830.5    331.6165     38.8812
        4831    331.6165     41.1067
      4831.5    331.6165     47.8061
        4832    331.6165      52.274
      4832.5    331.4421     54.1144
        4833    331.4413     54.2479
      4833.5    331.4414     51.2274
        4834    331.4413     48.0747
      4834.5    331.4413     49.9114
        4835    331.4413     58.8433
      4835.5    331.4413     64.8862
        4836    331.4413     63.0468
      4836.5    331.6165     64.8871
        4837    331.6165     66.7237
      4837.5    331.6165     60.9422
        4838    331.6165     54.1134
      4838.5    331.6165     51.7513
        4839    331.6165     55.3022
      4839.5    331.6165      62.788
        4840    331.6165     57.1233
      4840.5    331.6165      47.277
        4841    331.6165     41.3678
      4841.5    331.6165     36.5124
        4842    331.6165     37.8393
      4842.5    331.6165     49.4046
        4843    331.6165      58.325
      4843.5    331.6165     58.3187
        4844    331.4413     60.4345
      4844.5    331.4413     71.7388
        4845    331.4413     81.8341
      4845.5    331.4413     71.9374
        4846    331.4413      56.191
      4846.5    331.4413     49.6406
        4847    331.4413      44.114
      4847.5    331.4413     38.6115
        4848    331.4413     38.6268
      4848.5    331.4413     43.8866
        4849    331.4413     46.3716
      4849.5    331.4413     49.1417
        4850    331.4413     55.5784
      4850.5    331.4413     58.5814
        4851    331.4413     54.4776
      4851.5    331.4413     47.0029
        4852    331.4413     42.0179
      4852.5    331.4413     38.3397
        4853    331.4413     36.2522
      4853.5    331.4413     37.0477
        4854    331.4413     42.8502
      4854.5    331.4413     54.4254
        4855    331.4413     65.3205
      4855.5    331.4413     69.6065
        4856    331.4413     63.2592
      4856.5    331.4413      52.242
        4857    331.4413     48.0736
      4857.5    331.4413     52.8293
        4858    331.4413     61.7895
      4858.5    331.4413     73.8748
        4859    331.4413      85.819
      4859.5    331.4413     91.4186
        4860    331.4413     84.2449
      4860.5    331.4413     72.4631
        4861    331.4413     68.9685
      4861.5    331.4413     68.8159
        4862    331.4413     61.0224
      4862.5    331.4413     54.1045
        4863    331.4413     57.9587
      4863.5    331.4413     64.0981
        4864    331.4413      61.973
      4864.5    331.4413     64.1339
        4865    331.4413     70.0452
      4865.5    331.4413      69.077
        4866    331.4413     65.6491
      4866.5    331.4413     63.5727
        4867    331.4413     66.6326
      4867.5    331.4413     72.8066
        4868    331.4413     77.2597
      4868.5    331.4413      81.187
        4869    331.4413     79.0166
      4869.5    331.4413     71.6743
        4870    331.4413     68.4184
      4870.5    331.4413     67.7614
        4871    331.4413     66.3164
      4871.5    331.4413     66.7399
        4872    331.4413     64.5333
      4872.5    331.4413     48.6941
        4873    331.4413     31.0524
      4873.5    331.4413     28.9436
        4874    331.4413     35.1176
      4874.5    331.4413     34.6279
        4875    331.4413     30.4729
      4875.5    331.4413     34.2164
        4876    331.4413     42.3609
      4876.5    331.4413     45.9888
        4877    331.4413     48.4847
      4877.5    331.4413     48.8271
        4878    331.4413     42.0755
      4878.5    331.4413     34.3602
        4879    331.4413     33.3983
      4879.5    331.4413      42.892
        4880    331.4413     43.1221
      4880.5    331.4413     35.6898
        4881    331.4413     32.0116
      4881.5    331.4413     30.7356
        4882    331.4413     35.9538
      4882.5    331.4413     45.5432
        4883    331.4413     56.5971
      4883.5    331.4413     62.8043
        4884    331.4413     62.6333
      4884.5    331.4413     59.8345
        4885    331.4413      50.053
      4885.5    331.4413     42.7991
        4886    331.4413     44.4373
      4886.5    331.4413     46.7601
        4887    331.4413     44.0908
      4887.5    331.4413     40.6753
        4888    331.4413     36.0561
      4888.5    331.4413     31.7646
        4889    331.4413     32.5091
      4889.5    331.4413     41.0917
        4890    331.4413     50.2647
      4890.5    331.4413     51.7287
        4891    331.4413     47.7652
      4891.5    331.4413      50.645
        4892    331.4413     67.6989
      4892.5    331.4413      75.896
        4893    331.4413     73.2452
      4893.5    331.4413      70.379
        4894    331.4413     62.5922
      4894.5    331.4413     49.8154
        4895    331.4413     46.1767
      4895.5    331.4413     53.9515
        4896    331.4413     61.9397
      4896.5    331.4413     57.0674
        4897    331.4413     46.8156
      4897.5    331.4413     44.3703
        4898    331.4413     42.3999
      4898.5    331.4413     43.6854
        4899    331.4413     54.0095
      4899.5    331.4413     64.1507
        4900    331.4413     60.7867
      4900.5    331.4413     50.3577
        4901    331.2662     46.9722
      4901.5    331.2662     57.4849
        4902    331.2662      73.407
      4902.5    331.2662     83.3851
        4903    331.2662     87.7408
      4903.5    331.2662     83.6607
        4904    331.2662     71.9133
      4904.5    331.2662     59.9875
        4905    331.2662     48.0621
      4905.5    331.2662     43.6365
        4906    331.2662     44.6585
      4906.5    331.2662     44.6585
        4907    331.2662      45.768
      4907.5    331.2662     46.7305
        4908    331.2662     38.9632
      4908.5    331.2662     32.5444
        4909    331.2662     34.2714
      4909.5    331.2662     43.2039
        4910    331.2662     44.7988
      4910.5    331.2662     34.8155
        4911    331.2662     26.0453
      4911.5    331.2662     24.2306
        4912    331.2662     32.4004
