~VERSION INFORMATION
VERS. 2.0 : CWLS Log ASCII Standard - version 2.0
WRAP.  NO : One line per depth step
#--------------------------------------------------#
#----------------DRILLING INFO, INC.---------------#
#---------------WWW.DRILLINGINFO.COM---------------#
#------------------COPYRIGHT 2015------------------#
#--------------------------------------------------#
#THIS FILE MAY BE USED ONLY IN ACCORDANCE WITH A CURRENT SUBSCRIPTION AGREEMENT BETWEEN
#THE USER AND DRILLING INFO, INC. NO PART OF THIS FILE MAY BE REPRODUCED, USED, COPIED,
#MODIFIED, PROPAGATED, OR DISTRIBUTED EXCEPT IN ACCORDANCE WITH THE SUBSCRIPTION
#AGREEMENT. UNAUTHORIZED USE OR DISTRIBUTION OF ALL OR ANY PART OF THIS FILE MAY VIOLATE
#COPYRIGHT, TRADEMARK, AND/OR OTHER LAWS AND IS SUBJECT TO CIVIL AS WELL AS CRIMINAL
#SANCTIONS.
#--------------------------------------------------#
#THIS FILE IS PROVIDED "AS-IS" AND ALL WARRANTIES ARE EXPRESSLY DISCLAIMED, WHETHER
#EXPRESS, ORAL, IMPLIED, STATUTORY OR OTHERWISE, INCLUDING ANY IMPLIED WARRANTY OF FITNESS
#FOR A PARTICULAR PURPOSE, MERCHANTABILITY, TITLE OR NON-INFRINGEMENT, AND ANY WARRANTIES
#ARISING BY VIRTUE OF CUSTOM OF TRADE OR COURSE OF DEALING.  FURTHER, DRILLING INFO,
#INC. AND ITS LICENSORS DO NOT REPRESENT OR WARRANT THAT THIS FILE WILL MEET USER'S
#REQUIREMENTS OR ARE SUITABLE FOR USER'S NEEDS OR THAT THE DATA OR RESULTS PROVIDED IN
#CONJUNCTION THEREWITH ARE CORRECT, ACCURATE, TIMELY OR RELIABLE. THESE DISCLAIMERS SHALL
#APPLY REGARDLESS OF ANY FAILURE OF ESSENTIAL PURPOSE OF ANY LIMITED REMEDY.  SOME
#JURISDICTIONS DO NOT ALLOW THE EXCLUSION OF CERTAIN WARRANTIES SO SOME OF THE ABOVE
#EXCLUSIONS MAY NOT APPLY. IN NO EVENT SHALL DRILLING INFO, INC. OR ANY OF ITS AFFILIATES
#BE LIABLE UNDER ANY LEGAL THEORY, WHETHER IN TORT (INCLUDING WITHOUT LIMITATION
#NEGLIGENCE), CONTRACT, STRICT LIABILITY, STATUTORY OR OTHERWISE, FOR ANY SPECIAL,
#INCIDENTAL, CONSEQUENTIAL, EXEMPLARY, PUNITIVE OR INDIRECT DAMAGE OF ANY KIND, INCLUDING
#WITHOUT LIMITATION LOSS OF REVENUE, PROFITS, GOODWILL, USE, AND/OR DATA OR THE COST OF
#PROCUREMENT OF SUBSTITUTE GOODS OR SERVICES, EVEN IF APPRISED OF THE POSSIBILITY OF SUCH
#DAMAGES IN ADVANCE.
#--------------------------------------------------#
~WELL INFORMATION
#MNEMONIC     .UNIT              VALUE :DESCRIPTION
#--------------------------------------------------#
STRT       .FT                181 :START DEPTH
STOP       .FT                12231 :STOP DEPTH
STEP       .FT                   0.500 :STEP
NULL       .                  -999.250 :NULL
API        .                421093228700 :API NUMBER
COMP       .         CHESAPEAKE OPERATING  INC. :COMPANY
WELL       .        UNIVERSITY LANDS 4627  1 :WELL
DATE       .                06-May-2007 :LOG DATE
~CURVE INFORMATION
#MNEMONIC     .UNIT      API CODE :CURVE DESCRIPTION
#--------------------------------------------------#
DEPTH       .FT                      :Measured Depth
ILS.OHM        UNKNOWN   :ILS
GR.API        UNKNOWN   :GR
ILD.OHM        UNKNOWN   :ILD
CAL.INCH        UNKNOWN   :CAL
DT.US/FT        UNKNOWN   :DT
~A    DEPTH    ILS    GR    ILD    CAL    DT
# ...
 3392.5     -999.250   68.549   200.646   13.555   64.689
 3393     -999.250   71.833   267.09   13.566   63.768
 3393.5     -999.250   75.117   291.51   13.577   63.462
 3394     -999.250   78.402   315.389   13.588   63.697
 3394.5     -999.250   75.946   331.41   13.599   63.932
 3395     -999.250   70.709   321.37   13.609   64.167
 3395.5     -999.250   65.472   319.438   13.583   64.403
 3396     -999.250   64.112   326.933   13.532   64.638
 3396.5     -999.250   73.722   415.256   13.257   64.862
 3397     -999.250   87.466   549.696   13.257   64.907
 3397.5     -999.250   101.209   719.352   13.234   64.953
 3398     -999.250   108.926   793.32   13.203   64.422
 3398.5     -999.250   103.357   673.29   13.152   63.637
 3399     -999.250   94.579   818.706   13.02   62.851
 3399.5     -999.250   85.802   1046.547   12.888   62.321
 3400     -999.250   82.906   1023.582   12.82   62.321
 3400.5     -999.250   90.864   931.083   12.789   63.876
 3401     -999.250   99.162   809.885   12.79   63.634
 3401.5     -999.250   95.222   721.176   12.792   63.392
 3402     -999.250   90.943   777.235   12.794   63.15
 3402.5     -999.250   83.447   833.294   12.796   62.402
 3403     -999.250   75.952   863.84   12.797   60.942
 3403.5     -999.250   68.457   835.484   12.799   59.482
 3404     -999.250   62.07   1095.153   12.801   58.735
 3404.5     -999.250   60.926   1083.443   12.803   58.632
 3405     -999.250   71.157   967.674   12.805   59.93
 3405.5     -999.250   81.388   1065.21   12.807   61.229
 3406     -999.250   91.619   1081.056   12.808   62.527
 3406.5     -999.250   99.491   1007.508   12.81   63.281
 3407     -999.250   101.601   900.902   12.812   63.24
 3407.5     -999.250   100.747   872.107   12.814   63.199
 3408     -999.250   94.706   727.502   12.816   63.159
 3408.5     -999.250   88.41   576.916   12.818   62.748
 3409     -999.250   82.113   705.177   12.819   62.269
 3409.5     -999.250   77.804   833.437   12.821   62.306
 3410     -999.250   77.55   785.394   12.823   63.051
 3410.5     -999.250   83.268   823.5   12.825   63.795
 3411     -999.250   88.986   1031.731   12.827   64.54
 3411.5     -999.250   94.704   1110.757   12.829   64.621
 3412     -999.250   92.459   985.585   12.831   63.756
 3412.5     -999.250   81.861   867.064   12.832   62.184
 3413     -999.250   70.465   914.267   12.834   61.462
 3413.5     -999.250   63.552   886.208   12.836   61.36
 3414     -999.250   61.962   845.882   12.838   61.853
 3414.5     -999.250   61.963   885.77   12.84   62.165
 3415     -999.250   64.789   1038.806   12.836   61.82
 3415.5     -999.250   74.728   1203.333   12.827   62.066
 3416     -999.250   98.441   1009.551   12.818   64.218
 3416.5     -999.250   122.153   790.759   12.809   65.778
 3417     -999.250   120.845   571.534   12.8   66.065
 3417.5     -999.250   108.099   453.332   12.792   65.763
 3418     -999.250   90.994   475.47   12.783   64.978
 3418.5     -999.250   81.051   497.608   12.774   64.193
 3419     -999.250   72.597   483.108   12.765   63.407
 3419.5     -999.250   65.28   426.773   12.757   62.622
 3420     -999.250   59.553   370.438   12.749   61.837
 3420.5     -999.250   53.826   363.561   12.741   61.051
 3421     -999.250   53.52   400.94   12.733   60.435
 3421.5     -999.250   56.434   439.838   12.725   60.453
 3422     -999.250   69.031   486.551   12.717   60.673
 3422.5     -999.250   81.664   533.263   12.708   62.167
 3423     -999.250   93.772   874.115   12.7   63.661
 3423.5     -999.250   104.288   1066.191   12.692   64.592
 3424     -999.250   108.112   995.947   12.684   64.35
 3424.5     -999.250   99.94   681.655   12.676   64.108
 3425     -999.250   86.31   658.782   12.672   63.064
 3425.5     -999.250   72.219   635.909   12.674   61.961
 3426     -999.250   56.769   658.631   12.675   60.859
 3426.5     -999.250   50.408   705.335   12.677   59.756
 3427     -999.250   58.151   783.207   12.678   59.258
 3427.5     -999.250   72.62   861.079   12.68   60.341
 3428     -999.250   90.255   938.951   12.681   61.923
 3428.5     -999.250   96.021   703.493   12.682   63.031
 3429     -999.250   91.407   604.917   12.684   63.572
 3429.5     -999.250   84.474   505.934   12.686   62.841
 3430     -999.250   77.542   439.349   12.692   62.546
 3430.5     -999.250   70.609   465.577   12.697   62.519
 3431     -999.250   71.093   491.804   12.702   62.536
 3431.5     -999.250   75.084   530.721   12.707   62.949
 3432     -999.250   79.074   598.377   12.713   63.362
 3432.5     -999.250   83.065   666.032   12.718   63.774
 3433     -999.250   87.055   631.787   12.723   63.781
 3433.5     -999.250   88.852   562.122   12.729   63.506
 3434     -999.250   85.655   508.395   12.734   63.231
 3434.5     -999.250   79.456   479.678   12.739   62.955
 3435     -999.250   74.326   450.96   12.745   62.68
 3435.5     -999.250   76.566   422.243   12.75   62.541
 3436     -999.250   81.434   393.526   12.755   62.98
 3436.5     -999.250   86.301   412.178   12.761   63.42
 3437     -999.250   90.542   453.368   12.766   63.859
 3437.5     -999.250   94.141   587.775   12.771   64.298
 3438     -999.250   97.74   731.792   12.777   64.303
 3438.5     -999.250   98.094   715.605   12.782   64.212
 3439     -999.250   89.311   637.137   12.787   63.803
 3439.5     -999.250   79.07   646.425   12.793   62.974
 3440     -999.250   76.626   655.714   12.798   62.38
 3440.5     -999.250   93.048   855.455   12.803   62.366
 3441     -999.250   110.654   946.725   12.809   62.353
 3441.5     -999.250   111.669   929.409   12.814   62.751
 3442     -999.250   109.86   873.099   12.819   63.412
 3442.5     -999.250   108.331   729.219   12.825   64.073
 3443     -999.250   111.069   975.257   12.83   64.401
 3443.5     -999.250   112.825   1898.345   12.835   64.29
 3444     -999.250   107.52   2451.114   12.84   64.179
 3444.5     -999.250   102.216   2119.19   12.846   64.068
 3445     -999.250   97.066   1017.406   12.851   63.957
 3445.5     -999.250   92.742   728.104   12.856   63.846
 3446     -999.250   88.418   607.291   12.862   63.735
 3446.5     -999.250   80.785   578.719   12.867   63.162
 3447     -999.250   72.712   550.146   12.881   62.238
 3447.5     -999.250   64.639   606.237   12.897   61.314
 3448     -999.250   56.565   762.831   12.913   60.39
 3448.5     -999.250   48.765   1582.923   12.929   58.878
 3449     -999.250   44.673   1443.754   12.945   57.286
 3449.5     -999.250   43.447   1132.723   12.962   55.694
 3450     -999.250   45.074   708.447   12.978   55.378
 3450.5     -999.250   49.056   521.411   12.994   56.992
 3451     -999.250   53.287   392.634   13.01   58.606
 3451.5     -999.250   60.736   368.375   13.026   60.221
 3452     -999.250   69.11   387.949   13.042   61.835
 3452.5     -999.250   80.071   436.43   13.058   63.449
 3453     -999.250   94.244   576.556   13.074   65.064
 3453.5     -999.250   105.875   558.316   13.09   65.982
 3454     -999.250   115.674   456.869   13.107   65.928
 3454.5     -999.250   114.547   394.434   13.123   65.873
 3455     -999.250   109.018   370.3   13.139   65.439
 3455.5     -999.250   100.765   346.167   13.155   64.868
 3456     -999.250   94.448   338.572   13.171   64.298
 3456.5     -999.250   93.21   343.916   13.187   63.727
 3457     -999.250   95.133   349.26   13.203   63.439
 3457.5     -999.250   98.404   386.018   13.219   63.454
 3458     -999.250   101.675   425.319   13.234   63.469
 3458.5     -999.250   100.839   406.579   13.238   63.484
 3459     -999.250   96.702   387.84   13.241   63.499
 3459.5     -999.250   87.34   369.1   13.245   62.535
 3460     -999.250   84.203   350.36   13.249   62.64
 3460.5     -999.250   85.152   352.899   13.253   62.745
 3461     -999.250   86.458   363.917   13.257   62.85
 3461.5     -999.250   83.023   438.688   13.261   62.955
 3462     -999.250   75.53   517.312   13.265   62.404
 3462.5     -999.250   68.037   433.932   13.268   61.828
