###############################################
##         ENVERUS                           ##
##         ESS - Open Hole                   ##
##         PERMIAN / DELAWARE                ##
##         Nov 03 2023  V4.0                 ##
##         42-109-32620-90-00                ##
###############################################
## Copyright 2017-2023  ENVERUS.  All Rights Reserved. 
## Confidential - Property of ENVERUS, use governed by terms and 
## conditions found within the existing Information Services Subscription Agreement 
## (as may be amended, the “ISSA”) between Customer and ENVERUS. 
## 
~VERSION INFORMATION
# MNEM.UNIT                               DATA : DESCRIPTION OF MNEMONIC
#-----.-----     ----------------------------- : -----------------------------
VERS.                                     2.00 : CWLS LOG ASCII STANDARD - VERSION 2.00
WRAP.                                       NO : MULTIPLE LINES PER DEPTH STEP
VEND.                                  ENVERUS : VENDOR
TYPE.                          ESS - OPEN HOLE : ENVERUS ESSENTIAL CURVES – ACCESSIBLE THROUGH ENVERUS PRISM(TM)
DOC.                                  51092896 : ENVERUS HEADER RAW DOCUMENT ID
#___________________________________________________________________________________________________ 
~WELL INFORMATION 
# mS4wxE9S4ErBCd3MEwtzWWb7vaBLyBp2a6hoNdhJ+t1pinRta8/5SsS3wr5CrR4pTncMCKeAGTUU45xlgh6yRQ== 
# MNEM.UNIT                                              DATA : DESCRIPTION OF MNEMONIC 
#-----.-----                    ----------------------------- : ----------------------------- 
CNTY.                                               CULBERSON : COUNTY 
STATE.                                                  TEXAS : STATE 
CNTRY.                                                    USA : COUNTRY 
API.                                             42-109-32620 : API (10 Digit) 
API_14.                                    42-109-32620-90-00 : API (14 Digits) 
API_14_std.                                 42-109-32620-9000 : API (14 Digits Standard) 
UWI.                                           42109326209000 : UNIQUE WELL ID 
WELL.                               42109326200000_PREV_API14 : WELL NAME
STRT.FT                                                2338.5 : START DEPTH
STOP.FT                                               10866.0 : STOP DEPTH
STEP.FT                                                   0.5 : STEP BETWEEN DEPTHS
NULL.                                                 -999.25 : NULL VALUE
PREV_APII.                                     42109326200000 : WELL IDENTIFIER
#___________________________________________________________________________________________________ 
~PARAMETER INFORMATION 
# MNEM.UNIT                                              DATA : DESCRIPTION OF MNEMONIC 
#-----.-----                    ----------------------------- : ----------------------------- 
EKB.FT                                                   3330 : ELEVATION ABOVE MSL
#___________________________________________________________________________________________________ 
~CURVE INFORMATION 
# MNEM.UNIT           : CURVE DESCRIPTION 
#-----.-----          : ----------------------------- 
 DEPT.FT               : MEASURED DEPTH 
 CALI.IN               : CALIPER (CAL - CALIPER) 
 GR.API                : GAMMA RAY (GAMMA RAY) 
 DT.US/FT              : SONIC DELTA TRANSIT TIME (PRESSURE WAVE SONIC) 
 #___________________________________________________________________________________________________ 
~A         DEPT           CALI             GR             DT
# ...
         9070.5          9.274        100.111         74.192
         9071.0          9.254         89.780         73.888
         9071.5          9.234         85.238         73.698
         9072.0          9.254         85.028         74.759
         9072.5          9.255         82.096         74.808
         9073.0          9.293         80.415         74.784
         9073.5          9.293         80.603         74.200
         9074.0          9.274         75.723         73.038
         9074.5          9.274         58.572         66.212
         9075.0          9.214         50.616         63.256
         9075.5          9.194         46.507         65.077
         9076.0          9.194         47.570         65.678
         9076.5          9.214         56.794         67.983
         9077.0          9.214         65.979         71.983
         9077.5          9.226         67.154         74.468
         9078.0          9.234         63.990         75.232
         9078.5          9.234         62.422         74.499
         9079.0          9.234         66.631         74.604
         9079.5          9.254         76.807         75.118
         9080.0          9.254         81.259         75.501
         9080.5          9.254         79.523         74.979
         9081.0          9.254         71.553         73.941
         9081.5          9.254         72.457         74.585
         9082.0          9.276         78.589         79.090
         9082.5          9.333        101.515         78.862
         9083.0          9.313        104.879         76.864
         9083.5          9.293         89.719         75.581
         9084.0          9.274         77.015         73.296
         9084.5          9.246         59.059         72.046
         9085.0          9.234         55.689         71.535
         9085.5          9.234         57.096         71.866
         9086.0          9.234         60.589         71.964
         9086.5          9.234         65.830         72.723
         9087.0          9.247         68.567         73.935
         9087.5          9.254         71.651         74.683
         9088.0          9.274         73.569         74.616
         9088.5          9.293         76.693         74.030
         9089.0          9.293         82.068         73.499
         9089.5          9.293         83.042         72.741
         9090.0          9.293         81.430         72.436
         9090.5          9.293         75.518         69.564
         9091.0          9.293         65.058         68.443
         9091.5          9.274         60.888         67.847
         9092.0          9.274         63.474         68.671
         9092.5          9.293         67.124         72.215
         9093.0          9.313         65.695         72.819
         9093.5          9.313         64.471         72.859
         9094.0          9.323         65.889         73.015
         9094.5          9.344         69.179         73.870
         9095.0          9.393         75.746         74.029
         9095.5          9.393         83.234         72.859
         9096.0          9.320         82.754         72.697
         9096.5          9.313         76.227         72.542
         9097.0          9.313         76.006         73.469
         9097.5          9.333         78.367         74.530
         9098.0          9.333         83.298         74.345
         9098.5          9.313         86.635         70.733
         9099.0          9.274         75.608         68.941
         9099.5          9.252         62.263         67.273
         9100.0          9.234         58.658         68.014
         9100.5          9.237         61.531         70.301
         9101.0          9.254         68.258         70.446
         9101.5          9.254         70.050         66.987
         9102.0          9.214         64.488         65.556
         9102.5          9.214         59.662         65.626
         9103.0          9.214         62.213         68.400
         9103.5          9.234         64.027         69.671
         9104.0          9.274         67.236         70.873
         9104.5          9.274         76.874         73.653
         9105.0          9.293         84.812         74.765
         9105.5          9.293         87.701         73.248
         9106.0          9.254         85.195         71.608
         9106.5          9.254         73.964         71.002
         9107.0          9.254         76.722         71.394
         9107.5          9.293         87.346         73.973
         9108.0          9.313         90.923         74.365
         9108.5          9.313         91.638         75.001
         9109.0          9.293        101.106         75.311
         9109.5          9.293        112.967         78.281
         9110.0          9.293        117.565         80.049
         9110.5          9.288        117.565         81.087
         9111.0          9.274        117.096         81.585
         9111.5          9.274        102.551         76.668
         9112.0          9.234         89.237         73.192
         9112.5          9.194         60.781         61.444
         9113.0          9.174         50.498         56.997
         9113.5          9.174         44.871         56.101
         9114.0          9.174         43.513         57.278
         9114.5          9.194         49.201         63.244
         9115.0          9.194         61.844         67.197
         9115.5          9.194         72.714         71.742
         9116.0          9.194         79.656         72.700
         9116.5          9.233        109.825         75.674
         9117.0          9.234        126.086         78.706
         9117.5          9.234        127.700         78.253
         9118.0          9.234        119.547         74.717
         9118.5          9.194         99.477         73.416
         9119.0          9.194         83.882         71.821
         9119.5          9.154         81.314         72.197
         9120.0          9.154         83.703         72.519
         9120.5          9.154         83.112         72.798
         9121.0          9.154         83.234         74.000
         9121.5          9.154         96.655         75.846
         9122.0          9.154        111.955         79.875
         9122.5          9.154        124.003         83.500
         9123.0          9.174        125.008         83.419
         9123.5          9.154        121.721         79.935
         9124.0          9.154        115.481         77.590
         9124.5          9.137        106.082         75.043
         9125.0          9.134        101.235         74.369
         9125.5          9.134         97.025         75.646
         9126.0          9.134         96.407         76.112
         9126.5          9.134         94.472         72.188
         9127.0          9.134         84.663         71.842
         9127.5          9.134         83.817         71.459
         9128.0          9.134         90.496         73.245
         9128.5          9.154        101.538         77.607
         9129.0          9.174         98.964         75.632
         9129.5          9.166         91.547         74.093
         9130.0          9.145         86.625         75.113
         9130.5          9.134         95.457         78.053
         9131.0          9.134        108.301         78.481
         9131.5          9.134         83.278         74.162
         9132.0          9.114         65.695         70.049
         9132.5          9.074         43.406         57.048
         9133.0          9.074         34.377         54.728
         9133.5          9.074         28.905         53.971
         9134.0          9.074         29.739         53.369
         9134.5          9.093         36.557         57.005
         9135.0          9.094         52.192         68.576
         9135.5          9.094         77.279         72.715
         9136.0          9.154         89.725         73.376
