~Version Information Block
 VERS.                2.00:     CWLS LOG ASCII STANDARD - VERSION 2.000000
 WRAP.                  NO:     One Line Per Depth Step
#
~Well Information Block
#MNEM.UNIT                     Data                         Information
#----------   ------------------------------------------   ----------------
 STRT.FT                                     4210.0000:     START DEPTH
 STOP.FT                                    10370.0000:     STOP DEPTH
 STEP.FT                                        0.5000:     STEP
 NULL.                                       -999.2500:     NULL VALUE
 COMP.                       CHESAPEAKE OPERATING INC.:     COMPANY
 WELL.                         UNIVERSITY_LANDS_4627-1:     WELL
 FLD .                                         WILDCAT:     FIELD
 LOC .   1200' FNL & 1995' FEL|Section: 27, Block: 46, Abstract: 2860|University Lands Survey:     LOCATION
 SEC .                                              27:     SECTION
 CNTY.                                       CULBERSON:     COUNTY
 STAT.                                           TEXAS:     STATE
 CTRY.                                             USA:     COUNTRY
 SRVC.                                    SCHLUMBERGER:     SERVICE COMPANY
 DATE.                                      11/15/2016:     DATE
 API .                                  42109322870000:     API NUMBER
 UWI .                                  42109322870000:     UWI NUMBER
 TVD .                                              NO:     TVD flag
 WSTA.                                             LOC:     Well status
#
~Curve Information Block
#MNEM.UNIT       API CODE      Curve Description
#----------    -------------   -------------------
 DEPT.FT                   :   Depth in Feet
 RM_HRLT.OHMM                 :   HRLTB Mud Resistivity
 RXOZ.OHMM                 :   Stan Res MicroCFL Resistivity
 RLA5.OHMM                 :   HRLTB Resistivity 5
 RLA4.OHMM                 :   HRLTB Resistivity 4
 RLA3.OHMM                 :   HRLTB Resistivity 3
 DTCO.US/F                 :   Delta-T Compressional
 DTSM.US/F                 :   Delta-T Shear Measurement
 SPHI.V/V                  :   Sonic Porosity [47.6]
 HSGR.GAPI                 :   HNGS Spectroscopy Gamma Ray
 HCGR.GAPI                 :   HNGS Computed Gamma Ray
 HCAL.IN                   :   HILT Caliper
 DPHI.V/V                  :   Density Porosity
 PEFZ.                     :   Std. Res. Formation PE
 HDRA.G/C3                 :   Density Correction
 RHOB.G/C3                 :   Std. Res. Formation Density
 APLC.V/V                  :   APS Near/Array Corrected Limestone Porosity
 PXND.V/V                  :   Crossplot Porosity For Neutron-Density
#
~Parameter Information Block
#MNEM.UNIT            Value               Description
#----------    --------------------    -------------------
 DATE.                 07-Jun-2007:    Date As Month-Day-Year
 RUN .                         ONE:    Run Number
 PDAT.                         UNK:    Permanent Datum
 EPD .FT                -9999.5000:    Elevation Of Perm. Datum
 LMF .                          KB:    Log Measured From
 FAPD.FT                   40.0000:    Feet Above Perm. Datum
 EKB .FT                 4323.0000:    Elevation Of Kelly Bushing
 TD  .FT                10370.0000:    Total Depth
 DFT .                   Fresh Mud:    Drilling Fluid Type
 DFD .LB/G                  8.6000:    Drilling Fluid Density
 RMS .OHMM                  0.4210:    Resistivity Of Mud Sample
 MST .DEGF                 97.0000:    Mud Sample Temperature
 RMF .OHMM                  0.4210:    Mud Filtrate Resistivity
 MFST.DEGF                 97.0000:    Mud Filtrate Sample Temperature
 MFSS.                        CALC:    Mud Filtrate Sample Source
 MCSS.                        CALC:    Mud Cake Sample Source
 RMB .OHMM                  0.2280:    Mud Resistivity At Bht
 BHT .DEGF                185.0000:    Bottom Hole Temperature
 MRT .DEGF                185.0000:    Maximum Recorded Temperature
 WSTA.                         LOC:    
 LATB.FT                    0.0000:    
 LONB.FT                    0.0000:    
#
~Other Information Block
<DescLogPlotStart>   NEURALOG PLOT DEFINITION
PLOTDEFVERSION: 3
LASFILE: E:\nds\projects\Texas Standard Oil LLC\pdf\42109322870000 D\42-109-322
DEPTHSCALE: 240.000000
RESOLUTION: 196
DEPTHLABELFREQ: 100.000000
HEAVYGRIDFREQ: 100.000000
MEDIUMGRIDFREQ: 50.000000
LIGHTGRIDFREQ: 10.000000
#
#   TRACK 1
#
STARTTRACK: 
 LEFTX: 0.500000 inch
 RIGHTX: 3.000000 inch
 SCALETYPE: Linear
 NUMCHARTDIVISIONS: 10
CURVE: RXOZ  0.200000   2000.000000 (0,0,255)      Solid             2     Y   
BACKUP: 2000.000000 20000000.000000 (0,0,255)      Solid             2    
CURVE: RLA5  0.200000   2000.000000 (0,131,131)    Dot               2     Y   
BACKUP: 2000.000000 20000000.000000 (0,131,131)    Dot               2    
CURVE: RLA4  0.200000   2000.000000 (255,0,255)    Short_Dash        2     Y   
BACKUP: 2000.000000 20000000.000000 (255,0,255)    Short_Dash        2    
CURVE: RLA3  0.200000   2000.000000 (255,0,0)      Medium_Dash       2     Y   
BACKUP: 2000.000000 20000000.000000 (255,0,0)      Medium_Dash       2    
CURVE: DTCO  240.000000 40.000000  (0,0,255)      Solid             2     N    
CURVE: DTSM  240.000000 40.000000  (0,131,131)    Dot               2     Y    
BACKUP: 440.000000 240.000000 (0,131,131)    Dot               2    
CURVE: SPHI  0.300000   -0.100000  (255,0,255)    Short_Dash        2     Y    
BACKUP: 0.700000   0.300000   (255,0,255)    Short_Dash        2    
CURVE: HSGR  0.000000   150.000000 (0,0,255)      Solid             2     Y    
BACKUP: 150.000000 300.000000 (0,0,255)      Solid             2    
CURVE: HCGR  0.000000   150.000000 (0,131,131)    Dot               2     N    
CURVE: HCAL  6.000000   16.000000  (255,0,255)    Short_Dash        2     Y    
BACKUP: -4.000000  6.000000   (255,0,255)    Short_Dash        2    
BACKUP: 16.000000  26.000000  (255,0,255)    Short_Dash        2    
ENDTRACK: 
#
#   TRACK 2
#
STARTTRACK: 
 LEFTX: 3.500000 inch
 RIGHTX: 8.500000 inch
 SCALETYPE: Linear
 NUMCHARTDIVISIONS: 10
CURVE: RM_HRLT 0.020000   200.000000 (255,131,0)    Solid             2     N  
CURVE: DPHI  0.300000   -0.100000  (255,0,0)      Solid             2     Y    
BACKUP: 0.700000   0.300000   (255,0,0)      Solid             2    
BACKUP: -0.100000  -0.500000  (255,0,0)      Solid             2    
CURVE: APLC  0.300000   -0.100000  (255,131,0)    Dot               2     Y    
BACKUP: 0.700000   0.300000   (255,131,0)    Dot               2    
BACKUP: 1.100000   0.700000   (255,131,0)    Dot               2    
CURVE: PXND  0.300000   -0.100000  (255,255,0)    Short_Dash        2     Y    
BACKUP: 0.700000   0.300000   (255,255,0)    Short_Dash        2    
ENDTRACK: 
#
#   TRACK 3
#
STARTTRACK: 
 LEFTX: 0.500000 inch
 RIGHTX: 5.500000 inch
 SCALETYPE: Linear
 NUMCHARTDIVISIONS: 10
ENDTRACK: 
#
#   TRACK 4
#
STARTTRACK: 
 LEFTX: 3.500000 inch
 RIGHTX: 6.000000 inch
 SCALETYPE: Linear
 NUMCHARTDIVISIONS: 10
CURVE: PEFZ  0.000000   10.000000  (0,0,255)      Solid             2     N    
ENDTRACK: 
#
#   TRACK 5
#
STARTTRACK: 
 LEFTX: 3.500000 inch
 RIGHTX: 4.750000 inch
 SCALETYPE: Linear
 NUMCHARTDIVISIONS: 10
CURVE: HDRA  -0.050000  0.200000   (0,131,131)    Solid             2     N    
ENDTRACK: 
#
#   TRACK 6
#
STARTTRACK: 
 LEFTX: 3.500000 inch
 RIGHTX: 8.500000 inch
 SCALETYPE: Linear
 NUMCHARTDIVISIONS: 10
CURVE: RHOB  2.000000   3.000000   (255,0,255)    Solid             2     Y    
BACKUP: 1.000000   2.000000   (255,0,255)    Solid             2    
ENDTRACK: 
<DescLogPlotEnd>
~A DEPTH     RM_HRLT             RXOZ             RLA5             RLA4             RLA3             DTCO             DTSM             SPHI             HSGR             HCGR             HCAL             DPHI             PEFZ             HDRA             RHOB             APLC             PXND            
# ...
    6262.000 1.31316348       16.53677543      26.95310728      26.03895382      26.03895382      66.00588813      113.23984314     0.13584800       67.79873646      50.28373772      12.30879389      0.07392360       2.80236606       0.09808896       2.57529412       0.60647059       0.31560693      
    6262.500 1.24377882       17.15110437      14.98520570      13.56962056      13.56962056      67.18351325      114.71403246     0.14510128       80.31475099      60.68476268      12.60671028      0.08628795       2.79891437       0.05916514       2.56225490       0.65078431       0.31938216      
    6263.000 1.19631978       17.98596526      15.25801945      13.94186544      13.94186544      68.16486752      115.58538899     0.15373091       87.13899329      66.81116595      12.85047980      0.09641310       2.76118065       0.07114182       2.55600000       0.64215686       0.31824168      
    6263.500 1.15922108       17.41591716      16.84973865      15.39628323      15.39628323      69.73503435      116.28454973     0.16185400       87.76360607      66.59519875      12.93718022      0.11646316       2.74680094       0.09392958       2.50605882       0.61000000       0.31358049      
    6264.000 1.08263465       14.06820262      20.00000000      20.00000000      21.88806012      70.52011776      116.88770053     0.16558928       86.62606073      67.11147301      12.99660967      0.12546523       2.68058540       0.14113732       2.51288952       0.59823529       0.30726916      
    6264.500 1.00475837       14.06820262      19.11795157      19.11795157      19.11795157      69.73503435      117.54901961     0.16071505       86.99836887      68.51738223      12.17047513      0.10687383       2.63169969       0.17348312       2.51869672       0.59156863       0.30255403      
    6265.000 0.89075278       16.17943659      15.60603165      13.81666282      13.81666282      69.63689892      117.87990196     0.15956756       88.16392667      69.78430255      12.28708843      0.08156887       2.60648972       0.15200719       2.52588622       0.59431373       0.29567780      
    6265.500 0.81565361       17.94804968      14.19568462      13.08870842      12.78871984      69.53876349      118.33333333     0.15947453       89.12144523      70.72047565      9.74511830       0.06865818       2.57463656       0.09513896       2.58754081       0.60686275       0.29115914      
    6266.000 0.74938305       18.11068975      13.56962056      12.85468200      12.78667455      67.96859666      118.69607843     0.14549558       88.52524554      69.95192895      8.56044166       0.07383728       2.61499764       -0.00799112      2.58532568       0.62019608       0.29351670      
    6266.500 0.76306654       20.73485041      14.32432184      14.32432184      14.41068194      66.79097154      118.21568627     0.13886163       86.51484170      69.23990106      8.53226158       0.07104731       2.64503974       -0.00691746      2.58824559       0.62427451       0.29705305      
    6267.000 0.85830761       22.48849831      17.00242613      17.00242613      16.89974057      67.57605496      117.35294118     0.14514884       83.73550328      68.10415554      8.53632598       0.06788038       2.75561676       -0.00704829      2.59604583       0.61588235       0.29273084      
    6267.500 0.90777715       19.82537229      13.94186544      13.44776082      13.44776082      68.30460540      119.66666667     0.15142296       81.13891400      66.18539559      8.53075501       0.06234513       2.76594957       -0.00498295      2.60309410       0.58058824       0.27937132      
    6268.000 0.93184274       18.76596611      14.19203360      14.06820262      14.06820262      68.12356158      122.64705882     0.15024534       79.76640592      64.28024409      8.55020747       0.05683521       2.74413232       -0.00186321      2.60561324       0.58294118       0.27426326      
    6268.500 0.94867416       20.17938111      14.19010379      16.10662437      16.10662437      67.36083542      122.05882353     0.14317959       80.50154257      64.86052551      8.58509366       0.05530122       2.74596470       -0.00057294      2.61228322       0.58764706       0.27426326      
    6269.000 0.94753329       21.65477525      15.36332525      15.39628323      15.39628323      67.37667784      119.55882353     0.14249755       82.61535257      66.25193308      8.61645447       0.05535350       2.79496523       -0.00172413      2.61596181       0.57549020       0.27465619      
    6269.500 0.98185557       17.94804968      17.46884052      17.46884052      17.46884052      68.16486752      117.73202614     0.14946026       83.27151418      65.00231704      8.58663462       0.06166945       2.91129128       -0.00566803      2.61231288       0.56176471       0.27111984      
    6270.000 0.96543605       17.62713812      19.29119295      19.29119295      19.29119295      68.36113837      117.35294118     0.14946026       79.85218564      59.87656153      8.52732409       0.06454456       2.97681840       -0.00869272      2.60569689       0.48607843       0.24891945      
    6270.500 0.94812362       19.64239952      20.00000000      20.00000000      20.00000000      68.16486752      117.35294118     0.15220805       75.78874707      56.38001976      8.51094380       0.06709109       2.99791018       -0.00913192      2.60289121       0.42921569       0.24243615      
    6271.000 0.93112164       23.10540786      15.96198149      15.96198149      15.96198149      68.55740922      116.76470588     0.15063788       77.10061168      56.08716056      8.51419890       0.06591577       2.99609507       -0.00907033      2.60038886       0.45823529       0.24204322      
    6271.500 0.92273532       21.69149800      16.80638055      16.80638055      16.84973865      70.12757605      115.78431373     0.16292177       79.56018944      57.46898372      8.52384072       0.06630754       2.93126823       -0.00617833      2.59783522       0.47862745       0.25658153      
    6272.000 0.91442454       22.28654406      17.16733501      17.16733501      17.15649723      71.10893032      116.37254902     0.16972678       82.81308127      59.70973499      8.52948623       0.06766308       2.88027114       -0.00691145      2.59527006       0.55688456       0.27033399      
    6272.500 0.93658865       20.54864450      16.14586248      16.14586248      16.10662437      72.09028459      116.17647059     0.17651236       84.54682647      60.41349819      8.52948581       0.07016500       2.86739615       -0.00818877      2.59237071       0.58917998       0.27897839      
    6273.000 0.95883060       19.82039330      15.19896076      15.19896076      14.85063353      72.87536801      115.64923747     0.18488868       84.94276135      60.87223067      8.52947014       0.07297069       2.84131113       -0.00930851      2.58855344       0.60144984       0.29862475      
    6273.500 0.98160076       18.99313060      16.25257797      16.25257797      16.10662437      72.87536801      114.79520697     0.18365348       83.96572830      60.47398676      8.52946800       0.07531832       2.82065456       -0.01002790      2.58407336       0.67306667       0.31944990      
    6274.000 1.00101504       20.65302391      15.53579992      15.53579992      15.53579992      72.28655545      113.62745098     0.17681634       82.07347065      60.78515317      8.52118028       0.07665687       2.82404193       -0.01192194      2.58077162       0.67862745       0.32565599      
    6274.500 0.99199922       25.45442274      20.43035124      20.43035124      22.45302468      70.91265947      112.45098039     0.16477466       79.54405926      57.56683618      8.50628282       0.07935357       2.80299970       -0.01442935      2.57701345       0.61862745       0.31665837      
    6275.000 0.94812362       33.17949287      28.17757724      28.17757724      29.47761128      68.06673209      109.50980392     0.14671945       77.98847742      56.51140618      8.49097367       0.08991185       2.80350685       -0.01775313      2.56676502       0.59392157       0.29909135      
