~VERSION INFORMATION
VERS. 2.0 : CWLS Log ASCII Standard - version 2.0
WRAP.  NO : One line per depth step
#--------------------------------------------------#
#----------------DRILLING INFO, INC.---------------#
#---------------WWW.DRILLINGINFO.COM---------------#
#------------------COPYRIGHT 2015------------------#
#--------------------------------------------------#
#THIS FILE MAY BE USED ONLY IN ACCORDANCE WITH A CURRENT SUBSCRIPTION AGREEMENT BETWEEN
#THE USER AND DRILLING INFO, INC. NO PART OF THIS FILE MAY BE REPRODUCED, USED, COPIED,
#MODIFIED, PROPAGATED, OR DISTRIBUTED EXCEPT IN ACCORDANCE WITH THE SUBSCRIPTION
#AGREEMENT. UNAUTHORIZED USE OR DISTRIBUTION OF ALL OR ANY PART OF THIS FILE MAY VIOLATE
#COPYRIGHT, TRADEMARK, AND/OR OTHER LAWS AND IS SUBJECT TO CIVIL AS WELL AS CRIMINAL
#SANCTIONS.
#--------------------------------------------------#
#THIS FILE IS PROVIDED "AS-IS" AND ALL WARRANTIES ARE EXPRESSLY DISCLAIMED, WHETHER
#EXPRESS, ORAL, IMPLIED, STATUTORY OR OTHERWISE, INCLUDING ANY IMPLIED WARRANTY OF FITNESS
#FOR A PARTICULAR PURPOSE, MERCHANTABILITY, TITLE OR NON-INFRINGEMENT, AND ANY WARRANTIES
#ARISING BY VIRTUE OF CUSTOM OF TRADE OR COURSE OF DEALING.  FURTHER, DRILLING INFO,
#INC. AND ITS LICENSORS DO NOT REPRESENT OR WARRANT THAT THIS FILE WILL MEET USER'S
#REQUIREMENTS OR ARE SUITABLE FOR USER'S NEEDS OR THAT THE DATA OR RESULTS PROVIDED IN
#CONJUNCTION THEREWITH ARE CORRECT, ACCURATE, TIMELY OR RELIABLE. THESE DISCLAIMERS SHALL
#APPLY REGARDLESS OF ANY FAILURE OF ESSENTIAL PURPOSE OF ANY LIMITED REMEDY.  SOME
#JURISDICTIONS DO NOT ALLOW THE EXCLUSION OF CERTAIN WARRANTIES SO SOME OF THE ABOVE
#EXCLUSIONS MAY NOT APPLY. IN NO EVENT SHALL DRILLING INFO, INC. OR ANY OF ITS AFFILIATES
#BE LIABLE UNDER ANY LEGAL THEORY, WHETHER IN TORT (INCLUDING WITHOUT LIMITATION
#NEGLIGENCE), CONTRACT, STRICT LIABILITY, STATUTORY OR OTHERWISE, FOR ANY SPECIAL,
#INCIDENTAL, CONSEQUENTIAL, EXEMPLARY, PUNITIVE OR INDIRECT DAMAGE OF ANY KIND, INCLUDING
#WITHOUT LIMITATION LOSS OF REVENUE, PROFITS, GOODWILL, USE, AND/OR DATA OR THE COST OF
#PROCUREMENT OF SUBSTITUTE GOODS OR SERVICES, EVEN IF APPRISED OF THE POSSIBILITY OF SUCH
#DAMAGES IN ADVANCE.
#--------------------------------------------------#
~WELL INFORMATION
#MNEMONIC     .UNIT              VALUE :DESCRIPTION
#--------------------------------------------------#
STRT       .FT                4 :START DEPTH
STOP       .FT                10042 :STOP DEPTH
STEP       .FT                   0.500 :STEP
NULL       .                  -999.250 :NULL
API        .                421093139500 :API NUMBER
COMP       .         MOBIL OIL CORPORATION :COMPANY
WELL       .        MADERA-BROMAN  1 :WELL
DATE       .                27-Jun-1979 :LOG DATE
~CURVE INFORMATION
#MNEMONIC     .UNIT      API CODE :CURVE DESCRIPTION
#--------------------------------------------------#
DEPTH       .FT                      :Measured Depth
DT.US/FT        UNKNOWN   :DT
GR.API        UNKNOWN   :GR
CAL.INCH        UNKNOWN   :CAL
~A    DEPTH    DT    GR    CAL
# ...
 5874     7.645   58.69   12.953
 5874.5     6.187   61.276   12.949
 5875     4.729   60.096   12.946
 5875.5     3.27   57.348   12.942
 5876     1.812   54.601   12.939
 5876.5     2.664   51.971   12.936
 5877     6.111   49.601   12.932
 5877.5     9.559   47.23   12.929
 5878     10.905   44.86   12.926
 5878.5     10.87   48.105   12.924
 5879     10.834   52.739   12.926
 5879.5     10.799   54.09   12.928
 5880     10.764   55.193   12.93
 5880.5     10.537   56.296   12.932
 5881     8.636   57.399   12.934
 5881.5     6.53   58.502   12.936
 5882     3.641   59.605   12.938
 5882.5     0.753   58.745   12.939
 5883     -2.136   53.706   12.941
 5883.5     -1.435   48.666   12.943
 5884     0.453   43.627   12.945
 5884.5     2.342   38.588   12.947
 5885     4.23   34.982   12.949
 5885.5     6.118   39.078   12.951
 5886     6.257   43.174   12.953
 5886.5     4.915   47.27   12.955
 5887     3.573   51.366   12.957
 5887.5     2.231   49.832   12.959
 5888     3.215   46.437   12.961
 5888.5     4.639   43.042   12.963
 5889     6.062   44.698   12.965
 5889.5     6.521   46.974   12.967
 5890     5.822   49.249   12.969
 5890.5     5.122   51.524   12.971
 5891     4.423   53.799   12.973
 5891.5     3.724   53.166   12.975
 5892     3.077   51.315   12.977
 5892.5     4.65   49.463   12.979
 5893     6.223   47.612   12.981
 5893.5     6.706   45.761   12.983
 5894     6.283   46.895   12.985
 5894.5     5.861   48.619   12.987
 5895     5.438   49.935   12.989
 5895.5     5.067   49.789   12.991
 5896     5.595   49.643   12.993
 5896.5     6.124   49.497   12.995
 5897     5.394   49.351   12.997
 5897.5     4.576   54.349   12.998
 5898     4.173   54.397   13
 5898.5     4.309   53.552   13.002
 5899     4.446   52.707   13.004
 5899.5     4.364   51.862   13.006
 5900     3.51   51.017   13.008
 5900.5     2.656   50.172   13.01
 5901     1.801   51.197   13.012
 5901.5     0.947   52.785   13.014
 5902     0.093   50.256   13.016
 5902.5     0.152   46.71   13.018
 5903     1.053   43.164   13.02
 5903.5     1.954   39.618   13.022
 5904     2.856   39.372   13.024
 5904.5     2.701   42.446   13.026
 5905     2.496   45.52   13.028
 5905.5     2.29   48.594   13.03
 5906     2.085   48.888   13.032
 5906.5     1.879   47.753   13.034
 5907     1.674   46.617   13.036
 5907.5     2.504   45.482   13.038
 5908     3.599   44.347   13.034
 5908.5     4.695   43.696   13.029
 5909     5.791   45.503   13.024
 5909.5     6.177   47.309   13.02
 5910     6.202   49.116   13.015
 5910.5     6.226   50.923   13.01
 5911     6.251   52.729   13.006
 5911.5     6.276   54.536   13.001
 5912     6.3   51.978   12.996
 5912.5     6.325   53.028   12.992
 5913     6.35   54.077   12.987
 5913.5     6.225   55.127   12.982
 5914     6.049   56.176   12.978
 5914.5     5.219   57.226   12.973
 5915     4.235   58.276   12.968
 5915.5     3.251   57.844   12.964
 5916     2.268   53.818   12.959
 5916.5     3.24   49.792   12.954
 5917     4.317   45.766   12.95
 5917.5     5.394   46.654   12.945
 5918     6.124   49.918   12.94
 5918.5     5.99   52.671   12.936
 5919     5.857   51.784   12.935
 5919.5     5.724   50.897   12.935
 5920     5.591   50.538   12.934
 5920.5     5.458   51.011   12.933
 5921     5.324   51.484   12.932
 5921.5     5.191   51.957   12.932
 5922     5.058   52.43   12.931
 5922.5     4.929   52.903   12.93
 5923     4.96   53.376   12.929
 5923.5     4.991   53.821   12.929
 5924     5.022   53.597   12.928
 5924.5     5.052   53.373   12.927
 5925     5.083   53.15   12.926
 5925.5     5.114   52.926   12.926
 5926     5.145   52.702   12.925
 5926.5     5.175   52.479   12.924
 5927     5.224   52.255   12.923
 5927.5     5.308   52.031   12.923
 5928     5.392   51.807   12.922
 5928.5     5.476   51.584   12.921
 5929     5.56   51.527   12.92
 5929.5     5.644   52.048   12.92
 5930     5.728   52.569   12.919
 5930.5     5.812   53.089   12.918
 5931     5.895   53.61   12.917
 5931.5     5.979   54.13   12.917
 5932     6.063   54.651   12.916
 5932.5     6.147   55.172   12.915
 5933     5.902   55.692   12.914
 5933.5     5.495   56.213   12.914
 5934     5.088   54.31   12.913
 5934.5     4.681   52.082   12.912
 5935     4.273   50.11   12.911
 5935.5     4.495   51.053   12.911
 5936     4.815   51.996   12.91
 5936.5     5.134   52.94   12.909
 5937     5.453   53.883   12.908
 5937.5     5.773   54.826   12.908
 5938     6.092   55.769   12.907
 5938.5     6.412   57.489   12.906
 5939     6.293   60.135   12.905
 5939.5     5.351   62.78   12.905
 5940     4.409   65.426   12.904
 5940.5     3.467   68.072   12.903
 5941     5.865   70.717   12.902
 5941.5     11.92   73.363   12.902
 5942     17.976   75.567   12.901
 5942.5     46.966   77.035   12.9
 5943     51.452   78.503   12.899
 5943.5     52.635   79.972   12.899
 5944     53.007   81.44   12.898
 5944.5     53.379   82.908   12.897
 5945     53.641   79.096   12.896
 5945.5     53.409   69.27   12.896
 5946     53.177   59.444   12.895
 5946.5     52.945   49.618   12.894
 5947     52.713   39.792   12.893
 5947.5     53.765   29.966   12.893
 5948     53.992   28.937   12.892
 5948.5     53.6   30.309   12.891
 5949     53.209   31.681   12.892
 5949.5     52.817   31.6   12.892
 5950     52.425   30.047   12.892
 5950.5     52.033   28.493   12.892
 5951     51.641   26.94   12.893
 5951.5     51.743   25.387   12.893
 5952     51.914   23.833   12.893
 5952.5     52.067   22.28   12.894
 5953     51.78   22.546   12.894
 5953.5     51.493   24.135   12.894
 5954     51.206   25.723   12.894
 5954.5     50.92   27.312   12.895
 5955     50.967   34.477   12.895
 5955.5     53.35   44.684   12.895
 5956     55.733   54.89   12.895
 5956.5     58.115   62.297   12.896
 5957     60.498   59.481   12.896
 5957.5     62.881   56.666   12.896
 5958     65.264   53.85   12.896
 5958.5     67.647   51.034   12.897
 5959     67.084   48.218   12.897
 5959.5     64.201   49.442   12.897
 5960     61.318   53.949   12.897
 5960.5     58.435   58.456   12.898
 5961     56.772   62.962   12.898
 5961.5     59.243   67.469   12.897
 5962     61.714   71.976   12.895
 5962.5     64.185   71.177   12.893
 5963     66.656   70.001   12.892
 5963.5     68.373   68.824   12.89
 5964     61.537   67.648   12.888
 5964.5     61.281   67.312   12.886
 5965     61.025   67.172   12.884
 5965.5     60.769   67.033   12.883
 5966     60.563   66.894   12.881
 5966.5     60.92   66.755   12.879
 5967     61.277   66.615   12.877
 5967.5     61.635   66.476   12.876
 5968     61.992   66.682   12.874
 5968.5     62.35   67.437   12.872
 5969     62.112   68.192   12.87
 5969.5     61.547   68.947   12.868
 5970     60.982   69.701   12.867
 5970.5     60.418   70.456   12.865
 5971     59.853   70.934   12.863
 5971.5     59.288   71.008   12.861
 5972     58.723   71.083   12.86
 5972.5     59.901   71.157   12.858
 5973     61.623   71.232   12.856
 5973.5     63.219   70.661   12.854
 5974     62.582   69.816   12.852
 5974.5     61.945   68.971   12.851
 5975     61.308   68.127   12.849
 5975.5     60.88   68.423   12.847
 5976     60.69   69.473   12.845
 5976.5     60.362   70.523   12.844
 5977     59.365   71.574   12.844
 5977.5     58.694   72.624   12.844
 5978     58.4   71.662   12.844
 5978.5     58.105   70.651   12.844
 5979     57.811   69.641   12.844
 5979.5     57.516   68.63   12.844
 5980     57.222   68.01   12.844
 5980.5     56.928   69.194   12.844
 5981     56.633   70.379   12.844
 5981.5     57.37   70.922   12.844
 5982     58.987   70.923   12.845
 5982.5     60.603   70.924   12.845
 5983     62.219   70.816   12.845
 5983.5     62.713   70.194   12.845
 5984     62.997   69.572   12.845
 5984.5     63.282   68.95   12.845
 5985     63.566   68.328   12.845
 5985.5     63.85   67.706   12.845
 5986     66.115   67.148   12.845
 5986.5     68.637   67.774   12.845
 5987     68.839   68.4   12.845
 5987.5     68.787   69.026   12.193
