~Version Information
 VERS.                  2.0:   CWLS log ASCII Standard -VERSION 2.0
 WRAP.                   NO:   One line per depth step
~Well Information Block
#MNEM.UNIT     VALUE/NAME     DESCRIPTION
#---------     -----------    ---------------------------
 STRT.F              8432.0000: START DEPTH
 STOP.F             13842.0000: STOP DEPTH
 STEP.F                 0.5000: STEP DEPTH
 NULL.                 -999.25: NULL VALUE
 LOC .     100' FNL & 990' FEL:  LOCATION
 FL6 .       API  42-109-33163:  LOCATIONLINE6
 FL4 .           ABSTRACT 1006:  LOCATIONLINE4
 FL3 .        T&P RR CO SURVEY:  LOCATIONLINE3
 FL2 .     SECTION 36, BLOCK 59 T2:  LOCATIONLINE2
 FL1 .     100' FNL & 990' FEL:  LOCATIONLINE1
 DMF .                      KB:  DRILL MEAS FROM
 PDAT.                      GL:  PERMANENT DATUM
 CNTY.               CULBERSON:  COUNTY NAME
 FLD .     FORD, WEST (WOLFCAMP):  FIELD NAME
 WELL.         SCOTT FEE 36 2H:  WELL NAME
 COMP.     CAPITAN ENERGY INC.:  COMPANY
 DATE.             11-Oct-2017:  DATE
 SVCO.             Halliburton:  SERVICECONAME
 PROV.                   TEXAS:  PROVINCE
 STAT.                   TEXAS:  STATE NAME
 CTRY.           UNITED STATES:  COUNTRY NAME
 HIDE.                        :  WELLNAMEOPERAT
 BASI.                 PERMIAN:  BASIN
 UWI .            42-109-33163Lat:  UNIQUE WELL IDENTIFIER
 API .            42-109-33163Lat:  API NUMBER
 RANG.                     N/A:  RANGE
 TOWN.                     N/A:  TOWNSHIP
 SECT.                     N/A:  SECTION
 SON .               904352259:  JOB NUMBER
 SRVC.             Halliburton:  SERVICE COMPANY
 LMF .                      KB:  LOG MEASURED FROM
 EGL .ft             3174.0000:  GROUND ELEVATION
 BAP .ft                0.0000:  GL ELEV ONSHORE
 GVFD.g                 1.0000:  GRAVITY FIELD
 EKB .ft             3200.0000:  KB ELEVATION
 EDF .ft             3199.0000:  DF ELEVATION
~Curve Information Block
#MNEM.UNIT                 API CODE     Curve Description
#---------               -----------    ---------------------------
 DEPT.F                 00 000 000 000:  Depth
 CCL .V                 00 000 000 000:  Casing Collar Locator
 NPHI_OH.pu             00 000 000 000:  NPHI_OH
 NPHI_CHI.pu            00 000 000 000:  NPHI_CHI
 GR_CHI.api             00 000 000 000:  GR_CHI
 GR_OH.api              00 000 000 000:  GR_OH
 RHOB_OH.g/cc           00 000 000 000:  RHOB_OH
 RHOB_CHI.g/cc          00 000 000 000:  RHOB_CHI
 PE_CHI.b/e             00 000 000 000:  PE_CHI
 PE_OH.b/e              00 000 000 000:  PE_OH
 MSFL_OH.ohmm           00 000 000 000:  MSFL_OH
 MSFL_CHI.ohmm          00 000 000 000:  MSFL_CHI
 LLS_OH.ohmm            00 000 000 000:  LLS_OH
 LLS_CHI.ohmm           00 000 000 000:  LLS_CHI
 LLD_OH.ohmm            00 000 000 000:  LLD_OH
 LLD_CHI.ohmm           00 000 000 000:  LLD_CHI
 DTC_OH.uspf            00 000 000 000:  DTC_OH
 DTC_CHI.uspf           00 000 000 000:  DTC_CHI
 SPHI_CHI.pu            00 000 000 000:  SPHI_CHI
 SGF .cu                00 000 000 000:  Formation Sigma
 CRNF.NONE              00 000 000 000:  CM GrsCaptRatio
 RIN .NONE              00 000 000 000:  CM GrsInelRatio
~A    DEPT      CCL   NPHI_OH NPHI_CHI  GR_CHI   GR_OH   RHOB_OH RHOB_CHI PE_CHI  PE_OH   MSFL_OH  MSFL_CHI  LLS_OH   LLS_CHI   LLD_OH  LLD_CHI  DTC_OH  DTC_CHI SPHI_CHI   SGF    CRNF   RIN   
# ...
    9503.0000  0.0000 -999.25  15.2950  95.6298  -999.25 -999.25   2.5357 3.3343 -999.25   -999.25  37.1464   -999.25  44.5556  -999.25  45.0043 -999.25 70.5721  16.1200 24.9943 1.0226 1.0282
    9503.5000  0.0000 -999.25  15.4652 100.2786  -999.25 -999.25   2.5293 3.2917 -999.25   -999.25  36.1425   -999.25  43.1872  -999.25  43.6130 -999.25 70.9634  16.4400 25.2194 1.0171 1.0265
    9504.0000  0.0000 -999.25  15.4300 100.2499  -999.25 -999.25   2.5288 3.2779 -999.25   -999.25  35.1166   -999.25  41.7942  -999.25  42.1970 -999.25 70.8993  16.4900 25.3459 1.0205 1.0248
    9504.5000  0.0000 -999.25  15.2492  96.6635  -999.25 -999.25   2.5330 3.2898 -999.25   -999.25  34.4611   -999.25  40.9071  -999.25  41.2954 -999.25 70.4805  16.2700 25.2469 1.0330 1.0239
    9505.0000  0.0000 -999.25  15.1936  95.4919  -999.25 -999.25   2.5339 3.2881 -999.25   -999.25  34.0982   -999.25  40.4169  -999.25  40.7972 -999.25 70.2997  16.0900 25.0330 1.0418 1.0265
    9505.5000  0.0000 -999.25  15.1208  92.2251  -999.25 -999.25   2.5376 3.3107 -999.25   -999.25  34.3819   -999.25  40.8000  -999.25  41.1866 -999.25 70.1546  15.9800 24.7189 1.0445 1.0281
    9506.0000  0.0000 -999.25  15.1043  89.4707  -999.25 -999.25   2.5409 3.3372 -999.25   -999.25  35.0031   -999.25  41.6403  -999.25  42.0406 -999.25 70.2162  15.9800 24.4866 1.0426 1.0278
    9506.5000  0.0000 -999.25  15.2623  92.5239  -999.25 -999.25   2.5381 3.3356 -999.25   -999.25  35.9356   -999.25  42.9057  -999.25  43.3268 -999.25 70.5830  16.1800 24.3404 1.0421 1.0259
    9507.0000  0.0000 -999.25  15.2163  91.1919  -999.25 -999.25   2.5403 3.3566 -999.25   -999.25  36.6412   -999.25  43.8663  -999.25  44.3034 -999.25 70.5513  16.2400 24.1907 1.0417 1.0248
    9507.5000  0.0000 -999.25  14.9902  85.5118  -999.25 -999.25   2.5465 3.3907 -999.25   -999.25  37.0924   -999.25  44.4818  -999.25  44.9292 -999.25 70.1353  16.0300 24.1366 1.0443 1.0300
    9508.0000  0.0000 -999.25  14.9679  83.7745  -999.25 -999.25   2.5476 3.3918 -999.25   -999.25  37.5601   -999.25  45.1210  -999.25  45.5792 -999.25 69.9843  15.8600 24.1570 1.0470 1.0391
    9508.5000  0.0000 -999.25  15.0741  84.1810  -999.25 -999.25   2.5459 3.3705 -999.25   -999.25  37.7306   -999.25  45.3542  -999.25  45.8164 -999.25 69.9679  15.8200 24.2123 1.0552 1.0502
    9509.0000  0.0000 -999.25  15.3421  88.1443  -999.25 -999.25   2.5404 3.3307 -999.25   -999.25  37.6662   -999.25  45.2661  -999.25  45.7268 -999.25 70.2578  15.9600 24.4971 1.0635 1.0583
    9509.5000  0.0000 -999.25  15.5494  92.5945  -999.25 -999.25   2.5349 3.2998 -999.25   -999.25  37.4922   -999.25  45.0282  -999.25  45.4849 -999.25 70.6048  16.2000 24.7565 1.0684 1.0599
    9510.0000  0.0000 -999.25  15.7677  98.6431  -999.25 -999.25   2.5271 3.2609 -999.25   -999.25  36.6090   -999.25  43.8224  -999.25  44.2588 -999.25 71.1855  16.5600 24.8249 1.0620 1.0553
    9510.5000  0.0000 -999.25  15.7974  99.4358  -999.25 -999.25   2.5259 3.2564 -999.25   -999.25  35.8227   -999.25  42.7522  -999.25  43.1708 -999.25 71.4211  16.8000 24.7599 1.0571 1.0477
    9511.0000  0.0000 -999.25  15.4731  88.9139  -999.25 -999.25   2.5386 3.3185 -999.25   -999.25  35.6181   -999.25  42.4745  -999.25  42.8884 -999.25 70.8351  16.5600 24.5439 1.0642 1.0433
    9511.5000  0.0000 -999.25  15.2094  84.3968  -999.25 -999.25   2.5446 3.3533 -999.25   -999.25  35.8125   -999.25  42.7384  -999.25  43.1567 -999.25 70.4138  16.2200 24.5076 1.0754 1.0408
    9512.0000  0.0000 -999.25  15.3040  87.4375  -999.25 -999.25   2.5417 3.3439 -999.25   -999.25  36.4659   -999.25  43.6274  -999.25  44.0605 -999.25 70.5128  16.1800 24.7130 1.0846 1.0422
    9512.5000  0.0000 -999.25  15.4795  90.5371  -999.25 -999.25   2.5380 3.3258 -999.25   -999.25  36.5768   -999.25  43.7786  -999.25  44.2142 -999.25 70.8588  16.3800 24.9331 1.0836 1.0419
    9513.0000  0.0000 -999.25  15.6572  92.9120  -999.25 -999.25   2.5340 3.3000 -999.25   -999.25  35.9533   -999.25  42.9299  -999.25  43.3514 -999.25 71.2415  16.6400 25.2777 1.0756 1.0421
    9513.5000  0.0000 -999.25  15.9248 100.1164  -999.25 -999.25   2.5243 3.2498 -999.25   -999.25  35.2970   -999.25  42.0387  -999.25  42.4455 -999.25 71.9028  17.0500 25.4314 1.0596 1.0412
    9514.0000  0.0000 -999.25  15.7709  94.6241  -999.25 -999.25   2.5301 3.2688 -999.25   -999.25  34.2934   -999.25  40.6804  -999.25  41.0650 -999.25 71.5281  17.0000 25.3928 1.0527 1.0406
    9514.5000  0.0000 -999.25  15.6553  92.0226  -999.25 -999.25   2.5328 3.2756 -999.25   -999.25  33.8550   -999.25  40.0888  -999.25  40.4639 -999.25 71.1919  16.7600 25.3461 1.0549 1.0434
    9515.0000  0.0000 -999.25  15.5872  92.8282  -999.25 -999.25   2.5323 3.2712 -999.25   -999.25  33.9646   -999.25  40.2366  -999.25  40.6140 -999.25 70.9157  16.5500 25.2153 1.0636 1.0472
    9515.5000  0.0000 -999.25  15.6087  94.1370  -999.25 -999.25   2.5306 3.2609 -999.25   -999.25  34.0976   -999.25  40.4161  -999.25  40.7964 -999.25 70.8540  16.4600 25.1212 1.0725 1.0519
    9516.0000  0.0000 -999.25  15.8922 103.5702  -999.25 -999.25   2.5189 3.2059 -999.25   -999.25  34.4730   -999.25  40.9231  -999.25  41.3116 -999.25 71.5072  16.7700 25.0631 1.0718 1.0578
    9516.5000  0.0000 -999.25  15.9899 104.4078  -999.25 -999.25   2.5174 3.1985 -999.25   -999.25  34.7456   -999.25  41.2918  -999.25  41.6863 -999.25 71.7334  17.0200 24.9723 1.0673 1.0604
    9517.0000  0.0000 -999.25  16.1529 110.8619  -999.25 -999.25   2.5102 3.1669 -999.25   -999.25  34.9150   -999.25  41.5210  -999.25  41.9193 -999.25 72.3387  17.3700 24.9485 1.0570 1.0581
    9517.5000  0.0000 -999.25  16.1057 110.3223  -999.25 -999.25   2.5118 3.1804 -999.25   -999.25  35.1814   -999.25  41.8819  -999.25  42.2861 -999.25 72.2919  17.4700 24.9939 1.0515 1.0525
    9518.0000  0.0000 -999.25  15.9661 107.3661  -999.25 -999.25   2.5164 3.2102 -999.25   -999.25  35.2515   -999.25  41.9770  -999.25  42.3828 -999.25 72.0153  17.3300 25.0021 1.0514 1.0438
    9518.5000  0.0000 -999.25  15.8627 106.2195  -999.25 -999.25   2.5182 3.2184 -999.25   -999.25  35.1178   -999.25  41.7958  -999.25  42.1986 -999.25 71.7360  17.1300 24.9876 1.0569 1.0429
    9519.0000  0.0000 -999.25  15.7892 103.3068  -999.25 -999.25   2.5214 3.2306 -999.25   -999.25  35.0937   -999.25  41.7631  -999.25  42.1654 -999.25 71.4361  16.9200 24.8391 1.0589 1.0466
    9519.5000  0.0000 -999.25  15.8993 108.0305  -999.25 -999.25   2.5157 3.2011 -999.25   -999.25  35.1363   -999.25  41.8209  -999.25  42.2241 -999.25 71.7344  17.0000 24.5962 1.0543 1.0498
    9520.0000  0.0000 -999.25  15.9905 110.5513  -999.25 -999.25   2.5129 3.1900 -999.25   -999.25  35.5758   -999.25  42.4170  -999.25  42.8300 -999.25 72.0045  17.2000 24.5362 1.0464 1.0507
    9520.5000  0.0000 -999.25  16.0286 112.3893  -999.25 -999.25   2.5118 3.1903 -999.25   -999.25  36.3066   -999.25  43.4104  -999.25  43.8399 -999.25 72.1609  17.3400 24.6269 1.0412 1.0489
    9521.0000  0.0000 -999.25  16.0011 112.3823  -999.25 -999.25   2.5121 3.1925 -999.25   -999.25  36.4894   -999.25  43.6594  -999.25  44.0930 -999.25 72.0674  17.3200 24.7523 1.0437 1.0498
    9521.5000  0.0000 -999.25  15.7758 102.5976  -999.25 -999.25   2.5230 3.2419 -999.25   -999.25  36.2134   -999.25  43.2836  -999.25  43.7110 -999.25 71.2774  16.9100 24.9027 1.0533 1.0521
    9522.0000  0.0000 -999.25  15.9984 117.6549  -999.25 -999.25   2.5066 3.1555 -999.25   -999.25  35.8353   -999.25  42.7694  -999.25  43.1882 -999.25 72.1368  17.1700 25.0598 1.0638 1.0529
    9522.5000  0.0000 -999.25  15.8995 111.1283  -999.25 -999.25   2.5129 3.1882 -999.25   -999.25  35.3869   -999.25  42.1607  -999.25  42.5695 -999.25 71.7773  17.1700 25.0385 1.0586 1.0504
    9523.0000  0.0000 -999.25  15.9197 109.4531  -999.25 -999.25   2.5141 3.1936 -999.25   -999.25  34.9246   -999.25  41.5341  -999.25  41.9326 -999.25 71.8652  17.1400 25.0135 1.0513 1.0472
    9523.5000  0.0000 -999.25  15.9839 108.9915  -999.25 -999.25   2.5142 3.1956 -999.25   -999.25  34.9869   -999.25  41.6185  -999.25  42.0184 -999.25 72.0474  17.2500 24.7954 1.0374 1.0463
