~VERSION INFORMATION
VERS. 2.0 : CWLS Log ASCII Standard - version 2.0
WRAP.  NO : One line per depth step
#--------------------------------------------------#
#----------------DRILLING INFO, INC.---------------#
#---------------WWW.DRILLINGINFO.COM---------------#
#------------------COPYRIGHT 2015------------------#
#--------------------------------------------------#
#THIS FILE MAY BE USED ONLY IN ACCORDANCE WITH A CURRENT SUBSCRIPTION AGREEMENT BETWEEN
#THE USER AND DRILLING INFO, INC. NO PART OF THIS FILE MAY BE REPRODUCED, USED, COPIED,
#MODIFIED, PROPAGATED, OR DISTRIBUTED EXCEPT IN ACCORDANCE WITH THE SUBSCRIPTION
#AGREEMENT. UNAUTHORIZED USE OR DISTRIBUTION OF ALL OR ANY PART OF THIS FILE MAY VIOLATE
#COPYRIGHT, TRADEMARK, AND/OR OTHER LAWS AND IS SUBJECT TO CIVIL AS WELL AS CRIMINAL
#SANCTIONS.
#--------------------------------------------------#
#THIS FILE IS PROVIDED "AS-IS" AND ALL WARRANTIES ARE EXPRESSLY DISCLAIMED, WHETHER
#EXPRESS, ORAL, IMPLIED, STATUTORY OR OTHERWISE, INCLUDING ANY IMPLIED WARRANTY OF FITNESS
#FOR A PARTICULAR PURPOSE, MERCHANTABILITY, TITLE OR NON-INFRINGEMENT, AND ANY WARRANTIES
#ARISING BY VIRTUE OF CUSTOM OF TRADE OR COURSE OF DEALING.  FURTHER, DRILLING INFO,
#INC. AND ITS LICENSORS DO NOT REPRESENT OR WARRANT THAT THIS FILE WILL MEET USER'S
#REQUIREMENTS OR ARE SUITABLE FOR USER'S NEEDS OR THAT THE DATA OR RESULTS PROVIDED IN
#CONJUNCTION THEREWITH ARE CORRECT, ACCURATE, TIMELY OR RELIABLE. THESE DISCLAIMERS SHALL
#APPLY REGARDLESS OF ANY FAILURE OF ESSENTIAL PURPOSE OF ANY LIMITED REMEDY.  SOME
#JURISDICTIONS DO NOT ALLOW THE EXCLUSION OF CERTAIN WARRANTIES SO SOME OF THE ABOVE
#EXCLUSIONS MAY NOT APPLY. IN NO EVENT SHALL DRILLING INFO, INC. OR ANY OF ITS AFFILIATES
#BE LIABLE UNDER ANY LEGAL THEORY, WHETHER IN TORT (INCLUDING WITHOUT LIMITATION
#NEGLIGENCE), CONTRACT, STRICT LIABILITY, STATUTORY OR OTHERWISE, FOR ANY SPECIAL,
#INCIDENTAL, CONSEQUENTIAL, EXEMPLARY, PUNITIVE OR INDIRECT DAMAGE OF ANY KIND, INCLUDING
#WITHOUT LIMITATION LOSS OF REVENUE, PROFITS, GOODWILL, USE, AND/OR DATA OR THE COST OF
#PROCUREMENT OF SUBSTITUTE GOODS OR SERVICES, EVEN IF APPRISED OF THE POSSIBILITY OF SUCH
#DAMAGES IN ADVANCE.
#--------------------------------------------------#
~WELL INFORMATION
#MNEMONIC     .UNIT              VALUE :DESCRIPTION
#--------------------------------------------------#
STRT       .FT                0 :START DEPTH
STOP       .FT                10142 :STOP DEPTH
STEP       .FT                   0.500 :STEP
NULL       .                  -999.250 :NULL
API        .                421093138200 :API NUMBER
COMP       .         SHELL OIL COMPANY :COMPANY
WELL       .        SIBLEY  1 :WELL
DATE       .                08-Aug-1978 :LOG DATE
~CURVE INFORMATION
#MNEMONIC     .UNIT      API CODE :CURVE DESCRIPTION
#--------------------------------------------------#
DEPTH       .FT                      :Measured Depth
CAL.INCH        UNKNOWN   :CAL
DT.US/FT        UNKNOWN   :DT
GR.API        UNKNOWN   :GR
~A    DEPTH    CAL    DT    GR
# ...
 8628.5     10.338   49.023   23.551
 8629     10.364   50.103   23.027
 8629.5     10.359   50.688   24.783
 8630     10.301   50.131   39.815
 8630.5     10.244   49.65   55.332
 8631     10.186   49.891   70.848
 8631.5     10.129   50.132   73.16
 8632     10.071   50.373   65.815
 8632.5     10.014   50.614   58.469
 8633     10.045   50.855   60.487
 8633.5     10.083   51.274   64.053
 8634     10.121   51.939   67.249
 8634.5     10.16   52.604   57.95
 8635     10.198   52.631   48.651
 8635.5     10.236   52.123   39.353
 8636     10.429   51.615   36.856
 8636.5     10.662   51.107   42.478
 8637     10.895   50.599   48.1
 8637.5     11.127   50.466   52.259
 8638     10.905   50.62   47.913
 8638.5     10.443   50.774   43.567
 8639     9.981   50.928   39.221
 8639.5     9.519   51.082   34.875
 8640     9.473   51.236   33.18
 8640.5     9.453   51.294   33.268
 8641     9.478   51.172   33.869
 8641.5     9.522   51.05   36.069
 8642     9.566   51.017   38.269
 8642.5     9.61   51.057   40.469
 8643     9.655   51.098   42.669
 8643.5     9.712   51.243   43.219
 8644     9.855   51.917   40.315
 8644.5     9.999   52.179   40.059
 8645     10.124   51.918   40.783
 8645.5     10.061   51.658   41.407
 8646     9.998   51.398   41.306
 8646.5     9.935   51.137   41.204
 8647     9.872   51.087   41.103
 8647.5     9.809   51.042   41.001
 8648     9.77   50.996   40.899
 8648.5     9.825   50.95   40.798
 8649     9.881   51.196   37.677
 8649.5     9.936   51.753   33.962
 8650     9.991   52.31   30.248
 8650.5     10.012   52.769   26.533
 8651     10.022   51.239   22.818
 8651.5     10.031   50.742   19.103
 8652     10.041   50.271   18.852
 8652.5     10.05   49.8   18.69
 8653     10.059   49.329   18.675
 8653.5     10.083   48.858   18.925
 8654     10.108   48.388   19.176
 8654.5     10.083   48.629   19.426
 8655     10.032   48.97   19.113
 8655.5     9.982   49.31   16.139
 8656     9.931   49.407   13.758
 8656.5     9.88   49.224   11.801
 8657     9.843   49.041   9.844
 8657.5     9.834   48.857   9.507
 8658     9.825   48.674   9.936
 8658.5     9.872   49.463   10.364
 8659     9.931   50.263   10.792
 8659.5     9.99   50.278   10.444
 8660     10.017   49.924   9.853
 8660.5     9.925   49.571   9.262
 8661     9.833   49.218   8.671
 8661.5     9.74   48.901   8.286
 8662     9.697   48.704   8.374
 8662.5     9.693   48.506   8.462
 8663     9.689   48.309   9.556
 8663.5     9.941   48.111   10.704
 8664     10.27   47.914   11.852
 8664.5     10.599   47.717   11.732
 8665     10.616   47.519   10.631
 8665.5     10.522   47.548   9.529
 8666     10.428   47.587   8.888
 8666.5     10.333   47.625   8.91
 8667     10.239   47.664   8.933
 8667.5     10.235   47.703   8.955
 8668     10.234   47.741   8.977
 8668.5     10.232   47.78   7.728
 8669     10.231   47.819   8.263
 8669.5     10.23   47.857   8.981
 8670     10.228   47.896   9.7
 8670.5     10.227   47.935   10.154
 8671     10.226   47.973   9.844
 8671.5     10.221   47.91   9.534
 8672     10.128   47.768   9.224
 8672.5     10.035   47.625   10.093
 8673     9.942   47.596   10.563
 8673.5     9.849   48.009   9.539
 8674     9.756   48.422   8.515
 8674.5     9.663   48.836   9.031
 8675     9.643   49.249   9.674
 8675.5     9.633   49.629   10.317
 8676     9.623   49.596   10.951
 8676.5     9.613   49.563   10.401
 8677     9.604   49.53   9.85
 8677.5     9.594   49.496   9.3
 8678     9.584   49.463   8.75
 8678.5     9.574   49.43   8.233
 8679     9.541   49.066   8.937
 8679.5     9.501   48.663   9.641
 8680     9.46   48.259   10.344
 8680.5     9.42   47.855   10.531
 8681     9.38   48.078   10.657
 8681.5     9.355   48.303   10.782
 8682     9.348   48.527   10.908
 8682.5     9.365   48.731   11.034
 8683     9.388   48.363   10.643
 8683.5     9.41   48.216   10.209
 8684     9.433   48.458   9.776
 8684.5     9.339   48.699   9.676
 8685     9.229   48.94   9.889
 8685.5     9.19   48.939   10.102
 8686     9.192   48.929   10.316
 8686.5     9.193   48.919   9.984
 8687     9.195   48.909   9.281
 8687.5     9.197   48.899   8.578
 8688     9.199   48.889   8.297
 8688.5     9.227   48.958   8.536
 8689     9.283   49.319   8.776
 8689.5     9.339   49.68   8.634
 8690     9.396   49.833   8.415
 8690.5     9.437   49.633   8.197
 8691     9.446   49.433   7.978
 8691.5     9.455   49.233   7.759
 8692     9.464   49.033   7.54
 8692.5     9.473   48.834   7.66
 8693     9.482   48.711   8.061
 8693.5     9.532   48.873   8.462
 8694     9.782   49.034   8.863
 8694.5     10.032   49.195   9.264
 8695     10.243   49.357   9.665
 8695.5     10.168   49.518   9.696
 8696     10.093   49.679   8.747
 8696.5     10.018   49.696   7.798
 8697     9.943   49.521   7.507
 8697.5     9.93   49.347   8.253
 8698     10.057   49.173   9
 8698.5     10.306   48.999   9.746
 8699     10.556   48.824   10.493
 8699.5     10.688   48.65   11.239
 8700     10.555   48.476   11.096
 8700.5     10.345   48.209   10.856
 8701     10.136   47.878   10.617
 8701.5     9.926   47.547   10.377
 8702     9.743   47.217   10.138
 8702.5     9.725   46.886   9.899
 8703     9.725   46.561   9.659
 8703.5     9.799   46.722   9.878
 8704     9.872   46.883   10.189
 8704.5     9.946   47.045   10.037
 8705     9.857   47.206   9.379
 8705.5     9.736   47.368   8.721
 8706     9.717   47.529   8.063
 8706.5     9.912   47.611   7.405
 8707     10.108   47.428   6.747
 8707.5     10.304   47.245   7.202
 8708     10.378   47.062   8.108
 8708.5     10.288   47.117   9.015
 8709     10.198   47.208   9.922
 8709.5     10.107   47.184   10.829
 8710     10.017   47.087   11.736
 8710.5     9.927   46.989   12.642
 8711     9.836   46.993   13.549
 8711.5     9.786   47.021   14.456
 8712     9.752   47.049   15.363
 8712.5     9.717   47.077   16.269
 8713     9.683   47.105   17.176
 8713.5     9.649   47.133   14.085
 8714     9.619   47.161   13.923
 8714.5     9.626   47.321   13.761
 8715     9.633   47.623   13.599
 8715.5     9.64   47.925   13.437
 8716     9.647   48.226   13.275
 8716.5     9.66   48.528   14.414
 8717     9.683   48.59   15.655
 8717.5     9.706   48.639   16.895
 8718     9.728   48.663   18.136
 8718.5     9.728   48.522   19.376
 8719     9.7   48.382   20.617
 8719.5     9.672   48.241   19.308
 8720     9.644   48.1   16.691
 8720.5     9.617   47.96   14.074
 8721     9.589   47.819   13.459
 8721.5     9.561   47.679   13.57
 8722     9.533   47.975   14.146
 8722.5     9.528   48.357   14.721
 8723     9.563   48.738   15.297
 8723.5     9.598   49.039   15.873
 8724     9.634   49.232   16.448
 8724.5     9.669   49.426   17.411
 8725     9.704   49.712   20.132
 8725.5     9.74   50.059   22.853
 8726     9.775   50.405   25.574
 8726.5     9.81   50.752   28.295
 8727     9.846   51.068   31.016
 8727.5     9.848   50.946   33.737
 8728     9.846   50.824   35.391
 8728.5     9.844   50.703   36.955
 8729     9.842   50.581   35.841
 8729.5     9.839   50.456   32.711
 8730     9.895   50.088   29.582
 8730.5     9.997   49.721   26.453
 8731     10.1   49.353   23.599
 8731.5     10.101   48.986   23.263
 8732     9.997   48.618   22.927
 8732.5     9.892   48.895   22.591
 8733     10.061   49.177   17.685
 8733.5     10.353   49.458   16.448
 8734     10.489   49.633   21.747
 8734.5     10.444   49.734   27.046
 8735     10.392   49.835   32.344
 8735.5     10.316   50.115   37.643
 8736     10.241   51.067   39.703
 8736.5     10.165   51.338   40.304
 8737     10.089   50.888   40.906
 8737.5     9.999   50.439   39.159
 8738     9.892   50.147   35.471
 8738.5     9.784   50.818   31.782
 8739     9.803   51.49   28.094
 8739.5     9.828   51.805   30.048
 8740     9.852   51.239   30.608
 8740.5     9.848   50.674   29.403
 8741     9.782   50.951   28.199
 8741.5     9.717   52.05   27.451
 8742     9.652   52.813   27.349
 8742.5     9.586   52.26   28.114
 8743     9.618   51.707   30.728
 8743.5     9.666   51.154   33.342
