###############################################
##         ENVERUS                           ##
##         ESS - Open Hole                   ##
##         PERMIAN / DELAWARE                ##
##         Nov 02 2023  V4.0                 ##
##         42-109-31383-00-00                ##
###############################################
## Copyright 2017-2023  ENVERUS.  All Rights Reserved. 
## Confidential - Property of ENVERUS, use governed by terms and 
## conditions found within the existing Information Services Subscription Agreement 
## (as may be amended, the “ISSA”) between Customer and ENVERUS. 
## 
~VERSION INFORMATION
# MNEM.UNIT                               DATA : DESCRIPTION OF MNEMONIC
#-----.-----     ----------------------------- : -----------------------------
VERS.                                     2.00 : CWLS LOG ASCII STANDARD - VERSION 2.00
WRAP.                                       NO : MULTIPLE LINES PER DEPTH STEP
VEND.                                  ENVERUS : VENDOR
TYPE.                          ESS - OPEN HOLE : ENVERUS ESSENTIAL CURVES – ACCESSIBLE THROUGH ENVERUS PRISM(TM)
DOC.                                  31887493 : ENVERUS HEADER RAW DOCUMENT ID
#___________________________________________________________________________________________________ 
~WELL INFORMATION 
# e8MMFGpko9nixUfuEkfb9P8cKS4olzuguLrtdgPIjARTX3oRymgI2EYtnk6GmA/F0PbYW2Z7xnLx5OgyGayifw== 
# MNEM.UNIT                                              DATA : DESCRIPTION OF MNEMONIC 
#-----.-----                    ----------------------------- : ----------------------------- 
CNTY.                                               CULBERSON : COUNTY 
STATE.                                                  TEXAS : STATE 
CNTRY.                                                    USA : COUNTRY 
API.                                             42-109-31383 : API (10 Digit) 
API_14.                                    42-109-31383-00-00 : API (14 Digits) 
API_14_std.                                 42-109-31383-0000 : API (14 Digits Standard) 
UWI.                                           42109313830000 : UNIQUE WELL ID 
WELL.                                          KIRK  T. A.  1 : WELL NAME
STRT.FT                                                  43.0 : START DEPTH
STOP.FT                                               16492.0 : STOP DEPTH
STEP.FT                                                   0.5 : STEP BETWEEN DEPTHS
NULL.                                                 -999.25 : NULL VALUE
COMP.                                             EXXON CORP. : COMPANY 
DATE.                                             05-AUG-1981 : LOG DATE
#___________________________________________________________________________________________________ 
~CURVE INFORMATION 
# MNEM.UNIT           : CURVE DESCRIPTION 
#-----.-----          : ----------------------------- 
 DEPT.FT               : MEASURED DEPTH 
 CALI.IN               : CALIPER (CAL - CAL) 
 GR.API                : GAMMA RAY (GR) 
 SP.MV                 : SPONTANEOUS POTENTIAL (SP) 
 DT.US/FT              : SONIC DELTA TRANSIT TIME (DT) 
 RESS.OHMM             : SHALLOW INDUCTION RESISTIVITY (ILS - ILS) 
 RESD.OHMM             : DEEP INDUCTION RESISTIVITY (ILD - ILD) 
 NPHI.V/V              : NEUTRON POROSITY (NPHI) 
 #___________________________________________________________________________________________________ 
~A         DEPT           CALI             GR             SP             DT           RESS           RESD           NPHI
# ...
        16424.5          6.496          7.164        -94.502         52.404          0.485          0.882     -999.25000
        16425.0          6.475          5.382        -94.461         52.356          0.489          0.890     -999.25000
        16425.5          6.453          6.304        -94.420         52.308          0.446          0.896     -999.25000
        16426.0          6.432          7.226        -94.378         52.260          0.381          0.901     -999.25000
        16426.5          6.410          8.148        -94.337         52.212          0.316          0.906     -999.25000
        16427.0          6.388          9.070        -94.296         52.164          0.304          0.811     -999.25000
        16427.5          6.367          9.992        -94.254         52.116          0.304          0.717     -999.25000
        16428.0          6.345         10.914        -94.213         52.068          0.305          0.623     -999.25000
        16428.5          6.324         11.841        -94.172         52.020          0.305          0.529     -999.25000
        16429.0          6.302         12.774        -94.130         51.972          0.305          0.435     -999.25000
        16429.5          6.281         13.708        -94.089         51.924          0.305          0.340     -999.25000
        16430.0          6.259         14.642        -94.047         51.489          0.305          0.307     -999.25000
        16430.5          6.237         15.827        -94.006         50.923          0.305          0.301     -999.25000
        16431.0          6.216         17.221        -93.965         50.560          0.303          0.295     -999.25000
        16431.5          6.194         18.615        -93.923         51.383          0.286          0.289     -999.25000
        16432.0          6.186         20.008        -93.882         52.207          0.269          0.283     -999.25000
        16432.5          6.189         21.402        -93.900         53.030          0.256          0.277     -999.25000
        16433.0          6.192         20.919        -93.949         53.487          0.256          0.271     -999.25000
        16433.5          6.195         19.073        -93.999         53.405          0.255          0.265     -999.25000
        16434.0          6.198         17.228        -94.048         53.322          0.255          0.267     -999.25000
        16434.5          6.201         16.526        -94.097         53.240          0.258          0.268     -999.25000
        16435.0          6.204         18.636        -94.147         53.157          0.264          0.270     -999.25000
        16435.5          6.206         20.745        -94.196         53.075          0.270          0.271     -999.25000
        16436.0          6.209         22.855        -94.245         52.992          0.276          0.273     -999.25000
        16436.5          6.212         24.965        -94.295         52.793          0.282          0.274     -999.25000
        16437.0          6.215         27.074        -94.344         52.457          0.288          0.276     -999.25000
        16437.5          6.218         29.184        -94.393         52.122          0.295          0.277     -999.25000
        16438.0          6.221         31.294        -94.443         51.830          0.301          0.383     -999.25000
        16438.5          6.224         32.430        -94.492         52.185          0.403          0.963     -999.25000
        16439.0          6.227         32.767        -94.541         52.541          0.708          1.543     -999.25000
        16439.5          6.230         33.104        -94.591         52.720          1.013        103.839     -999.25000
        16440.0          6.232         33.441        -94.640         52.409          1.089        667.451     -999.25000
        16440.5          6.235         33.778        -94.689         52.098          1.080       1231.063     -999.25000
        16441.0          6.238         33.583        -94.739         51.787          1.035       1794.675     -999.25000
        16441.5          6.241         33.020        -94.788         51.476          0.900       1800.589     -999.25000
        16442.0          6.244         32.457        -94.837         51.165          0.766       1794.734     -999.25000
        16442.5          6.247         31.894        -94.887         50.854          0.632       1788.880     -999.25000
        16443.0          6.250         31.510        -94.936         50.543          0.498       1783.026     -999.25000
        16443.5          6.253         31.871        -94.985         50.232          0.390       1777.171     -999.25000
        16444.0          6.256         32.232        -95.463         50.231          0.394       1356.859     -999.25000
        16444.5          6.259         32.593        -96.122         50.480          0.399        716.224     -999.25000
        16445.0          6.261         32.954        -96.781         50.728          0.403         75.588     -999.25000
        16445.5          6.264         33.315        -97.440         50.976          0.407          1.046     -999.25000
        16446.0          6.267         33.676        -98.099         51.224          0.412          1.083     -999.25000
        16446.5          6.269         34.037        -98.758         51.417          0.416          1.254     -999.25000
        16447.0          6.269         35.330        -99.417         51.528          0.435          1.720     -999.25000
        16447.5          6.269         37.631       -100.076         51.639          0.461          2.186     -999.25000
        16448.0          6.268         39.931       -100.735         51.751          0.487          2.652     -999.25000
        16448.5          6.268         39.545       -101.307         51.862          0.997          3.118     -999.25000
        16449.0          6.267         38.082       -101.866         51.900          1.682        434.917     -999.25000
        16449.5          6.267         36.619       -102.425         51.776          2.367       -999.250     -999.25000
        16450.0          6.267         35.157       -102.984         51.652          3.053       -999.250     -999.25000
        16450.5          6.266         33.694       -103.543         51.606          3.246       -999.250     -999.25000
        16451.0          6.266         32.231       -104.102         51.815          3.203       -999.250     -999.25000
        16451.5          6.266         31.762       -104.661         52.023          3.161       -999.250     -999.25000
        16452.0          6.265         31.765       -105.220         52.231          3.119       -999.250     -999.25000
        16452.5          6.265         31.768       -105.779         52.439          3.076       -999.250     -999.25000
        16453.0          6.265         31.770       -106.338         52.647          2.447       -999.250     -999.25000
        16453.5          6.264         32.009       -106.897         52.855          1.650       -999.250     -999.25000
        16454.0          6.264         32.870       -107.456         53.064          1.373       -999.250     -999.25000
        16454.5          6.263         33.731       -108.015         53.027          1.473       -999.250     -999.25000
        16455.0          6.263         34.592       -108.574         52.903         13.860       -999.250     -999.25000
        16455.5          6.263         34.935       -109.133         52.779         26.714       -999.250     -999.25000
        16456.0          6.262         34.535       -109.691         52.655         27.027       -999.250     -999.25000
        16456.5          6.262         34.136       -110.250         52.531         26.835       -999.250     -999.25000
        16457.0          6.262         33.726       -110.809         52.407         23.883       -999.250     -999.25000
        16457.5          6.261         33.310       -111.550         51.039          8.480       -999.250     -999.25000
