~VERSION INFORMATION
 VERS.                2.0:   CWLS LOG ASCII STANDARD - VERSION 2.0
 WRAP.                 NO:   ONE LINE PER DEPTH STEP
~WELL INFORMATION
#MNEM.UNIT      DATA TYPE    INFORMATION
#----------   ------------   ------------------------------
 STRT.FT        8672.0000:   START DEPTH
 STOP.FT       14432.0000:   STOP DEPTH
 STEP.FT           0.5000:   STEP LENGTH
 NULL.          -999.2500:   NULL VALUE
 COMP. CAPITAN ENERGY, INCORPORATED:   COMPANY
 WELL.  MOTHER FEE 28 #1H:   WELL
 FLD . FORD, WEST (WOLFCAMP)	:   FIELD
 LOC .                   :   LOCATION
 CNTY.          CULBERSON:   COUNTY
 STAT.              TEXAS:   STATE
 CTRY. UNITED STATES OF AMERICA:   COUNTRY
 SRVC.        HALLIBURTON:   SERVICE COMPANY
 DATE.        16-Nov-2015:   LOGDATE
 API .     42109328880000:   API NUMBER
~CURVE INFORMATION
#MNEM.UNIT       API CODE    CURVE DESCRIPTION
#----------   ------------   ------------------------------
 DEPT.FT                 :   
 CALD_C.IN   45 280 60 00:   CALIPER FROM DENSITY COMPOSITE LOG
 DCOR.G/C3   45 356 01 00:   DENSITY CORRECTION
 DPHI_LS.DEC 45 890 10 00:   DENSITY POROSITY LIMESTONE
 DT_CH.US/F  60 501 00 00:   DELTA FROM THE FULL WAVE SONIC IN CASED HOLE
 GRD .GAPI   45 310 01 00:   GAMMA RAY FROM DENSITY LOG
 LLDC.OHMM   11 220 10 00:   CORRECTED LATEROLOG DEEP RESISTIVITY
 LLSC.OHMM   11 220 09 00:   CORRECTED LATEROLOG SHALLOW RESISTIVITY
 MSFLC.OHMM  11 270 04 00:   CORRECTED MICRO SPHERICALLY FOCUSED RESISTIVITY
 NPHI_LS.DEC 42 890 01 00:   NEUTRON POROSITY LIMESTONE
 PE  .B/E    45 358 01 00:   PHOTO ELECTRIC CROSS SECTION
 RHOB_CH.G/C3 45 350 01 00:   
~PARAMETER INFORMATION
#MNEM.UNIT          VALUE    DESCRIPTION
#----------   ------------   ------------------------------
 DATE.           11/16/15:   RUN DATE
 RUN .                  1:   RUN NUMBER
 BLI .FT            14432:   BOTTOM LOG INTERVAL
 TLI .FT             8672:   TOP LOG INTERVAL
 ORIG.     1" 2" 5" PRINT:   ORIGIN OF DATA
 UWI .     42109328880000:   UNIQUE WELL ID
~OTHER INFORMATION
~A   DEPT         CALD_C      DCOR       DPHI_LS      DT_CH       GRD        LLDC        LLSC        MSFLC       NPHI_LS         PE      RHOB_CH
# ...
 12508.0000   -999.2500   -999.2500      0.0958     72.2509    120.7356     37.5095     29.1900     18.3883      0.1495      3.2087      2.5515
 12508.5000   -999.2500   -999.2500      0.0952     72.4785    119.6353     35.7433     29.5014     17.3926      0.1492      3.1983      2.5510
 12509.0000   -999.2500   -999.2500      0.0966     72.5993    124.3132     37.3183     30.4242     18.3204      0.1539      3.2122      2.5510
 12509.5000   -999.2500   -999.2500      0.0975     72.4466    122.7796     36.3727     29.1026     18.2415      0.1587      3.2138      2.5532
 12510.0000   -999.2500   -999.2500      0.0925     72.3138    119.9467     32.2103     26.8052     16.6024      0.1605      3.2317      2.5554
 12510.5000   -999.2500   -999.2500      0.0941     72.0875    123.5135     37.1329     29.9611     18.3301      0.1613      3.2570      2.5582
 12511.0000   -999.2500   -999.2500      0.0919     71.7748    118.6543     35.6997     29.1635     17.2387      0.1599      3.2377      2.5645
 12511.5000   -999.2500   -999.2500      0.0877     71.2696    110.8657     33.1191     27.0174     16.1654      0.1546      3.2387      2.5710
 12512.0000   -999.2500   -999.2500      0.0869     71.4865    115.2384     31.9129     26.5577     15.7631      0.1539      3.2769      2.5716
 12512.5000   -999.2500   -999.2500      0.0904     71.3609    117.5827     40.1171     31.9709     19.3791      0.1549      3.2769      2.5710
 12513.0000   -999.2500   -999.2500      0.0877     71.2696    109.9396     36.0982     29.6209     16.9247      0.1549      3.2888      2.5705
 12513.5000   -999.2500   -999.2500      0.0864     71.5740    107.8810     31.2297     26.1963     15.4972      0.1533      3.2605      2.5705
 12514.0000   -999.2500   -999.2500      0.0884     71.8024    110.9975     31.3652     25.7585     15.2589      0.1534      3.2233      2.5682
 12514.5000   -999.2500   -999.2500      0.0915     72.3144    120.2702     32.8222     26.7692     16.1577      0.1552      3.1932      2.5582
 12515.0000   -999.2500   -999.2500      0.0960     72.5267    130.0514     37.8606     31.0392     18.5363      0.1588      3.1925      2.5521
 12515.5000   -999.2500   -999.2500      0.0984     72.5963    132.8828     41.6672     34.4335     20.6369      0.1620      3.1918      2.5510
 12516.0000   -999.2500   -999.2500      0.0966     72.5591    129.1523     38.4176     32.7714     19.6288      0.1609      3.1882      2.5510
 12516.5000   -999.2500   -999.2500      0.0972     72.4525    130.2200     40.4909     33.0695     19.3769      0.1601      3.1731      2.5510
 12517.0000   -999.2500   -999.2500      0.0974     72.3459    130.3678     40.7418     33.5326     19.6647      0.1583      3.1701      2.5513
 12517.5000   -999.2500   -999.2500      0.0983     72.2394    132.4413     41.8797     34.0184     20.0903      0.1583      3.1723      2.5523
 12518.0000   -999.2500   -999.2500      0.0971     72.1328    133.0562     43.2071     34.2211     19.8452      0.1560      3.1886      2.5532
 12518.5000   -999.2500   -999.2500      0.0950     72.0609    122.3788     36.0025     29.3195     17.2736      0.1543      3.1886      2.5543
 12519.0000   -999.2500   -999.2500      0.0952     72.0412    121.2140     36.9042     30.0538     18.1946      0.1535      3.1886      2.5580
 12519.5000   -999.2500   -999.2500      0.0898     71.8768    109.9742     32.3582     26.7882     15.7397      0.1525      3.2196      2.5616
 12520.0000   -999.2500   -999.2500      0.0875     71.8024    108.0312     29.7223     24.8882     15.5250      0.1568      3.2425      2.5643
 12520.5000   -999.2500   -999.2500      0.0912     71.8879    119.1141     36.7901     29.9611     17.6268      0.1611      3.2563      2.5643
 12521.0000   -999.2500   -999.2500      0.0933     71.9734    121.4248     37.7932     30.1096     18.4662      0.1633      3.2730      2.5554
 12521.5000   -999.2500   -999.2500      0.0944     72.0152    117.9461     37.7144     29.9611     18.1767      0.1625      3.2591      2.5604
 12522.0000   -999.2500   -999.2500      0.0911     71.7158    106.9343     33.0042     26.5199     15.7318      0.1573      3.2591      2.5643
 12522.5000   -999.2500   -999.2500      0.0887     71.8687    113.6636     30.0992     25.6696     15.8350      0.1553      3.2793      2.5632
 12523.0000   -999.2500   -999.2500      0.0942     71.8356    122.9461     42.9406     34.4335     20.0000      0.1550      3.2996      2.5582
 12523.5000   -999.2500   -999.2500      0.0935     71.8024    121.1157     43.3107     34.8619     20.8524      0.1531      3.2996      2.5574
 12524.0000   -999.2500   -999.2500      0.0926     71.7881    120.9727     43.5479     34.8619     20.5250      0.1526      3.2996      2.5591
 12524.5000   -999.2500   -999.2500      0.0924     71.7738    123.5867     43.7851     34.8619     20.4785      0.1536      3.2874      2.5608
 12525.0000   -999.2500   -999.2500      0.0928     71.5486    123.6129     43.8800     34.2636     20.1093      0.1544      3.2632      2.5625
 12525.5000   -999.2500   -999.2500      0.0906     71.2562    112.0090     37.8472     29.8844     17.8744      0.1541      3.2633      2.5661
 12526.0000   -999.2500   -999.2500      0.0844     71.4874    107.1124     31.8145     25.4326     15.0022      0.1552      3.2634      2.5705
 12526.5000   -999.2500   -999.2500      0.0877     71.6328    116.8468     35.8579     29.3001     17.5644      0.1579      3.2996      2.5689
 12527.0000   -999.2500   -999.2500      0.0917     71.7781    121.9519     41.3767     33.2820     19.8007      0.1596      3.2996      2.5655
 12527.5000   -999.2500   -999.2500      0.0910     71.9235    119.6468     40.9694     32.9747     19.7274      0.1603      3.3178      2.5620
 12528.0000   -999.2500   -999.2500      0.0906     72.0688    122.5603     40.8683     34.5430     20.4263      0.1573      3.3263      2.5588
 12528.5000   -999.2500   -999.2500      0.0943     72.0669    127.1001     47.1141     36.8792     21.2625      0.1559      3.3400      2.5560
 12529.0000   -999.2500   -999.2500      0.0932     72.0249    123.4234     43.1857     34.1189     20.1254      0.1526      3.3097      2.5554
 12529.5000   -999.2500   -999.2500      0.0924     71.2562    121.0329     39.4027     31.3586     18.4791      0.1512      3.2996      2.5549
 12530.0000   -999.2500   -999.2500      0.0928     71.1757    121.6954     40.8683     31.9264     18.4666      0.1522      3.2742      2.5550
 12530.5000   -999.2500   -999.2500      0.0951     71.3601    125.9328     41.1215     33.2820     20.1116      0.1545      3.2591      2.5553
 12531.0000   -999.2500   -999.2500      0.0932     71.5444    121.0814     38.6959     31.6758     18.3131      0.1552      3.2253      2.5555
 12531.5000   -999.2500   -999.2500      0.0932     71.7287    120.9825     38.8955     31.4804     18.3131      0.1548      3.2186      2.5557
 12532.0000   -999.2500   -999.2500      0.0929     71.8024    118.9225     36.9722     29.2838     17.2551      0.1540      3.1947      2.5560
 12532.5000   -999.2500   -999.2500      0.0916     71.9248    115.2981     33.5311     27.9908     16.6466      0.1530      3.1781      2.5562
 12533.0000   -999.2500   -999.2500      0.0932     72.1287    118.4899     35.1480     27.9908     17.2155      0.1536      3.1855      2.5564
 12533.5000   -999.2500   -999.2500      0.0955     72.3326    121.8557     36.3380     29.2290     16.9263      0.1544      3.1913      2.5567
 12534.0000   -999.2500   -999.2500      0.0936     72.3137    117.3066     30.8062     26.8299     15.0225      0.1545      3.1793      2.5569
 12534.5000   -999.2500   -999.2500      0.0938     72.2851    118.1388     31.4865     26.5166     16.2737      0.1563      3.1807      2.5571
 12535.0000   -999.2500   -999.2500      0.0949     72.0555    122.5774     35.6104     28.6918     17.1122      0.1561      3.1822      2.5593
 12535.5000   -999.2500   -999.2500      0.0923     72.2162    116.9353     33.3246     28.8699     17.2202      0.1566      3.2186      2.5610
