###############################################
##         ENVERUS                           ##
##         ESS - Open Hole                   ##
##         PERMIAN / DELAWARE                ##
##         Nov 02 2023  V4.0                 ##
##         42-109-32255-00-00                ##
###############################################
## Copyright 2017-2023  ENVERUS.  All Rights Reserved. 
## Confidential - Property of ENVERUS, use governed by terms and 
## conditions found within the existing Information Services Subscription Agreement 
## (as may be amended, the “ISSA”) between Customer and ENVERUS. 
## 
~VERSION INFORMATION
# MNEM.UNIT                               DATA : DESCRIPTION OF MNEMONIC
#-----.-----     ----------------------------- : -----------------------------
VERS.                                     2.00 : CWLS LOG ASCII STANDARD - VERSION 2.00
WRAP.                                       NO : MULTIPLE LINES PER DEPTH STEP
VEND.                                  ENVERUS : VENDOR
TYPE.                          ESS - OPEN HOLE : ENVERUS ESSENTIAL CURVES – ACCESSIBLE THROUGH ENVERUS PRISM(TM)
DOC.                                  22531479 : ENVERUS HEADER RAW DOCUMENT ID
#___________________________________________________________________________________________________ 
~WELL INFORMATION 
# hWe/832LbRsDOXT7erJRLf+k/AYA64twV/RtTeeHm/CkPExvlrAQ0qJE/El28xU0WYmlktkqeCNHArF5iUyCGg== 
# MNEM.UNIT                                              DATA : DESCRIPTION OF MNEMONIC 
#-----.-----                    ----------------------------- : ----------------------------- 
CNTY.                                               CULBERSON : COUNTY 
STATE.                                                  TEXAS : STATE 
CNTRY.                                                    USA : COUNTRY 
API.                                             42-109-32255 : API (10 Digit) 
API_14.                                    42-109-32255-00-00 : API (14 Digits) 
API_14_std.                                 42-109-32255-0000 : API (14 Digits Standard) 
UWI.                                           42109322550000 : UNIQUE WELL ID 
WELL.                               MELISSA TAYLOR STATE 27-1 : WELL NAME
STRT.FT                                                7612.0 : START DEPTH
STOP.FT                                               13645.5 : STOP DEPTH
STEP.FT                                                   0.5 : STEP BETWEEN DEPTHS
NULL.                                                 -999.25 : NULL VALUE
COMP.                                         PETRO-HUNT,LLC. : COMPANY 
FLD.                                                  WILDCAT : FIELD 
SRVC.                                            SCHLUMBERGER : SERVICE COMPANY 
DATE.                                              04/06/2006 : DATE 
TVD.                                                       NO : TVD FLAG
#___________________________________________________________________________________________________ 
~PARAMETER INFORMATION 
# MNEM.UNIT                                              DATA : DESCRIPTION OF MNEMONIC 
#-----.-----                    ----------------------------- : ----------------------------- 
RUN.                                                      ONE : RUN NUMBER 
PDAT.                                                      GL : PERMANENT DATUM 
EPD.FT                                               000.0000 : ELEVATION OF PERM. DATUM 
LMF.                                            KELLY BUSHING : LOG MEASURED FROM 
EKB.FT                                                 3796.6 : ELEVATION OF KELLY BUSHING 
DF.FT                                                  3773.0 : ELEVATION OF DERRICK FLOOR 
GL.FT                                                  3795.6 : ELEVATION OF GROUND LEVEL 
TD.FT                                              13716.0000 : TOTAL DEPTH 
BHT.DEGF                                               224.00 : BOTTOM HOLE TEMPERATURE 
BLI.FT                                             13716.0000 : BOTTOM LOG INTERVAL 
CSGSIZE.IN                                             9.6250 : CASING SIZE 
BITSIZE.IN                                              8.750 : BITSIZE 
CSGD.FT                                               12804.0 : CASING BOTTOM (DRILLER) 1 
CSGL.FT                                               12802.0 : CASING BOTTOM (LOGGER) 1 
MUD.                                                    BRINE : DRILLING FLUID TYPE 
MUDV.CP                                                  45.0 : DRILLING FLUID VISCOSITY 
MUDD.LB/USG                                               9.5 : DRILLING FLUID DENSITY 
PH.                                                      10.0 : DRILLING FLUID PH 
FL.ML/30MIN                                               5.0 : DRILLING FLUID LOSS 
MUDS.                                               CIRC TANK : MUD SAMPLE SOURCE 
RM.OHMM                                                 0.064 : RESISTIVITY OF MUD SAMPLE 
RMT.DEGF                                                66.00 : MUD SAMPLE TEMPERATURE 
RMF.OHMM                                                0.048 : MUD FILTRATE RESISTIVITY 
RMFT.DEGF                                               66.00 : MUD FILTRATE SAMPLE TEMPERATURE 
RMC.OHMM                                                0.095 : MUD CAKE RESISTIVITY 
RMCT.DEGF                                               66.00 : MUD CAKE SAMPLE TEMPERATURE 
RMB.OHMM                                                0.015 : MUD RESISTIVITY AT BHT 
TMAX.DEGF                                              224.00 : BOTTOM HOLE TEMPERATURE
#___________________________________________________________________________________________________ 
~CURVE INFORMATION 
# MNEM.UNIT           : CURVE DESCRIPTION 
#-----.-----          : ----------------------------- 
 DEPT.FT               : MEASURED DEPTH 
 DT__A.US/FT           : SONIC DELTA TRANSIT TIME (DELTA T COMP) 
 SPHI__A.V/V           : SONIC POROSITY (SONIC POROSITY) 
 #___________________________________________________________________________________________________ 
~A         DEPT          DT__A        SPHI__A
# ...
        11179.0         61.054        0.09900
        11179.5         60.904        0.09400
        11180.0         60.234        0.08900
        11180.5         59.565        0.08300
        11181.0         58.885        0.07600
        11181.5         58.444        0.07800
        11182.0         58.366        0.08400
        11182.5         59.453        0.08900
        11183.0         60.635        0.09400
        11183.5         61.396        0.09900
        11184.0         62.158        0.10400
        11184.5         62.919        0.11000
        11185.0         63.680        0.11500
        11185.5         64.442        0.12000
        11186.0         65.203        0.12500
        11186.5         65.964        0.13000
        11187.0         66.572        0.13300
        11187.5         66.310        0.13200
        11188.0         65.655        0.12700
        11188.5         65.000        0.12200
        11189.0         64.398        0.11800
        11189.5         63.795        0.11300
        11190.0         62.952        0.11200
        11190.5         63.233        0.11300
        11191.0         63.795        0.11400
        11191.5         63.771        0.11400
        11192.0         63.711        0.11200
        11192.5         63.233        0.10800
        11193.0         62.349        0.10400
        11193.5         61.687        0.10000
        11194.0         61.024        0.09500
        11194.5         60.852        0.09400
        11195.0         60.637        0.09200
        11195.5         60.422        0.09100
        11196.0         60.321        0.09000
        11196.5         60.221        0.08800
        11197.0         59.819        0.08600
        11197.5         59.398        0.08400
        11198.0         59.819        0.08600
        11198.5         62.435        0.11500
        11199.0         65.706        0.13900
        11199.5         68.976        0.15300
        11200.0         68.735        0.15300
        11200.5         68.076        0.14400
        11201.0         66.890        0.13300
        11201.5         65.485        0.12200
        11202.0         63.916        0.11400
        11202.5         63.825        0.11300
        11203.0         63.361        0.11200
        11203.5         62.491        0.10500
        11204.0         61.394        0.09800
        11204.5         59.940        0.08500
        11205.0         60.422        0.09100
        11205.5         61.651        0.11000
        11206.0         62.880        0.11100
        11206.5         63.578        0.11300
        11207.0         63.795        0.11400
        11207.5         63.795        0.11500
        11208.0         63.821        0.11500
        11208.5         63.829        0.11300
        11209.0         63.834        0.11800
        11209.5         65.281        0.12400
        11210.0         65.395        0.12600
        11210.5         64.898        0.12600
        11211.0         63.278        0.11300
        11211.5         60.994        0.09400
        11212.0         57.530        0.07000
        11212.5         57.892        0.07100
        11213.0         60.000        0.09400
        11213.5         63.112        0.11800
        11214.0         65.602        0.13700
        11214.5         67.289        0.14000
        11215.0         67.651        0.14100
        11215.5         66.928        0.13600
        11216.0         64.663        0.11600
        11216.5         61.289        0.09500
        11217.0         58.795        0.07000
        11217.5         57.651        0.07400
        11218.0         58.373        0.08300
        11218.5         59.918        0.09100
        11219.0         61.205        0.10000
        11219.5         62.492        0.10900
        11220.0         64.036        0.11700
        11220.5         64.880        0.12900
        11221.0         65.723        0.12700
        11221.5         65.602        0.12200
        11222.0         65.120        0.11900
        11222.5         64.639        0.12900
        11223.0         66.797        0.14300
        11223.5         68.956        0.15400
        11224.0         69.819        0.15000
        11224.5         68.313        0.14300
        11225.0         66.807        0.13600
        11225.5         66.406        0.13200
        11226.0         66.160        0.13100
        11226.5         66.084        0.13100
        11227.0         66.009        0.13100
        11227.5         65.843        0.13000
        11228.0         65.602        0.12700
        11228.5         64.931        0.12000
        11229.0         64.372        0.11600
        11229.5         64.108        0.11600
        11230.0         64.289        0.11700
        11230.5         64.418        0.11800
        11231.0         64.468        0.12000
        11231.5         64.518        0.12100
        11232.0         64.733        0.12300
        11232.5         64.948        0.12400
        11233.0         65.000        0.12200
        11233.5         64.742        0.12000
        11234.0         64.570        0.11800
        11234.5         64.398        0.11600
        11235.0         63.735        0.11400
        11235.5         63.434        0.11200
        11236.0         63.133        0.11000
        11236.5         62.831        0.10800
        11237.0         62.470        0.10600
        11237.5         62.470        0.10500
        11238.0         62.821        0.10800
        11238.5         63.173        0.11100
        11239.0         63.138        0.11100
        11239.5         63.195        0.10800
        11240.0         62.273        0.10300
        11240.5         61.353        0.09700
        11241.0         60.434        0.09100
        11241.5         59.571        0.08300
        11242.0         59.574        0.08500
        11242.5         60.817        0.09500
        11243.0         62.222        0.10400
        11243.5         63.434        0.11300
        11244.0         64.045        0.11900
        11244.5         64.044        0.11800
        11245.0         63.337        0.10800
        11245.5         62.170        0.10000
        11246.0         61.506        0.10200
        11246.5         62.040        0.10700
        11247.0         62.905        0.11200
        11247.5         63.392        0.11300
        11248.0         63.454        0.11100
        11248.5         63.272        0.11000
        11249.0         63.161        0.10900
        11249.5         63.110        0.10900
        11250.0         63.068        0.10900
        11250.5         62.411        0.10600
        11251.0         61.747        0.10200
        11251.5         61.466        0.09900
        11252.0         61.114        0.09400
        11252.5         61.285        0.10000
        11253.0         62.239        0.10800
        11253.5         63.193        0.11600
        11254.0         65.653        0.13300
        11254.5         68.112        0.14900
        11255.0         69.406        0.15300
        11255.5         69.923        0.15700
        11256.0         70.542        0.16200
        11256.5         69.859        0.16200
        11257.0         68.494        0.15000
        11257.5         68.735        0.15000
        11258.0         69.337        0.15100
        11258.5         69.940        0.15900
        11259.0         71.496        0.17100
        11259.5         73.052        0.18200
        11260.0         73.675        0.18700
        11260.5         73.268        0.18300
        11261.0         72.929        0.18000
        11261.5         72.590        0.17700
        11262.0         72.108        0.17700
        11262.5         72.325        0.17600
        11263.0         72.470        0.17600
        11263.5         70.030        0.15800
        11264.0         67.997        0.14200
        11264.5         65.964        0.12700
        11265.0         65.241        0.12600
        11265.5         65.241        0.13100
