~VERSION INFORMATION
VERS. 2.0 : CWLS Log ASCII Standard - Version 2.0
WRAP. NO : One line per depth step
#--------------------------------------------------#
#----------------DRILLING INFO, INC.---------------#
#---------------WWW.DRILLINGINFO.COM---------------#
#------------------COPYRIGHT 2015------------------#
#--------------------------------------------------#
#THIS FILE MAY BE USED ONLY IN ACCORDANCE WITH A CURRENT SUBSCRIPTION AGREEMENT BETWEEN
#THE USER AND DRILLING INFO, INC. NO PART OF THIS FILE MAY BE REPRODUCED, USED, COPIED,
#MODIFIED, PROPAGATED, OR DISTRIBUTED EXCEPT IN ACCORDANCE WITH THE SUBSCRIPTION
#AGREEMENT. UNAUTHORIZED USE OR DISTRIBUTION OF ALL OR ANY PART OF THIS FILE MAY VIOLATE
#COPYRIGHT, TRADEMARK, AND/OR OTHER LAWS AND IS SUBJECT TO CIVIL AS WELL AS CRIMINAL
#SANCTIONS.
#--------------------------------------------------#
#THIS FILE IS PROVIDED "AS-IS" AND ALL WARRANTIES ARE EXPRESSLY DISCLAIMED, WHETHER
#EXPRESS, ORAL, IMPLIED, STATUTORY OR OTHERWISE, INCLUDING ANY IMPLIED WARRANTY OF FITNESS
#FOR A PARTICULAR PURPOSE, MERCHANTABILITY, TITLE OR NON-INFRINGEMENT, AND ANY WARRANTIES
#ARISING BY VIRTUE OF CUSTOM OF TRADE OR COURSE OF DEALING.  FURTHER, DRILLING INFO,
#INC. AND ITS LICENSORS DO NOT REPRESENT OR WARRANT THAT THIS FILE WILL MEET USER'S
#REQUIREMENTS OR ARE SUITABLE FOR USER'S NEEDS OR THAT THE DATA OR RESULTS PROVIDED IN
#CONJUNCTION THEREWITH ARE CORRECT, ACCURATE, TIMELY OR RELIABLE. THESE DISCLAIMERS SHALL
#APPLY REGARDLESS OF ANY FAILURE OF ESSENTIAL PURPOSE OF ANY LIMITED REMEDY.  SOME
#JURISDICTIONS DO NOT ALLOW THE EXCLUSION OF CERTAIN WARRANTIES SO SOME OF THE ABOVE
#EXCLUSIONS MAY NOT APPLY. IN NO EVENT SHALL DRILLING INFO, INC. OR ANY OF ITS AFFILIATES
#BE LIABLE UNDER ANY LEGAL THEORY, WHETHER IN TORT (INCLUDING WITHOUT LIMITATION
#NEGLIGENCE), CONTRACT, STRICT LIABILITY, STATUTORY OR OTHERWISE, FOR ANY SPECIAL,
#INCIDENTAL, CONSEQUENTIAL, EXEMPLARY, PUNITIVE OR INDIRECT DAMAGE OF ANY KIND, INCLUDING
#WITHOUT LIMITATION LOSS OF REVENUE, PROFITS, GOODWILL, USE, AND/OR DATA OR THE COST OF
#PROCUREMENT OF SUBSTITUTE GOODS OR SERVICES, EVEN IF APPRISED OF THE POSSIBILITY OF SUCH
#DAMAGES IN ADVANCE.
#--------------------------------------------------#
~WELL INFORMATION
#MNEMONIC     .UNIT              VALUE :DESCRIPTION
#--------------------------------------------------#
STRT       .ft                51.00000 :START DEPTH
STOP       .ft                9476.00000 :STOP DEPTH
STEP       .ft                0.50000 :STEP
NULL       .                -999.25000 :NULL VALUE
COMP       .                 :COMPANY
WELL       .                 :WELL
FLD       .                 :FIELD
LOC       .                 :LOCATION
CNTY       .                 :COUNTY
STAT       .                 :STATE
CTRY       .                 :COUNTRY
SRVC       .                 :SERVICE COMPANY
DATE       .                 :DATE
API       .                42109100520000 :API NUMBER
~CURVE INFORMATION
#MNEMONIC     .UNIT      API CODE :CURVE DESCRIPTION
#--------------------------------------------------#
DEPTH       .ft                      :Measured Depth
CAL       .in        UNKNOWN   :CAL
DT       .us/ft        UNKNOWN   :DT
GR       .gAPI        UNKNOWN   :GR
~A    DEPTH    CAL    DT    GR
# ...
2691.50000    10.15985    59.85913    84.37706
2692.00000    10.15744    59.33426    83.45587
2692.50000    10.15503    59.87541    82.53467
2693.00000    10.15262    60.41656    83.75078
2693.50000    10.15021    60.95771    86.24919
2694.00000    10.14780    61.49887    88.74759
2694.50000    10.14540    62.04002    99.34861
2695.00000    10.14299    62.58117    112.71675
2695.50000    10.14058    63.12232    113.94904
2696.00000    10.13817    63.66347    110.72614
2696.50000    10.13576    64.20462    107.50324
2697.00000    10.13335    63.41771    97.43013
2697.50000    10.13094    62.32221    86.78352
2698.00000    10.13564    61.22672    79.83684
2698.50000    10.16168    60.13123    74.83509
2699.00000    10.18771    59.03574    69.83333
2699.50000    10.21374    57.94024    64.83158
2700.00000    10.23978    58.67213    68.69210
2700.50000    10.26581    59.47175    73.08632
2701.00000    10.29185    60.27138    78.20699
2701.50000    10.31788    61.07101    101.49279
2702.00000    10.34392    61.87064    97.64667
2702.50000    10.36995    61.95708    95.24544
2703.00000    10.37209    61.61131    92.84421
2703.50000    10.37208    61.26554    90.44298
2704.00000    10.37207    60.91977    88.04175
2704.50000    10.37206    61.52062    85.64051
2705.00000    10.37205    62.63251    83.23928
2705.50000    10.37204    62.58581    92.83474
2706.00000    10.37203    62.53911    101.40059
2706.50000    10.37201    62.49241    109.93178
2707.00000    10.37200    62.51226    118.51892
2707.50000    10.38621    62.96737    127.10607
2708.00000    10.40998    63.42247    135.69322
2708.50000    10.43376    63.87756    143.93491
2709.00000    10.45753    64.16783    144.26044
2709.50000    10.48131    63.97914    144.58597
2710.00000    10.50509    63.79045    139.85229
2710.50000    10.52886    63.60176    117.94181
2711.00000    10.55264    63.41307    107.38832
2711.50000    10.57642    63.22438    106.57504
2712.00000    10.60019    63.03569    105.88779
2712.50000    10.62397    63.39768    105.20053
2713.00000    10.64775    63.84674    104.51328
2713.50000    10.67152    64.29580    74.11457
2714.00000    10.69530    63.71864    62.40453
2714.50000    10.71542    62.96075    50.69449
2715.00000    10.72658    63.36272    49.29419
2715.50000    10.73775    63.76469    53.39775
2716.00000    10.74891    64.16667    57.90367
2716.50000    10.76008    64.56864    62.40958
2717.00000    10.77124    64.97061    77.08465
2717.50000    10.78241    65.37258    94.54723
2718.00000    10.79357    65.77456    112.00981
2718.50000    10.80474    66.17653    112.52667
2719.00000    10.80340    65.81969    110.41157
2719.50000    10.79327    64.86826    108.29646
2720.00000    10.78313    63.91683    106.18136
2720.50000    10.77299    62.96540    76.02858
2721.00000    10.76286    62.01396    77.72738
2721.50000    10.75272    61.57808    78.88010
2722.00000    10.74258    61.50809    76.80675
2722.50000    10.73245    61.43810    75.16419
2723.00000    10.72231    61.36811    74.34588
2723.50000    10.71217    60.79141    76.71298
2724.00000    10.70204    59.89321    79.33741
2724.50000    10.69190    60.47320    81.96183
2725.00000    10.68176    61.11765    88.46431
2725.50000    10.67163    61.76210    97.95018
2726.00000    10.66149    62.40655    107.43604
2726.50000    10.65135    63.05100    116.92190
2727.00000    10.64122    63.69545    124.55313
2727.50000    10.63108    64.30307    117.49716
2728.00000    10.62094    64.08169    106.42437
2728.50000    10.61081    63.86030    93.86958
2729.00000    10.60067    63.63892    81.92363
2729.50000    10.59053    63.41754    88.76875
2730.00000    10.58040    63.19616    95.61388
2730.50000    10.57026    62.97478    102.45901
2731.00000    10.56012    62.75339    82.53492
2731.50000    10.54999    62.53201    75.67840
2732.00000    10.53985    62.14852    74.20103
2732.50000    10.52971    61.25034    72.72366
2733.00000    10.51958    60.70906    71.23905
2733.50000    10.50944    60.42000    69.12246
2734.00000    10.49930    60.13095    67.00587
2734.50000    10.48917    59.84190    64.88928
2735.00000    10.47903    59.55284    63.18262
2735.50000    10.46889    59.26379    61.63427
2736.00000    10.45876    59.07923    60.08591
2736.50000    10.44862    59.42598    59.68740
2737.00000    10.44905    59.77274    60.85493
2737.50000    10.45723    60.11949    62.60205
2738.00000    10.46541    60.46625    72.76041
2738.50000    10.47358    60.81300    77.37429
2739.00000    10.48176    61.15975    81.98817
2739.50000    10.48994    61.50650    86.60206
2740.00000    10.49812    61.85326    90.33711
2740.50000    10.50630    61.89008    93.60509
2741.00000    10.51448    61.71573    96.87306
2741.50000    10.52266    61.54139    100.14104
2742.00000    10.53084    61.58062    103.89813
2742.50000    10.53901    61.93831    108.68945
2743.00000    10.54719    62.39539    114.82635
2743.50000    10.55537    64.28661    123.12714
2744.00000    10.56355    66.17783    131.42794
2744.50000    10.57173    68.06905    139.72874
2745.00000    10.57991    68.98073    148.02953
2745.50000    10.58809    68.60660    156.33033
2746.00000    10.59627    68.23246    164.63112
2746.50000    10.60445    67.57810    155.91649
2747.00000    10.61263    65.85507    130.51400
2747.50000    10.62081    64.13204    118.17921
2748.00000    10.62898    62.28767    110.91055
2748.50000    10.63716    61.97628    106.85147
2749.00000    10.64534    62.19852    98.04752
2749.50000    10.65352    62.42076    91.46005
2750.00000    10.66170    62.64300    86.08774
2750.50000    10.66289    62.86524    80.71543
2751.00000    10.66288    63.08748    75.34312
2751.50000    10.66287    62.77568    69.97081
2752.00000    10.66287    61.89062    63.88439
2752.50000    10.66286    61.00557    57.20866
2753.00000    10.66285    60.12052    57.13973
2753.50000    10.66284    59.23546    59.83246
2754.00000    10.66283    58.35041    62.52520
2754.50000    10.66283    57.46536    66.01902
2755.00000    10.66282    58.91006    71.04084
2755.50000    10.66281    60.68869    74.00632
2756.00000    10.66280    62.46731    73.92451
2756.50000    10.65895    64.24594    73.84270
2757.00000    10.64999    65.09567    73.76089
2757.50000    10.64103    64.97915    73.67908
2758.00000    10.63208    64.86262    73.59727
2758.50000    10.62312    64.74609    78.47089
2759.00000    10.61416    64.62956    85.34991
2759.50000    10.60520    64.51303    84.21844
2760.00000    10.59625    64.39650    80.48822
2760.50000    10.58729    63.66075    76.75800
2761.00000    10.57833    61.64419    71.44752
2761.50000    10.56937    60.31392    66.82945
2762.00000    10.56042    59.48750    68.99143
2762.50000    10.55146    58.78850    71.15342
2763.00000    10.54250    59.16900    73.31541
2763.50000    10.53354    59.54950    75.47739
2764.00000    10.52459    59.93000    77.63938
2764.50000    10.51563    60.31050    79.80137
2765.00000    10.50667    60.69100    78.88487
2765.50000    10.49771    61.07151    77.53133
2766.00000    10.48876    61.45201    76.66651
2766.50000    10.47980    61.83251    76.16657
2767.00000    10.47084    62.21301    78.94521
2767.50000    10.44634    62.59351    81.72386
2768.00000    10.41520    62.97401    84.50250
2768.50000    10.38406    63.35452    87.28115
2769.00000    10.35291    62.95257    90.05980
2769.50000    10.32177    62.14857    88.36344
2770.00000    10.29063    61.34457    82.07968
2770.50000    10.25949    60.54057    78.79714
2771.00000    10.22834    59.73656    78.57443
2771.50000    10.19720    58.93256    78.35172
2772.00000    10.16606    58.22383    78.12901
2772.50000    10.13492    58.61188    77.90630
2773.00000    10.10378    58.99994    80.77151
2773.50000    10.07263    59.38800    91.95708
2774.00000    10.04149    60.53063    104.31153
2774.50000    10.01035    61.69696    117.67915
2775.00000    9.97921    62.86329    131.32720
2775.50000    9.94806    64.02962    144.97524
2776.00000    9.91692    65.19595    152.07332
