###############################################
##         ENVERUS                           ##
##         ESS - Open Hole                   ##
##         PERMIAN / DELAWARE                ##
##         Nov 02 2023  V4.0                 ##
##         42-109-31375-00-00                ##
###############################################
## Copyright 2017-2023  ENVERUS.  All Rights Reserved. 
## Confidential - Property of ENVERUS, use governed by terms and 
## conditions found within the existing Information Services Subscription Agreement 
## (as may be amended, the “ISSA”) between Customer and ENVERUS. 
## 
~VERSION INFORMATION
# MNEM.UNIT                               DATA : DESCRIPTION OF MNEMONIC
#-----.-----     ----------------------------- : -----------------------------
VERS.                                     2.00 : CWLS LOG ASCII STANDARD - VERSION 2.00
WRAP.                                       NO : MULTIPLE LINES PER DEPTH STEP
VEND.                                  ENVERUS : VENDOR
TYPE.                          ESS - OPEN HOLE : ENVERUS ESSENTIAL CURVES – ACCESSIBLE THROUGH ENVERUS PRISM(TM)
DOC.                                  32006335 : ENVERUS HEADER RAW DOCUMENT ID
#___________________________________________________________________________________________________ 
~WELL INFORMATION 
# Eb7Zbut2Nwqt2ftj1i2q6V2Ye1Joym9Qrd6BFF0aHeZ6Mf1z+VAuEcbs4uVngcAWjTW62nvWGWatc34NWk2mnA== 
# MNEM.UNIT                                              DATA : DESCRIPTION OF MNEMONIC 
#-----.-----                    ----------------------------- : ----------------------------- 
CNTY.                                               CULBERSON : COUNTY 
STATE.                                                  TEXAS : STATE 
CNTRY.                                                    USA : COUNTRY 
API.                                             42-109-31375 : API (10 Digit) 
API_14.                                    42-109-31375-00-00 : API (14 Digits) 
API_14_std.                                 42-109-31375-0000 : API (14 Digits Standard) 
UWI.                                           42109313750000 : UNIQUE WELL ID 
WELL.                                      7806 JV-P DUVAL  1 : WELL NAME
STRT.FT                                                     0 : START DEPTH
STOP.FT                                               15739.0 : STOP DEPTH
STEP.FT                                                   0.5 : STEP BETWEEN DEPTHS
NULL.                                                 -999.25 : NULL VALUE
COMP.                                  BTA OIL PRODUCERS  LLC : COMPANY 
DATE.                                             26-MAY-1978 : LOG DATE
#___________________________________________________________________________________________________ 
~CURVE INFORMATION 
# MNEM.UNIT           : CURVE DESCRIPTION 
#-----.-----          : ----------------------------- 
 DEPT.FT               : MEASURED DEPTH 
 CALI.IN               : CALIPER (CAL - CAL) 
 GR.API                : GAMMA RAY (GR) 
 DT.US/FT              : SONIC DELTA TRANSIT TIME (DT) 
 #___________________________________________________________________________________________________ 
~A         DEPT           CALI             GR             DT
# ...
        14784.0          9.189        127.684         84.467
        14784.5          9.183        129.294         84.475
        14785.0          9.182        126.801         84.482
        14785.5          9.182        124.308         84.490
        14786.0          9.182        123.295         84.497
        14786.5          9.182        122.291         84.505
        14787.0          9.182        125.385         84.513
        14787.5          9.182        127.467         84.592
        14788.0          9.182        124.251         84.956
        14788.5          9.182        123.048         85.321
        14789.0          9.182        121.845         85.685
        14789.5          9.182        120.716         85.969
        14790.0          9.182        119.688         85.614
        14790.5          9.182        118.660         85.260
        14791.0          9.182        117.197         84.905
        14791.5          9.182        115.335         84.658
        14792.0          9.182        114.436         85.745
        14792.5          9.181        114.503         86.641
        14793.0          9.178        115.001         86.893
        14793.5          9.175        117.700         87.146
        14794.0          9.172        120.399         87.399
        14794.5          9.169        122.841         87.633
        14795.0          9.166        124.262         87.760
        14795.5          9.169        124.711         87.887
        14796.0          9.172        123.901         88.013
        14796.5          9.175        122.145         88.140
        14797.0          9.177        119.968         88.208
        14797.5          9.180        117.790         87.996
        14798.0          9.183        117.349         87.784
        14798.5          9.185        118.505         87.871
        14799.0          9.188        118.988         88.190
        14799.5          9.191        119.257         87.678
        14800.0          9.194        120.038         87.165
        14800.5          9.195        120.819         86.653
        14801.0          9.191        121.600         87.556
        14801.5          9.186        123.343         88.315
        14802.0          9.181        129.148         87.997
        14802.5          9.177        132.706         87.678
        14803.0          9.172        132.615         87.876
        14803.5          9.168        130.686         88.713
        14804.0          9.172        128.079         89.551
        14804.5          9.183        125.903         90.388
        14805.0          9.195        123.726         91.226
        14805.5          9.207        120.468         90.816
        14806.0          9.219        117.072         90.206
        14806.5          9.231        113.883         89.597
        14807.0          9.240        119.475         88.987
        14807.5          9.235        124.206         88.377
        14808.0          9.231        128.643         88.167
        14808.5          9.227        128.103         88.350
        14809.0          9.223        125.847         88.533
        14809.5          9.218        123.321         88.716
        14810.0          9.214        120.924         89.193
        14810.5          9.210        118.528         90.068
        14811.0          9.206        117.647         90.943
        14811.5          9.202        120.306         91.056
        14812.0          9.197        121.108         88.396
        14812.5          9.195        121.910         86.897
        14813.0          9.194        122.711         86.596
        14813.5          9.194        122.767         86.296
        14814.0          9.194        122.676         85.995
        14814.5          9.194        122.586         85.695
        14815.0          9.194        122.495         85.394
        14815.5          9.194        122.405         85.275
        14816.0          9.194        122.523         85.872
        14816.5          9.194        122.791         86.468
        14817.0          9.194        123.058         87.065
        14817.5          9.194        123.326         87.135
        14818.0          9.194        123.594         86.778
        14818.5          9.194        123.861         86.573
        14819.0          9.194        129.443         86.713
        14819.5          9.194        133.469         86.852
        14820.0          9.194        133.334         86.991
        14820.5          9.194        133.199         87.131
        14821.0          9.194        122.045         87.721
        14821.5          9.211        116.225         88.438
        14822.0          9.246        116.492         89.154
        14822.5          9.278        117.477         89.139
        14823.0          9.302        118.677         88.598
        14823.5          9.327        119.877         88.057
        14824.0          9.344        120.952         87.517
        14824.5          9.361        121.635         87.539
        14825.0          9.377        122.318         88.011
        14825.5          9.393        123.001         88.125
        14826.0          9.403        123.685         88.109
        14826.5          9.399        124.368         88.093
        14827.0          9.395        125.508         88.160
        14827.5          9.391        127.415         88.824
        14828.0          9.367        132.218         89.488
        14828.5          9.324        128.098         90.151
        14829.0          9.281        124.514         89.800
        14829.5          9.237        122.247         89.367
        14830.0          9.193        119.979         88.935
        14830.5          9.192        117.712         88.502
        14831.0          9.192        120.095         88.070
        14831.5          9.192        123.435         87.916
        14832.0          9.192        126.427         90.346
        14832.5          9.192        127.494         92.777
        14833.0          9.192        128.561         92.655
        14833.5          9.192        129.628         91.631
        14834.0          9.192        131.666         90.608
        14834.5          9.192        133.788         89.584
        14835.0          9.188        133.396         88.560
        14835.5          9.181        131.000         87.537
        14836.0          9.173        128.604         87.036
        14836.5          9.165        128.331         86.550
        14837.0          9.158        129.080         86.712
        14837.5          9.150        129.828         87.111
        14838.0          9.150        127.943         87.514
        14838.5          9.156        125.148         88.879
        14839.0          9.162        118.684         90.243
        14839.5          9.168        120.215         91.224
        14840.0          9.174        121.746         90.932
        14840.5          9.176        123.239         90.639
        14841.0          9.176        123.773         90.347
        14841.5          9.176        124.308         90.054
        14842.0          9.176        127.182         89.762
        14842.5          9.176        129.978         89.469
        14843.0          9.176        129.654         89.177
        14843.5          9.185        126.248         89.630
        14844.0          9.197        122.715         90.597
        14844.5          9.210        124.433         95.075
        14845.0          9.274        126.151         99.603
        14845.5          9.402        127.869        100.761
        14846.0          9.303        127.925        101.919
        14846.5          9.206        125.436        101.732
        14847.0          9.201        123.479        100.026
        14847.5          9.197        122.476         98.348
        14848.0          9.193        121.756         96.669
        14848.5          9.188        119.564         96.461
        14849.0          9.184        115.726         95.062
        14849.5          9.179        116.489         92.918
