~VERSION INFORMATION
VERS. 2.0 : CWLS Log ASCII Standard - Version 2.0
WRAP. NO : One line per depth step
#--------------------------------------------------#
#----------------DRILLING INFO, INC.---------------#
#---------------WWW.DRILLINGINFO.COM---------------#
#------------------COPYRIGHT 2015------------------#
#--------------------------------------------------#
#THIS FILE MAY BE USED ONLY IN ACCORDANCE WITH A CURRENT SUBSCRIPTION AGREEMENT BETWEEN
#THE USER AND DRILLING INFO, INC. NO PART OF THIS FILE MAY BE REPRODUCED, USED, COPIED,
#MODIFIED, PROPAGATED, OR DISTRIBUTED EXCEPT IN ACCORDANCE WITH THE SUBSCRIPTION
#AGREEMENT. UNAUTHORIZED USE OR DISTRIBUTION OF ALL OR ANY PART OF THIS FILE MAY VIOLATE
#COPYRIGHT, TRADEMARK, AND/OR OTHER LAWS AND IS SUBJECT TO CIVIL AS WELL AS CRIMINAL
#SANCTIONS.
#--------------------------------------------------#
#THIS FILE IS PROVIDED "AS-IS" AND ALL WARRANTIES ARE EXPRESSLY DISCLAIMED, WHETHER
#EXPRESS, ORAL, IMPLIED, STATUTORY OR OTHERWISE, INCLUDING ANY IMPLIED WARRANTY OF FITNESS
#FOR A PARTICULAR PURPOSE, MERCHANTABILITY, TITLE OR NON-INFRINGEMENT, AND ANY WARRANTIES
#ARISING BY VIRTUE OF CUSTOM OF TRADE OR COURSE OF DEALING.  FURTHER, DRILLING INFO,
#INC. AND ITS LICENSORS DO NOT REPRESENT OR WARRANT THAT THIS FILE WILL MEET USER'S
#REQUIREMENTS OR ARE SUITABLE FOR USER'S NEEDS OR THAT THE DATA OR RESULTS PROVIDED IN
#CONJUNCTION THEREWITH ARE CORRECT, ACCURATE, TIMELY OR RELIABLE. THESE DISCLAIMERS SHALL
#APPLY REGARDLESS OF ANY FAILURE OF ESSENTIAL PURPOSE OF ANY LIMITED REMEDY.  SOME
#JURISDICTIONS DO NOT ALLOW THE EXCLUSION OF CERTAIN WARRANTIES SO SOME OF THE ABOVE
#EXCLUSIONS MAY NOT APPLY. IN NO EVENT SHALL DRILLING INFO, INC. OR ANY OF ITS AFFILIATES
#BE LIABLE UNDER ANY LEGAL THEORY, WHETHER IN TORT (INCLUDING WITHOUT LIMITATION
#NEGLIGENCE), CONTRACT, STRICT LIABILITY, STATUTORY OR OTHERWISE, FOR ANY SPECIAL,
#INCIDENTAL, CONSEQUENTIAL, EXEMPLARY, PUNITIVE OR INDIRECT DAMAGE OF ANY KIND, INCLUDING
#WITHOUT LIMITATION LOSS OF REVENUE, PROFITS, GOODWILL, USE, AND/OR DATA OR THE COST OF
#PROCUREMENT OF SUBSTITUTE GOODS OR SERVICES, EVEN IF APPRISED OF THE POSSIBILITY OF SUCH
#DAMAGES IN ADVANCE.
#--------------------------------------------------#
~WELL INFORMATION
#MNEMONIC     .UNIT              VALUE :DESCRIPTION
#--------------------------------------------------#
STRT       .ft                51.00000 :START DEPTH
STOP       .ft                9476.00000 :STOP DEPTH
STEP       .ft                0.50000 :STEP
NULL       .                -999.25000 :NULL VALUE
COMP       .                 :COMPANY
WELL       .                 :WELL
FLD       .                 :FIELD
LOC       .                 :LOCATION
CNTY       .                 :COUNTY
STAT       .                 :STATE
CTRY       .                 :COUNTRY
SRVC       .                 :SERVICE COMPANY
DATE       .                 :DATE
API       .                42109100520000 :API NUMBER
~CURVE INFORMATION
#MNEMONIC     .UNIT      API CODE :CURVE DESCRIPTION
#--------------------------------------------------#
DEPTH       .ft                      :Measured Depth
CAL       .in        UNKNOWN   :CAL
DT       .us/ft        UNKNOWN   :DT
GR       .gAPI        UNKNOWN   :GR
~A    DEPTH    CAL    DT    GR
# ...
7604.00000    6.19775    58.79992    75.28442
7604.50000    6.20017    57.62712    73.03718
7605.00000    6.20258    56.90323    70.78993
7605.50000    6.20500    56.17934    68.54268
7606.00000    6.20742    55.45544    66.29543
7606.50000    6.20983    54.95964    66.39400
7607.00000    6.21112    55.84055    77.89321
7607.50000    6.21108    56.79201    78.72316
7608.00000    6.21104    57.79961    75.97856
7608.50000    6.21101    58.80721    73.23396
7609.00000    6.21097    59.81481    70.48936
7609.50000    6.21093    60.82241    67.74476
7610.00000    6.21089    61.80678    65.20597
7610.50000    6.21085    61.05974    66.89168
7611.00000    6.21082    60.31270    68.57739
7611.50000    6.21078    59.56566    70.26310
7612.00000    6.21074    58.87300    71.94880
7612.50000    6.21070    60.20195    73.63451
7613.00000    6.21084    61.53090    75.32022
7613.50000    6.21830    62.85985    77.55325
7614.00000    6.22575    64.18880    80.61074
7614.50000    6.23321    65.51775    83.66823
7615.00000    6.24067    65.79023    86.72572
7615.50000    6.24812    64.97346    89.78320
7616.00000    6.25558    64.15668    92.84069
7616.50000    6.26304    63.33991    95.89818
7617.00000    6.27050    62.52314    83.34112
7617.50000    6.27795    61.70637    72.35774
7618.00000    6.28541    61.07422    75.23926
7618.50000    6.29286    61.92047    78.12077
7619.00000    6.30032    62.76671    81.00229
7619.50000    6.30778    63.61296    83.88380
7620.00000    6.29472    64.10048    86.76532
7620.50000    6.28093    62.56520    89.64683
7621.00000    6.26713    61.02992    88.08103
7621.50000    6.25333    59.49464    84.41822
7622.00000    6.23954    58.32245    80.75541
7622.50000    6.22574    59.22402    77.09260
7623.00000    6.21194    60.12559    73.42979
7623.50000    6.19815    61.02716    76.55967
7624.00000    6.18435    61.92874    87.97740
7624.50000    6.17056    62.83031    99.39512
7625.00000    6.15676    63.73188    100.42899
7625.50000    6.14296    64.55995    94.75271
7626.00000    6.14031    62.39622    89.07643
7626.50000    6.14764    60.23249    83.40014
7627.00000    6.15498    59.59126    79.56528
7627.50000    6.16232    59.90409    79.50317
7628.00000    6.16965    60.21692    79.44106
7628.50000    6.17699    60.52975    79.37895
7629.00000    6.18432    60.84258    81.29829
7629.50000    6.19166    59.43880    84.98843
7630.00000    6.19900    60.23856    88.67857
7630.50000    6.20633    61.03832    92.36870
7631.00000    6.20115    61.83808    93.07970
7631.50000    6.18682    62.51810    92.69660
7632.00000    6.17249    62.00718    92.31350
7632.50000    6.15816    61.49626    91.93040
7633.00000    6.14384    60.98535    89.64265
7633.50000    6.12951    60.47443    85.08111
7634.00000    6.11518    59.96351    80.51958
7634.50000    6.13266    59.45260    78.01483
7635.00000    6.16147    59.60911    89.54636
7635.50000    6.19028    60.03165    101.07788
7636.00000    6.21909    60.45420    101.20674
7636.50000    6.24790    60.87675    97.70515
7637.00000    6.27671    60.63322    94.20355
7637.50000    6.30552    60.16603    90.70196
7638.00000    6.33433    59.69884    87.20037
7638.50000    6.36314    59.23165    83.69878
7639.00000    6.37741    58.76446    80.19719
7639.50000    6.37082    60.46485    79.08004
7640.00000    6.36424    62.23976    91.03677
7640.50000    6.35766    64.01467    102.99349
7641.00000    6.35108    65.78958    114.95022
7641.50000    6.34450    67.56449    126.90694
7642.00000    6.33791    68.71821    138.86366
7642.50000    6.33133    69.14097    136.98175
7643.00000    6.33096    69.56373    134.21063
7643.50000    6.33093    69.98650    131.43952
7644.00000    6.33090    69.11134    128.66840
7644.50000    6.33087    68.07946    125.89728
7645.00000    6.33084    67.57007    124.43943
7645.50000    6.33082    67.06069    123.51023
7646.00000    6.33078    66.55130    122.58103
7646.50000    6.33076    66.04192    121.65183
7647.00000    6.33073    65.53254    119.55027
7647.50000    6.33070    65.02315    115.94657
7648.00000    6.34294    64.51377    112.34287
7648.50000    6.35520    64.00438    108.73917
7649.00000    6.36746    64.46089    106.23777
7649.50000    6.37972    65.00165    109.50183
7650.00000    6.39198    65.54241    112.76588
7650.50000    6.40423    66.08317    116.02994
7651.00000    6.41649    64.10796    119.29399
7651.50000    6.42875    62.67193    122.55804
7652.00000    6.44101    62.43808    115.38399
7652.50000    6.45305    62.20424    108.07916
7653.00000    6.46089    62.29673    115.46054
7653.50000    6.46873    64.04425    122.84192
7654.00000    6.47657    65.79176    130.22330
7654.50000    6.48440    67.49561    134.79610
7655.00000    6.49224    67.21510    130.48149
7655.50000    6.50008    66.93459    126.16689
7656.00000    6.50792    66.65407    121.85229
7656.50000    6.51576    66.37356    117.53769
7657.00000    6.52359    66.09305    119.93949
7657.50000    6.49166    65.81253    122.59409
7658.00000    6.44445    65.53202    124.59480
7658.50000    6.39724    65.28180    126.13973
7659.00000    6.35004    65.51646    127.68466
7659.50000    6.30283    65.75112    126.47729
7660.00000    6.25562    65.98578    120.31857
7660.50000    6.23449    65.15475    114.87394
7661.00000    6.23909    64.18505    109.42930
7661.50000    6.24369    63.28093    103.98467
7662.00000    6.24829    62.44644    98.54003
7662.50000    6.25289    61.61196    93.76842
7663.00000    6.25749    60.77748    96.28171
7663.50000    6.26209    59.94299    98.79500
7664.00000    6.26669    59.92477    101.30829
7664.50000    6.27129    60.27711    103.82158
7665.00000    6.27589    60.62944    106.33487
7665.50000    6.28049    60.98178    108.84816
7666.00000    6.31219    61.33411    111.36145
7666.50000    6.34588    61.68645    113.87474
7667.00000    6.37956    62.03878    113.90901
7667.50000    6.41325    62.39112    111.81978
7668.00000    6.41069    62.74345    109.73055
7668.50000    6.38184    63.09578    107.64132
7669.00000    6.35299    63.44812    109.18511
7669.50000    6.32414    63.85437    112.02214
7670.00000    6.29529    64.29838    114.85917
7670.50000    6.26644    64.74240    117.69621
7671.00000    6.23759    65.18641    120.53324
7671.50000    6.20874    65.63043    123.37028
7672.00000    6.17989    66.07445    121.02563
7672.50000    6.16153    66.51847    114.70106
7673.00000    6.17462    64.18795    108.37649
7673.50000    6.18771    65.05251    102.05193
7674.00000    6.20080    64.65191    107.30324
7674.50000    6.21389    64.03991    116.16187
7675.00000    6.22698    63.42791    112.19172
7675.50000    6.24006    62.26222    106.21396
7676.00000    6.25315    60.93485    100.42652
7676.50000    6.25383    61.68739    109.09551
7677.00000    6.25119    62.43993    117.76450
7677.50000    6.24854    63.19247    126.43349
7678.00000    6.24590    63.94501    132.75839
7678.50000    6.24326    64.69756    130.54543
7679.00000    6.24062    65.45010    128.33248
7679.50000    6.23797    66.20264    126.11953
7680.00000    6.23533    66.95518    123.10133
7680.50000    6.23269    67.70772    118.95211
7681.00000    6.22908    68.46026    114.80290
7681.50000    6.22434    67.82302    110.65368
7682.00000    6.21961    66.80669    107.48778
7682.50000    6.21487    65.79035    110.43801
7683.00000    6.21014    65.38590    113.38825
7683.50000    6.20540    63.99652    116.33848
7684.00000    6.20066    64.49643    119.28871
7684.50000    6.19593    65.03771    118.87979
7685.00000    6.19119    65.57898    113.23011
7685.50000    6.18645    66.06590    107.58042
7686.00000    6.18172    64.16420    101.93074
7686.50000    6.17698    63.00015    102.02452
7687.00000    6.17225    62.91235    106.14245
7687.50000    6.16751    62.82456    110.26038
7688.00000    6.16277    63.30879    114.37831
7688.50000    6.15804    65.76193    118.49623
7689.00000    6.16805    68.21506    122.61416
7689.50000    6.17945    70.31006    126.73209
