#   WellGreen Tech Inc.   Digitizing Services
#   www.wellgreentech.com
#   email: sales@wellgreentech.com
#
~Version Information Block
 VERS.                2.00:     CWLS LOG ASCII STANDARD - VERSION 2.000000
 WRAP.                  NO:     One Line Per Depth Step
#
~Well Information Block
#MNEM.UNIT                     Data                         Information
#----------   ------------------------------------------   ----------------
 STRT.FT                                      400.0000:     START DEPTH
 STOP.FT                                    10100.0000:     STOP DEPTH
 STEP.FT                                        0.5000:     STEP
 NULL.                                       -999.2500:     NULL VALUE
 COMP.                       ENRON OIL AND GAS COMPANY:     COMPANY
 WELL.                                   TXL "1" NO. 1:     WELL
 FLD .                                         WILDCAT:     FIELD
 LOC .                                              63:     LOCATION
 CNTY.                                       CULBERSON:     COUNTY
 STAT.                                           TEXAS:     STATE
 CTRY.                                             USA:     COUNTRY
 SRVC.                                    SCHLUMBERGER:     SERVICE COMPANY
 DATE.                                      06/28/1989:     DATE
 API .               42109320330000:    API NUMBER
 UWI .               42109320330000:    UWI NUMBER
 TVD .                                              NO:     TVD flag
 MATRIX .G/CC                  :    Matrix Density
#
~Curve Information Block
#MNEM.UNIT       API CODE      Curve Description
#----------    -------------   -------------------
 DEPT.FT                   :   Depth in Feet
 GR  .API      35 310 01 01:   Gamma Ray
 CALI.INCHES   70 280 01 01:   Caliper
 DT  .US/FT    60 520 08 01:   Delta T
 SPHI.V/V      61 890 01 01:   Sonic Porosity
#
~Parameter Information Block
#MNEM.UNIT            Value               Description
#----------    --------------------    -------------------
 RUN .                         ONE:    Run Number
 PDAT.                          GL:    Permanent Datum
 EPD .FT                 3890.3000:    Elevation Of Perm. Datum
 LMF .               KELLY BUSHING:    Log Measured From
 EKB .FT                 3905.1000:    Elevation Of Kelly Bushing
 DF .FT                  3904.1000:    Elevation Of Derrick Floor
 GL .FT                  3890.3000:    Elevation Of Ground Level
 TD .FT                  10100.0000:    Total Depth
 BHT .DEGF               193.00 :  Bottom Hole Temperature
 BLI .FT               10100.0000:   Bottom Log Interval
 CSGSIZE.IN              9.6250:   Casing Size
 BITSIZE.IN               8.750 :  BitSize
 CSGD.FT                      405:    Casing Bottom (Driller) 1
 CSGL.FT                      405:    Casing Bottom (Logger) 1
 MUD .                      SW GEL:    Drilling Fluid Type
 MUDV .CP                  34.0000:    Drilling Fluid Viscosity
 MUDD .LB/USG               9.1000:    Drilling Fluid Density
 FL .ML/30MIN               8.0000:    Drilling Fluid Loss
 PH.                       10.0000:    Drilling Fluid Ph
 MUDS .                  CIRC TANK:    Mud Sample Source
 RM .OHMM                   0.1720:    Resistivity Of Mud Sample
 RMT .DEGF                 75.0000:    Mud Sample Temperature
 RMF .OHMM                  0.1720:    Mud Filtrate Resistivity
 RMFT.DEGF                 75.0000:    Mud Filtrate Sample Temperature
 RMB .OHMM                  0.0710:    Mud Resistivity At Bht
 TMAX .DEGF               193.0000:    Bottom Hole Temperature
#
~Other Information Block
<DescLogPlotStart>   NEURALOG PLOT DEFINITION
PLOTDEFVERSION: 3
LASFILE: D:\nds\projects\20MAY19H\las\42109320330000_BEG_RAS_RS0022815370.las
DEPTHSCALE: 240.000000
RESOLUTION: 400
DEPTHLABELFREQ: 100.000000
HEAVYGRIDFREQ: 100.000000
MEDIUMGRIDFREQ: 50.000000
LIGHTGRIDFREQ: 10.000000
#
#   TRACK 1
#
STARTTRACK: 
 LEFTX: 0.500000 inch
 RIGHTX: 3.000000 inch
 SCALETYPE: Linear
 NUMCHARTDIVISIONS: 10
CURVE: GR    0.000000   125.000000 (0,0,255)      Solid             2     Y    
BACKUP: 125.000000 250.000000 (0,0,255)      Solid             2    
ENDTRACK: 
#
#   TRACK 2
#
STARTTRACK: 
 LEFTX: 0.500000 inch
 RIGHTX: 3.000000 inch
 SCALETYPE: Linear
 NUMCHARTDIVISIONS: 10
CURVE: CALI  6.000000   16.000000  (0,131,131)    Solid             2     N    
ENDTRACK: 
#
#   TRACK 3
#
STARTTRACK: 
 LEFTX: 3.500000 inch
 RIGHTX: 8.500000 inch
 SCALETYPE: Linear
 NUMCHARTDIVISIONS: 10
CURVE: DT    100.000000 40.000000  (255,0,255)    Solid             2     Y    
BACKUP: 160.000000 100.000000 (255,0,255)    Solid             2    
CURVE: SPHI  0.300000   -0.100000  (255,0,0)      Dot               2     Y    
BACKUP: 0.700000   0.300000   (255,0,0)      Dot               2    
BACKUP: -0.100000  -0.500000  (255,0,0)      Dot               2    
ENDTRACK: 
<DescLogPlotEnd>
~A DEPTH     GR               CALI             DT               SPHI            
# ...
    3617.500 127.76           9.43             80.80            0.26            
    3618.000 134.65           9.43             83.07            0.27            
    3618.500 143.71           9.43             85.43            0.28            
    3619.000 141.02           9.43             88.21            0.29            
    3619.500 122.51           9.43             89.45            0.29            
    3620.000 128.74           9.44             88.07            0.29            
    3620.500 118.03           9.44             84.84            0.28            
    3621.000 117.72           9.44             83.53            0.27            
    3621.500 120.90           9.44             83.12            0.27            
    3622.000 122.82           9.44             83.53            0.27            
    3622.500 119.62           9.44             84.29            0.27            
    3623.000 115.64           9.44             84.59            0.27            
    3623.500 114.69           9.44             84.96            0.28            
    3624.000 115.40           9.44             85.56            0.28            
    3624.500 115.13           9.44             86.17            0.28            
    3625.000 112.21           9.45             86.21            0.28            
    3625.500 109.27           9.45             85.26            0.28            
    3626.000 107.87           9.45             84.53            0.27            
    3626.500 113.46           9.45             84.25            0.27            
    3627.000 119.46           9.45             84.72            0.28            
    3627.500 122.78           9.45             86.00            0.28            
    3628.000 119.50           9.44             87.94            0.29            
    3628.500 113.24           9.43             88.57            0.28            
    3629.000 106.90           9.43             84.85            0.27            
    3629.500 105.58           9.42             82.12            0.26            
    3630.000 103.47           9.41             83.01            0.26            
    3630.500 100.50           9.41             84.39            0.27            
    3631.000 99.24            9.40             87.22            0.28            
    3631.500 105.23           9.39             89.04            0.29            
    3632.000 113.45           9.39             88.56            0.29            
    3632.500 112.10           9.40             87.91            0.29            
    3633.000 102.72           9.40             88.00            0.29            
    3633.500 91.60            9.40             86.75            0.28            
    3634.000 84.62            9.41             84.67            0.27            
    3634.500 81.26            9.41             82.58            0.26            
    3635.000 79.90            9.41             80.74            0.26            
    3635.500 80.82            9.42             79.36            0.25            
    3636.000 87.82            9.42             78.22            0.24            
    3636.500 98.54            9.42             77.75            0.24            
    3637.000 109.04           9.43             78.80            0.25            
    3637.500 114.99           9.43             81.25            0.25            
    3638.000 115.97           9.43             83.69            0.27            
    3638.500 112.68           9.42             86.04            0.28            
    3639.000 108.56           9.41             87.23            0.28            
    3639.500 104.89           9.40             87.61            0.29            
    3640.000 102.38           9.39             87.75            0.29            
    3640.500 100.50           9.38             87.44            0.29            
    3641.000 99.59            9.37             87.07            0.28            
    3641.500 98.13            9.37             86.71            0.28            
    3642.000 96.05            9.38             86.48            0.28            
    3642.500 95.81            9.38             86.72            0.28            
    3643.000 98.16            9.38             87.45            0.29            
    3643.500 99.76            9.39             88.06            0.29            
    3644.000 98.13            9.39             87.06            0.28            
    3644.500 92.61            9.39             85.06            0.27            
    3645.000 90.32            9.40             83.39            0.27            
    3645.500 92.37            9.40             82.50            0.26            
    3646.000 96.40            9.40             83.23            0.27            
    3646.500 98.04            9.39             84.42            0.27            
    3647.000 98.19            9.38             85.60            0.28            
    3647.500 96.70            9.38             86.31            0.28            
    3648.000 92.67            9.37             86.50            0.28            
    3648.500 82.02            9.36             85.94            0.28            
    3649.000 73.95            9.35             84.58            0.27            
    3649.500 68.12            9.35             81.49            0.26            
    3650.000 63.23            9.35             78.15            0.25            
    3650.500 58.44            9.35             74.80            0.23            
    3651.000 54.60            9.35             71.78            0.21            
    3651.500 58.54            9.35             70.25            0.20            
    3652.000 65.60            9.35             70.78            0.21            
    3652.500 70.35            9.35             73.07            0.22            
    3653.000 73.54            9.35             75.32            0.23            
    3653.500 78.86            9.35             76.76            0.24            
    3654.000 81.88            9.35             77.70            0.24            
    3654.500 78.83            9.34             78.00            0.24            
    3655.000 73.28            9.34             77.83            0.24            
    3655.500 70.24            9.34             77.60            0.24            
    3656.000 70.46            9.34             77.16            0.24            
    3656.500 70.67            9.34             76.76            0.24            
    3657.000 73.21            9.34             76.63            0.24            
    3657.500 78.10            9.35             76.70            0.24            
    3658.000 84.50            9.35             77.54            0.24            
    3658.500 87.93            9.36             80.59            0.25            
    3659.000 88.34            9.37             82.74            0.27            
    3659.500 86.12            9.38             83.22            0.27            
    3660.000 76.82            9.39             82.33            0.26            
    3660.500 68.06            9.39             78.69            0.24            
    3661.000 63.83            9.38             75.07            0.23            
    3661.500 70.79            9.38             72.64            0.22            
    3662.000 83.57            9.38             73.73            0.23            
    3662.500 96.30            9.38             78.18            0.24            
    3663.000 98.97            9.37             82.63            0.26            
    3663.500 94.80            9.37             86.21            0.28            
    3664.000 80.92            9.37             85.60            0.28            
    3664.500 70.31            9.37             80.08            0.25            
    3665.000 63.73            9.36             73.54            0.23            
    3665.500 59.32            9.36             70.86            0.20            
    3666.000 54.90            9.36             68.81            0.19            
    3666.500 51.14            9.36             67.14            0.18            
