###############################################
##         ENVERUS                           ##
##         ESS - Open Hole                   ##
##         PERMIAN / DELAWARE                ##
##         Nov 03 2023  V4.0                 ##
##         42-109-32507-90-00                ##
###############################################
## Copyright 2017-2023  ENVERUS.  All Rights Reserved. 
## Confidential - Property of ENVERUS, use governed by terms and 
## conditions found within the existing Information Services Subscription Agreement 
## (as may be amended, the “ISSA”) between Customer and ENVERUS. 
## 
~VERSION INFORMATION
# MNEM.UNIT                               DATA : DESCRIPTION OF MNEMONIC
#-----.-----     ----------------------------- : -----------------------------
VERS.                                     2.00 : CWLS LOG ASCII STANDARD - VERSION 2.00
WRAP.                                       NO : MULTIPLE LINES PER DEPTH STEP
VEND.                                  ENVERUS : VENDOR
TYPE.                          ESS - OPEN HOLE : ENVERUS ESSENTIAL CURVES – ACCESSIBLE THROUGH ENVERUS PRISM(TM)
DOC.                                  51094130 : ENVERUS HEADER RAW DOCUMENT ID
#___________________________________________________________________________________________________ 
~WELL INFORMATION 
# OeTAuI96vYP/1gAnXdiC+b2e5mg9bdq0rVS4GA6NX+ctg1PKQ5RhcqUsdOd2aOUDNf5EtC5635oDT1THDUi6iw== 
# MNEM.UNIT                                              DATA : DESCRIPTION OF MNEMONIC 
#-----.-----                    ----------------------------- : ----------------------------- 
CNTY.                                               CULBERSON : COUNTY 
STATE.                                                  TEXAS : STATE 
CNTRY.                                                    USA : COUNTRY 
API.                                             42-109-32507 : API (10 Digit) 
API_14.                                    42-109-32507-90-00 : API (14 Digits) 
API_14_std.                                 42-109-32507-9000 : API (14 Digits Standard) 
UWI.                                           42109325079000 : UNIQUE WELL ID 
WELL.                               42109325070000_PREV_API14 : WELL NAME
STRT.FT                                                2104.5 : START DEPTH
STOP.FT                                                9085.0 : STOP DEPTH
STEP.FT                                                   0.5 : STEP BETWEEN DEPTHS
NULL.                                                 -999.25 : NULL VALUE
PREV_APII.                                     42109325070000 : WELL IDENTIFIER
#___________________________________________________________________________________________________ 
~PARAMETER INFORMATION 
# MNEM.UNIT                                              DATA : DESCRIPTION OF MNEMONIC 
#-----.-----                    ----------------------------- : ----------------------------- 
EKB.FT                                                 3578.5 : ELEVATION ABOVE MSL
#___________________________________________________________________________________________________ 
~CURVE INFORMATION 
# MNEM.UNIT           : CURVE DESCRIPTION 
#-----.-----          : ----------------------------- 
 DEPT.FT               : MEASURED DEPTH 
 GR__A.API             : GAMMA RAY (GAMMA RAY) 
 DT__A.US/FT           : SONIC DELTA TRANSIT TIME (SONIC) 
 #___________________________________________________________________________________________________ 
~A         DEPT          GR__A          DT__A
# ...
         3496.5        112.354         58.228
         3497.0        110.498         57.379
         3497.5        112.362         56.475
         3498.0        118.314         56.404
         3498.5        126.508         57.448
         3499.0        125.656         58.984
         3499.5        128.330         60.900
         3500.0        130.898         61.149
         3500.5        123.647         61.191
         3501.0        126.034         60.601
         3501.5        139.304         57.992
         3502.0        140.401         54.578
         3502.5        122.845         48.107
         3503.0        106.668         43.000
         3503.5        105.668         40.903
         3504.0        102.927         41.673
         3504.5        103.322         46.764
         3505.0        104.483         49.475
         3505.5        104.905         49.019
         3506.0        105.697         44.758
         3506.5        107.629         41.285
         3507.0        116.636         45.001
         3507.5        160.598         59.736
         3508.0        178.258         81.058
         3508.5        187.237         96.170
         3509.0        187.021         91.407
         3509.5        181.347         82.744
         3510.0        167.002         78.218
         3510.5        142.038         78.412
         3511.0        143.126         79.693
         3511.5        143.234         63.939
         3512.0        133.263         48.548
         3512.5        107.496         39.578
         3513.0         90.298         37.223
         3513.5         94.176         45.842
         3514.0        111.342         54.059
         3514.5        117.981         58.494
         3515.0        116.705         62.021
         3515.5        114.806         61.795
         3516.0        112.393         62.456
         3516.5        108.388         67.255
         3517.0        105.742         69.089
         3517.5        102.650         69.718
         3518.0        104.904         70.074
         3518.5        107.656         71.054
         3519.0        103.593         71.276
         3519.5        101.395         71.276
         3520.0        102.515         72.045
         3520.5        108.552         74.383
         3521.0        110.717         78.486
         3521.5        105.247         80.453
         3522.0        104.901         81.221
         3522.5        112.849         82.426
         3523.0        117.657         84.569
         3523.5        125.209         91.735
         3524.0        124.682         99.981
         3524.5        114.057        101.562
         3525.0        115.645         96.713
         3525.5        134.267         91.314
         3526.0        146.320         85.236
         3526.5        157.858         86.081
         3527.0        171.195         88.752
         3527.5        175.205         92.698
         3528.0        173.321         94.618
         3528.5        170.970         95.514
         3529.0        164.736         96.298
         3529.5        143.266         96.101
         3530.0        115.502         95.921
         3530.5        136.818         96.705
         3531.0        188.224         97.880
         3531.5        228.062         98.345
         3532.0        228.588         96.525
         3532.5        187.554         93.953
         3533.0        115.998         94.462
         3533.5        104.966        103.793
         3534.0        103.704        118.119
         3534.5        102.214        124.656
         3535.0        101.708        123.820
         3535.5        113.633        114.991
         3536.0        117.704        104.849
         3536.5        123.312        100.480
         3537.0        130.203        103.589
         3537.5        131.773        104.771
         3538.0        131.396        104.570
         3538.5        146.623        102.398
         3539.0        157.366         98.796
         3539.5        164.522         97.979
         3540.0        162.514         98.929
         3540.5        162.041         98.062
         3541.0        213.430         88.541
         3541.5        246.300         75.797
         3542.0        325.272         68.712
         3542.5        396.794         79.267
         3543.0        319.444         94.285
         3543.5        242.076         97.176
         3544.0        255.513         93.561
         3544.5        296.626         93.026
         3545.0        314.008        101.957
         3545.5        281.486        109.099
         3546.0        237.961        109.986
         3546.5        205.450        105.181
         3547.0        195.579        102.142
         3547.5        254.515         96.045
         3548.0        299.785         91.513
         3548.5        299.461         97.786
         3549.0        259.207        107.520
         3549.5        206.436        111.403
         3550.0        193.859        120.183
         3550.5        182.931        117.511
         3551.0        188.692        111.855
         3551.5        228.754        104.476
         3552.0        235.938        107.410
         3552.5        218.569        112.104
         3553.0        189.360        114.384
         3553.5        157.714        115.669
         3554.0        146.202        116.454
         3554.5        150.119        116.754
         3555.0        160.751        117.819
         3555.5        177.868        116.521
         3556.0        173.056        114.487
         3556.5        153.858        114.731
         3557.0        150.387        115.287
         3557.5        144.092        114.898
         3558.0        145.120        113.010
         3558.5        169.316        108.149
         3559.0        216.894        104.670
         3559.5        267.051        101.053
         3560.0        318.034         95.939
         3560.5        364.844         87.331
         3561.0        391.010         81.906
         3561.5        397.677         81.574
         3562.0        381.015         87.829
         3562.5        329.511         96.205
         3563.0        275.278         98.890
         3563.5        220.620        102.762
         3564.0        208.424        103.992
         3564.5        216.006        103.226
         3565.0        210.375        101.528
         3565.5        194.641         99.186
         3566.0        179.060         97.232
         3566.5        160.694         95.986
         3567.0        157.895         94.322
         3567.5        169.637         93.320
         3568.0        181.611         92.730
         3568.5        188.075         92.113
         3569.0        166.483         92.113
         3569.5        157.688         92.308
         3570.0        156.725         92.308
         3570.5        154.025         96.562
         3571.0        143.019        108.717
         3571.5        122.677        125.803
         3572.0        111.863        128.516
         3572.5        106.859        122.239
         3573.0        101.447        109.225
         3573.5         94.242         91.433
         3574.0         94.422         79.527
         3574.5        112.452         64.196
         3575.0        125.151         68.161
         3575.5        151.579         75.098
         3576.0        177.008         75.949
         3576.5        168.511         77.379
         3577.0        142.467         75.988
         3577.5        121.513         74.587
         3578.0        113.226         77.886
         3578.5        131.504         82.091
         3579.0        148.726         80.640
         3579.5        144.301         84.285
         3580.0        129.999         84.216
         3580.5        121.801         80.707
         3581.0        119.720         76.057
         3581.5        117.879         71.707
         3582.0        117.087         69.133
         3582.5        115.516         71.470
         3583.0        114.620         72.249
