###############################################
##         ENVERUS                           ##
##         ESS - Open Hole                   ##
##         PERMIAN / DELAWARE                ##
##         Nov 02 2023  V4.0                 ##
##         42-109-10071-00-00                ##
###############################################
## Copyright 2017-2023  ENVERUS.  All Rights Reserved. 
## Confidential - Property of ENVERUS, use governed by terms and 
## conditions found within the existing Information Services Subscription Agreement 
## (as may be amended, the “ISSA”) between Customer and ENVERUS. 
## 
~VERSION INFORMATION
# MNEM.UNIT                               DATA : DESCRIPTION OF MNEMONIC
#-----.-----     ----------------------------- : -----------------------------
VERS.                                     2.00 : CWLS LOG ASCII STANDARD - VERSION 2.00
WRAP.                                       NO : MULTIPLE LINES PER DEPTH STEP
VEND.                                  ENVERUS : VENDOR
TYPE.                          ESS - OPEN HOLE : ENVERUS ESSENTIAL CURVES – ACCESSIBLE THROUGH ENVERUS PRISM(TM)
DOC.                                  31950413 : ENVERUS HEADER RAW DOCUMENT ID
#___________________________________________________________________________________________________ 
~WELL INFORMATION 
# OfUh2+mdeFjroaXzMJDg/lRWUsinBwpBr+LWp9Jgnw936lSgPWOOCrYxw0Bz1A8ekYSC2IJg55FhS+cGr4hs3w== 
# MNEM.UNIT                                              DATA : DESCRIPTION OF MNEMONIC 
#-----.-----                    ----------------------------- : ----------------------------- 
CNTY.                                               CULBERSON : COUNTY 
STATE.                                                  TEXAS : STATE 
CNTRY.                                                    USA : COUNTRY 
API.                                             42-109-10071 : API (10 Digit) 
API_14.                                    42-109-10071-00-00 : API (14 Digits) 
API_14_std.                                 42-109-10071-0000 : API (14 Digits Standard) 
UWI.                                           42109100710000 : UNIQUE WELL ID 
WELL.                                                  DRD_55 : WELL NAME
STRT.FT                                                 320.5 : START DEPTH
STOP.FT                                               12359.5 : STOP DEPTH
STEP.FT                                                   0.5 : STEP BETWEEN DEPTHS
NULL.                                                 -999.25 : NULL VALUE
#___________________________________________________________________________________________________ 
~PARAMETER INFORMATION 
# MNEM.UNIT                                              DATA : DESCRIPTION OF MNEMONIC 
#-----.-----                    ----------------------------- : -----------------------------
#___________________________________________________________________________________________________ 
~CURVE INFORMATION 
# MNEM.UNIT           : CURVE DESCRIPTION 
#-----.-----          : ----------------------------- 
 DEPT.FT               : MEASURED DEPTH 
 GR.API                : GAMMA RAY (GAMMA RAY) 
 DT.US/FT              : SONIC DELTA TRANSIT TIME (SONIC) 
 #___________________________________________________________________________________________________ 
~A         DEPT             GR             DT
# ...
         7454.5         50.198         58.185
         7455.0         49.040         55.113
         7455.5         51.529         53.658
         7456.0         67.645         57.644
         7456.5         86.412         59.888
         7457.0         94.633         61.315
         7457.5         95.344         63.861
         7458.0         87.498         67.208
         7458.5         87.498         70.314
         7459.0         88.946         70.609
         7459.5         81.089         69.430
         7460.0         71.007         67.163
         7460.5         62.399         66.962
         7461.0         60.009         65.571
         7461.5         58.815         62.546
         7462.0         60.854         59.668
         7462.5         79.088         60.932
         7463.0         90.237         63.216
         7463.5         97.345         65.500
         7464.0         97.037         67.785
         7464.5         93.104         68.996
         7465.0         69.698         66.013
         7465.5         61.253         64.176
         7466.0         52.396         63.991
         7466.5         44.978         55.992
         7467.0         38.432         54.283
         7467.5         31.887         53.791
         7468.0         25.342         52.602
         7468.5         23.521         51.412
         7469.0         20.342         50.866
         7469.5         21.468         50.688
         7470.0         23.980         50.487
         7470.5         26.930         50.311
         7471.0         31.489         50.376
         7471.5         36.048         51.301
         7472.0         50.396         54.989
         7472.5         63.641         58.676
         7473.0         78.580         62.363
         7473.5         87.287         66.051
         7474.0         95.493         69.738
         7474.5        103.138         70.895
         7475.0        101.759         71.914
         7475.5         96.903         73.999
         7476.0         93.976         75.729
         7476.5         95.128         75.705
         7477.0        103.409         76.742
         7477.5        104.539         78.062
         7478.0         93.613         75.113
         7478.5         81.957         71.589
         7479.0         70.479         68.065
         7479.5         58.990         64.541
         7480.0         50.571         61.382
         7480.5         49.956         59.922
         7481.0         51.573         60.032
         7481.5         58.314         60.564
         7482.0         58.471         60.873
         7482.5         47.219         57.498
         7483.0         35.106         55.458
         7483.5         27.629         53.671
         7484.0         23.117         52.059
         7484.5         18.656         51.284
         7485.0         18.869         51.394
         7485.5         23.324         51.514
         7486.0         25.731         50.669
         7486.5         33.276         49.826
         7487.0         36.883         51.007
         7487.5         50.378         54.501
         7488.0         64.625         57.994
         7488.5         78.873         61.487
         7489.0         85.958         64.980
         7489.5         87.627         68.473
         7490.0         97.724         71.305
         7490.5         98.157         70.689
         7491.0         98.196         69.868
         7491.5         96.261         69.042
         7492.0         82.585         67.944
         7492.5         71.395         66.754
         7493.0         71.188         62.677
         7493.5         73.062         61.346
         7494.0         67.886         63.228
         7494.5         67.466         63.305
         7495.0         79.029         63.334
         7495.5         94.802         66.233
         7496.0        110.574         72.118
         7496.5        109.483         74.159
         7497.0        102.743         71.371
         7497.5         95.710         68.464
         7498.0         88.066         65.557
         7498.5         77.955         64.464
         7499.0         73.343         64.505
         7499.5         95.107         65.296
         7500.0        110.825         69.885
         7500.5        107.162         71.999
         7501.0         95.556         71.058
         7501.5         83.951         67.358
         7502.0         69.696         63.658
         7502.5         53.154         59.958
         7503.0         38.778         56.926
         7503.5         36.070         55.920
         7504.0         44.363         56.201
         7504.5         56.086         59.680
         7505.0         67.808         63.160
         7505.5         79.531         66.262
         7506.0         90.293         67.625
         7506.5         92.114         69.578
         7507.0         90.972         71.093
         7507.5         89.502         71.512
         7508.0         89.652         71.582
         7508.5         95.211         73.185
         7509.0        101.145         74.789
         7509.5        107.080         76.392
         7510.0        113.015         77.922
         7510.5        117.357         77.491
         7511.0        112.698         76.477
         7511.5        104.638         75.722
         7512.0         99.128         74.755
         7512.5         98.933         72.046
         7513.0         94.087         69.945
         7513.5         87.685         69.899
         7514.0         81.282         68.832
         7514.5         74.880         64.339
         7515.0         68.477         63.140
         7515.5         62.075         62.364
         7516.0         55.673         62.125
         7516.5         55.039         60.662
         7517.0         58.670         58.585
         7517.5         62.307         58.398
         7518.0         62.896         59.892
         7518.5         61.723         58.136
         7519.0         51.652         56.363
         7519.5         38.708         54.590
         7520.0         30.618         52.817
         7520.5         29.375         51.044
         7521.0         27.915         49.271
         7521.5         31.934         48.474
         7522.0         35.199         49.266
         7522.5         38.252         51.292
         7523.0         47.149         53.318
         7523.5         58.253         55.068
         7524.0         61.646         55.607
         7524.5         53.441         55.694
         7525.0         45.707         54.328
         7525.5         35.826         52.750
         7526.0         29.623         52.063
         7526.5         27.111         51.516
         7527.0         26.655         51.334
         7527.5         26.671         51.546
         7528.0         28.156         51.085
         7528.5         30.984         50.783
         7529.0         33.811         49.847
         7529.5         36.638         49.715
         7530.0         39.650         50.809
         7530.5         47.727         51.638
         7531.0         61.556         58.735
         7531.5         78.847         64.327
         7532.0         96.138         65.997
         7532.5        111.500         71.623
         7533.0        111.120         75.554
         7533.5        106.576         75.075
         7534.0        102.561         74.558
         7534.5         98.546         74.041
         7535.0         95.404         73.524
         7535.5         96.331         73.007
         7536.0         96.937         72.490
         7536.5         95.689         71.845
         7537.0         90.121         71.748
         7537.5         85.633         71.538
         7538.0         89.723         71.332
         7538.5         90.544         71.184
         7539.0         90.544         70.781
         7539.5         88.847         70.186
         7540.0         85.271         69.836
         7540.5         80.152         69.068
         7541.0         74.543         67.726
