~Version Information
 VERS.                  2.0:   CWLS log ASCII Standard -VERSION 2.0
 WRAP.                   NO:   One line per depth step
~Well Information Block
#MNEM.UNIT     VALUE/NAME     DESCRIPTION
#---------     -----------    ---------------------------
 STRT.F              8432.0000: START DEPTH
 STOP.F             13842.0000: STOP DEPTH
 STEP.F                 0.5000: STEP DEPTH
 NULL.                 -999.25: NULL VALUE
 LOC .     100' FNL & 990' FEL:  LOCATION
 FL6 .       API  42-109-33163:  LOCATIONLINE6
 FL4 .           ABSTRACT 1006:  LOCATIONLINE4
 FL3 .        T&P RR CO SURVEY:  LOCATIONLINE3
 FL2 .     SECTION 36, BLOCK 59 T2:  LOCATIONLINE2
 FL1 .     100' FNL & 990' FEL:  LOCATIONLINE1
 DMF .                      KB:  DRILL MEAS FROM
 PDAT.                      GL:  PERMANENT DATUM
 CNTY.               CULBERSON:  COUNTY NAME
 FLD .     FORD, WEST (WOLFCAMP):  FIELD NAME
 WELL.         SCOTT FEE 36 2H:  WELL NAME
 COMP.     CAPITAN ENERGY INC.:  COMPANY
 DATE.             11-Oct-2017:  DATE
 SVCO.             Halliburton:  SERVICECONAME
 PROV.                   TEXAS:  PROVINCE
 STAT.                   TEXAS:  STATE NAME
 CTRY.           UNITED STATES:  COUNTRY NAME
 HIDE.                        :  WELLNAMEOPERAT
 BASI.                 PERMIAN:  BASIN
 UWI .            42-109-33163Lat:  UNIQUE WELL IDENTIFIER
 API .            42-109-33163Lat:  API NUMBER
 RANG.                     N/A:  RANGE
 TOWN.                     N/A:  TOWNSHIP
 SECT.                     N/A:  SECTION
 SON .               904352259:  JOB NUMBER
 SRVC.             Halliburton:  SERVICE COMPANY
 LMF .                      KB:  LOG MEASURED FROM
 EGL .ft             3174.0000:  GROUND ELEVATION
 BAP .ft                0.0000:  GL ELEV ONSHORE
 GVFD.g                 1.0000:  GRAVITY FIELD
 EKB .ft             3200.0000:  KB ELEVATION
 EDF .ft             3199.0000:  DF ELEVATION
~Curve Information Block
#MNEM.UNIT                 API CODE     Curve Description
#---------               -----------    ---------------------------
 DEPT.F                 00 000 000 000:  Depth
 CCL .V                 00 000 000 000:  Casing Collar Locator
 NPHI_OH.pu             00 000 000 000:  NPHI_OH
 NPHI_CHI.pu            00 000 000 000:  NPHI_CHI
 GR_CHI.api             00 000 000 000:  GR_CHI
 GR_OH.api              00 000 000 000:  GR_OH
 RHOB_OH.g/cc           00 000 000 000:  RHOB_OH
 RHOB_CHI.g/cc          00 000 000 000:  RHOB_CHI
 PE_CHI.b/e             00 000 000 000:  PE_CHI
 PE_OH.b/e              00 000 000 000:  PE_OH
 MSFL_OH.ohmm           00 000 000 000:  MSFL_OH
 MSFL_CHI.ohmm          00 000 000 000:  MSFL_CHI
 LLS_OH.ohmm            00 000 000 000:  LLS_OH
 LLS_CHI.ohmm           00 000 000 000:  LLS_CHI
 LLD_OH.ohmm            00 000 000 000:  LLD_OH
 LLD_CHI.ohmm           00 000 000 000:  LLD_CHI
 DTC_OH.uspf            00 000 000 000:  DTC_OH
 DTC_CHI.uspf           00 000 000 000:  DTC_CHI
 SPHI_CHI.pu            00 000 000 000:  SPHI_CHI
 SGF .cu                00 000 000 000:  Formation Sigma
 CRNF.NONE              00 000 000 000:  CM GrsCaptRatio
 RIN .NONE              00 000 000 000:  CM GrsInelRatio
~A    DEPT      CCL   NPHI_OH NPHI_CHI  GR_CHI   GR_OH   RHOB_OH RHOB_CHI PE_CHI  PE_OH   MSFL_OH  MSFL_CHI  LLS_OH   LLS_CHI   LLD_OH  LLD_CHI  DTC_OH  DTC_CHI SPHI_CHI   SGF    CRNF   RIN   
# ...
   11309.0000  0.0000 -999.25  12.5801  95.4167  -999.25 -999.25   2.5641 3.7863 -999.25   -999.25  68.8370   -999.25  89.9366  -999.25  91.2712 -999.25 67.8978  14.3900 17.1737 0.8310 0.9563
   11309.5000  0.0000 -999.25  12.5547  96.1455  -999.25 -999.25   2.5638 3.7564 -999.25   -999.25  68.3164   -999.25  89.1625  -999.25  90.4804 -999.25 67.8341  14.3200 17.2153 0.8257 0.9533
   11310.0000  0.0000 -999.25  12.4259  94.9247  -999.25 -999.25   2.5649 3.7404 -999.25   -999.25  67.5804   -999.25  88.0696  -999.25  89.3639 -999.25 67.7157  14.2500 17.2076 0.8219 0.9509
   11310.5000  0.0000 -999.25  12.8330 101.8494  -999.25 -999.25   2.5595 3.6974 -999.25   -999.25  67.3455   -999.25  87.7211  -999.25  89.0080 -999.25 67.8990  14.3200 17.1364 0.8240 0.9522
   11311.0000  0.0000 -999.25  12.6752  99.6390  -999.25 -999.25   2.5608 3.7119 -999.25   -999.25  67.3889   -999.25  87.7856  -999.25  89.0738 -999.25 67.7431  14.2800 16.9952 0.8256 0.9557
   11311.5000  0.0000 -999.25  12.5994  99.1887  -999.25 -999.25   2.5613 3.7091 -999.25   -999.25  67.7917   -999.25  88.3833  -999.25  89.6843 -999.25 67.6780  14.2100 16.8855 0.8251 0.9551
   11312.0000  0.0000 -999.25  12.5483  98.1107  -999.25 -999.25   2.5621 3.7313 -999.25   -999.25  68.5978   -999.25  89.5808  -999.25  90.9077 -999.25 67.6679  14.1900 16.7673 0.8261 0.9572
   11312.5000  0.0000 -999.25  12.3589  95.3828  -999.25 -999.25   2.5644 3.7503 -999.25   -999.25  69.2306   -999.25  90.5222  -999.25  91.8695 -999.25 67.5746  14.1500 16.7847 0.8333 0.9569
   11313.0000  0.0000 -999.25  12.5978  98.8718  -999.25 -999.25   2.5616 3.7460 -999.25   -999.25  69.9190   -999.25  91.5478  -999.25  92.9174 -999.25 67.7285  14.2000 16.9170 0.8414 0.9589
   11313.5000  0.0000 -999.25  12.9026 102.9597  -999.25 -999.25   2.5581 3.7389 -999.25   -999.25  69.8172   -999.25  91.3961  -999.25  92.7624 -999.25 67.9203  14.3300 17.1479 0.8503 0.9622
   11314.0000  0.0000 -999.25  12.9116 101.9895  -999.25 -999.25   2.5586 3.7465 -999.25   -999.25  69.0483   -999.25  90.2509  -999.25  91.5923 -999.25 67.9660  14.3900 17.3516 0.8525 0.9615
   11314.5000  0.0000 -999.25  12.8562  99.7616  -999.25 -999.25   2.5600 3.7561 -999.25   -999.25  67.7265   -999.25  88.2864  -999.25  89.5854 -999.25 67.9633  14.4000 17.5378 0.8559 0.9606
   11315.0000  0.0000 -999.25  12.9596 100.4029  -999.25 -999.25   2.5596 3.7429 -999.25   -999.25  66.5815   -999.25  86.5889  -999.25  87.8515 -999.25 68.0974  14.4700 17.6031 0.8592 0.9564
   11315.5000  0.0000 -999.25  12.8835  99.0501  -999.25 -999.25   2.5607 3.7333 -999.25   -999.25  65.5518   -999.25  85.0659  -999.25  86.2960 -999.25 68.0541  14.4700 17.5695 0.8624 0.9532
   11316.0000  0.0000 -999.25  12.5639  93.8605  -999.25 -999.25   2.5648 3.7586 -999.25   -999.25  65.1944   -999.25  84.5381  -999.25  85.7570 -999.25 67.8683  14.3700 17.4708 0.8685 0.9524
   11316.5000  0.0000 -999.25  12.4506  91.8308  -999.25 -999.25   2.5664 3.7775 -999.25   -999.25  65.3781   -999.25  84.8092  -999.25  86.0339 -999.25 67.8227  14.3100 17.2347 0.8678 0.9530
   11317.0000  0.0000 -999.25  13.0861 100.7552  -999.25 -999.25   2.5592 3.7492 -999.25   -999.25  65.9204   -999.25  85.6108  -999.25  86.8525 -999.25 68.2703  14.5200 16.9515 0.8654 0.9549
   11317.5000  0.0000 -999.25  13.1891 101.6665  -999.25 -999.25   2.5585 3.7728 -999.25   -999.25  67.2362   -999.25  87.5591  -999.25  88.8425 -999.25 68.4115  14.6900 16.8318 0.8514 0.9569
   11318.0000  0.0000 -999.25  13.4131 105.4516  -999.25 -999.25   2.5556 3.7776 -999.25   -999.25  68.8491   -999.25  89.9546  -999.25  91.2896 -999.25 68.5878  14.8100 16.6952 0.8304 0.9603
   11318.5000  0.0000 -999.25  13.2680 102.7842  -999.25 -999.25   2.5572 3.8117 -999.25   -999.25  69.5425   -999.25  90.9867  -999.25  92.3441 -999.25 68.4500  14.7700 16.6583 0.8176 0.9658
   11319.0000  0.0000 -999.25  12.7685  96.3754  -999.25 -999.25   2.5618 3.8505 -999.25   -999.25  70.3422   -999.25  92.1791  -999.25  93.5624 -999.25 67.9541  14.5000 16.7910 0.8140 0.9720
   11319.5000  0.0000 -999.25  12.7353  98.1535  -999.25 -999.25   2.5602 3.8219 -999.25   -999.25  70.5598   -999.25  92.5038  -999.25  93.8942 -999.25 67.7518  14.2900 16.8745 0.8214 0.9758
   11320.0000  0.0000 -999.25  13.4424 111.5826  -999.25 -999.25   2.5502 3.7235 -999.25   -999.25  69.7804   -999.25  91.3412  -999.25  92.7063 -999.25 68.1945  14.4700 17.0779 0.8319 0.9762
   11320.5000  0.0000 -999.25  13.3927 111.5188  -999.25 -999.25   2.5505 3.7060 -999.25   -999.25  69.2943   -999.25  90.6172  -999.25  91.9666 -999.25 68.1351  14.5400 17.1067 0.8362 0.9734
   11321.0000  0.0000 -999.25  13.5638 113.9895  -999.25 -999.25   2.5486 3.6814 -999.25   -999.25  68.1245   -999.25  88.8774  -999.25  90.1892 -999.25 68.3190  14.6100 17.2276 0.8359 0.9698
   11321.5000  0.0000 -999.25  13.6106 113.4728  -999.25 -999.25   2.5490 3.6918 -999.25   -999.25  67.9605   -999.25  88.6338  -999.25  89.9403 -999.25 68.4334  14.7100 17.3618 0.8389 0.9676
   11322.0000  0.0000 -999.25  13.2440 105.9612  -999.25 -999.25   2.5546 3.7278 -999.25   -999.25  67.2762   -999.25  87.6184  -999.25  88.9030 -999.25 68.1659  14.6000 17.4138 0.8404 0.9658
   11322.5000  0.0000 -999.25  12.2708  91.1490  -999.25 -999.25   2.5661 3.7896 -999.25   -999.25  66.5246   -999.25  86.5048  -999.25  87.7656 -999.25 67.4780  14.2000 17.2885 0.8425 0.9637
   11323.0000  0.0000 -999.25  11.9709  87.0433  -999.25 -999.25   2.5698 3.8007 -999.25   -999.25  66.2357   -999.25  86.0771  -999.25  87.3288 -999.25 67.3245  13.9800 17.0869 0.8371 0.9606
   11323.5000  0.0000 -999.25  12.6558  97.1483  -999.25 -999.25   2.5623 3.7473 -999.25   -999.25  66.9341   -999.25  87.1113  -999.25  88.3850 -999.25 67.8249  14.2000 16.8721 0.8266 0.9567
   11324.0000  0.0000 -999.25  12.6781  97.6097  -999.25 -999.25   2.5622 3.7567 -999.25   -999.25  68.0732   -999.25  88.8012  -999.25  90.1113 -999.25 67.8842  14.3300 16.7861 0.8224 0.9563
   11324.5000  0.0000 -999.25  12.4669  95.5672  -999.25 -999.25   2.5642 3.7679 -999.25   -999.25  69.3083   -999.25  90.6379  -999.25  91.9877 -999.25 67.7335  14.2700 16.8013 0.8170 0.9565
   11325.0000  0.0000 -999.25  12.5748  98.3969  -999.25 -999.25   2.5620 3.7473 -999.25   -999.25  69.8090   -999.25  91.3839  -999.25  92.7499 -999.25 67.7261  14.2400 16.8280 0.8164 0.9582
   11325.5000  0.0000 -999.25  12.7560 101.1833  -999.25 -999.25   2.5595 3.7394 -999.25   -999.25  69.7202   -999.25  91.2516  -999.25  92.6147 -999.25 67.7931  14.2700 16.8644 0.8175 0.9618
   11326.0000  0.0000 -999.25  12.3294  95.3853  -999.25 -999.25   2.5638 3.7595 -999.25   -999.25  69.5646   -999.25  91.0197  -999.25  92.3778 -999.25 67.4618  14.1200 16.9106 0.8171 0.9626
   11326.5000  0.0000 -999.25  12.4341  96.8287  -999.25 -999.25   2.5626 3.7523 -999.25   -999.25  69.3530   -999.25  90.7045  -999.25  92.0557 -999.25 67.5171  14.0700 16.9752 0.8210 0.9632
   11327.0000  0.0000 -999.25  12.5971  99.1996  -999.25 -999.25   2.5609 3.7361 -999.25   -999.25  69.0853   -999.25  90.3060  -999.25  91.6485 -999.25 67.6360  14.1400 17.1422 0.8280 0.9619
   11327.5000  0.0000 -999.25  12.2157  93.8003  -999.25 -999.25   2.5651 3.7520 -999.25   -999.25  68.7127   -999.25  89.7516  -999.25  91.0823 -999.25 67.3860  14.0500 17.2208 0.8345 0.9603
   11328.0000  0.0000 -999.25  11.7812  87.1991  -999.25 -999.25   2.5702 3.7790 -999.25   -999.25  67.7588   -999.25  88.3344  -999.25  89.6344 -999.25 67.1200  13.8600 17.3035 0.8424 0.9598
   11328.5000  0.0000 -999.25  11.4590  81.9207  -999.25 -999.25   2.5744 3.8167 -999.25   -999.25  67.3145   -999.25  87.6752  -999.25  88.9610 -999.25 66.9430  13.7200 17.3197 0.8489 0.9614
   11329.0000  0.0000 -999.25  11.8717  86.3174  -999.25 -999.25   2.5704 3.8054 -999.25   -999.25  66.8501   -999.25  86.9868  -999.25  88.2579 -999.25 67.2354  13.8200 17.0655 0.8516 0.9616
   11329.5000  0.0000 -999.25  12.5565  95.0364  -999.25 -999.25   2.5636 3.7683 -999.25   -999.25  66.7595   -999.25  86.8526  -999.25  88.1208 -999.25 67.7543  14.1400 16.8999 0.8521 0.9593
