# Exported from Transform Software 5.2.0 on 25-May-2018 by user brian.umlang
# DI Transform - A Product of Drillinginfo, Inc. - www.drillinginfo.com
#
~VERSION INFORMATION
 VERS.        2.0 : LAS ASCII STANDARD - VERSION 2.0
 WRAP.         NO : ONE LINE PER DEPTH STEP

~WELL INFORMATION
#MNEM.UNIT       DATA TYPE       INFORMATION
#---------       ---------       -----------
# Enverus has updated the API/UWI.  The previous names are renamed to  PREV_API / PREV_UWI
API.         42-109-32508-00-00 : API (14 Digits with Dashes)
UWI.             42109325080000 : UNIQUE WELL ID

 STRT.ft                1970 : Start Depth
 STOP.ft                8730 : Stop Depth
 STEP.ft                 0.5 : Step Length
 NULL.               -999.25 : Null Value
 COMP.                       : Company
 WELL.  42109325080000_API14 : Well Name
 FLD.                        : Field Name
 LOC.                        : Well Location
 CNTY.                       : County
 STAT.                       : State or Province
 CTRY.                       : Country
 SRVC.                       : Service Company
 DATE.                       : Date
PREV_APII.         42109325080000 : Well Identifier

~CURVE INFORMATION
#MNEM.UNIT       API CODE       CURVE DESCRIPTION
#---------       --------       -----------------
 DEPT.ft        : <Measured Depth>
 CAL.in         : Caliper
 DT.us/ft       : Pressure Wave Sonic
 GR.gAPI        : Gamma Ray

~PARAMETER INFORMATION
#MNEM.UNIT       VALUE       DESCRIPTION
#---------       -----       -----------
 EKB.ft      3552 : Elevation above MSL

~A      DEPT         CAL          DT          GR
# ...
        5496      9.0664     62.8123      90.071
      5496.5      9.0664     64.0233     83.7891
        5497      9.0664     65.8053     99.2945
      5497.5      9.0664     66.3158    117.7341
        5498      9.0664     66.1352    110.0626
      5498.5      9.0664     64.7943     96.0022
        5499      9.0664     63.7149     83.6738
      5499.5      9.0664     63.6257     76.4143
        5500      9.0469     63.7298     78.6679
      5500.5      9.0664     63.8012     78.3588
        5501      9.0825     63.4607      71.017
      5501.5      9.0859     63.7243     64.9669
        5502      9.0859     64.4285     64.6035
      5502.5      9.0859     65.0539     74.1654
        5503      9.0859     65.3857     79.0645
      5503.5      9.0859     65.2004     80.6496
        5504      9.0859     65.4355     83.3571
      5504.5      9.0859     65.4952     85.9187
        5505      9.0859     67.5965     93.9171
      5505.5      9.0664     69.5935    116.4524
        5506      9.0664     71.4656    129.6364
      5506.5      9.0664     72.0498    129.8626
        5507      9.0664     71.4492    128.5156
      5507.5      9.0664     71.3505    127.1976
        5508      9.0664     71.4084     115.379
      5508.5      9.0664     69.7929     109.491
        5509      9.0664     68.7938    105.9446
      5509.5      9.0664     67.3166     88.7606
        5510      9.0664      65.673     68.4842
      5510.5      9.0469     63.7115     50.2007
        5511      9.0469     61.3216     43.3078
      5511.5      9.0469      61.129     47.3848
        5512      9.0469     62.3946     58.0518
      5512.5      9.0469     64.6269     84.7769
        5513      9.0469     66.3693     98.1045
      5513.5      9.0469     67.1009     98.5655
        5514      9.0469     66.0391     97.0514
      5514.5      9.0469     65.1555     96.1562
        5515      9.0469     66.3418    110.5763
      5515.5      9.0469     68.0618    128.2086
        5516      9.0469     67.6667    123.9554
      5516.5      9.0469     66.8456    110.1339
        5517      9.0273     66.1126     96.9948
      5517.5      9.0273     65.2318     80.8403
        5518      9.0273     65.2047     70.8337
      5518.5      9.0273     64.3085     61.9827
        5519      9.0161     62.2632     53.2324
      5519.5      8.9297     61.6026     55.0702
        5520      8.9297     61.6287     55.7389
      5520.5      8.9297     64.2326     78.5387
        5521      8.9297     66.6797     99.8961
      5521.5      8.9297     69.2023    122.5692
        5522      8.9297     70.0644    139.4554
      5522.5      8.9102     71.2214    165.7561
        5523      8.9102     74.7014    211.2071
      5523.5      8.9102     76.9484    244.0647
        5524      8.9102     78.2915    258.4942
      5524.5      8.9297     78.2684    262.3047
        5525      8.9297     77.4472    258.7974
      5525.5      8.9297     75.2088    234.2942
        5526      8.9297     71.1838     181.345
      5526.5      8.9297     64.9057    115.2763
        5527      8.9865     63.6875    105.2558
      5527.5      8.9701     66.2974    132.4529
        5528      8.8916     71.3584    154.4639
      5528.5      8.8711     73.6842    226.1802
        5529      8.8711     72.1701    210.4497
      5529.5      8.8516     67.3006     90.2344
        5530      8.8516     65.7879     90.6164
      5530.5       8.832     69.4128     95.5471
        5531       8.832     71.1696    118.2407
      5531.5       8.832     71.4562    130.6223
        5532       8.832     71.3381    138.7793
      5532.5       8.832     72.0796    176.2666
        5533       8.832     73.6238    194.3359
      5533.5       8.832     74.3381     191.264
        5534       8.832     74.3512    182.8831
      5534.5       8.832     73.9111    171.5485
        5535      8.8516     74.2976    171.0938
      5535.5      8.8568     75.3409    174.3868
        5536      8.8906     77.3521    182.1172
      5536.5      8.8906      78.457    217.9519
        5537      8.8906     78.5773    222.2488
      5537.5      8.8906     77.8919    223.3807
        5538      8.8906     75.5577    213.4981
      5538.5      8.9102      74.714    193.5205
        5539      8.9377     73.7011    167.4959
      5539.5      9.0443     72.2963      149.18
        5540      9.2706     70.8294    132.4603
      5540.5      9.3892     66.5233    106.8256
        5541      9.1348     60.9385     73.1469
      5541.5      9.0664     57.0701     42.3365
        5542      9.0273     56.3831     42.4716
      5542.5      9.0273     58.0065     67.2276
        5543      9.0469     63.3961    105.6813
      5543.5      9.0469      72.234    154.5741
        5544      9.0469     72.9002    157.5064
      5544.5      9.0664      69.683    139.9012
        5545      9.0664     66.0836    115.9649
      5545.5      9.0664     65.5002    101.2848
        5546      9.0664      64.988    101.5276
      5546.5      9.0859     64.9757    109.1961
        5547      9.0859     67.2797    115.5712
      5547.5      9.0859      68.277    118.0169
        5548      9.0859     68.9474    109.2118
      5548.5      9.0859     68.1398     99.6738
        5549      9.0859     69.4728    116.2081
      5549.5      9.0859     69.5993    136.3715
        5550      9.0859     69.1887    138.5546
      5550.5      9.1055     68.9536    131.1085
        5551      9.1055     68.7135    122.0584
      5551.5      9.1055     68.7719    109.9795
        5552      9.1055      69.227    107.6002
      5552.5      9.0859     73.2643    132.4498
        5553      9.0664     76.8989    158.2025
      5553.5      9.0664     77.2503    157.1398
        5554      9.0664     76.4912    137.5448
      5554.5      9.0469     72.1006     87.5842
        5555      9.0469     60.9038     51.9881
      5555.5      9.0469     57.6548     43.8397
        5556      9.0469      57.799     47.3124
      5556.5      9.0469     62.9595     60.1929
        5557      9.0273       63.85     83.9147
      5557.5      9.0273     63.5563     93.3229
        5558      9.0273     61.8988     84.9234
      5558.5      9.0273     58.5798     61.1771
        5559      9.0517     56.8421     47.9988
      5559.5      9.0912     56.8579     45.8984
        5560      9.1641     56.9591     46.4844
      5560.5      9.1702     56.5827     45.2028
        5561      9.2292     53.8987     38.4766
      5561.5      9.2422     52.7168     29.2926
        5562      9.2617     52.2296     22.7048
      5562.5      9.2812     54.2679     26.9455
        5563      9.2812     54.7856     36.4104
      5563.5      9.3008     53.9254     32.7512
        5564      9.3203     52.6192     26.8956
      5564.5      9.3008     51.9579          25
        5565      9.3008     52.0467     27.0512
      5565.5      9.3008      51.284     28.9062
        5566      9.3008     50.7553     27.6844
      5566.5      9.2812     49.9011     22.9972
        5567      9.2617     49.9172     24.3989
      5567.5      9.2617     50.2108     28.9062
        5568      9.2617     50.5629     33.1301
      5568.5      9.2227     50.6811     33.4673
        5569      9.2227     50.9747     31.2491
      5569.5      9.1506     51.1514     28.6978
        5570      9.1445      51.445     27.8731
      5570.5      9.1445     51.9411     29.8154
        5571      9.1445     52.1637     33.6422
      5571.5      9.1055     51.9431     32.1465
        5572      9.1055      51.474     26.5283
      5572.5      9.1055     51.0635      25.868
        5573      9.0859     50.7698     27.1163
      5573.5      9.0664     50.5932     26.9811
        5574      9.0664     50.2996     23.6567
      5574.5      9.0469     50.2161     22.8317
        5575      9.0469     51.0432     29.7568
      5575.5      9.0469     51.4585     37.4417
        5576      9.0469     51.5205      36.584
      5576.5      9.0469     51.2865     33.0252
        5577      9.0469     50.5263     28.7122
      5577.5      9.0469     50.5263     29.1016
