~Version Information
 VERS.                  2.0:   CWLS log ASCII Standard -VERSION 2.0
 WRAP.                   NO:   One line per depth step
~Well Information Block
#MNEM.UNIT     VALUE/NAME     DESCRIPTION
#---------     -----------    ---------------------------
 STRT.F              8400.0000: START DEPTH
 STOP.F             14130.0000: STOP DEPTH
 STEP.F                 0.5000: STEP DEPTH
 NULL.                 -999.25: NULL VALUE
 LOC .            42-109-33596:  LOCATION
 FL1 .            42-109-33596:  LOCATIONLINE1
 PROV.                      TX:  PROVINCE
 STAT.                      TX:  STATE NAME
 CNTY.               CULBERSON:  COUNTY NAME
 FLD .              WOLFCAMP B:  FIELD NAME
 WELL.           DALE STATE 5H:  WELL NAME
 COMP.     CAPITAN ENERGY INC.:  COMPANY
 DMF .             Drill Floor:  DRILL MEAS FROM
 PDAT.                      GL:  PERMANENT DATUM
 DATE.             11-Feb-2020:  DATE
 SVCO.             Halliburton:  SERVICECONAME
 HIDE.                        :  WELLNAMEOPERAT
 BASI.                 PERMIAN:  BASIN
 UWI .            42-109-33596:  UNIQUE WELL IDENTIFIER
 API .            42-109-33596:  API NUMBER
 RANG.                     N/A:  RANGE
 TOWN.                     N/A:  TOWNSHIP
 SECT.                     N/A:  SECTION
 SON .               906289953:  JOB NUMBER
 CTRY.                        :  COUNTRY
 SRVC.             Halliburton:  SERVICE COMPANY
 LMF .             Drill Floor:  LOG MEASURED FROM
 TVDS.ft             3291.0000:  TVDSS CORRECTN
 EGL .ft             3266.0000:  GROUND ELEVATION
 APD .ft               25.0000:  DEPTH ABOVE PD
 EPD .ft             3266.0000:  ELEVATION
 BAP .ft                0.0000:  GL ELEV ONSHORE
 GVFD.g                 1.0000:  GRAVITY FIELD
 EKB .ft             3291.0000:  KB ELEVATION
 EDF .ft             3291.0000:  DF ELEVATION
~Curve Information Block
#MNEM.UNIT                 API CODE     Curve Description
#---------               -----------    ---------------------------
 DEPT.F                 00 000 000 000:  Depth
 CCL .V                 00 000 000 000:  Casing Collar Locator
 NPHI_OH.pu             00 000 000 000:  NPHI_OH
 NPHI_CHI.decp          00 000 000 000:  NPHI_CHI
 GR_OH.api              00 000 000 000:  GR_OH
 GR_CHI.api             00 000 000 000:  GR_CHI
 RHOB_OH.g/cc           00 000 000 000:  RHOB_OH
 RHOB_CHI.g/cc          00 000 000 000:  RHOB_CHI
 PE_OH.NONE             00 000 000 000:  PE_OH
 PE_CHI.NONE            00 000 000 000:  PE_CHI
 LLS_CHI.ohmm           00 000 000 000:  LLS_CHI
 LLS_OH.ohmm            00 000 000 000:  LLS_OH
 LLD_OH.ohmm            00 000 000 000:  LLD_OH
 LLD_CHI.ohmm           00 000 000 000:  LLD_CHI
 DTC_OH.uspf            00 000 000 000:  DTC_OH
 DTC_CHI.uspf           00 000 000 000:  DTC_CHI
 SPHW_CHI.decp          00 000 000 000:  SPHW_CHI
#Other Information
#
#WARRANTY: Halliburton will use its best efforts to furnish customers with 
#accurate information and interpretations that are part of, and incident to, the services 
#provided.  However, Halliburton cannot and does not warrant the accuracy 
#or correctness of such information and interpretations.  Under no circumstances should any 
#such information or interpretation be relied upon as the sole basis for any drilling, 
#completion, production, or financial decision or any procedure involving any risk to the 
#safety of any drilling venture, drilling rig or its crew or any other third party.  The 
#Customer has full responsibility for all drilling, completion and production operation.  
#Halliburton makes no representations or warranties, either expressed or 
#implied, including, but not limited to, the implied warranties of merchantability or fitness 
#for a particular purpose, with respect to the services rendered.  In no event will 
#Halliburton be liable for failure to obtain any particular results or for 
#any damages, including, but not limited to, indirect, special or consequential damages, 
#resulting from the use of any information or interpretation provided by Halliburton.
#
~A    DEPT      CCL   NPHI_OH NPHI_CHI  GR_OH    GR_CHI  RHOB_OH RHOB_CHI  PE_OH  PE_CHI LLS_CHI   LLS_OH    LLD_OH    LLD_CHI  DTC_OH  DTC_CHI SPHW_CHI 
# ...
   11050.0000 -0.0083 -999.25   0.1339  -999.25 118.0823 -999.25   2.5719 -999.25 3.1357  36.2744   -999.25   -999.25   39.4219 -999.25 73.1169 0.1805
   11050.5000 -0.0178 -999.25   0.1309  -999.25 113.2593 -999.25   2.5723 -999.25 3.1181  34.7341   -999.25   -999.25   38.2580 -999.25 72.7098 0.1776
   11051.0000 -0.0048 -999.25   0.1290  -999.25 110.4717 -999.25   2.5720 -999.25 3.0829  31.6399   -999.25   -999.25   35.3624 -999.25 72.5582 0.1765
   11051.5000  0.0165 -999.25   0.1308  -999.25 115.9454 -999.25   2.5701 -999.25 3.0720  31.3516   -999.25   -999.25   34.3867 -999.25 72.8593 0.1786
   11052.0000  0.0329 -999.25   0.1321  -999.25 121.4397 -999.25   2.5704 -999.25 3.0779  31.4441   -999.25   -999.25   33.5696 -999.25 73.0132 0.1797
   11052.5000  0.0155 -999.25   0.1277  -999.25 112.8198 -999.25   2.5746 -999.25 3.0504  27.9784   -999.25   -999.25   30.3382 -999.25 72.2330 0.1742
   11053.0000  0.0059 -999.25   0.1201  -999.25  97.5106 -999.25   2.5806 -999.25 3.0225  24.3126   -999.25   -999.25   27.3089 -999.25 71.3449 0.1679
   11053.5000  0.0350 -999.25   0.1197  -999.25  98.5093 -999.25   2.5811 -999.25 3.0324  24.7952   -999.25   -999.25   27.3211 -999.25 71.2901 0.1675
   11054.0000 -0.0077 -999.25   0.1231  -999.25 108.0210 -999.25   2.5784 -999.25 3.0749  28.7000   -999.25   -999.25   30.3479 -999.25 71.6240 0.1699
   11054.5000  0.0009 -999.25   0.1292  -999.25 124.0189 -999.25   2.5743 -999.25 3.1526  36.8529   -999.25   -999.25   36.9453 -999.25 72.4929 0.1760
   11055.0000  0.0647 -999.25   0.1265  -999.25 115.1043 -999.25   2.5742 -999.25 3.1372  36.2588   -999.25   -999.25   37.8259 -999.25 72.0098 0.1726
   11055.5000 -0.0009 -999.25   0.1234  -999.25 105.6967 -999.25   2.5747 -999.25 3.1235  35.0277   -999.25   -999.25   38.2782 -999.25 71.6860 0.1703
   11056.0000 -0.0012 -999.25   0.1258  -999.25 108.4169 -999.25   2.5721 -999.25 3.1288  36.7814   -999.25   -999.25   40.5578 -999.25 72.0647 0.1730
   11056.5000  0.0168 -999.25   0.1266  -999.25 109.2146 -999.25   2.5711 -999.25 3.1117  35.7090   -999.25   -999.25   39.8674 -999.25 72.1645 0.1737
   11057.0000 -0.0070 -999.25   0.1273  -999.25 110.7579 -999.25   2.5707 -999.25 3.0895  33.9698   -999.25   -999.25   38.0828 -999.25 72.1667 0.1737
   11057.5000 -0.0171 -999.25   0.1236  -999.25 104.7388 -999.25   2.5738 -999.25 3.0520  29.8442   -999.25   -999.25   34.2055 -999.25 71.5589 0.1694
   11058.0000  0.0055 -999.25   0.1205  -999.25 101.6204 -999.25   2.5752 -999.25 3.0198  27.0467   -999.25   -999.25   31.0041 -999.25 71.1758 0.1667
   11058.5000  0.0018 -999.25   0.1149  -999.25  93.8293 -999.25   2.5783 -999.25 2.9925  24.1665   -999.25   -999.25   28.1036 -999.25 70.6827 0.1632
   11059.0000 -0.0324 -999.25   0.1211  -999.25 109.9633 -999.25   2.5726 -999.25 3.0301  28.2509   -999.25   -999.25   30.2933 -999.25 71.3732 0.1681
   11059.5000 -0.0010 -999.25   0.1233  -999.25 117.9481 -999.25   2.5715 -999.25 3.0849  32.3914   -999.25   -999.25   33.2000 -999.25 71.6864 0.1703
   11060.0000  0.0174 -999.25   0.1184  -999.25 107.9625 -999.25   2.5742 -999.25 3.1071  33.6707   -999.25   -999.25   35.2106 -999.25 70.9280 0.1650
   11060.5000 -0.0130 -999.25   0.1141  -999.25 101.8162 -999.25   2.5755 -999.25 3.1771  39.6387   -999.25   -999.25   41.4621 -999.25 70.4221 0.1614
   11061.0000 -0.0406 -999.25   0.1098  -999.25  96.2740 -999.25   2.5761 -999.25 3.2509  46.8328   -999.25   -999.25   49.0212 -999.25 70.0885 0.1590
   11061.5000  0.0038 -999.25   0.1101  -999.25 100.8524 -999.25   2.5724 -999.25 3.3240  57.8703   -999.25   -999.25   58.4193 -999.25 70.0655 0.1589
   11062.0000  0.0025 -999.25   0.1071  -999.25  97.9139 -999.25   2.5719 -999.25 3.3515  61.6874   -999.25   -999.25   62.3814 -999.25 69.8157 0.1571
   11062.5000  0.0059 -999.25   0.1093  -999.25 104.6765 -999.25   2.5688 -999.25 3.3704  66.6066   -999.25   -999.25   65.3282 -999.25 69.8792 0.1576
   11063.0000  0.0097 -999.25   0.1067  -999.25 101.3099 -999.25   2.5706 -999.25 3.3615  63.4448   -999.25   -999.25   62.5774 -999.25 69.5413 0.1552
   11063.5000  0.0108 -999.25   0.1111  -999.25 113.4385 -999.25   2.5687 -999.25 3.3890  67.6520   -999.25   -999.25   63.3829 -999.25 69.7845 0.1569
   11064.0000 -0.0165 -999.25   0.1123  -999.25 118.1591 -999.25   2.5692 -999.25 3.4049  68.4356   -999.25   -999.25   62.5904 -999.25 69.8770 0.1575
   11064.5000 -0.0003 -999.25   0.1130  -999.25 118.3341 -999.25   2.5686 -999.25 3.3852  66.0304   -999.25   -999.25   60.7875 -999.25 69.9982 0.1584
   11065.0000  0.0185 -999.25   0.1124  -999.25 112.3800 -999.25   2.5682 -999.25 3.3319  60.5616   -999.25   -999.25   58.1747 -999.25 70.0073 0.1585
   11065.5000 -0.0087 -999.25   0.1130  -999.25 109.1952 -999.25   2.5676 -999.25 3.2896  57.0687   -999.25   -999.25   57.0090 -999.25 70.1279 0.1593
   11066.0000  0.0073 -999.25   0.1149  -999.25 110.5242 -999.25   2.5662 -999.25 3.2729  57.1761   -999.25   -999.25   58.1923 -999.25 70.3427 0.1608
   11066.5000  0.0271 -999.25   0.1146  -999.25 109.2431 -999.25   2.5664 -999.25 3.2753  58.1422   -999.25   -999.25   59.9821 -999.25 70.2216 0.1600
   11067.0000 -0.0407 -999.25   0.1146  -999.25 110.7349 -999.25   2.5658 -999.25 3.2992  62.0246   -999.25   -999.25   63.3532 -999.25 70.1073 0.1592
   11067.5000  0.0194 -999.25   0.1097  -999.25 103.6713 -999.25   2.5681 -999.25 3.3156  62.3442   -999.25   -999.25   64.5639 -999.25 69.5318 0.1551
   11068.0000  0.0093 -999.25   0.1034  -999.25  94.2502 -999.25   2.5721 -999.25 3.3352  61.1884   -999.25   -999.25   64.7496 -999.25 69.0211 0.1515
   11068.5000 -0.0279 -999.25   0.1071  -999.25 103.4663 -999.25   2.5681 -999.25 3.3541  66.0871   -999.25   -999.25   66.1175 -999.25 69.2639 0.1532
   11069.0000  0.0080 -999.25   0.1035  -999.25  98.5460 -999.25   2.5702 -999.25 3.3669  65.5211   -999.25   -999.25   65.6384 -999.25 68.9809 0.1512
   11069.5000  0.0194 -999.25   0.1004  -999.25  94.6912 -999.25   2.5718 -999.25 3.3954  67.8047   -999.25   -999.25   67.6078 -999.25 68.7862 0.1498
   11070.0000 -0.0577 -999.25   0.1039  -999.25 103.5530 -999.25   2.5687 -999.25 3.4339  75.6699   -999.25   -999.25   71.9649 -999.25 68.9899 0.1513
   11070.5000  0.0019 -999.25   0.1022  -999.25  99.9792 -999.25   2.5689 -999.25 3.4186  72.7707   -999.25   -999.25   70.0366 -999.25 68.9853 0.1512
   11071.0000  0.0043 -999.25   0.0991  -999.25  92.2698 -999.25   2.5706 -999.25 3.3929  67.3183   -999.25   -999.25   67.2056 -999.25 68.9912 0.1513
   11071.5000  0.0245 -999.25   0.0980  -999.25  88.4552 -999.25   2.5718 -999.25 3.3698  62.7315   -999.25   -999.25   64.4094 -999.25 69.1424 0.1524
   11072.0000  0.0075 -999.25   0.0924  -999.25  77.5055 -999.25   2.5795 -999.25 3.3998  59.3171   -999.25   -999.25   64.4292 -999.25 69.0826 0.1519
   11072.5000 -0.0093 -999.25   0.0984  -999.25  85.2538 -999.25   2.5757 -999.25 3.4059  64.9223   -999.25   -999.25   68.0972 -999.25 69.4447 0.1545
   11073.0000 -0.0125 -999.25   0.1073  -999.25  99.9483 -999.25   2.5706 -999.25 3.4231  73.7324   -999.25   -999.25   72.6321 -999.25 69.8621 0.1574
   11073.5000  0.0018 -999.25   0.1023  -999.25  89.6040 -999.25   2.5765 -999.25 3.4270  69.4677   -999.25   -999.25   71.5534 -999.25 69.5627 0.1553
   11074.0000 -0.0041 -999.25   0.1058  -999.25  97.0345 -999.25   2.5731 -999.25 3.3995  68.2768   -999.25   -999.25   68.4443 -999.25 69.5868 0.1555
   11074.5000  0.0117 -999.25   0.1054  -999.25  97.3771 -999.25   2.5715 -999.25 3.3594  63.1300   -999.25   -999.25   63.7419 -999.25 69.5031 0.1549
   11075.0000 -0.0292 -999.25   0.1111  -999.25 111.9460 -999.25   2.5654 -999.25 3.3611  66.5894   -999.25   -999.25   63.5576 -999.25 69.9741 0.1582
   11075.5000 -0.0031 -999.25   0.1104  -999.25 112.5550 -999.25   2.5655 -999.25 3.3644  66.4436   -999.25   -999.25   62.9232 -999.25 69.8139 0.1571
   11076.0000  0.0479 -999.25   0.1077  -999.25 108.5151 -999.25   2.5682 -999.25 3.3823  67.1387   -999.25   -999.25   63.7861 -999.25 69.3777 0.1540
