###############################################
##         ENVERUS                           ##
##         ESS - Open Hole                   ##
##         PERMIAN / DELAWARE                ##
##         Nov 02 2023  V4.0                 ##
##         42-109-10429-00-00                ##
###############################################
## Copyright 2017-2023  ENVERUS.  All Rights Reserved. 
## Confidential - Property of ENVERUS, use governed by terms and 
## conditions found within the existing Information Services Subscription Agreement 
## (as may be amended, the “ISSA”) between Customer and ENVERUS. 
## 
~VERSION INFORMATION
# MNEM.UNIT                               DATA : DESCRIPTION OF MNEMONIC
#-----.-----     ----------------------------- : -----------------------------
VERS.                                     2.00 : CWLS LOG ASCII STANDARD - VERSION 2.00
WRAP.                                       NO : MULTIPLE LINES PER DEPTH STEP
VEND.                                  ENVERUS : VENDOR
TYPE.                          ESS - OPEN HOLE : ENVERUS ESSENTIAL CURVES – ACCESSIBLE THROUGH ENVERUS PRISM(TM)
DOC.                                  32032754 : ENVERUS HEADER RAW DOCUMENT ID
#___________________________________________________________________________________________________ 
~WELL INFORMATION 
# hXqYWT5FmhW7UEcPXxReyvN++rqgSwBrBdup88XCyeQNQmx1Fo1vv7xYmZNr9HC+TZh0ltY2ePdKOSE9Z1hlZw== 
# MNEM.UNIT                                              DATA : DESCRIPTION OF MNEMONIC 
#-----.-----                    ----------------------------- : ----------------------------- 
CNTY.                                               CULBERSON : COUNTY 
STATE.                                                  TEXAS : STATE 
CNTRY.                                                    USA : COUNTRY 
API.                                             42-109-10429 : API (10 Digit) 
API_14.                                    42-109-10429-00-00 : API (14 Digits) 
API_14_std.                                 42-109-10429-0000 : API (14 Digits Standard) 
UWI.                                           42109104290000 : UNIQUE WELL ID 
WELL.                                          ROUNSAVILLE  1 : WELL NAME
STRT.FT                                                     0 : START DEPTH
STOP.FT                                                8409.0 : STOP DEPTH
STEP.FT                                                   0.5 : STEP BETWEEN DEPTHS
NULL.                                                 -999.25 : NULL VALUE
COMP.                                     EOG RESOURCES  INC. : COMPANY
#___________________________________________________________________________________________________ 
~CURVE INFORMATION 
# MNEM.UNIT           : CURVE DESCRIPTION 
#-----.-----          : ----------------------------- 
 DEPT.FT               : MEASURED DEPTH 
 CALI.IN               : CALIPER (CAL - CAL) 
 GR.API                : GAMMA RAY (GR) 
 SP.MV                 : SPONTANEOUS POTENTIAL (SP) 
 DT.US/FT              : SONIC DELTA TRANSIT TIME (DT) 
 RESD.OHMM             : DEEP INDUCTION RESISTIVITY (ILD - ILD) 
 #___________________________________________________________________________________________________ 
~A         DEPT           CALI             GR             SP             DT           RESD
# ...
          924.0         13.099         69.876       -999.250       -999.250        490.719
          924.5         13.122         75.694       -999.250       -999.250        431.655
          925.0         13.146         77.261       -999.250       -999.250        374.312
          925.5         13.170         78.275       -999.250       -999.250        343.427
          926.0         13.194         77.313       -999.250       -999.250        312.543
          926.5         13.218         76.351       -999.250       -999.250        292.357
          927.0         13.242         75.390       -999.250       -999.250        290.135
          927.5         13.263         76.951       -999.250       -999.250        287.913
          928.0         13.211         78.566       -999.250       -999.250        292.340
          928.5         13.160         77.464       -999.250       -999.250        324.649
          929.0         13.109         75.625       -999.250       -999.250        356.958
          929.5         13.091         64.454       -999.250       -999.250        389.268
          930.0         13.095         64.095       -999.250       -999.250        451.076
          930.5         13.099         63.735       -999.250       -999.250        590.359
          931.0         13.103         63.376       -999.250       -999.250        729.641
          931.5         13.106         64.127       -999.250       -999.250        868.923
          932.0         13.110         68.238       -999.250       -999.250       1008.206
          932.5         13.114         72.348       -999.250       -999.250       1147.488
          933.0         13.128         76.459       -999.250       -999.250       1286.771
          933.5         13.164         80.569       -999.250       -999.250        687.882
          934.0         13.200         82.280       -999.250       -999.250        464.091
          934.5         13.236         76.813       -999.250       -999.250        440.344
          935.0         13.272         60.901       -999.250       -999.250        416.556
          935.5         13.308         45.168       -999.250       -999.250        373.012
          936.0         13.344         29.823       -999.250       -999.250        329.468
          936.5         13.381         25.001       -999.250       -999.250        285.924
          937.0         13.390         24.393       -999.250       -999.250        274.149
          937.5         13.376         24.072       -999.250       -999.250        269.063
          938.0         13.361         23.752       -999.250       -999.250        263.978
          938.5         13.347         23.731       -999.250       -999.250        258.892
          939.0         13.332         23.991       -999.250       -999.250        259.531
          939.5         13.335         24.252       -999.250       -999.250        267.941
          940.0         13.365         24.512       -999.250       -999.250        276.352
          940.5         13.394         24.773       -999.250       -999.250        284.762
          941.0         13.423         25.033       -999.250       -999.250        293.172
          941.5         13.451         25.294       -999.250       -999.250        301.582
          942.0         13.434         25.554       -999.250       -999.250        303.906
          942.5         13.416         25.815       -999.250       -999.250        301.275
          943.0         13.399         26.076       -999.250       -999.250        298.644
          943.5         13.381         26.336       -999.250       -999.250        296.014
          944.0         13.363         26.597       -999.250       -999.250        296.548
          944.5         13.346         26.857       -999.250       -999.250        301.962
          945.0         13.328         27.118       -999.250       -999.250        307.375
          945.5         13.311         26.201       -999.250       -999.250        312.788
          946.0         13.293         25.074       -999.250       -999.250        318.201
          946.5         13.276         24.418       -999.250       -999.250        321.728
          947.0         13.258         23.865       -999.250       -999.250        324.612
          947.5         13.240         23.547       -999.250       -999.250        327.496
          948.0         13.243         24.197       -999.250       -999.250        330.380
          948.5         13.285         24.847       -999.250       -999.250        326.508
          949.0         13.327         25.497       -999.250       -999.250        321.258
          949.5         13.369         26.148       -999.250       -999.250        316.009
          950.0         13.411         26.798       -999.250       -999.250        310.072
          950.5         13.453         27.448       -999.250       -999.250        300.588
          951.0         13.471         26.794       -999.250       -999.250        291.104
          951.5         13.423         26.006       -999.250       -999.250        281.619
          952.0         13.376         26.479       -999.250       -999.250        272.135
          952.5         13.328         26.951       -999.250       -999.250        262.651
          953.0         13.306         26.353       -999.250       -999.250        268.346
          953.5         13.302         25.700       -999.250       -999.250        278.267
          954.0         13.298         25.964       -999.250       -999.250        288.188
          954.5         13.294         26.571       -999.250       -999.250        327.574
          955.0         13.291         26.300       -999.250       -999.250        372.367
          955.5         13.287         24.179       -999.250       -999.250        417.159
          956.0         13.285         22.057       -999.250       -999.250        461.951
          956.5         13.285         22.809       -999.250       -999.250        465.104
          957.0         13.286         24.346       -999.250       -999.250        449.023
          957.5         13.286         26.852       -999.250       -999.250        383.759
          958.0         13.286         29.358       -999.250       -999.250        317.091
          958.5         13.287         33.250       -999.250       -999.250        269.538
          959.0         13.287         37.742       -999.250       -999.250        270.055
          959.5         13.287         42.234       -999.250       -999.250        270.572
          960.0         13.288         46.725       -999.250       -999.250        271.089
          960.5         13.288         51.217       -999.250       -999.250        271.606
          961.0         13.289         54.603       -999.250       -999.250        272.123
          961.5         13.289         53.102       -999.250       -999.250        262.573
          962.0         13.304         48.030       -999.250       -999.250        247.772
          962.5         13.324         40.492       -999.250       -999.250        234.949
          963.0         13.343         32.954       -999.250       -999.250        229.485
          963.5         13.362         29.693       -999.250       -999.250        224.020
          964.0         13.381         27.221       -999.250       -999.250        218.556
          964.5         13.394         26.787       -999.250       -999.250        213.091
          965.0         13.398         26.352       -999.250       -999.250        197.706
          965.5         13.403         25.918       -999.250       -999.250        181.373
          966.0         13.407         25.484       -999.250       -999.250        177.779
          966.5         13.411         25.050       -999.250       -999.250        174.185
          967.0         13.416         25.322       -999.250       -999.250        170.781
          967.5         13.418         25.821       -999.250       -999.250        168.350
