~Version Information
 VERS.                  2.0:   CWLS log ASCII Standard -VERSION 2.0
 WRAP.                   NO:   One line per depth step
~Well Information Block
#MNEM.UNIT     VALUE/NAME     DESCRIPTION
#---------     -----------    ---------------------------
 STRT.F              8400.0000: START DEPTH
 STOP.F             14661.0000: STOP DEPTH
 STEP.F                 0.5000: STEP DEPTH
 NULL.                 -999.25: NULL VALUE
 LOC .            42-109-33545:  LOCATION
 FL1 .            42-109-33545:  LOCATIONLINE1
 DMF .             Drill Floor:  DRILL MEAS FROM
 PDAT.                      GL:  PERMANENT DATUM
 CNTY.               CULBERSON:  COUNTY NAME
 FLD .              WOLFCAMP B:  FIELD NAME
 WELL.           DALE STATE 3H:  WELL NAME
 COMP.     CAPITAN ENERGY INC.:  COMPANY
 DATE.             12-Feb-2020:  DATE
 SVCO.             Halliburton:  SERVICECONAME
 PROV.                      TX:  PROVINCE
 STAT.                      TX:  STATE NAME
 HIDE.                        :  WELLNAMEOPERAT
 BASI.                 PERMIAN:  BASIN
 UWI .            42-109-33545:  UNIQUE WELL IDENTIFIER
 API .            42-109-33545:  API NUMBER
 RANG.                     N/A:  RANGE
 TOWN.                     N/A:  TOWNSHIP
 SECT.                     N/A:  SECTION
 SON .               906290460:  JOB NUMBER
 CTRY.                        :  COUNTRY
 SRVC.             Halliburton:  SERVICE COMPANY
 LMF .             Drill Floor:  LOG MEASURED FROM
 TVDS.ft             3291.0000:  TVDSS CORRECTN
 EGL .ft             3266.0000:  GROUND ELEVATION
 APD .ft               25.0000:  DEPTH ABOVE PD
 EPD .ft             3266.0000:  ELEVATION
 BAP .ft                0.0000:  GL ELEV ONSHORE
 GVFD.g                 1.0000:  GRAVITY FIELD
 EKB .ft             3291.0000:  KB ELEVATION
 EDF .ft             3291.0000:  DF ELEVATION
~Curve Information Block
#MNEM.UNIT                 API CODE     Curve Description
#---------               -----------    ---------------------------
 DEPT.F                 00 000 000 000:  Depth
 CCL .V                 00 000 000 000:  Casing Collar Locator
 NPHI_OH.pu             00 000 000 000:  NPHI_OH
 NPHI_CHI.decp          00 000 000 000:  NPHI_CHI
 GR_OH.api              00 000 000 000:  GR_OH
 GR_CHI.api             00 000 000 000:  GR_CHI
 RHOB_OH.g/cc           00 000 000 000:  RHOB_OH
 RHOB_CHI.g/cc          00 000 000 000:  RHOB_CHI
 PE_OH.NONE             00 000 000 000:  PE_OH
 PE_CHI.NONE            00 000 000 000:  PE_CHI
 LLS_CHI.ohmm           00 000 000 000:  LLS_CHI
 LLS_OH.ohmm            00 000 000 000:  LLS_OH
 LLD_OH.ohmm            00 000 000 000:  LLD_OH
 LLD_CHI.ohmm           00 000 000 000:  LLD_CHI
 DTC_OH.uspf            00 000 000 000:  DTC_OH
 DTC_CHI.uspf           00 000 000 000:  DTC_CHI
 SPHW_CHI.decp          00 000 000 000:  SPHW_CHI
#Other Information
#
#WARRANTY: Halliburton will use its best efforts to furnish customers with 
#accurate information and interpretations that are part of, and incident to, the services 
#provided.  However, Halliburton cannot and does not warrant the accuracy 
#or correctness of such information and interpretations.  Under no circumstances should any 
#such information or interpretation be relied upon as the sole basis for any drilling, 
#completion, production, or financial decision or any procedure involving any risk to the 
#safety of any drilling venture, drilling rig or its crew or any other third party.  The 
#Customer has full responsibility for all drilling, completion and production operation.  
#Halliburton makes no representations or warranties, either expressed or 
#implied, including, but not limited to, the implied warranties of merchantability or fitness 
#for a particular purpose, with respect to the services rendered.  In no event will 
#Halliburton be liable for failure to obtain any particular results or for 
#any damages, including, but not limited to, indirect, special or consequential damages, 
#resulting from the use of any information or interpretation provided by Halliburton.
#
~A    DEPT      CCL   NPHI_OH NPHI_CHI  GR_OH    GR_CHI  RHOB_OH RHOB_CHI  PE_OH  PE_CHI  LLS_CHI   LLS_OH    LLD_OH    LLD_CHI  DTC_OH  DTC_CHI SPHW_CHI 
# ...
   13806.0000 -0.0180 -999.25   0.1082  -999.25  75.4223 -999.25   2.5802 -999.25 3.6093  100.3691   -999.25   -999.25  118.8860 -999.25 69.7355 0.1565
   13806.5000 -0.0313 -999.25   0.1079  -999.25  66.8195 -999.25   2.5801 -999.25 3.6176  100.4086   -999.25   -999.25  119.0659 -999.25 69.0935 0.1520
   13807.0000 -0.0109 -999.25   0.1090  -999.25  67.1537 -999.25   2.5787 -999.25 3.6017  101.1068   -999.25   -999.25  119.9510 -999.25 69.1078 0.1521
   13807.5000  0.0000 -999.25   0.1097  -999.25  69.9395 -999.25   2.5783 -999.25 3.5920  101.8811   -999.25   -999.25  120.9634 -999.25 69.2859 0.1534
   13808.0000 -0.0163 -999.25   0.1083  -999.25  68.1093 -999.25   2.5806 -999.25 3.6027  100.0118   -999.25   -999.25  119.2724 -999.25 69.0396 0.1516
   13808.5000  0.0274 -999.25   0.1081  -999.25  74.9030 -999.25   2.5818 -999.25 3.6031   99.6875   -999.25   -999.25  118.9774 -999.25 69.4747 0.1547
   13809.0000 -0.0122 -999.25   0.1071  -999.25  72.3708 -999.25   2.5831 -999.25 3.6090   96.8753   -999.25   -999.25  115.6890 -999.25 69.3368 0.1537
   13809.5000 -0.0194 -999.25   0.1091  -999.25  82.1909 -999.25   2.5808 -999.25 3.5836   97.3632   -999.25   -999.25  115.7445 -999.25 70.0752 0.1589
   13810.0000 -0.0948 -999.25   0.1090  -999.25  79.9180 -999.25   2.5809 -999.25 3.5765   95.3413   -999.25   -999.25  113.4456 -999.25 69.9376 0.1580
   13810.5000  0.0288 -999.25   0.1097  -999.25  77.5459 -999.25   2.5797 -999.25 3.5712   95.9704   -999.25   -999.25  114.0249 -999.25 69.8484 0.1573
   13811.0000  0.0000 -999.25   0.1111  -999.25  85.7092 -999.25   2.5779 -999.25 3.5679  100.2566   -999.25   -999.25  118.7446 -999.25 70.3392 0.1608
   13811.5000  0.1127 -999.25   0.1107  -999.25  87.8136 -999.25   2.5788 -999.25 3.5853  102.7165   -999.25   -999.25  121.6860 -999.25 70.4330 0.1615
   13812.0000 -0.0330 -999.25   0.1083  -999.25  81.3739 -999.25   2.5829 -999.25 3.6180  101.6356   -999.25   -999.25  121.1392 -999.25 70.0255 0.1586
   13812.5000  0.0000 -999.25   0.1077  -999.25  85.0413 -999.25   2.5846 -999.25 3.6336  102.5038   -999.25   -999.25  122.4148 -999.25 70.1873 0.1597
   13813.0000 -0.0170 -999.25   0.1075  -999.25  78.7651 -999.25   2.5841 -999.25 3.6374  103.3653   -999.25   -999.25  123.3787 -999.25 69.9180 0.1578
   13813.5000  0.0302 -999.25   0.1106  -999.25  84.7210 -999.25   2.5789 -999.25 3.6112  108.4242   -999.25   -999.25  128.3921 -999.25 70.2997 0.1605
   13814.0000 -0.0138 -999.25   0.1130  -999.25  83.5197 -999.25   2.5733 -999.25 3.5950  114.3501   -999.25   -999.25  134.2022 -999.25 70.3804 0.1611
   13814.5000  0.0000 -999.25   0.1145  -999.25  84.5872 -999.25   2.5702 -999.25 3.5828  117.9092   -999.25   -999.25  137.8339 -999.25 70.4312 0.1615
   13815.0000  0.0448 -999.25   0.1135  -999.25  78.5202 -999.25   2.5703 -999.25 3.5960  118.3562   -999.25   -999.25  138.4314 -999.25 69.9419 0.1580
   13815.5000 -0.0251 -999.25   0.1118  -999.25  69.6978 -999.25   2.5718 -999.25 3.6145  116.1312   -999.25   -999.25  136.3015 -999.25 69.1588 0.1525
   13816.0000  0.0000 -999.25   0.1123  -999.25  72.9086 -999.25   2.5701 -999.25 3.6085  116.6130   -999.25   -999.25  136.3533 -999.25 69.3229 0.1536
   13816.5000  0.0000 -999.25   0.1115  -999.25  69.6457 -999.25   2.5708 -999.25 3.6127  114.1563   -999.25   -999.25  133.6792 -999.25 68.9792 0.1512
   13817.0000  0.0992 -999.25   0.1107  -999.25  65.9634 -999.25   2.5725 -999.25 3.6198  112.7418   -999.25   -999.25  132.5194 -999.25 68.7217 0.1494
   13817.5000 -0.0105 -999.25   0.1122  -999.25  73.4471 -999.25   2.5713 -999.25 3.6022  114.5940   -999.25   -999.25  134.2729 -999.25 69.4654 0.1546
   13818.0000  0.0000 -999.25   0.1125  -999.25  78.6437 -999.25   2.5722 -999.25 3.5858  111.5434   -999.25   -999.25  130.8423 -999.25 69.9219 0.1579
   13818.5000  0.0000 -999.25   0.1125  -999.25  79.6760 -999.25   2.5717 -999.25 3.5778  108.3662   -999.25   -999.25  126.7574 -999.25 70.0559 0.1588
   13819.0000  0.0000 -999.25   0.1111  -999.25  82.1398 -999.25   2.5742 -999.25 3.5663  100.3760   -999.25   -999.25  117.6811 -999.25 70.2400 0.1601
   13819.5000  0.0000 -999.25   0.1095  -999.25  84.1015 -999.25   2.5764 -999.25 3.5708   95.9743   -999.25   -999.25  112.6320 -999.25 70.4097 0.1613
   13820.0000  0.0000 -999.25   0.1109  -999.25  96.0104 -999.25   2.5752 -999.25 3.5609   98.9431   -999.25   -999.25  115.8454 -999.25 71.2552 0.1673
   13820.5000  0.0000 -999.25   0.1102  -999.25  97.6516 -999.25   2.5780 -999.25 3.5762   99.9087   -999.25   -999.25  117.7091 -999.25 71.0929 0.1661
   13821.0000  0.0000 -999.25   0.1082  -999.25  87.0328 -999.25   2.5823 -999.25 3.6123  101.0557   -999.25   -999.25  120.1445 -999.25 70.2895 0.1605
   13821.5000 -0.0344 -999.25   0.1072  -999.25  81.5146 -999.25   2.5848 -999.25 3.6325  102.3350   -999.25   -999.25  122.4709 -999.25 69.8449 0.1573
   13822.0000  0.0000 -999.25   0.1064  -999.25  80.8682 -999.25   2.5857 -999.25 3.6537  105.5531   -999.25   -999.25  126.4897 -999.25 69.7221 0.1565
   13822.5000  0.0300 -999.25   0.1090  -999.25  94.9483 -999.25   2.5815 -999.25 3.6418  111.6727   -999.25   -999.25  132.5488 -999.25 70.4581 0.1617
   13823.0000 -0.0105 -999.25   0.1047  -999.25  78.2541 -999.25   2.5868 -999.25 3.6744  105.5658   -999.25   -999.25  126.4028 -999.25 69.5475 0.1552
   13823.5000 -0.0177 -999.25   0.1035  -999.25  77.3881 -999.25   2.5886 -999.25 3.6835  102.8202   -999.25   -999.25  123.2687 -999.25 69.5189 0.1550
   13824.0000  0.0000 -999.25   0.1015  -999.25  81.5943 -999.25   2.5937 -999.25 3.6901   95.1497   -999.25   -999.25  114.8970 -999.25 69.7633 0.1567
   13824.5000  0.0000 -999.25   0.0974  -999.25  76.7876 -999.25   2.6022 -999.25 3.7271   86.7818   -999.25   -999.25  106.3953 -999.25 69.6395 0.1559
   13825.0000  0.0000 -999.25   0.0978  -999.25  86.0924 -999.25   2.6050 -999.25 3.7443   84.9564   -999.25   -999.25  104.8170 -999.25 71.2192 0.1670
   13825.5000  0.0152 -999.25   0.0991  -999.25  85.9053 -999.25   2.6058 -999.25 3.7561   85.5639   -999.25   -999.25  106.2105 -999.25 72.4543 0.1758
   13826.0000  0.0000 -999.25   0.0999  -999.25  75.1005 -999.25   2.6043 -999.25 3.7475   87.6978   -999.25   -999.25  108.9576 -999.25 71.8888 0.1718
   13826.5000  0.0000 -999.25   0.1007  -999.25  66.4703 -999.25   2.6018 -999.25 3.7297   90.5029   -999.25   -999.25  112.1409 -999.25 70.6829 0.1632
   13827.0000  0.0185 -999.25   0.1044  -999.25  79.3406 -999.25   2.5953 -999.25 3.6950   96.1434   -999.25   -999.25  117.4294 -999.25 70.8991 0.1648
   13827.5000  0.0132 -999.25   0.1041  -999.25  80.0460 -999.25   2.5931 -999.25 3.6941   99.4384   -999.25   -999.25  120.5251 -999.25 70.3820 0.1611
   13828.0000  0.0000 -999.25   0.1033  -999.25  86.0408 -999.25   2.5933 -999.25 3.7105  101.9784   -999.25   -999.25  123.2594 -999.25 70.4969 0.1619
   13828.5000 -0.0121 -999.25   0.1030  -999.25  87.5272 -999.25   2.5932 -999.25 3.7158  102.9485   -999.25   -999.25  124.2275 -999.25 70.4778 0.1618
   13829.0000  0.0115 -999.25   0.1014  -999.25  80.9365 -999.25   2.5957 -999.25 3.7294  101.9068   -999.25   -999.25  123.7994 -999.25 70.0379 0.1587
   13829.5000 -0.0121 -999.25   0.1025  -999.25  80.9473 -999.25   2.5950 -999.25 3.7120  102.4111   -999.25   -999.25  124.8654 -999.25 69.8959 0.1577
   13830.0000  0.1891 -999.25   0.1062  -999.25  89.2131 -999.25   2.5892 -999.25 3.6882  111.0438   -999.25   -999.25  134.2100 -999.25 70.0248 0.1586
   13830.5000  0.0121 -999.25   0.1029  -999.25  67.5060 -999.25   2.5913 -999.25 3.7229  114.1373   -999.25   -999.25  138.9667 -999.25 68.5953 0.1485
   13831.0000  0.0000 -999.25   0.1032  -999.25  74.5972 -999.25   2.5890 -999.25 3.7401  122.0369   -999.25   -999.25  147.2403 -999.25 68.9580 0.1510
   13831.5000  0.0184 -999.25   0.1020  -999.25  75.6814 -999.25   2.5889 -999.25 3.7638  125.9262   -999.25   -999.25  151.4676 -999.25 68.9033 0.1507
   13832.0000 -0.0215 -999.25   0.1003  -999.25  78.1531 -999.25   2.5910 -999.25 3.7788  124.7366   -999.25   -999.25  150.3109 -999.25 68.8702 0.1504
