~Version Information
 VERS.                  2.0:   CWLS log ASCII Standard -VERSION 2.0
 WRAP.                   NO:   One line per depth step
~Well Information Block
#MNEM.UNIT       Data Type    Information
#---------     -----------    ---------------------------
 STRT.F              3503.5000:
 STOP.F             12186.0000:
 STEP.F                 0.5000:
 NULL.               -999.2500:
 UWI .            42-109-32278:  API WELLHOLE NUMBER
 COMP.     SAMSON LONE STAR LP:  COMPANY NAME
 COUN.               CULBERSON:  COUNTY
 DAT2.                   02000:  LOGGING DATE 2
 DAT3.                   02000:  LOGGING DATE 3
 DAT4.                   02000:  LOGGING DATE 4
 DATE.                   02000:  LOGGING DATE
 DMF .           KELLY BUSHING:  DRILLING MEASURED
 LOC .    1521' FWL AND 2040' FSL:  FIELD LOCATION
 FL1 .    1521' FWL AND 2040' FSL:  FIELD LOCATION LINE 1
 FL2 .        SEC. 14, BLK. 46:  FIELD LOCATION LINE 2
 FLD .                 WILDCAT:  FIELD NAME
 HDAT.                   02000:  DATUM
 LMF .                    K.B.:  LOG MEASURED FROM
 OS1 .                    XRMI:  OTHER SERVICES LINE 1
 OS2 .               LSS / FWS:  OTHER SERVICES LINE 2
 OS3 .                 SDL/DSN:  OTHER SERVICES LINE 3
 OS4 .                DLL/MGRD:  OTHER SERVICES LINE 4
 PDAT.            GROUND LEVEL:  PERMANENT DATUM
 R1  .    TOOLSTRING: RWCH/D4TS/NGRT/LFS_D2/XRMI/CENT:  REMARKS LINE 1
 R2  .    LOGGING INTERVALS AS PER CUSTOMER REQUEST.:  REMARKS LINE 2
 RDT2.                   02000:  CASING DATE 2
 RDT3.                   02000:  CASING DATE 3
 RDT4.                   02000:  CASING DATE 4
 RDT5.                   02000:  CASING DATE 5
 SON .                 4992511:  SERVICE/TICKET ORDER NUMBER
 PROV.                   TEXAS:  STATE
 WELL.    UNIVERSITY LANDS 46-14 No. 2:  WELL NAME
~Parameter Information Block
#MNEM.UNIT       Value        Description
#---------     -----------    ---------------------------
~Curve Information Block
#MNEM.UNIT                 API CODE     Curve Description
#---------               -----------    ---------------------------
 DEPT.F                 00 000 000 000:  
 LLD .ohmm              00 000 000 000:  LLD                                    
 LLS .ohmm              00 000 000 000:  LLS                                    
 NPHI.decp              00 000 000 000:  Neutron Porosity                       
 GR  .api               00 000 000 000:  Gamma API                              
 MGRD.ohmm              00 000 000 000:  MCGRD                                  
 DRHO.g/cc              00 000 000 000:  DensityCorr                            
 DPHI.decp              00 000 000 000:  DensityPorosity                        
 PE  .b/e               00 000 000 000:  Pe                                     
 RHOB.g/cc              00 000 000 000:  Density                                
 XPHI.decp              00 000 000 000:  CrossplotPhi                           
 CALI.in                00 000 000 000:  Caliper                                
 DTC .                  00 000 000 000:  DELTA-T COMPRESSIONAL - FWS
 GR2 .GAPI              00 000 000 000:  NATURAL GAMMA - FWS
 SPHI.DECP              00 000 000 000:  SONIC POROSITY MTX=47.6 (DTC)
~A  DEPT        LLD        LLS        NPHI       GR         MGRD       DRHO       DPHI       PE         RHOB       XPHI       CALI       DTC        GR2        SPHI   
# ...
 9873.5000   177.5255   130.2207     0.1482   100.2689    85.0058     0.0178     0.0620     3.3310     2.6040     0.1181    10.2885    69.1277   105.5212     0.1522 
 9874.0000   177.7548   136.3067     0.1382   112.3581    95.9139     0.0124     0.0693     3.1275     2.5915     0.1170    10.2885    69.4655   120.4121     0.1546 
 9874.5000   153.4718   127.4554     0.1314   137.6031   115.9111     0.0089     0.0786     2.9586     2.5755     0.1143    10.2962    70.2048   132.6830     0.1599 
 9875.0000   115.1196   102.5081     0.1332   154.7768    83.1705     0.0081     0.0883     2.8785     2.5590     0.1190    10.2962    70.8073   142.4373     0.1641 
 9875.5000    83.0825    74.5074     0.1413   168.7505    59.0508     0.0116     0.0860     2.8460     2.5630     0.1228    10.3038    72.6792   153.8680     0.1774 
 9876.0000    64.6467    56.6290     0.1604   181.6041    48.4367     0.0185     0.0765     2.9074     2.5792     0.1302    10.3038    73.9646   161.2079     0.1865 
 9876.5000    54.6233    48.3954     0.1673   184.6619    43.7058     0.0269     0.0713     3.0566     2.5881     0.1322    10.3115    74.7200   162.9323     0.1918 
 9877.0000    48.8423    44.1533     0.1726   176.0217    40.8474     0.0377     0.0646     3.1662     2.5995     0.1329    10.3191    76.6461   156.5629     0.2054 
 9877.5000    46.1922    42.3503     0.1851   163.1503    36.7687     0.0516     0.0601     3.1730     2.6072     0.1360    10.3267    77.3066   141.1666     0.2101 
 9878.0000    45.1059    42.3482     0.1875   153.9768    34.0892     0.0598     0.0649     3.1520     2.5990     0.1412    10.3344    76.0506   129.6368     0.2012 
 9878.5000    41.1567    40.1091     0.1782   133.7097    40.1487     0.0509     0.0607     3.2648     2.6062     0.1381    10.3496    76.0347   118.9647     0.2011 
 9879.0000    36.0242    35.9772     0.1809   113.6559    29.8971     0.0514     0.0574     3.4678     2.6118     0.1350    10.3344    76.2497   111.5048     0.2026 
 9879.5000    31.1321    30.7845     0.1924   112.4825     9.6150     0.1021     0.0709     3.5002     2.5887     0.1460    10.3420    74.0857   111.6894     0.1873 
 9880.0000    28.4595    26.8987     0.2119   107.3624     6.6600     0.1387     0.0825     3.4149     2.5689     0.1606    10.3344    73.2321   112.0162     0.1813 
 9880.5000    30.8996    30.0046     0.2107    98.8289    10.9572     0.0917     0.0842     3.4330     2.5661     0.1605    10.3420    71.7609   111.2861     0.1709 
 9881.0000    36.9412    37.8769     0.1859    95.7888    36.6227     0.0394     0.0622     3.5160     2.6037     0.1394    10.3496    69.2431   104.8124     0.1531 
 9881.5000    44.6368    45.6232     0.1595    93.6199    54.9444     0.0343     0.0316     3.5984     2.6559     0.1252    10.3496    68.5386    98.8033     0.1481 
 9882.0000    50.6973    49.6313     0.1458    95.0599    38.7085     0.0428     0.0193     3.6501     2.6770     0.1030    10.3344    67.7293    97.6316     0.1424 
 9882.5000    50.9058    47.4934     0.1492    98.7933    32.6215     0.0497     0.0200     3.6370     2.6758     0.1032    10.3267    66.4223    96.6079     0.1331 
 9883.0000    50.4461    45.8217     0.1556    97.9933    35.7975     0.0539     0.0239     3.5768     2.6690     0.1100    10.3496    66.2081    94.3105     0.1316 
 9883.5000    53.0259    48.4838     0.1468    95.5755    43.8487     0.0560     0.0234     3.5044     2.6700     0.1048    10.3496    66.5019    88.6689     0.1337 
 9884.0000    57.0156    52.3557     0.1365    96.4822    47.1539     0.0571     0.0212     3.4870     2.6738     0.0981    10.3496    66.8503    84.2868     0.1361 
 9884.5000    59.9357    53.9619     0.1353    98.9889    39.2411     0.0547     0.0246     3.5315     2.6679     0.0985    10.3496    66.7419    82.8104     0.1354 
 9885.0000    60.6137    52.7332     0.1349    97.5489    32.3966     0.0470     0.0335     3.5488     2.6528     0.1009    10.3420    66.0551    86.7093     0.1305 
 9885.5000    60.8720    51.2646     0.1393    87.3620    34.6746     0.0379     0.0375     3.4695     2.6459     0.1033    10.3420    65.9784    89.6373     0.1300 
 9886.0000    64.7801    54.4063     0.1382    81.2285    45.7023     0.0298     0.0383     3.3566     2.6445     0.1044    10.3496    66.0546    84.1413     0.1305 
 9886.5000    73.2038    63.3658     0.1345    86.3486    75.6180     0.0221     0.0420     3.3158     2.6382     0.1043    10.3420    65.6207    75.8389     0.1274 
 9887.0000    81.5156    71.2833     0.1232    87.9486    81.4201     0.0184     0.0404     3.2966     2.6408     0.0963    10.3191    65.5328    71.7367     0.1268 
 9887.5000    82.9594    72.2384     0.1186    93.9221    52.1540     0.0197     0.0405     3.1941     2.6407     0.0935    10.3115    65.9927    77.3816     0.1301 
 9888.0000    74.5093    64.0902     0.1311   101.9223    36.9286     0.0223     0.0494     3.0340     2.6255     0.1039    10.3191    67.0909    91.3093     0.1378 
 9888.5000    63.8251    53.0282     0.1482   108.4291    30.9053     0.0263     0.0531     2.9509     2.6193     0.1151    10.3267    68.4069   104.4797     0.1471 
 9889.0000    58.2946    46.8945     0.1523   112.6425    30.2528     0.0302     0.0530     3.0107     2.6194     0.1174    10.3267    69.0984   108.2560     0.1520 
 9889.5000    58.9581    47.0874     0.1489   109.2825    29.5768     0.0313     0.0593     3.1007     2.6086     0.1176    10.3420    69.0981   101.4232     0.1520 
 9890.0000    65.1363    52.4451     0.1428    99.3267    35.7281     0.0318     0.0616     3.1249     2.6047     0.1167    10.3420    68.7763    95.0091     0.1498 
 9890.5000    74.6196    59.7681     0.1345    90.2598    49.8833     0.0311     0.0501     3.0917     2.6244     0.1104    10.3420    68.2499    93.0622     0.1460 
 9891.0000    83.4403    66.1544     0.1329    96.4822    60.5321     0.0292     0.0406     3.0424     2.6405     0.1028    10.3191    67.6019    95.1997     0.1415 
 9891.5000    87.7056    67.8296     0.1412   106.6691    45.4952     0.0246     0.0487     3.0243     2.6267     0.1054    10.3115    67.2607    97.1185     0.1390 
 9892.0000    87.2893    66.1551     0.1515   106.7224    35.0528     0.0191     0.0595     3.0158     2.6083     0.1192    10.3267    67.7386    98.8033     0.1424 
 9892.5000    86.4376    63.8414     0.1528   101.7090    36.3065     0.0179     0.0669     2.9598     2.5956     0.1225    10.3344    67.9905    98.8969     0.1442 
 9893.0000    89.2114    65.0192     0.1513    92.6954    45.9490     0.0222     0.0673     2.9089     2.5949     0.1217    10.3420    67.5712    95.7102     0.1412 
 9893.5000    96.1115    69.7523     0.1506    88.2686    47.8852     0.0305     0.0608     3.0195     2.6060     0.1191    10.3344    67.1562    89.5922     0.1383 
 9894.0000   104.8747    75.3732     0.1466    92.1621    27.1358     0.0481     0.0658     3.2798     2.5975     0.1185    10.3191    66.9601    86.4438     0.1369 
 9894.5000   110.0568    78.2794     0.1423    96.9088    13.7536     0.0825     0.0664     3.3628     2.5964     0.1163    10.3191    67.3504    82.6368     0.1397 
 9895.0000   107.8831    75.4910     0.1384    93.5488    11.7360     0.1026     0.0663     3.1657     2.5966     0.1148    10.3115    68.6214    83.5243     0.1487 
 9895.5000   102.7311    71.0281     0.1353    91.2020    19.4293     0.0897     0.0766     3.0384     2.5791     0.1135    10.3191    69.6382    85.5682     0.1559 
 9896.0000    97.1795    66.9429     0.1462    96.7488    28.0174     0.0722     0.0688     3.1079     2.5923     0.1193    10.3267    70.4381    90.6822     0.1615 
 9896.5000    93.8711    64.6169     0.1578   104.0023    42.0653     0.0551     0.0551     3.1719     2.6158     0.1212    10.3420    70.9888    93.7523     0.1654 
 9897.0000    95.1040    65.6985     0.1596   103.6823    42.8033     0.0369     0.0631     3.1976     2.6021     0.1250    10.3420    70.7974    95.1546     0.1641 
 9897.5000    99.0243    69.4360     0.1604   102.9890    42.4235     0.0306     0.0735     3.2852     2.5843     0.1292    10.3115    70.4718    94.5785     0.1618 
