###############################################
##         ENVERUS                           ##
##         ESS - Open Hole                   ##
##         PERMIAN / DELAWARE                ##
##         Nov 02 2023  V4.0                 ##
##         42-109-32346-90-00                ##
###############################################
## Copyright 2017-2023  ENVERUS.  All Rights Reserved. 
## Confidential - Property of ENVERUS, use governed by terms and 
## conditions found within the existing Information Services Subscription Agreement 
## (as may be amended, the “ISSA”) between Customer and ENVERUS. 
## 
~VERSION INFORMATION
# MNEM.UNIT                               DATA : DESCRIPTION OF MNEMONIC
#-----.-----     ----------------------------- : -----------------------------
VERS.                                     2.00 : CWLS LOG ASCII STANDARD - VERSION 2.00
WRAP.                                       NO : MULTIPLE LINES PER DEPTH STEP
VEND.                                  ENVERUS : VENDOR
TYPE.                          ESS - OPEN HOLE : ENVERUS ESSENTIAL CURVES – ACCESSIBLE THROUGH ENVERUS PRISM(TM)
DOC.                                  51092887 : ENVERUS HEADER RAW DOCUMENT ID
#___________________________________________________________________________________________________ 
~WELL INFORMATION 
# XhrHiXkIrwGIJmPLTIo0+WseqdI1VWn+o0JF90EYfb9BJ/ikjsIPmHpj3yVLlwnYQ/npclNvflN3Ll99f4ZCqQ== 
# MNEM.UNIT                                              DATA : DESCRIPTION OF MNEMONIC 
#-----.-----                    ----------------------------- : ----------------------------- 
CNTY.                                               CULBERSON : COUNTY 
STATE.                                                  TEXAS : STATE 
CNTRY.                                                    USA : COUNTRY 
API.                                             42-109-32346 : API (10 Digit) 
API_14.                                    42-109-32346-90-00 : API (14 Digits) 
API_14_std.                                 42-109-32346-9000 : API (14 Digits Standard) 
UWI.                                           42109323469000 : UNIQUE WELL ID 
WELL.                                                  DRD_55 : WELL NAME
STRT.FT                                                 334.5 : START DEPTH
STOP.FT                                                4950.0 : STOP DEPTH
STEP.FT                                                   0.5 : STEP BETWEEN DEPTHS
NULL.                                                 -999.25 : NULL VALUE
PREV_APII.                                     42109323460000 : WELL IDENTIFIER
#___________________________________________________________________________________________________ 
~PARAMETER INFORMATION 
# MNEM.UNIT                                              DATA : DESCRIPTION OF MNEMONIC 
#-----.-----                    ----------------------------- : -----------------------------
#___________________________________________________________________________________________________ 
~CURVE INFORMATION 
# MNEM.UNIT           : CURVE DESCRIPTION 
#-----.-----          : ----------------------------- 
 DEPT.FT               : MEASURED DEPTH 
 CALI.IN               : CALIPER (CAL - CALIPER) 
 GR.API                : GAMMA RAY (GAMMA RAY) 
 DT.US/FT              : SONIC DELTA TRANSIT TIME (SONIC) 
 #___________________________________________________________________________________________________ 
~A         DEPT           CALI             GR             DT
# ...
         1522.5          9.720         46.454         93.212
         1523.0          9.741         45.419         92.726
         1523.5          9.762         45.614         91.517
         1524.0          9.821         46.394         89.581
         1524.5          9.860         46.784         90.383
         1525.0          9.879         47.174         92.001
         1525.5          9.899         47.338         95.432
         1526.0          9.899         43.896         95.822
         1526.5          9.899         42.834         96.440
         1527.0          9.899         44.305         96.418
         1527.5          9.918         46.403         96.189
         1528.0          9.926         47.450         91.878
         1528.5          9.986         50.676         92.811
         1529.0         10.065         54.395         92.930
         1529.5         10.094         55.166         91.612
         1530.0         10.055         53.679         89.850
         1530.5         10.041         51.974         87.480
         1531.0         10.016         48.639         90.003
         1531.5         10.016         42.665         92.368
         1532.0          9.999         41.163         94.230
         1532.5          9.901         44.754         97.166
         1533.0          9.822         53.724         96.643
         1533.5          9.723         54.306         71.890
         1534.0          9.723         42.877         71.812
         1534.5          9.624         34.745         74.036
         1535.0          9.548         37.405         71.399
         1535.5          9.509         45.731         85.828
         1536.0          9.450         49.562         85.837
         1536.5          9.431         54.449         86.020
         1537.0          9.411         58.813         85.201
         1537.5          9.411         59.723         84.696
         1538.0          9.372         56.140         84.123
         1538.5          9.343         56.535         82.971
         1539.0          9.333         57.090         82.003
         1539.5          9.294         54.985         78.898
         1540.0          9.275         54.776         79.970
         1540.5          9.255         55.166         79.673
         1541.0          9.231         51.834         79.478
         1541.5          9.216         50.213         79.453
         1542.0          9.177         52.998         79.105
         1542.5          9.177         57.484         78.959
         1543.0          9.158         58.671         78.432
         1543.5          9.157         58.856         78.384
         1544.0          9.138         57.683         78.159
         1544.5          9.138         57.656         78.845
         1545.0          9.138         58.675         78.494
         1545.5          9.119         58.043         78.494
         1546.0          9.119         58.480         78.434
         1546.5          9.099         57.269         78.092
         1547.0          9.099         56.140         77.630
         1547.5          9.080         58.460         77.035
         1548.0          9.080         62.866         75.882
         1548.5          9.080         75.446         76.096
         1549.0          9.080         89.788         77.243
         1549.5          9.080        107.731         78.045
         1550.0          9.080        111.168         78.226
         1550.5          9.080        102.490         77.128
         1551.0          9.099         97.307         75.798
         1551.5          9.119         97.466         75.696
         1552.0          9.119         95.532         76.225
         1552.5          9.158         82.421         77.545
         1553.0          9.177         71.286         78.034
         1553.5          9.237         62.738         78.437
         1554.0          9.255         58.869         79.541
         1554.5          9.294         57.093         80.561
         1555.0          9.325         49.309         81.728
         1555.5          9.350         44.391         84.465
         1556.0          9.371         40.091         86.025
         1556.5          9.385         36.826         89.080
         1557.0          9.410         37.068         91.520
         1557.5          9.435         37.622         89.098
         1558.0          9.476         34.079         88.805
         1558.5          9.511         33.839         86.821
         1559.0          9.555         37.095         86.802
         1559.5          9.603         37.485         87.327
         1560.0          9.649         36.501         88.827
         1560.5          9.705         35.321         90.329
         1561.0          9.750         35.283         91.862
         1561.5          9.789         35.106         93.178
         1562.0          9.838         35.088         94.218
         1562.5          9.857         36.847         94.900
         1563.0          9.826         39.293         95.430
         1563.5          9.826         38.986         95.942
         1564.0          9.832         38.174         96.653
         1564.5          9.832         37.232         96.393
         1565.0          9.818         37.365         96.918
         1565.5          9.814         42.559         96.794
         1566.0          9.841         41.910         95.791
         1566.5          9.867         39.194         96.104
         1567.0          9.913         35.889         96.392
         1567.5          9.966         32.944         96.448
         1568.0         10.011         33.138         96.593
         1568.5         10.050         35.992         97.413
         1569.0         10.050         34.062         98.401
         1569.5         10.062         32.117         98.761
         1570.0         10.078         32.903        100.110
         1570.5         10.111         37.367        100.467
         1571.0         10.133         35.527        100.100
         1571.5         10.172         33.343         99.509
         1572.0         10.230         33.528         98.542
         1572.5         10.250         35.602         96.907
         1573.0         10.269         37.448         95.184
         1573.5         10.289         37.786         94.055
         1574.0         10.308         37.232         93.761
         1574.5         10.308         37.037         95.117
         1575.0         10.308         37.037         92.820
         1575.5         10.301         37.232         90.301
         1576.0         10.289         37.817         89.013
         1576.5         10.230         36.084         87.924
         1577.0         10.230         34.011         88.519
         1577.5         10.230         33.723         89.664
         1578.0         10.172         32.944         91.109
         1578.5         10.152         32.460         92.246
         1579.0         10.099         34.230         92.536
         1579.5         10.039         34.698         92.582
         1580.0          9.941         35.251         92.546
         1580.5          9.853         41.650         91.552
         1581.0          9.786         42.690         91.374
         1581.5          9.718         38.623         87.849
         1582.0          9.677         36.241         85.657
         1582.5          9.664         30.274         88.113
         1583.0          9.609         31.374         92.307
         1583.5          9.603         34.436         91.708
         1584.0          9.567         45.552         88.775
         1584.5          9.528         54.099         85.737
         1585.0          9.528         56.990         83.825
         1585.5          9.501         56.840         83.358
         1586.0          9.489         56.245         83.054
         1586.5          9.450         55.650         82.536
         1587.0          9.420         55.361         82.703
         1587.5          9.399         53.950         83.410
         1588.0          9.392         53.215         83.888
