###############################################
##         ENVERUS                           ##
##         ESS - Open Hole                   ##
##         PERMIAN / DELAWARE                ##
##         Nov 03 2023  V4.0                 ##
##         42-109-33370-00-00                ##
###############################################
## Copyright 2017-2023  ENVERUS.  All Rights Reserved. 
## Confidential - Property of ENVERUS, use governed by terms and 
## conditions found within the existing Information Services Subscription Agreement 
## (as may be amended, the “ISSA”) between Customer and ENVERUS. 
## 
~VERSION INFORMATION
# MNEM.UNIT                               DATA : DESCRIPTION OF MNEMONIC
#-----.-----     ----------------------------- : -----------------------------
VERS.                                     2.00 : CWLS LOG ASCII STANDARD - VERSION 2.00
WRAP.                                       NO : MULTIPLE LINES PER DEPTH STEP
VEND.                                  ENVERUS : VENDOR
TYPE.                          ESS - OPEN HOLE : ENVERUS ESSENTIAL CURVES – ACCESSIBLE THROUGH ENVERUS PRISM(TM)
DOC.                                  52814434 : ENVERUS HEADER RAW DOCUMENT ID
#___________________________________________________________________________________________________ 
~WELL INFORMATION 
# 4wk/Fx8UuugU+iebl2dHJIcndKaYvWbTE+/Vf37HP7rynMiEVi3nAb6NYbehQO/VbM9PVY38flJCaeNisGRn4g== 
# MNEM.UNIT                                              DATA : DESCRIPTION OF MNEMONIC 
#-----.-----                    ----------------------------- : ----------------------------- 
CNTY.                                               CULBERSON : COUNTY 
STATE.                                                  TEXAS : STATE 
CNTRY.                                                    USA : COUNTRY 
API.                                             42-109-33370 : API (10 Digit) 
API_14.                                    42-109-33370-00-00 : API (14 Digits) 
API_14_std.                                 42-109-33370-0000 : API (14 Digits Standard) 
UWI.                                           42109333700000 : UNIQUE WELL ID 
WELL.                                       ROXANNE FEE 46 3H : WELL NAME
STRT.FT                                                8800.0 : START DEPTH
STOP.FT                                               14157.0 : STOP DEPTH
STEP.FT                                                   0.5 : STEP BETWEEN DEPTHS
NULL.                                                 -999.25 : NULL VALUE
LOC.                                        API  42-109-33370 : LOCATION 
FL1.                                        API  42-109-33370 : LOCATIONLINE1 
DMF.                                                       KB : DRILL MEAS FROM 
PDAT.                                                      GL : PERMANENT DATUM 
FLD.                                    FORD, WEST (WOLFCAMP) : FIELD NAME 
COMP.                                          CAPITAN ENERGY : COMPANY 
DATE.                                             29-APR-2019 : DATE 
SVCO.                                             HALLIBURTON : SERVICECONAME 
PROV.                                                   TEXAS : PROVINCE 
BASI.                                                 PERMIAN : BASIN 
RANG.                                                     N/A : RANGE 
TOWN.                                                     N/A : TOWNSHIP 
SECT.                                                     N/A : SECTION 
SON.                                                905631605 : JOB NUMBER 
SRVC.                                             HALLIBURTON : SERVICE COMPANY 
LMF.                                                       KB : LOG MEASURED FROM 
BAP.FT                                                 0.0000 : GL ELEV ONSHORE 
GVFD.G                                                 1.0000 : GRAVITY FIELD
#___________________________________________________________________________________________________ 
~CURVE INFORMATION 
# MNEM.UNIT           : CURVE DESCRIPTION 
#-----.-----          : ----------------------------- 
 DEPT.FT               : MEASURED DEPTH 
 GR.API                : GAMMA RAY (GR_CHI - GR_CHI) 
 GR__01.API            : GAMMA RAY (GR_OH - GR_OH) 
 DT.US/FT              : SONIC DELTA TRANSIT TIME (DTC_CHI - DTC_CHI) 
 DT__01.US/FT          : SONIC DELTA TRANSIT TIME (DTC_OH - DTC_OH) 
 PE.B/E                : PHOTOELECTRIC EFFECT/FACTOR (PE_CHI - PE_CHI) 
 PE__01.B/E            : PHOTOELECTRIC EFFECT/FACTOR (PE_OH - PE_OH) 
 RESS_10.OHMM          : 10 INCH SHALLOW INDUCTION RESISTIVITY (RT10_CHI - RT10_CHI) 
 RESS_10__01.OHMM      : 10 INCH SHALLOW INDUCTION RESISTIVITY (RT10_OH - RT10_OH) 
 RESM_30.OHMM          : 30 INCH MEDIUM INDUCTION RESISTIVITY (RT30_CHI - RT30_CHI) 
 RESM_30__01.OHMM      : 30 INCH MEDIUM INDUCTION RESISTIVITY (RT30_OH - RT30_OH) 
 RESD_90.OHMM          : 90 INCH DEEP INDUCTION RESISTIVITY (RT90_CHI - RT90_CHI) 
 RESD_90__01.OHMM      : 90 INCH DEEP INDUCTION RESISTIVITY (RT90_OH - RT90_OH) 
 NPHI.V/V              : NEUTRON POROSITY (NPHI_CHI - NPHI_CHI) 
 NPHI__01.V/V          : NEUTRON POROSITY (NPHI_OH - NPHI_OH) 
 SPHI.V/V              : SONIC POROSITY (SPHI_CHI - SPHI_CHI) 
 RHOB.G/CC             : BULK DENSITY (RHOB_CHI - RHOB_CHI) 
 RHOB__01.G/CC         : BULK DENSITY (RHOB_OH - RHOB_OH) 
 #___________________________________________________________________________________________________ 
~A         DEPT             GR         GR__01             DT         DT__01             PE         PE__01        RESS_10    RESS_10__01        RESM_30    RESM_30__01        RESD_90    RESD_90__01           NPHI       NPHI__01           SPHI           RHOB       RHOB__01
# ...
        14140.0         92.878       -999.250         68.072       -999.250         4.6130      -999.2500         99.795       -999.250        103.085       -999.250        109.665       -999.250        0.10630     -999.25000        0.14520         2.6222      -999.2500
        14140.5         94.987       -999.250         68.339       -999.250         4.5439      -999.2500        103.677       -999.250        107.095       -999.250        113.931       -999.250        0.10560     -999.25000        0.14600         2.6183      -999.2500
        14141.0         95.930       -999.250         68.423       -999.250         4.5248      -999.2500        107.044       -999.250        110.573       -999.250        117.631       -999.250        0.10490     -999.25000        0.14630         2.6168      -999.2500
        14141.5         94.504       -999.250         68.329       -999.250         4.5463      -999.2500        109.812       -999.250        113.432       -999.250        120.672       -999.250        0.10350     -999.25000        0.14600         2.6181      -999.2500
        14142.0         91.423       -999.250         68.115       -999.250         4.5755      -999.2500        111.839       -999.250        115.526       -999.250        122.900       -999.250        0.10120     -999.25000        0.14530         2.6208      -999.2500
        14142.5         87.023       -999.250         67.995       -999.250         4.5666      -999.2500        113.480       -999.250        117.221       -999.250        124.703       -999.250        0.09830     -999.25000        0.14460         2.6228      -999.2500
        14143.0         83.122       -999.250         67.923       -999.250         4.5427      -999.2500        115.269       -999.250        119.069       -999.250        126.669       -999.250        0.09520     -999.25000        0.14410         2.6239      -999.2500
        14143.5         78.976       -999.250         67.943       -999.250         4.4978      -999.2500        117.563       -999.250        121.439       -999.250        129.190       -999.250        0.09200     -999.25000        0.14380         2.6243      -999.2500
        14144.0         75.272       -999.250         67.965       -999.250         4.4595      -999.2500        120.358       -999.250        124.326       -999.250        132.262       -999.250        0.08900     -999.25000        0.14350         2.6246      -999.2500
        14144.5         71.784       -999.250         67.883       -999.250         4.4604      -999.2500        123.616       -999.250        127.691       -999.250        135.842       -999.250        0.08640     -999.25000        0.14290         2.6262      -999.2500
        14145.0         67.705       -999.250         67.686       -999.250         4.4928      -999.2500        126.920       -999.250        131.105       -999.250        139.473       -999.250        0.08360     -999.25000        0.14200         2.6292      -999.2500
        14145.5         63.223       -999.250         67.476       -999.250         4.5302      -999.2500        129.715       -999.250        133.991       -999.250        142.544       -999.250        0.08110     -999.25000        0.14100         2.6326      -999.2500
        14146.0         60.714       -999.250         67.374       -999.250         4.5480      -999.2500        131.612       -999.250        135.951       -999.250        144.629       -999.250        0.07960     -999.25000        0.14040         2.6344      -999.2500
        14146.5         59.720       -999.250         67.363       -999.250         4.5496      -999.2500        132.440       -999.250        136.807       -999.250        145.539       -999.250        0.07910     -999.25000        0.14010         2.6349      -999.2500
        14147.0         59.247       -999.250         67.385       -999.250         4.5521      -999.2500        132.290       -999.250        136.651       -999.250        145.373       -999.250        0.07940     -999.25000        0.13990         2.6352      -999.2500
        14147.5         59.322       -999.250         67.395       -999.250         4.5721      -999.2500        131.381       -999.250        135.712       -999.250        144.375       -999.250        0.08060     -999.25000        0.13980         2.6358      -999.2500
        14148.0         59.584       -999.250         67.384       -999.250         4.6057      -999.2500        129.891       -999.250        134.173       -999.250        142.737       -999.250        0.08210     -999.25000        0.13960         2.6368      -999.2500
        14148.5         60.267       -999.250         67.320       -999.250         4.6574      -999.2500        127.815       -999.250        132.029       -999.250        140.456       -999.250        0.08400     -999.25000        0.13920         2.6382      -999.2500
        14149.0         60.780       -999.250         67.171       -999.250         4.7229      -999.2500        125.063       -999.250        129.186       -999.250        137.432       -999.250        0.08560     -999.25000        0.13870         2.6404      -999.2500
        14149.5         61.374       -999.250         67.043       -999.250         4.7676      -999.2500        121.425       -999.250        125.428       -999.250        133.434       -999.250        0.08710     -999.25000        0.13860         2.6420      -999.2500
        14150.0         62.294       -999.250         67.079       -999.250         4.7678      -999.2500        116.940       -999.250        120.796       -999.250        128.506       -999.250        0.08890     -999.25000        0.13920         2.6418      -999.2500
        14150.5         63.269       -999.250         67.322       -999.250         4.7119      -999.2500        111.907       -999.250        115.596       -999.250        122.974       -999.250        0.09100     -999.25000        0.14090         2.6395      -999.2500
        14151.0         62.878       -999.250         67.781       -999.250         4.6012      -999.2500        106.785       -999.250        110.306       -999.250        117.347       -999.250        0.09290     -999.25000        0.14360         2.6358      -999.2500
        14151.5         62.012       -999.250         68.369       -999.250         4.4695      -999.2500        102.030       -999.250        105.393       -999.250        112.120       -999.250        0.09500     -999.25000        0.14700         2.6313      -999.2500
        14152.0         60.940       -999.250         68.976       -999.250         4.3590      -999.2500         98.140       -999.250        101.376       -999.250        107.846       -999.250        0.09760     -999.25000        0.15040         2.6273      -999.2500
        14152.5         59.989       -999.250         69.441       -999.250         4.2899      -999.2500         95.089       -999.250         98.224       -999.250        104.494       -999.250        0.10000     -999.25000        0.15340         2.6247      -999.2500
        14153.0         58.517       -999.250         69.731       -999.250         4.2557      -999.2500         92.652       -999.250         95.707       -999.250        101.816       -999.250        0.10180     -999.25000        0.15550         2.6238      -999.2500
        14153.5         57.448       -999.250         69.879       -999.250         4.2425      -999.2500         90.519       -999.250         93.503       -999.250         99.472       -999.250        0.10300     -999.25000        0.15680         2.6236      -999.2500
        14154.0         56.857       -999.250         69.907       -999.250         4.2419      -999.2500         88.400       -999.250         91.314       -999.250         97.143       -999.250        0.10380     -999.25000        0.15740         2.6239      -999.2500
        14154.5         56.978       -999.250         69.901       -999.250         4.2435      -999.2500         86.238       -999.250         89.081       -999.250         94.767       -999.250        0.10460     -999.25000        0.15770         2.6241      -999.2500
