~Version Information
 VERS.                  2.0:   CWLS log ASCII Standard -VERSION 2.0
 WRAP.                   NO:   One line per depth step
~Well Information Block
#MNEM.UNIT     VALUE/NAME     DESCRIPTION
#---------     -----------    ---------------------------
 STRT.F              8683.0000: START DEPTH
 STOP.F             14089.5000: STOP DEPTH
 STEP.F                 0.5000: STEP DEPTH
 NULL.                 -999.25: NULL VALUE
 LOC .       API  42-109-32906:  LOCATION
 FL1 .       API  42-109-32906:  LOCATIONLINE1
 DMF .                      KB:  DRILL MEAS FROM
 PDAT.                      GL:  PERMANENT DATUM
 PROV.                   TEXAS:  PROVINCE
 STAT.                   TEXAS:  STATE NAME
 CNTY.               CULBERSON:  COUNTY NAME
 LUL .                  ODESSA:  LOGGINGUNITLOC
 FLD .     FORD, WEST (WOLFCAMP):  FIELD NAME
 WELL.     SHELLY FEE 40 No. 2H:  WELL NAME
 COMP.     CAPITAN ENERGY, INC.:  COMPANY
 DATE.             08-Jun-2018:  DATE
 SVCO.             Halliburton:  SERVICECONAME
 HIDE.                        :  WELLNAMEOPERAT
 BASI.                   BACIA:  BASIN
 UWI .            42-109-32906Lat:  UNIQUE WELL IDENTIFIER
 API .            42-109-32906Lat:  API NUMBER
 RANG.                     N/A:  RANGE
 TOWN.                     N/A:  TOWNSHIP
 SECT.                     N/A:  SECTION
 SON .               902848974:  JOB NUMBER
 CTRY.                        :  COUNTRY
 SRVC.             Halliburton:  SERVICE COMPANY
 LMF .                      KB:  LOG MEASURED FROM
 BAP .ft                0.0000:  GL ELEV ONSHORE
 GVFD.g                 1.0000:  GRAVITY FIELD
~Curve Information Block
#MNEM.UNIT                 API CODE     Curve Description
#---------               -----------    ---------------------------
 DEPT.F                 00 000 000 000:  Depth
 CCL .mV                00 000 000 000:  Casing Collar Locator
 DTC_CHI.uspf           00 000 000 000:  DTC_CHI
 DTC_OH.uspf            00 000 000 000:  DTC_OH
 GR_CHI.api             00 000 000 000:  GR_CHI
 GR_OH.api              00 000 000 000:  GR_OH
 LLD_CHI.ohmm           00 000 000 000:  LLD_CHI
 LLD_OH.ohmm            00 000 000 000:  LLD_OH
 LLS_CHI.ohmm           00 000 000 000:  LLS_CHI
 LLS_OH.ohmm            00 000 000 000:  LLS_OH
 MSFL_CHI.ohmm          00 000 000 000:  MSFL_CHI
 MSFL_OH.ohmm           00 000 000 000:  MSFL_OH
 NPHI_CHI.pu            00 000 000 000:  NPHI_CHI
 NPHI_OH.pu             00 000 000 000:  NPHI_OH
 PE_CHI.b/e             00 000 000 000:  PE_CHI
 PE_OH.NONE             00 000 000 000:  Pe_OH
 RHOB_CHI.g/cc          00 000 000 000:  RHOB_CHI
 RHOB_OH.g/cc           00 000 000 000:  RHOB_OH
 SPHI_CHI.pu            00 000 000 000:  SPHI_CHI
#Other Information
#
#WARRANTY: Halliburton will use its best efforts to furnish customers with 
#accurate information and interpretations that are part of, and incident to, the services 
#provided.  However, Halliburton cannot and does not warrant the accuracy 
#or correctness of such information and interpretations.  Under no circumstances should any 
#such information or interpretation be relied upon as the sole basis for any drilling, 
#completion, production, or financial decision or any procedure involving any risk to the 
#safety of any drilling venture, drilling rig or its crew or any other third party.  The 
#Customer has full responsibility for all drilling, completion and production operation.  
#Halliburton makes no representations or warranties, either expressed or 
#implied, including, but not limited to, the implied warranties of merchantability or fitness 
#for a particular purpose, with respect to the services rendered.  In no event will 
#Halliburton be liable for failure to obtain any particular results or for 
#any damages, including, but not limited to, indirect, special or consequential damages, 
#resulting from the use of any information or interpretation provided by Halliburton.
#
~A    DEPT       CCL    DTC_CHI DTC_OH   GR_CHI   GR_OH   LLD_CHI   LLD_OH   LLS_CHI   LLS_OH   MSFL_CHI  MSFL_OH     NPHI_CHI   NPHI_OH   PE_CHI    PE_OH   RHOB_CHI  RHOB_OH SPHI_CHI 
# ...
   10839.0000  -23.6321 66.1235 -999.25  71.6579  -999.25  95.3206   -999.25  90.7432   -999.25  43.6356    -999.25      10.6559 -999.25     3.9902 -999.25     2.6095 -999.25 13.1000
   10839.5000    0.0000 66.3069 -999.25  79.3307  -999.25  92.9633   -999.25  88.2932   -999.25  42.6332    -999.25      10.8050 -999.25     3.9565 -999.25     2.6041 -999.25 13.2300
   10840.0000   18.9342 66.1466 -999.25  83.0198  -999.25  90.0103   -999.25  84.9407   -999.25  41.7248    -999.25      10.7469 -999.25     3.9390 -999.25     2.6058 -999.25 13.1200
   10840.5000    0.0000 65.6083 -999.25  80.2605  -999.25  88.1658   -999.25  82.4750   -999.25  41.5181    -999.25      10.3768 -999.25     3.9573 -999.25     2.6164 -999.25 12.7400
   10841.0000   10.5634 65.0483 -999.25  82.4286  -999.25  82.7380   -999.25  76.2941   -999.25  40.0292    -999.25      10.1113 -999.25     3.9422 -999.25     2.6255 -999.25 12.3400
   10841.5000    0.0000 64.9763 -999.25  83.0568  -999.25  80.3986   -999.25  73.9027   -999.25  39.2641    -999.25      10.2035 -999.25     3.9220 -999.25     2.6258 -999.25 12.2900
   10842.0000   44.8850 64.7630 -999.25  71.6594  -999.25  82.6312   -999.25  76.2138   -999.25  40.1522    -999.25      10.0490 -999.25     3.9435 -999.25     2.6319 -999.25 12.1400
   10842.5000    0.0000 65.1564 -999.25  73.7805  -999.25  82.0583   -999.25  76.1169   -999.25  39.7154    -999.25      10.4635 -999.25     3.9110 -999.25     2.6232 -999.25 12.4200
   10843.0000  -15.2115 65.4916 -999.25  77.1765  -999.25  82.0130   -999.25  76.2582   -999.25  39.3069    -999.25      10.7008 -999.25     3.8736 -999.25     2.6154 -999.25 12.6500
   10843.5000    0.0000 65.6618 -999.25  79.8181  -999.25  81.2313   -999.25  75.5052   -999.25  38.7828    -999.25      10.8434 -999.25     3.8422 -999.25     2.6108 -999.25 12.7700
   10844.0000  -47.0880 65.6671 -999.25  80.9138  -999.25  79.4372   -999.25  73.6676   -999.25  38.1152    -999.25      10.9585 -999.25     3.8171 -999.25     2.6094 -999.25 12.7800
   10844.5000    0.0000 66.0081 -999.25  84.1989  -999.25  78.1617   -999.25  72.7946   -999.25  37.6077    -999.25      11.4002 -999.25     3.7926 -999.25     2.6017 -999.25 13.0200
   10845.0000   11.6467 66.2127 -999.25  85.7970  -999.25  77.7980   -999.25  72.6443   -999.25  37.3969    -999.25      11.6251 -999.25     3.7783 -999.25     2.5972 -999.25 13.1600
   10845.5000    0.0000 66.4115 -999.25  86.6510  -999.25  77.6440   -999.25  72.6494   -999.25  37.1523    -999.25      11.7923 -999.25     3.7565 -999.25     2.5927 -999.25 13.3000
   10846.0000    0.0000 65.6516 -999.25  71.2698  -999.25  80.3701   -999.25  74.8578   -999.25  38.3059    -999.25      10.9560 -999.25     3.8054 -999.25     2.6107 -999.25 12.7700
   10846.5000   15.2560 65.3694 -999.25  73.6931  -999.25  79.1036   -999.25  72.9911   -999.25  37.7874    -999.25      10.6690 -999.25     3.7917 -999.25     2.6149 -999.25 12.5700
   10847.0000    0.0000 65.5288 -999.25  80.7190  -999.25  77.5059   -999.25  71.3475   -999.25  37.1370    -999.25      10.8512 -999.25     3.7687 -999.25     2.6101 -999.25 12.6800
   10847.5000   25.8292 65.8626 -999.25  87.2147  -999.25  76.4291   -999.25  70.5740   -999.25  36.7844    -999.25      11.2581 -999.25     3.7581 -999.25     2.6026 -999.25 12.9200
   10848.0000    0.0000 65.9891 -999.25  86.7707  -999.25  77.1296   -999.25  71.5893   -999.25  37.1837    -999.25      11.4088 -999.25     3.7776 -999.25     2.6010 -999.25 13.0000
   10848.5000   28.6056 65.8274 -999.25  81.9120  -999.25  79.1284   -999.25  73.6639   -999.25  38.1132    -999.25      11.1926 -999.25     3.8208 -999.25     2.6064 -999.25 12.8900
   10849.0000    0.0000 65.2442 -999.25  70.4861  -999.25  81.6231   -999.25  75.8359   -999.25  39.3618    -999.25      10.6092 -999.25     3.8809 -999.25     2.6208 -999.25 12.4800
   10849.5000    0.0000 65.2379 -999.25  73.1749  -999.25  80.9877   -999.25  75.0586   -999.25  39.0891    -999.25      10.5883 -999.25     3.8724 -999.25     2.6203 -999.25 12.4700
   10850.0000    0.0000 65.1552 -999.25  75.5610  -999.25  78.9812   -999.25  72.8402   -999.25  38.3634    -999.25      10.6004 -999.25     3.8504 -999.25     2.6205 -999.25 12.4200
   10850.5000   15.2947 65.1594 -999.25  77.7883  -999.25  76.8971   -999.25  70.7148   -999.25  37.6260    -999.25      10.7424 -999.25     3.8263 -999.25     2.6190 -999.25 12.4200
   10851.0000    0.0000 65.1208 -999.25  80.2403  -999.25  74.0336   -999.25  67.7747   -999.25  36.6566    -999.25      10.9360 -999.25     3.7963 -999.25     2.6179 -999.25 12.3900
   10851.5000   12.1002 64.8815 -999.25  74.0890  -999.25  73.9471   -999.25  67.7170   -999.25  36.8774    -999.25      10.8392 -999.25     3.8152 -999.25     2.6236 -999.25 12.2200
   10852.0000   15.9389 64.8933 -999.25  72.5426  -999.25  74.2934   -999.25  68.1216   -999.25  36.9820    -999.25      10.8410 -999.25     3.8156 -999.25     2.6237 -999.25 12.2300
   10852.5000    0.0000 64.8337 -999.25  66.1827  -999.25  78.0989   -999.25  71.9868   -999.25  38.3183    -999.25      10.5361 -999.25     3.8575 -999.25     2.6274 -999.25 12.1900
   10853.0000  -56.6961 65.0893 -999.25  66.8683  -999.25  81.9290   -999.25  75.9582   -999.25  39.3984    -999.25      10.4492 -999.25     3.8768 -999.25     2.6238 -999.25 12.3700
   10853.5000    0.0000 65.2671 -999.25  67.8390  -999.25  85.0101   -999.25  79.2049   -999.25  40.3982    -999.25      10.4072 -999.25     3.9048 -999.25     2.6218 -999.25 12.4900
   10854.0000    0.0000 66.0478 -999.25  79.1699  -999.25  86.3051   -999.25  81.1556   -999.25  40.3799    -999.25      10.9052 -999.25     3.8835 -999.25     2.6058 -999.25 13.0500
   10854.5000    0.0000 66.1184 -999.25  82.2482  -999.25  85.6538   -999.25  80.4479   -999.25  40.0642    -999.25      10.9547 -999.25     3.8715 -999.25     2.6037 -999.25 13.1000
   10855.0000  -55.1565 65.7764 -999.25  81.7912  -999.25  83.0241   -999.25  77.2785   -999.25  39.2287    -999.25      10.7637 -999.25     3.8500 -999.25     2.6090 -999.25 12.8500
   10855.5000    0.0000 64.9500 -999.25  77.5966  -999.25  79.9065   -999.25  73.0381   -999.25  38.2593    -999.25      10.1369 -999.25     3.8310 -999.25     2.6234 -999.25 12.2700
   10856.0000    0.0000 64.4281 -999.25  78.3043  -999.25  76.0380   -999.25  68.4954   -999.25  36.9698    -999.25       9.8545 -999.25     3.8024 -999.25     2.6312 -999.25 11.9000
   10856.5000    0.0000 64.6709 -999.25  84.8568  -999.25  74.1334   -999.25  66.6717   -999.25  36.0924    -999.25      10.1337 -999.25     3.7632 -999.25     2.6243 -999.25 12.0700
   10857.0000    0.0000 64.9671 -999.25  86.7931  -999.25  74.4296   -999.25  67.3240   -999.25  36.1964    -999.25      10.4215 -999.25     3.7623 -999.25     2.6188 -999.25 12.2800
   10857.5000  -19.4412 64.9849 -999.25  83.1994  -999.25  75.5699   -999.25  68.6544   -999.25  36.7026    -999.25      10.4278 -999.25     3.7807 -999.25     2.6198 -999.25 12.2900
   10858.0000    0.0000 65.0181 -999.25  83.8099  -999.25  76.3308   -999.25  69.5096   -999.25  37.1163    -999.25      10.4316 -999.25     3.8036 -999.25     2.6200 -999.25 12.3200
   10858.5000  -18.1372 65.2326 -999.25  86.8274  -999.25  77.2853   -999.25  70.6564   -999.25  37.4360    -999.25      10.5463 -999.25     3.8147 -999.25     2.6163 -999.25 12.4700
   10859.0000    0.0000 65.4174 -999.25  90.9990  -999.25  77.1768   -999.25  70.6774   -999.25  37.3782    -999.25      10.6989 -999.25     3.8151 -999.25     2.6123 -999.25 12.6000
   10859.5000    0.0000 65.4842 -999.25  88.7011  -999.25  78.1101   -999.25  71.7610   -999.25  37.6614    -999.25      10.7268 -999.25     3.8177 -999.25     2.6116 -999.25 12.6500
   10860.0000   18.5866 65.6565 -999.25  89.7426  -999.25  77.7726   -999.25  71.5982   -999.25  37.4348    -999.25      10.9153 -999.25     3.8015 -999.25     2.6077 -999.25 12.7700
   10860.5000    0.0000 65.8222 -999.25  97.4242  -999.25  74.1971   -999.25  67.8839   -999.25  35.9642    -999.25      11.2642 -999.25     3.7430 -999.25     2.6009 -999.25 12.8900
