# Exported from Transform Software 5.2.0 on 30-Oct-2019 by user kathryn.gehrke
# DI Transform - A Product of Drillinginfo, Inc. - www.drillinginfo.com
#
~VERSION INFORMATION
 VERS.        2.0 : LAS ASCII STANDARD - VERSION 2.0
 WRAP.         NO : ONE LINE PER DEPTH STEP

~WELL INFORMATION
#MNEM.UNIT       DATA TYPE       INFORMATION
#---------       ---------       -----------
 STRT.ft                  40 : Start Depth
 STOP.ft                9358 : Stop Depth
 STEP.ft                 0.5 : Step Length
 NULL.               -999.25 : Null Value
 COMP.                       : Company
 WELL.  42109330610000_API14 : Well Name
 FLD.                        : Field Name
 LOC.                        : Well Location
 CNTY.                       : County
 STAT.                       : State or Province
 CTRY.                       : Country
 SRVC.                       : Service Company
 DATE.                       : Date
 API.         42109330610000 : Well Identifier

~CURVE INFORMATION
#MNEM.UNIT       API CODE       CURVE DESCRIPTION
#---------       --------       -----------------
 DEPT.ft        : <Measured Depth>
 DT.us/ft       : Sonic
 GR.gAPI        : Gamma Ray

~PARAMETER INFORMATION
#MNEM.UNIT       VALUE       DESCRIPTION
#---------       -----       -----------
 EKB.ft      3200.5 : Elevation above MSL

~A      DEPT          DT          GR
# ...
      9262.5    244.2886     59.1497
        9263    244.2968     54.8125
      9263.5    245.0902     50.7436
        9264    245.0902     52.1886
      9264.5    245.0902     56.2789
        9265    245.0821     59.8777
      9265.5    244.2886     57.2282
        9266    245.0902     52.4186
      9266.5    245.0902       50.02
        9267    245.0902     52.4371
      9267.5    245.0902     58.6875
        9268    245.0902     61.0781
      9268.5    245.0902      56.507
        9269    245.0902     51.2185
      9269.5    244.2886     47.1283
        9270    244.2886     42.5632
      9270.5    244.2886     44.0158
        9271    245.0826     50.2702
      9271.5    244.2886     57.2402
        9272    244.2886     61.5689
      9272.5    244.2886     62.7636
        9273    244.2886     60.5993
      9273.5    244.2886     60.3645
        9274     243.487      63.733
      9274.5     243.487     66.3727
        9275    242.6854     64.6784
      9275.5    242.6854     56.5021
        9276    242.6783      47.843
      9276.5    241.8838     41.8419
        9277    241.8838     43.2937
      9277.5    241.0822     50.7556
        9278    241.8838     60.6135
      9278.5    241.8907     64.4489
        9279    242.6854     58.6635
      9279.5    241.0822     47.3679
        9280    241.0754     41.8437
      9280.5    240.2806     46.1842
        9281    240.2806     52.9075
      9281.5    240.2739     52.1827
        9282    239.4724     50.2638
      9282.5    238.6839     54.1148
        9283     239.479     57.9543
      9283.5    240.2806     56.2629
        9284    241.0822     50.4994
      9284.5    241.0885     48.8192
        9285    241.8838     50.7446
      9285.5    242.6854     54.1129
        9286    242.6916     55.7931
      9286.5     243.487     56.0321
        9287    244.2886     56.9955
      9287.5    244.2886     58.2009
        9288    245.0902     57.7139
      9288.5    245.0902     53.8588
        9289    245.0902     49.0508
      9289.5    245.8918     44.2485
        9290    245.8918     44.4933
      9290.5    245.0902     49.0639
        9291    245.0902     51.9453
      9291.5    245.0902     49.0539
        9292    245.0902     46.8952
      9292.5    245.0902     50.7484
        9293    245.0902     57.2386
      9293.5    245.0846     58.9138
        9294    244.2886      56.505
      9294.5    244.2886     47.3708
        9295    244.2886     43.2853
      9295.5    244.2886     43.2866
        9296     243.487     46.6572
      9296.5    244.2886     49.0607
        9297    244.2886      54.836
      9297.5    244.2886     59.6418
        9298    244.2886     60.8429
      9298.5    244.2886     59.3939
        9299    244.2886     56.5118
      9299.5    245.0902     56.7547
        9300    245.0902     60.3643
      9300.5    245.0902     61.8013
        9301    245.0902      57.231
      9301.5    245.0902     53.1463
        9302    245.0902      53.389
      9302.5    245.0902     56.7546
        9303    245.0902     57.4772
      9303.5    244.2886      57.476
        9304    244.2886     58.1964
      9304.5    244.2886     58.1964
        9305    244.2886     61.0832
      9305.5    244.2886      59.152
        9306    244.2886     50.0138
      9306.5    244.2886     46.6553
        9307    244.2886     49.7796
      9307.5    244.2886     47.8537
        9308    245.0902     47.1372
      9308.5    245.0902     49.2986
        9309    245.0902     47.6104
      9309.5    245.0902     46.6599
        9310    245.0902     53.6375
      9310.5    245.0902     58.4341
        9311    245.0902     54.5865
      9311.5    245.0902      48.815
        9312    245.0902     46.8938
      9312.5    245.0902     48.0979
        9313    245.0902      51.706
      9313.5    244.2886     53.8669
        9314    244.2886     51.4604
      9314.5    244.2886     48.0954
        9315    244.2886     47.8581
      9315.5    245.0902     54.3511
        9316    245.0902     56.9932
      9316.5    244.2886     51.9401
        9317    245.0902      46.893
      9317.5    245.0902     50.9864
        9318    245.0902     59.4031
      9318.5    245.0902      65.652
        9319    245.0902     65.1682
      9319.5    245.0902     59.3947
        9320    245.0935     56.9947
      9320.5    245.8918     58.4382
        9321    246.6966     59.1583
      9321.5    247.4982     60.8448
        9322    248.2966     69.9831
      9322.5    248.2966     74.3092
        9323    248.2966     75.9944
      9323.5    248.2936     85.8558
        9324     247.492     99.0787
      9324.5    245.8918      99.312
        9325    245.0902     83.9127
      9325.5    245.0902     61.5472
        9326    245.0902     48.8182
      9326.5    245.0902     55.3126
        9327    245.0902     64.6928
      9327.5    245.0902     72.8676
        9328    245.0902     79.8429
      9328.5    245.0902     85.3712
        9329    245.0902     85.3694
      9329.5    245.0902     76.4712
        9330    245.8918     70.9398
      9330.5    245.8918      67.093
        9331    245.8918     64.9283
      9331.5    245.8918     57.7128
        9332    245.8918     45.6878
      9332.5    245.8918      37.996
        9333    245.8918     44.7325
      9333.5    245.8918     56.2742
        9334    245.0902      62.526
      9334.5    245.0902     66.6141
        9335    245.0902     70.9439
      9335.5    245.0902     72.8655
        9336    245.0902     72.8665
      9336.5    245.0902      75.993
        9337    245.0902     77.6742
      9337.5    245.0902     69.9784
        9338    245.0902     66.3732
      9338.5    244.2886     71.1831
        9339    244.2886     76.2326
      9339.5    244.2886     76.7134
        9340    244.2886     76.7134
      9340.5    244.2886     77.4344
        9341    244.2886     75.9913
      9341.5    244.2886     73.3468
        9342    244.2886     74.7899
      9342.5    245.0902     78.1563
        9343    245.0902     78.8778
      9343.5    245.0902     79.8397
        9344    245.0902     80.0801
      9344.5    244.2886     77.6753
        9345    244.2886     -999.25
      9345.5    244.2886     -999.25
        9346    244.2886     -999.25
      9346.5    244.2886     -999.25
        9347    244.2886     -999.25
      9347.5    244.2886     -999.25
        9348    244.2886     -999.25
      9348.5    244.2886     -999.25
        9349    244.2886     -999.25
      9349.5    244.2886     -999.25
        9350    244.2886     -999.25
      9350.5    244.2886     -999.25
        9351     243.487     -999.25
      9351.5    244.2886     -999.25
        9352    244.2886     -999.25
      9352.5    244.2886     -999.25
        9353    244.2886     -999.25
      9353.5    244.2886     -999.25
        9354    244.2886     -999.25
      9354.5    244.2886     -999.25
        9355    244.2886     -999.25
      9355.5    244.2886     -999.25
        9356    244.2886     -999.25
      9356.5    244.2886     -999.25
        9357    244.2886     -999.25
      9357.5    244.2886     -999.25
        9358    245.8879     -999.25
