###############################################
##         ENVERUS                           ##
##         ESS - Open Hole                   ##
##         PERMIAN / DELAWARE                ##
##         Nov 03 2023  V4.0                 ##
##         42-109-33144-00-00                ##
###############################################
## Copyright 2017-2023  ENVERUS.  All Rights Reserved. 
## Confidential - Property of ENVERUS, use governed by terms and 
## conditions found within the existing Information Services Subscription Agreement 
## (as may be amended, the “ISSA”) between Customer and ENVERUS. 
## 
~VERSION INFORMATION
# MNEM.UNIT                               DATA : DESCRIPTION OF MNEMONIC
#-----.-----     ----------------------------- : -----------------------------
VERS.                                     2.00 : CWLS LOG ASCII STANDARD - VERSION 2.00
WRAP.                                       NO : MULTIPLE LINES PER DEPTH STEP
VEND.                                  ENVERUS : VENDOR
TYPE.                          ESS - OPEN HOLE : ENVERUS ESSENTIAL CURVES – ACCESSIBLE THROUGH ENVERUS PRISM(TM)
DOC.                                  44408038 : ENVERUS HEADER RAW DOCUMENT ID
#___________________________________________________________________________________________________ 
~WELL INFORMATION 
# jhvnPe+1QU9E4rmF00QVhgJB4IQXrbTj+4JQBaOQ+xeerJB1ro+a2ny8/YeKPBUHGPa8yPZn1kHe7+9ZkyRs1A== 
# MNEM.UNIT                                              DATA : DESCRIPTION OF MNEMONIC 
#-----.-----                    ----------------------------- : ----------------------------- 
CNTY.                                               CULBERSON : COUNTY 
STATE.                                                  TEXAS : STATE 
CNTRY.                                                    USA : COUNTRY 
API.                                             42-109-33144 : API (10 Digit) 
API_14.                                    42-109-33144-00-00 : API (14 Digits) 
API_14_std.                                 42-109-33144-0000 : API (14 Digits Standard) 
UWI.                                           42109331440000 : UNIQUE WELL ID 
WELL.                                        PAT FEE 4 NO. 3H : WELL NAME
STRT.FT                                                8880.0 : START DEPTH
STOP.FT                                               14320.0 : STOP DEPTH
STEP.FT                                                   0.5 : STEP BETWEEN DEPTHS
NULL.                                                 -999.25 : NULL VALUE
LOC.                                     API  42-109-33144LAT : LOCATION 
FL1.                                     API  42-109-33144LAT : LOCATIONLINE1 
DMF.                                                       KB : DRILL MEAS FROM 
PDAT.                                                      GL : PERMANENT DATUM 
FLD.                                    FORD, WEST (WOLFCAMP) : FIELD NAME 
COMP.                            CAPITAN ENERGY, INCORPORATED : COMPANY 
DATE.                                             21-SEP-2017 : DATE 
SVCO.                                             HALLIBURTON : SERVICECONAME 
PROV.                                                   TEXAS : PROVINCE 
BASI.                                                 PERMIAN : BASIN 
RANG.                                                     N/A : RANGE 
TOWN.                                                     N/A : TOWNSHIP 
SECT.                                                     N/A : SECTION 
SON.                                                      N/A : JOB NUMBER 
SRVC.                                             HALLIBURTON : SERVICE COMPANY 
LMF.                                                       KB : LOG MEASURED FROM 
EGL.FT                                              3093.0000 : GROUND ELEVATION 
BAP.FT                                                 0.0000 : GL ELEV ONSHORE 
GVFD.G                                                 1.0000 : GRAVITY FIELD 
EKB.FT                                              3114.0000 : KB ELEVATION 
EDF.FT                                              3113.0000 : DF ELEVATION
#___________________________________________________________________________________________________ 
~CURVE INFORMATION 
# MNEM.UNIT           : CURVE DESCRIPTION 
#-----.-----          : ----------------------------- 
 DEPT.FT               : MEASURED DEPTH 
 GR.API                : GAMMA RAY (GR_CHI - GR_CHI) 
 GR__01.API            : GAMMA RAY (GR_OH - GR_OH) 
 DT.US/FT              : SONIC DELTA TRANSIT TIME (DTC_CHI - DTC_CHI) 
 DT__01.US/FT          : SONIC DELTA TRANSIT TIME (DTC_OH - DTC_OH) 
 PE.B/E                : PHOTOELECTRIC EFFECT/FACTOR (PE_CHI - PE_CHI) 
 PE__01.B/E            : PHOTOELECTRIC EFFECT/FACTOR (PE_OH - PE_OH) 
 RESS_LL.OHMM          : SHALLOW LATEROLOG (LLS_CHI - LLS_CHI) 
 RESS_LL__01.OHMM      : SHALLOW LATEROLOG (LLS_OH - LLS_OH) 
 RESD_LL.OHMM          : DEEP LATEROLOG (LLD_CHI - LLD_CHI) 
 RESD_LL__01.OHMM      : DEEP LATEROLOG (LLD_OH - LLD_OH) 
 NPHI.V/V              : NEUTRON POROSITY (NPHI_CHI - NPHI_CHI) 
 NPHI__01.V/V          : NEUTRON POROSITY (NPHI_OH - NPHI_OH) 
 SPHI.V/V              : SONIC POROSITY (SPHI_CHI - SPHI_CHI) 
 RHOB.G/CC             : BULK DENSITY (RHOB_CHI - RHOB_CHI) 
 RHOB__01.G/CC         : BULK DENSITY (RHOB_OH - RHOB_OH) 
 #___________________________________________________________________________________________________ 
~A         DEPT             GR         GR__01             DT         DT__01             PE         PE__01        RESS_LL    RESS_LL__01        RESD_LL    RESD_LL__01           NPHI       NPHI__01           SPHI           RHOB       RHOB__01
# ...
        14303.0         55.962       -999.250         61.704       -999.250         4.1735      -999.2500       104.6152      -999.2500       107.1508      -999.2500        0.09538     -999.25000        0.09970         2.6151      -999.2500
        14303.5         56.140       -999.250         63.240       -999.250         4.1185      -999.2500       111.0224      -999.2500       114.9158      -999.2500        0.10513     -999.25000        0.11060         2.6088      -999.2500
        14304.0         78.112       -999.250         66.084       -999.250         3.9490      -999.2500       122.5838      -999.2500       129.9213      -999.2500        0.12130     -999.25000        0.13070         2.5920      -999.2500
        14304.5         96.539       -999.250         67.793       -999.250         3.7999      -999.2500       122.3695      -999.2500       132.2231      -999.2500        0.13113     -999.25000        0.14280         2.5807      -999.2500
        14305.0         92.073       -999.250         67.161       -999.250         3.8209      -999.2500       115.0573      -999.2500       123.0781      -999.2500        0.12805     -999.25000        0.13830         2.5838      -999.2500
        14305.5         99.790       -999.250         66.492       -999.250         3.8215      -999.2500       111.1890      -999.2500       117.8166      -999.2500        0.12257     -999.25000        0.13360         2.5855      -999.2500
        14306.0        106.002       -999.250         65.831       -999.250         3.8384      -999.2500       112.0429      -999.2500       117.5586      -999.2500        0.11804     -999.25000        0.12890         2.5870      -999.2500
        14306.5         98.563       -999.250         64.603       -999.250         3.9592      -999.2500       121.2362      -999.2500       125.3298      -999.2500        0.11156     -999.25000        0.12020         2.5938      -999.2500
        14307.0         97.917       -999.250         63.474       -999.250         4.0813      -999.2500       138.9859      -999.2500       141.5283      -999.2500        0.10469     -999.25000        0.11230         2.5986      -999.2500
        14307.5         72.980       -999.250         60.440       -999.250         4.2795      -999.2500       133.8754      -999.2500       132.9771      -999.2500        0.09126     -999.25000        0.09080         2.6132      -999.2500
        14308.0         58.447       -999.250         57.964       -999.250         4.3740      -999.2500       121.7827      -999.2500       119.2496      -999.2500        0.08042     -999.25000        0.07330         2.6228      -999.2500
        14308.5         60.492       -999.250         57.389       -999.250         4.4827      -999.2500       127.7144      -999.2500       124.2597      -999.2500        0.07773     -999.25000        0.06920         2.6229      -999.2500
        14309.0         52.619       -999.250         56.908       -999.250         4.5438      -999.2500       131.2247      -999.2500       127.1507      -999.2500        0.07538     -999.25000        0.06580         2.6268      -999.2500
        14309.5         43.005       -999.250         56.440       -999.250         4.5632      -999.2500       130.6616      -999.2500       126.2493      -999.2500        0.07341     -999.25000        0.06250         2.6311      -999.2500
        14310.0         43.966       -999.250         56.743       -999.250         4.6029      -999.2500       137.8826      -999.2500       133.2911      -999.2500        0.07409     -999.25000        0.06470         2.6306      -999.2500
        14310.5         40.947       -999.250         57.056       -999.250         4.6312      -999.2500       139.0488      -999.2500       134.9897      -999.2500        0.07407     -999.25000        0.06690         2.6322      -999.2500
        14311.0         47.129       -999.250         58.435       -999.250         4.6562      -999.2500       151.1091      -999.2500       148.1310      -999.2500        0.07819     -999.25000        0.07660         2.6289      -999.2500
        14311.5         43.814       -999.250         59.633       -999.250         4.5815      -999.2500       149.5971      -999.2500       148.5995      -999.2500        0.08317     -999.25000        0.08510         2.6276      -999.2500
        14312.0         58.955       -999.250         61.764       -999.250         4.3933      -999.2500       160.8687      -999.2500       162.4001      -999.2500        0.09332     -999.25000        0.10020         2.6176      -999.2500
        14312.5         76.539       -999.250         63.130       -999.250         4.2379      -999.2500       156.3404      -999.2500       160.1021      -999.2500        0.09880     -999.25000        0.10980         2.6086      -999.2500
        14313.0         68.277       -999.250         62.123       -999.250         4.2779      -999.2500       125.9342      -999.2500       128.7692      -999.2500        0.09399     -999.25000        0.10270         2.6121      -999.2500
        14313.5         76.406       -999.250         62.284       -999.250         4.2190      -999.2500       111.8797      -999.2500       115.4990      -999.2500        0.09274     -999.25000        0.10380         2.6087      -999.2500
        14314.0         68.200       -999.250         62.001       -999.250         4.2234      -999.2500        93.7805      -999.2500        97.9812      -999.2500        0.09111     -999.25000        0.10180         2.6094      -999.2500
        14314.5         76.269       -999.250         63.506       -999.250         4.1145      -999.2500        92.9374      -999.2500        98.9456      -999.2500        0.09794     -999.25000        0.11250         2.5991      -999.2500
        14315.0         66.716       -999.250         63.584       -999.250         4.1332      -999.2500        87.0359      -999.2500        93.5182      -999.2500        0.09981     -999.25000        0.11300         2.5974      -999.2500
        14315.5         64.198       -999.250         63.725       -999.250         4.1372      -999.2500        87.1599      -999.2500        93.9048      -999.2500        0.10101     -999.25000        0.11400         2.5964      -999.2500
        14316.0         61.056       -999.250         63.609       -999.250         4.1601      -999.2500        88.4333      -999.2500        95.1308      -999.2500        0.10079     -999.25000        0.11320         2.5976      -999.2500
        14316.5         67.731       -999.250         64.143       -999.250         4.1300      -999.2500        96.5713      -999.2500       103.8074      -999.2500        0.10253     -999.25000        0.11700         2.5956      -999.2500
        14317.0         63.825       -999.250         63.642       -999.250         4.1601      -999.2500        96.5611      -999.2500       102.9332      -999.2500        0.10079     -999.25000        0.11340         2.6000      -999.2500
        14317.5         57.443       -999.250         62.748       -999.250         4.1912      -999.2500        90.8283      -999.2500        95.7020      -999.2500        0.09806     -999.25000        0.10710         2.6069      -999.2500
        14318.0         58.929       -999.250         62.604       -999.250         4.0869      -999.2500        87.2157      -999.2500        91.1556      -999.2500        0.09996     -999.25000        0.10610         2.6086      -999.2500
        14318.5         75.288       -999.250         63.683       -999.250         3.8931      -999.2500        88.8861      -999.2500        92.8475      -999.2500        0.10769     -999.25000        0.11370         2.6008      -999.2500
        14319.0         79.588       -999.250         64.386       -999.250         3.7219      -999.2500        85.1353      -999.2500        89.1167      -999.2500        0.11411     -999.25000        0.11870         2.5966      -999.2500
        14319.5         78.490       -999.250         64.933       -999.250         3.6507      -999.2500        79.6258      -999.2500        83.9834      -999.2500        0.11820     -999.25000        0.12260         2.5938      -999.2500
