###############################################
##         ENVERUS                           ##
##         ESS - Open Hole                   ##
##         PERMIAN / DELAWARE                ##
##         Nov 03 2023  V4.0                 ##
##         42-109-33370-00-00                ##
###############################################
## Copyright 2017-2023  ENVERUS.  All Rights Reserved. 
## Confidential - Property of ENVERUS, use governed by terms and 
## conditions found within the existing Information Services Subscription Agreement 
## (as may be amended, the “ISSA”) between Customer and ENVERUS. 
## 
~VERSION INFORMATION
# MNEM.UNIT                               DATA : DESCRIPTION OF MNEMONIC
#-----.-----     ----------------------------- : -----------------------------
VERS.                                     2.00 : CWLS LOG ASCII STANDARD - VERSION 2.00
WRAP.                                       NO : MULTIPLE LINES PER DEPTH STEP
VEND.                                  ENVERUS : VENDOR
TYPE.                          ESS - OPEN HOLE : ENVERUS ESSENTIAL CURVES – ACCESSIBLE THROUGH ENVERUS PRISM(TM)
DOC.                                  52814434 : ENVERUS HEADER RAW DOCUMENT ID
#___________________________________________________________________________________________________ 
~WELL INFORMATION 
# 4wk/Fx8UuugU+iebl2dHJIcndKaYvWbTE+/Vf37HP7rynMiEVi3nAb6NYbehQO/VbM9PVY38flJCaeNisGRn4g== 
# MNEM.UNIT                                              DATA : DESCRIPTION OF MNEMONIC 
#-----.-----                    ----------------------------- : ----------------------------- 
CNTY.                                               CULBERSON : COUNTY 
STATE.                                                  TEXAS : STATE 
CNTRY.                                                    USA : COUNTRY 
API.                                             42-109-33370 : API (10 Digit) 
API_14.                                    42-109-33370-00-00 : API (14 Digits) 
API_14_std.                                 42-109-33370-0000 : API (14 Digits Standard) 
UWI.                                           42109333700000 : UNIQUE WELL ID 
WELL.                                       ROXANNE FEE 46 3H : WELL NAME
STRT.FT                                                8800.0 : START DEPTH
STOP.FT                                               14157.0 : STOP DEPTH
STEP.FT                                                   0.5 : STEP BETWEEN DEPTHS
NULL.                                                 -999.25 : NULL VALUE
LOC.                                        API  42-109-33370 : LOCATION 
FL1.                                        API  42-109-33370 : LOCATIONLINE1 
DMF.                                                       KB : DRILL MEAS FROM 
PDAT.                                                      GL : PERMANENT DATUM 
FLD.                                    FORD, WEST (WOLFCAMP) : FIELD NAME 
COMP.                                          CAPITAN ENERGY : COMPANY 
DATE.                                             29-APR-2019 : DATE 
SVCO.                                             HALLIBURTON : SERVICECONAME 
PROV.                                                   TEXAS : PROVINCE 
BASI.                                                 PERMIAN : BASIN 
RANG.                                                     N/A : RANGE 
TOWN.                                                     N/A : TOWNSHIP 
SECT.                                                     N/A : SECTION 
SON.                                                905631605 : JOB NUMBER 
SRVC.                                             HALLIBURTON : SERVICE COMPANY 
LMF.                                                       KB : LOG MEASURED FROM 
BAP.FT                                                 0.0000 : GL ELEV ONSHORE 
GVFD.G                                                 1.0000 : GRAVITY FIELD
#___________________________________________________________________________________________________ 
~CURVE INFORMATION 
# MNEM.UNIT           : CURVE DESCRIPTION 
#-----.-----          : ----------------------------- 
 DEPT.FT               : MEASURED DEPTH 
 GR.API                : GAMMA RAY (GR_CHI - GR_CHI) 
 GR__01.API            : GAMMA RAY (GR_OH - GR_OH) 
 DT.US/FT              : SONIC DELTA TRANSIT TIME (DTC_CHI - DTC_CHI) 
 DT__01.US/FT          : SONIC DELTA TRANSIT TIME (DTC_OH - DTC_OH) 
 PE.B/E                : PHOTOELECTRIC EFFECT/FACTOR (PE_CHI - PE_CHI) 
 PE__01.B/E            : PHOTOELECTRIC EFFECT/FACTOR (PE_OH - PE_OH) 
 RESS_10.OHMM          : 10 INCH SHALLOW INDUCTION RESISTIVITY (RT10_CHI - RT10_CHI) 
 RESS_10__01.OHMM      : 10 INCH SHALLOW INDUCTION RESISTIVITY (RT10_OH - RT10_OH) 
 RESM_30.OHMM          : 30 INCH MEDIUM INDUCTION RESISTIVITY (RT30_CHI - RT30_CHI) 
 RESM_30__01.OHMM      : 30 INCH MEDIUM INDUCTION RESISTIVITY (RT30_OH - RT30_OH) 
 RESD_90.OHMM          : 90 INCH DEEP INDUCTION RESISTIVITY (RT90_CHI - RT90_CHI) 
 RESD_90__01.OHMM      : 90 INCH DEEP INDUCTION RESISTIVITY (RT90_OH - RT90_OH) 
 NPHI.V/V              : NEUTRON POROSITY (NPHI_CHI - NPHI_CHI) 
 NPHI__01.V/V          : NEUTRON POROSITY (NPHI_OH - NPHI_OH) 
 SPHI.V/V              : SONIC POROSITY (SPHI_CHI - SPHI_CHI) 
 RHOB.G/CC             : BULK DENSITY (RHOB_CHI - RHOB_CHI) 
 RHOB__01.G/CC         : BULK DENSITY (RHOB_OH - RHOB_OH) 
 #___________________________________________________________________________________________________ 
~A         DEPT             GR         GR__01             DT         DT__01             PE         PE__01        RESS_10    RESS_10__01        RESM_30    RESM_30__01        RESD_90    RESD_90__01           NPHI       NPHI__01           SPHI           RHOB       RHOB__01
# ...
        11290.0        120.729       -999.250         75.426       -999.250         3.2415      -999.2500         24.344       -999.250         25.147       -999.250         26.752       -999.250        0.16330     -999.25000        0.19680         2.5586      -999.2500
        11290.5        124.911       -999.250         75.613       -999.250         3.2466      -999.2500         25.211       -999.250         26.042       -999.250         27.704       -999.250        0.16580     -999.25000        0.19740         2.5563      -999.2500
        11291.0        128.538       -999.250         75.677       -999.250         3.2509      -999.2500         26.291       -999.250         27.157       -999.250         28.891       -999.250        0.16670     -999.25000        0.19760         2.5545      -999.2500
        11291.5        130.456       -999.250         75.581       -999.250         3.2555      -999.2500         27.445       -999.250         28.350       -999.250         30.159       -999.250        0.16560     -999.25000        0.19720         2.5538      -999.2500
        11292.0        130.704       -999.250         75.382       -999.250         3.2581      -999.2500         28.496       -999.250         29.435       -999.250         31.314       -999.250        0.16320     -999.25000        0.19610         2.5541      -999.2500
        11292.5        129.206       -999.250         75.146       -999.250         3.2618      -999.2500         29.366       -999.250         30.335       -999.250         32.271       -999.250        0.16020     -999.25000        0.19480         2.5553      -999.2500
        11293.0        125.741       -999.250         74.941       -999.250         3.2758      -999.2500         30.134       -999.250         31.128       -999.250         33.114       -999.250        0.15750     -999.25000        0.19340         2.5577      -999.2500
        11293.5        119.962       -999.250         74.739       -999.250         3.3010      -999.2500         30.912       -999.250         31.931       -999.250         33.969       -999.250        0.15460     -999.25000        0.19190         2.5614      -999.2500
        11294.0        112.641       -999.250         74.529       -999.250         3.3359      -999.2500         31.866       -999.250         32.917       -999.250         35.018       -999.250        0.15120     -999.25000        0.19040         2.5660      -999.2500
        11294.5        107.493       -999.250         74.352       -999.250         3.3673      -999.2500         33.151       -999.250         34.243       -999.250         36.429       -999.250        0.14810     -999.25000        0.18890         2.5693      -999.2500
        11295.0        104.204       -999.250         74.146       -999.250         3.3970      -999.2500         34.833       -999.250         35.981       -999.250         38.278       -999.250        0.14500     -999.25000        0.18730         2.5719      -999.2500
        11295.5        101.785       -999.250         73.805       -999.250         3.4232      -999.2500         36.792       -999.250         38.005       -999.250         40.431       -999.250        0.14110     -999.25000        0.18540         2.5744      -999.2500
        11296.0         99.656       -999.250         73.483       -999.250         3.4522      -999.2500         38.732       -999.250         40.008       -999.250         42.562       -999.250        0.13750     -999.25000        0.18360         2.5769      -999.2500
        11296.5         97.826       -999.250         73.235       -999.250         3.4753      -999.2500         40.242       -999.250         41.568       -999.250         44.222       -999.250        0.13480     -999.25000        0.18240         2.5788      -999.2500
        11297.0         95.881       -999.250         73.179       -999.250         3.4907      -999.2500         41.025       -999.250         42.377       -999.250         45.082       -999.250        0.13370     -999.25000        0.18200         2.5802      -999.2500
        11297.5         95.166       -999.250         73.260       -999.250         3.4933      -999.2500         40.978       -999.250         42.329       -999.250         45.031       -999.250        0.13420     -999.25000        0.18250         2.5803      -999.2500
        11298.0         97.219       -999.250         73.465       -999.250         3.4783      -999.2500         40.137       -999.250         41.460       -999.250         44.107       -999.250        0.13640     -999.25000        0.18370         2.5784      -999.2500
        11298.5        102.176       -999.250         73.813       -999.250         3.4471      -999.2500         38.674       -999.250         39.949       -999.250         42.499       -999.250        0.14040     -999.25000        0.18560         2.5745      -999.2500
        11299.0        108.904       -999.250         74.172       -999.250         3.4025      -999.2500         36.859       -999.250         38.074       -999.250         40.504       -999.250        0.14500     -999.25000        0.18760         2.5694      -999.2500
        11299.5        113.864       -999.250         74.471       -999.250         3.3650      -999.2500         35.070       -999.250         36.227       -999.250         38.539       -999.250        0.14870     -999.25000        0.18950         2.5655      -999.2500
        11300.0        117.621       -999.250         74.700       -999.250         3.3349      -999.2500         33.596       -999.250         34.704       -999.250         36.919       -999.250        0.15160     -999.25000        0.19110         2.5626      -999.2500
        11300.5        120.052       -999.250         74.869       -999.250         3.3215      -999.2500         32.668       -999.250         33.745       -999.250         35.899       -999.250        0.15380     -999.25000        0.19220         2.5607      -999.2500
        11301.0        121.338       -999.250         74.945       -999.250         3.3182      -999.2500         32.231       -999.250         33.294       -999.250         35.419       -999.250        0.15520     -999.25000        0.19270         2.5600      -999.2500
        11301.5        121.108       -999.250         74.934       -999.250         3.3261      -999.2500         32.139       -999.250         33.199       -999.250         35.318       -999.250        0.15620     -999.25000        0.19280         2.5607      -999.2500
        11302.0        120.183       -999.250         74.861       -999.250         3.3368      -999.2500         32.146       -999.250         33.205       -999.250         35.325       -999.250        0.15650     -999.25000        0.19240         2.5619      -999.2500
        11302.5        118.547       -999.250         74.723       -999.250         3.3465      -999.2500         32.026       -999.250         33.082       -999.250         35.194       -999.250        0.15650     -999.25000        0.19160         2.5638      -999.2500
        11303.0        117.115       -999.250         74.547       -999.250         3.3477      -999.2500         31.675       -999.250         32.719       -999.250         34.808       -999.250        0.15590     -999.25000        0.19080         2.5653      -999.2500
        11303.5        116.655       -999.250         74.421       -999.250         3.3349      -999.2500         31.070       -999.250         32.094       -999.250         34.143       -999.250        0.15520     -999.25000        0.19000         2.5658      -999.2500
        11304.0        117.611       -999.250         74.350       -999.250         3.3110      -999.2500         30.317       -999.250         31.317       -999.250         33.316       -999.250        0.15480     -999.25000        0.18940         2.5651      -999.2500
        11304.5        118.042       -999.250         74.285       -999.250         3.2911      -999.2500         29.581       -999.250         30.556       -999.250         32.507       -999.250        0.15430     -999.25000        0.18890         2.5647      -999.2500
