###############################################
##         ENVERUS                           ##
##         ESS - Open Hole                   ##
##         PERMIAN / DELAWARE                ##
##         Nov 03 2023  V4.0                 ##
##         42-109-32507-90-00                ##
###############################################
## Copyright 2017-2023  ENVERUS.  All Rights Reserved. 
## Confidential - Property of ENVERUS, use governed by terms and 
## conditions found within the existing Information Services Subscription Agreement 
## (as may be amended, the “ISSA”) between Customer and ENVERUS. 
## 
~VERSION INFORMATION
# MNEM.UNIT                               DATA : DESCRIPTION OF MNEMONIC
#-----.-----     ----------------------------- : -----------------------------
VERS.                                     2.00 : CWLS LOG ASCII STANDARD - VERSION 2.00
WRAP.                                       NO : MULTIPLE LINES PER DEPTH STEP
VEND.                                  ENVERUS : VENDOR
TYPE.                          ESS - OPEN HOLE : ENVERUS ESSENTIAL CURVES – ACCESSIBLE THROUGH ENVERUS PRISM(TM)
DOC.                                  51094130 : ENVERUS HEADER RAW DOCUMENT ID
#___________________________________________________________________________________________________ 
~WELL INFORMATION 
# OeTAuI96vYP/1gAnXdiC+b2e5mg9bdq0rVS4GA6NX+ctg1PKQ5RhcqUsdOd2aOUDNf5EtC5635oDT1THDUi6iw== 
# MNEM.UNIT                                              DATA : DESCRIPTION OF MNEMONIC 
#-----.-----                    ----------------------------- : ----------------------------- 
CNTY.                                               CULBERSON : COUNTY 
STATE.                                                  TEXAS : STATE 
CNTRY.                                                    USA : COUNTRY 
API.                                             42-109-32507 : API (10 Digit) 
API_14.                                    42-109-32507-90-00 : API (14 Digits) 
API_14_std.                                 42-109-32507-9000 : API (14 Digits Standard) 
UWI.                                           42109325079000 : UNIQUE WELL ID 
WELL.                               42109325070000_PREV_API14 : WELL NAME
STRT.FT                                                2104.5 : START DEPTH
STOP.FT                                                9085.0 : STOP DEPTH
STEP.FT                                                   0.5 : STEP BETWEEN DEPTHS
NULL.                                                 -999.25 : NULL VALUE
PREV_APII.                                     42109325070000 : WELL IDENTIFIER
#___________________________________________________________________________________________________ 
~PARAMETER INFORMATION 
# MNEM.UNIT                                              DATA : DESCRIPTION OF MNEMONIC 
#-----.-----                    ----------------------------- : ----------------------------- 
EKB.FT                                                 3578.5 : ELEVATION ABOVE MSL
#___________________________________________________________________________________________________ 
~CURVE INFORMATION 
# MNEM.UNIT           : CURVE DESCRIPTION 
#-----.-----          : ----------------------------- 
 DEPT.FT               : MEASURED DEPTH 
 GR__A.API             : GAMMA RAY (GAMMA RAY) 
 DT__A.US/FT           : SONIC DELTA TRANSIT TIME (SONIC) 
 #___________________________________________________________________________________________________ 
~A         DEPT          GR__A          DT__A
# ...
         8542.5        210.915         90.307
         8543.0        203.662         90.750
         8543.5        197.531         91.172
         8544.0        191.530         93.077
         8544.5        186.800        103.917
         8545.0        171.397        119.006
         8545.5        141.990        123.555
         8546.0        126.228        119.916
         8546.5        143.808        108.534
         8547.0        179.712         89.673
         8547.5        196.134         88.525
         8548.0        186.120         92.759
         8548.5        177.565        104.617
         8549.0        162.704        115.317
         8549.5        142.810        112.013
         8550.0        140.081         96.358
         8550.5        152.920         90.076
         8551.0        177.261         92.173
         8551.5        171.112         96.854
         8552.0        160.181         98.980
         8552.5        157.505         96.254
         8553.0        170.905         91.460
         8553.5        181.494         89.776
         8554.0        180.731         91.507
         8554.5        175.061         94.345
         8555.0        168.788         96.397
         8555.5        165.692         95.311
         8556.0        172.449         92.292
         8556.5        185.629         89.192
         8557.0        209.886         89.609
         8557.5        212.731         91.227
         8558.0        197.996        103.802
         8558.5        178.379        111.986
         8559.0        144.127        114.442
         8559.5        122.693        117.487
         8560.0        128.763        108.993
         8560.5        151.681         97.096
         8561.0        183.750         93.994
         8561.5        192.754         93.167
         8562.0        192.203         93.866
         8562.5        195.382         93.671
         8563.0        196.497         93.037
         8563.5        182.795         93.353
         8564.0        169.394         96.964
         8564.5        155.452        101.292
         8565.0        132.071        107.094
         8565.5        129.366        104.682
         8566.0        145.600        103.080
         8566.5        155.747        101.544
         8567.0        155.372         97.811
         8567.5        144.125         96.725
         8568.0        141.207         94.294
         8568.5        151.298         91.902
         8569.0        174.533         86.099
         8569.5        207.241         82.018
         8570.0        217.154         86.720
         8570.5        208.648         93.835
         8571.0        157.946        103.263
         8571.5        136.057        104.665
         8572.0        139.468        100.039
         8572.5        150.315         96.953
         8573.0        167.667         96.807
         8573.5        172.320         98.773
         8574.0        168.421        101.606
         8574.5        166.749        103.097
         8575.0        161.271        101.590
         8575.5        144.489         99.464
         8576.0        137.397         97.540
         8576.5        143.388         93.835
         8577.0        184.946         77.460
         8577.5        225.279         65.227
         8578.0        249.437         65.727
         8578.5        251.506         69.032
         8579.0        222.739         77.816
         8579.5        203.707         84.659
         8580.0        179.860         87.448
         8580.5        169.651         88.867
         8581.0        149.953         89.500
         8581.5        140.389         89.581
         8582.0        128.168         91.070
         8582.5        128.078         92.798
         8583.0        132.438         95.776
         8583.5        128.344        103.141
         8584.0        118.293        105.676
         8584.5        116.161        106.524
         8585.0        130.842        106.913
         8585.5        143.716        109.743
         8586.0        141.944        121.337
         8586.5        133.656        121.642
         8587.0        139.076        117.944
         8587.5        166.503        116.072
         8588.0        165.292        111.195
         8588.5        156.792        109.043
         8589.0        154.849        101.910
         8589.5        171.812         92.412
         8590.0        181.553         86.465
         8590.5        184.554         85.687
         8591.0        189.971         84.908
         8591.5        192.286         84.087
         8592.0        197.491         83.544
         8592.5        207.160         82.022
         8593.0        236.469         74.318
         8593.5        262.311         68.452
         8594.0        260.786         71.070
         8594.5        244.340         78.022
         8595.0        205.751         89.266
         8595.5        195.414         96.565
         8596.0        189.675         97.955
         8596.5        190.943         95.296
         8597.0        195.461         89.214
         8597.5        204.179         86.076
         8598.0        204.054         85.881
         8598.5        202.709         85.174
         8599.0        207.271         83.709
         8599.5        214.216         80.525
         8600.0        234.980         76.198
         8600.5        265.440         73.610
         8601.0        284.236         71.242
         8601.5        279.970         68.909
         8602.0        260.928         71.092
         8602.5        237.245         79.707
         8603.0        188.648         97.375
         8603.5        159.379        116.414
         8604.0        125.825        136.723
         8604.5        109.016        134.684
         8605.0        132.066        122.656
         8605.5        177.031        109.839
         8606.0        222.920         92.276
         8606.5        235.600         88.794
         8607.0        211.557        107.553
         8607.5        181.648        113.488
         8608.0        175.128        112.560
         8608.5        199.822         99.793
         8609.0        233.989         89.659
         8609.5        221.580         99.993
         8610.0        163.526        121.057
         8610.5        151.794        122.149
         8611.0        165.478        112.112
         8611.5        197.042         94.747
         8612.0        199.003         94.795
         8612.5        199.610         99.747
         8613.0        200.586        103.565
         8613.5        201.170         97.710
         8614.0        196.272         92.471
         8614.5        187.033        102.947
         8615.0        170.550        110.683
         8615.5        153.953        112.917
         8616.0        155.042        107.417
         8616.5        168.278         98.684
         8617.0        176.508         93.601
         8617.5        188.969         93.087
         8618.0        192.126         91.724
         8618.5        194.574         90.604
         8619.0        207.228         88.258
         8619.5        216.054         86.876
         8620.0        220.572         85.896
         8620.5        229.863         84.138
         8621.0        243.217         83.934
         8621.5        237.918         88.031
         8622.0        214.408         94.069
         8622.5        193.496         96.801
         8623.0        190.643         97.002
         8623.5        190.592        101.674
         8624.0        180.443        111.035
         8624.5        161.972        114.647
         8625.0        163.573        111.110
         8625.5        185.744         93.617
         8626.0        194.652         88.608
         8626.5        181.213         88.669
         8627.0        176.742         88.541
         8627.5        191.175         88.413
         8628.0        195.089         88.686
         8628.5        191.496         94.761
         8629.0        176.603         99.440
