###############################################
##         ENVERUS                           ##
##         ESS - Open Hole                   ##
##         PERMIAN / DELAWARE                ##
##         Nov 03 2023  V4.0                 ##
##         42-109-33144-00-00                ##
###############################################
## Copyright 2017-2023  ENVERUS.  All Rights Reserved. 
## Confidential - Property of ENVERUS, use governed by terms and 
## conditions found within the existing Information Services Subscription Agreement 
## (as may be amended, the “ISSA”) between Customer and ENVERUS. 
## 
~VERSION INFORMATION
# MNEM.UNIT                               DATA : DESCRIPTION OF MNEMONIC
#-----.-----     ----------------------------- : -----------------------------
VERS.                                     2.00 : CWLS LOG ASCII STANDARD - VERSION 2.00
WRAP.                                       NO : MULTIPLE LINES PER DEPTH STEP
VEND.                                  ENVERUS : VENDOR
TYPE.                          ESS - OPEN HOLE : ENVERUS ESSENTIAL CURVES – ACCESSIBLE THROUGH ENVERUS PRISM(TM)
DOC.                                  44408038 : ENVERUS HEADER RAW DOCUMENT ID
#___________________________________________________________________________________________________ 
~WELL INFORMATION 
# jhvnPe+1QU9E4rmF00QVhgJB4IQXrbTj+4JQBaOQ+xeerJB1ro+a2ny8/YeKPBUHGPa8yPZn1kHe7+9ZkyRs1A== 
# MNEM.UNIT                                              DATA : DESCRIPTION OF MNEMONIC 
#-----.-----                    ----------------------------- : ----------------------------- 
CNTY.                                               CULBERSON : COUNTY 
STATE.                                                  TEXAS : STATE 
CNTRY.                                                    USA : COUNTRY 
API.                                             42-109-33144 : API (10 Digit) 
API_14.                                    42-109-33144-00-00 : API (14 Digits) 
API_14_std.                                 42-109-33144-0000 : API (14 Digits Standard) 
UWI.                                           42109331440000 : UNIQUE WELL ID 
WELL.                                        PAT FEE 4 NO. 3H : WELL NAME
STRT.FT                                                8880.0 : START DEPTH
STOP.FT                                               14320.0 : STOP DEPTH
STEP.FT                                                   0.5 : STEP BETWEEN DEPTHS
NULL.                                                 -999.25 : NULL VALUE
LOC.                                     API  42-109-33144LAT : LOCATION 
FL1.                                     API  42-109-33144LAT : LOCATIONLINE1 
DMF.                                                       KB : DRILL MEAS FROM 
PDAT.                                                      GL : PERMANENT DATUM 
FLD.                                    FORD, WEST (WOLFCAMP) : FIELD NAME 
COMP.                            CAPITAN ENERGY, INCORPORATED : COMPANY 
DATE.                                             21-SEP-2017 : DATE 
SVCO.                                             HALLIBURTON : SERVICECONAME 
PROV.                                                   TEXAS : PROVINCE 
BASI.                                                 PERMIAN : BASIN 
RANG.                                                     N/A : RANGE 
TOWN.                                                     N/A : TOWNSHIP 
SECT.                                                     N/A : SECTION 
SON.                                                      N/A : JOB NUMBER 
SRVC.                                             HALLIBURTON : SERVICE COMPANY 
LMF.                                                       KB : LOG MEASURED FROM 
EGL.FT                                              3093.0000 : GROUND ELEVATION 
BAP.FT                                                 0.0000 : GL ELEV ONSHORE 
GVFD.G                                                 1.0000 : GRAVITY FIELD 
EKB.FT                                              3114.0000 : KB ELEVATION 
EDF.FT                                              3113.0000 : DF ELEVATION
#___________________________________________________________________________________________________ 
~CURVE INFORMATION 
# MNEM.UNIT           : CURVE DESCRIPTION 
#-----.-----          : ----------------------------- 
 DEPT.FT               : MEASURED DEPTH 
 GR.API                : GAMMA RAY (GR_CHI - GR_CHI) 
 GR__01.API            : GAMMA RAY (GR_OH - GR_OH) 
 DT.US/FT              : SONIC DELTA TRANSIT TIME (DTC_CHI - DTC_CHI) 
 DT__01.US/FT          : SONIC DELTA TRANSIT TIME (DTC_OH - DTC_OH) 
 PE.B/E                : PHOTOELECTRIC EFFECT/FACTOR (PE_CHI - PE_CHI) 
 PE__01.B/E            : PHOTOELECTRIC EFFECT/FACTOR (PE_OH - PE_OH) 
 RESS_LL.OHMM          : SHALLOW LATEROLOG (LLS_CHI - LLS_CHI) 
 RESS_LL__01.OHMM      : SHALLOW LATEROLOG (LLS_OH - LLS_OH) 
 RESD_LL.OHMM          : DEEP LATEROLOG (LLD_CHI - LLD_CHI) 
 RESD_LL__01.OHMM      : DEEP LATEROLOG (LLD_OH - LLD_OH) 
 NPHI.V/V              : NEUTRON POROSITY (NPHI_CHI - NPHI_CHI) 
 NPHI__01.V/V          : NEUTRON POROSITY (NPHI_OH - NPHI_OH) 
 SPHI.V/V              : SONIC POROSITY (SPHI_CHI - SPHI_CHI) 
 RHOB.G/CC             : BULK DENSITY (RHOB_CHI - RHOB_CHI) 
 RHOB__01.G/CC         : BULK DENSITY (RHOB_OH - RHOB_OH) 
 #___________________________________________________________________________________________________ 
~A         DEPT             GR         GR__01             DT         DT__01             PE         PE__01        RESS_LL    RESS_LL__01        RESD_LL    RESD_LL__01           NPHI       NPHI__01           SPHI           RHOB       RHOB__01
# ...
        13215.0         59.286       -999.250         60.816       -999.250         3.8087      -999.2500       121.1062      -999.2500       119.6632      -999.2500        0.10313     -999.25000        0.09350         2.6123      -999.2500
        13215.5         66.573       -999.250         61.334       -999.250         3.8530      -999.2500       125.4567      -999.2500       124.4359      -999.2500        0.10433     -999.25000        0.09710         2.6091      -999.2500
        13216.0         65.209       -999.250         61.129       -999.250         3.8320      -999.2500       120.3214      -999.2500       119.3543      -999.2500        0.10338     -999.25000        0.09570         2.6100      -999.2500
        13216.5         60.329       -999.250         60.862       -999.250         3.7666      -999.2500       113.7907      -999.2500       112.7780      -999.2500        0.10321     -999.25000        0.09380         2.6119      -999.2500
        13217.0         57.491       -999.250         61.111       -999.250         3.6961      -999.2500       112.5938      -999.2500       111.6508      -999.2500        0.10593     -999.25000        0.09560         2.6118      -999.2500
        13217.5         64.293       -999.250         62.166       -999.250         3.7049      -999.2500       121.2154      -999.2500       120.8179      -999.2500        0.11100     -999.25000        0.10300         2.6071      -999.2500
        13218.0         83.671       -999.250         63.769       -999.250         3.7876      -999.2500       136.9293      -999.2500       137.9410      -999.2500        0.11715     -999.25000        0.11440         2.5977      -999.2500
        13218.5         94.344       -999.250         64.359       -999.250         3.9025      -999.2500       143.3610      -999.2500       145.5929      -999.2500        0.11709     -999.25000        0.11850         2.5945      -999.2500
        13219.0         94.538       -999.250         63.943       -999.250         3.9655      -999.2500       140.8816      -999.2500       142.8852      -999.2500        0.11304     -999.25000        0.11560         2.5960      -999.2500
        13219.5         97.813       -999.250         63.740       -999.250         4.0065      -999.2500       140.1528      -999.2500       142.0156      -999.2500        0.11084     -999.25000        0.11410         2.5958      -999.2500
        13220.0         86.420       -999.250         62.859       -999.250         3.9355      -999.2500       133.5693      -999.2500       134.2061      -999.2500        0.10857     -999.25000        0.10790         2.6004      -999.2500
        13220.5         86.372       -999.250         63.022       -999.250         3.8849      -999.2500       137.4780      -999.2500       137.8264      -999.2500        0.11126     -999.25000        0.10910         2.5992      -999.2500
        13221.0         85.894       -999.250         63.244       -999.250         3.8552      -999.2500       140.2015      -999.2500       140.5664      -999.2500        0.11344     -999.25000        0.11060         2.5985      -999.2500
        13221.5        101.589       -999.250         64.422       -999.250         3.8949      -999.2500       149.3098      -999.2500       151.1802      -999.2500        0.11833     -999.25000        0.11900         2.5916      -999.2500
        13222.0         97.245       -999.250         64.225       -999.250         3.8813      -999.2500       143.6447      -999.2500       145.4066      -999.2500        0.11702     -999.25000        0.11760         2.5933      -999.2500
        13222.5         97.054       -999.250         63.832       -999.250         3.8587      -999.2500       134.4313      -999.2500       135.8392      -999.2500        0.11444     -999.25000        0.11480         2.5939      -999.2500
        13223.0         96.666       -999.250         63.151       -999.250         3.8099      -999.2500       124.0244      -999.2500       124.7530      -999.2500        0.11138     -999.25000        0.11000         2.5948      -999.2500
        13223.5         91.483       -999.250         62.046       -999.250         3.7661      -999.2500       114.1275      -999.2500       113.9902      -999.2500        0.10708     -999.25000        0.10220         2.5981      -999.2500
        13224.0         88.070       -999.250         61.443       -999.250         3.7495      -999.2500       112.9966      -999.2500       112.2084      -999.2500        0.10551     -999.25000        0.09790         2.5997      -999.2500
        13224.5         73.676       -999.250         60.389       -999.250         3.7315      -999.2500       110.1166      -999.2500       108.5087      -999.2500        0.10236     -999.25000        0.09040         2.6064      -999.2500
        13225.0         60.314       -999.250         59.322       -999.250         3.7083      -999.2500       105.3382      -999.2500       103.1105      -999.2500        0.09891     -999.25000        0.08290         2.6128      -999.2500
        13225.5         61.807       -999.250         59.341       -999.250         3.7181      -999.2500       110.4918      -999.2500       107.7998      -999.2500        0.09987     -999.25000        0.08300         2.6114      -999.2500
        13226.0         59.393       -999.250         58.935       -999.250         3.6675      -999.2500       106.7212      -999.2500       103.7740      -999.2500        0.09958     -999.25000        0.08020         2.6121      -999.2500
        13226.5         52.818       -999.250         58.555       -999.250         3.6137      -999.2500       101.1782      -999.2500        98.2631      -999.2500        0.09882     -999.25000        0.07750         2.6151      -999.2500
        13227.0         57.076       -999.250         59.449       -999.250         3.6145      -999.2500       108.0323      -999.2500       105.2691      -999.2500        0.10266     -999.25000        0.08380         2.6120      -999.2500
        13227.5         61.467       -999.250         60.328       -999.250         3.6432      -999.2500       113.6869      -999.2500       111.4188      -999.2500        0.10540     -999.25000        0.09000         2.6096      -999.2500
        13228.0         59.621       -999.250         60.557       -999.250         3.6602      -999.2500       112.6695      -999.2500       110.8699      -999.2500        0.10529     -999.25000        0.09160         2.6108      -999.2500
        13228.5         58.682       -999.250         60.452       -999.250         3.6904      -999.2500       106.7390      -999.2500       105.5136      -999.2500        0.10281     -999.25000        0.09090         2.6126      -999.2500
        13229.0         74.665       -999.250         61.456       -999.250         3.7582      -999.2500       110.0543      -999.2500       109.7645      -999.2500        0.10473     -999.25000        0.09800         2.6057      -999.2500
        13229.5        107.865       -999.250         64.073       -999.250         3.8479      -999.2500       121.9717      -999.2500       124.1125      -999.2500        0.11313     -999.25000        0.11650         2.5902      -999.2500
        13230.0        103.374       -999.250         64.412       -999.250         3.8054      -999.2500       113.4768      -999.2500       116.3428      -999.2500        0.11440     -999.25000        0.11890         2.5909      -999.2500
        13230.5         99.840       -999.250         64.710       -999.250         3.8016      -999.2500       109.3389      -999.2500       112.8144      -999.2500        0.11542     -999.25000        0.12100         2.5913      -999.2500
        13231.0         91.951       -999.250         64.285       -999.250         3.8184      -999.2500       106.1793      -999.2500       109.4809      -999.2500        0.11311     -999.25000        0.11800         2.5949      -999.2500
        13231.5         98.389       -999.250         64.511       -999.250         3.8403      -999.2500       108.4879      -999.2500       111.9814      -999.2500        0.11351     -999.25000        0.11960         2.5926      -999.2500
