~VERSION INFORMATION
VERS. 2.0 : CWLS Log ASCII Standard - Version 2.0
WRAP. NO : One line per depth step
#--------------------------------------------------#
#----------------DRILLING INFO, INC.---------------#
#---------------WWW.DRILLINGINFO.COM---------------#
#------------------COPYRIGHT 2015------------------#
#--------------------------------------------------#
#THIS FILE MAY BE USED ONLY IN ACCORDANCE WITH A CURRENT SUBSCRIPTION AGREEMENT BETWEEN
#THE USER AND DRILLING INFO, INC. NO PART OF THIS FILE MAY BE REPRODUCED, USED, COPIED,
#MODIFIED, PROPAGATED, OR DISTRIBUTED EXCEPT IN ACCORDANCE WITH THE SUBSCRIPTION
#AGREEMENT. UNAUTHORIZED USE OR DISTRIBUTION OF ALL OR ANY PART OF THIS FILE MAY VIOLATE
#COPYRIGHT, TRADEMARK, AND/OR OTHER LAWS AND IS SUBJECT TO CIVIL AS WELL AS CRIMINAL
#SANCTIONS.
#--------------------------------------------------#
#THIS FILE IS PROVIDED "AS-IS" AND ALL WARRANTIES ARE EXPRESSLY DISCLAIMED, WHETHER
#EXPRESS, ORAL, IMPLIED, STATUTORY OR OTHERWISE, INCLUDING ANY IMPLIED WARRANTY OF FITNESS
#FOR A PARTICULAR PURPOSE, MERCHANTABILITY, TITLE OR NON-INFRINGEMENT, AND ANY WARRANTIES
#ARISING BY VIRTUE OF CUSTOM OF TRADE OR COURSE OF DEALING.  FURTHER, DRILLING INFO,
#INC. AND ITS LICENSORS DO NOT REPRESENT OR WARRANT THAT THIS FILE WILL MEET USER'S
#REQUIREMENTS OR ARE SUITABLE FOR USER'S NEEDS OR THAT THE DATA OR RESULTS PROVIDED IN
#CONJUNCTION THEREWITH ARE CORRECT, ACCURATE, TIMELY OR RELIABLE. THESE DISCLAIMERS SHALL
#APPLY REGARDLESS OF ANY FAILURE OF ESSENTIAL PURPOSE OF ANY LIMITED REMEDY.  SOME
#JURISDICTIONS DO NOT ALLOW THE EXCLUSION OF CERTAIN WARRANTIES SO SOME OF THE ABOVE
#EXCLUSIONS MAY NOT APPLY. IN NO EVENT SHALL DRILLING INFO, INC. OR ANY OF ITS AFFILIATES
#BE LIABLE UNDER ANY LEGAL THEORY, WHETHER IN TORT (INCLUDING WITHOUT LIMITATION
#NEGLIGENCE), CONTRACT, STRICT LIABILITY, STATUTORY OR OTHERWISE, FOR ANY SPECIAL,
#INCIDENTAL, CONSEQUENTIAL, EXEMPLARY, PUNITIVE OR INDIRECT DAMAGE OF ANY KIND, INCLUDING
#WITHOUT LIMITATION LOSS OF REVENUE, PROFITS, GOODWILL, USE, AND/OR DATA OR THE COST OF
#PROCUREMENT OF SUBSTITUTE GOODS OR SERVICES, EVEN IF APPRISED OF THE POSSIBILITY OF SUCH
#DAMAGES IN ADVANCE.
#--------------------------------------------------#
~WELL INFORMATION
#MNEMONIC     .UNIT              VALUE :DESCRIPTION
#--------------------------------------------------#
STRT       .ft                25.00000 :START DEPTH
STOP       .ft                17086.00000 :STOP DEPTH
STEP       .ft                0.50000 :STEP
NULL       .                -999.25000 :NULL VALUE
COMP       .                 :COMPANY
WELL       .                 :WELL
FLD       .                 :FIELD
LOC       .                 :LOCATION
CNTY       .                 :COUNTY
STAT       .                 :STATE
CTRY       .                 :COUNTRY
SRVC       .                 :SERVICE COMPANY
DATE       .                 :DATE
API       .                42109309270000 :API NUMBER
~CURVE INFORMATION
#MNEMONIC     .UNIT      API CODE :CURVE DESCRIPTION
#--------------------------------------------------#
DEPTH       .ft                      :Measured Depth
CAL       .in        UNKNOWN   :CAL
DT       .us/ft        UNKNOWN   :DT
GR       .gAPI        UNKNOWN   :GR
~A    DEPTH    CAL    DT    GR
# ...
5809.00000    14.88990    60.35984    55.78298
5809.50000    14.90588    58.76362    54.81365
5810.00000    14.92185    57.16739    59.01907
5810.50000    14.93783    56.70726    64.67843
5811.00000    14.95381    57.57335    68.80315
5811.50000    14.96979    58.43944    72.92787
5812.00000    14.98577    59.30554    77.05259
5812.50000    15.00174    60.17163    77.96041
5813.00000    15.01772    60.80856    76.73307
5813.50000    15.01937    61.40023    75.18527
5814.00000    15.01833    61.99189    73.63748
5814.50000    15.01729    62.50012    72.08969
5815.00000    15.01625    62.20300    70.54190
5815.50000    15.01521    61.90588    58.67584
5816.00000    15.01417    61.60876    52.90314
5816.50000    15.01313    61.31164    53.89347
5817.00000    15.01208    61.01452    54.88380
5817.50000    15.01104    60.71740    55.87413
5818.00000    15.01000    60.42029    57.43180
5818.50000    15.00896    61.30653    59.63270
5819.00000    15.00792    62.37170    56.78693
5819.50000    15.00688    62.78784    53.66898
5820.00000    15.00583    62.70803    50.41956
5820.50000    15.00479    62.62823    47.12295
5821.00000    15.00375    62.54842    46.29490
5821.50000    15.00271    62.46861    47.70041
5822.00000    15.00167    62.38881    49.10593
5822.50000    15.00063    62.30900    49.49544
5823.00000    14.99959    62.49899    49.73427
5823.50000    14.99855    62.72767    49.97310
5824.00000    14.99750    62.74301    50.21193
5824.50000    14.99646    62.55684    50.45076
5825.00000    14.99542    62.37067    50.11241
5825.50000    14.99438    62.18451    49.76026
5826.00000    14.99334    62.25493    49.40810
5826.50000    14.99230    62.45062    55.01936
5827.00000    14.99126    62.64632    59.91928
5827.50000    14.99021    62.84201    63.63287
5828.00000    14.98917    63.03770    67.34646
5828.50000    14.98813    63.10288    78.29335
5829.00000    14.98709    63.01763    76.56940
5829.50000    14.98605    62.93237    74.84544
5830.00000    14.98501    62.84712    73.19805
5830.50000    14.98396    62.76187    71.71509
5831.00000    14.98292    62.67661    69.15251
5831.50000    14.98188    62.59136    65.28646
5832.00000    14.98084    62.50610    61.42040
5832.50000    14.97980    62.16671    57.28756
5833.00000    14.97876    61.76930    51.51375
5833.50000    14.97772    61.37190    45.73994
5834.00000    14.97667    60.97449    46.98152
5834.50000    14.97563    61.14735    48.97260
5835.00000    14.97459    61.98673    57.09836
5835.50000    14.97355    62.82611    52.71693
5836.00000    14.97251    62.81600    46.61385
5836.50000    14.97147    62.41250    40.51077
5837.00000    14.97043    62.00901    45.97344
5837.50000    14.96938    61.60551    51.73860
5838.00000    14.96834    61.20201    57.50375
5838.50000    14.96730    61.08299    60.34274
5839.00000    14.96626    61.46460    62.73556
5839.50000    14.96522    61.84620    65.12838
5840.00000    14.96418    62.22781    67.52120
5840.50000    14.96313    62.35556    68.43712
5841.00000    14.96209    60.76567    68.64526
5841.50000    14.96105    59.17578    63.62165
5842.00000    14.96001    57.58589    58.78089
5842.50000    14.95897    55.99600    53.94013
5843.00000    14.95793    54.74637    53.92392
5843.50000    14.95689    56.77066    54.61674
5844.00000    14.95585    58.79494    55.70025
5844.50000    14.95480    60.81923    57.03615
5845.00000    14.95376    62.13938    58.37205
5845.50000    14.95272    62.81209    59.70794
5846.00000    14.95168    63.14420    61.04384
5846.50000    14.95148    63.29583    59.29520
5847.00000    14.95199    63.44747    55.85112
5847.50000    14.95249    63.59911    52.40703
5848.00000    14.95299    63.75074    48.96295
5848.50000    14.95349    63.90238    42.01654
5849.00000    14.95400    64.05402    40.08859
5849.50000    14.95450    63.96027    39.64829
5850.00000    14.95500    63.65623    39.20798
5850.50000    14.95551    63.35220    38.76768
5851.00000    14.95601    63.04816    38.32737
5851.50000    14.95651    62.74413    37.88706
5852.00000    14.95701    61.96672    37.01128
5852.50000    14.95752    59.72170    33.81559
5853.00000    14.95802    57.47669    30.61990
5853.50000    14.95852    56.05357    34.66192
5854.00000    14.95903    59.03994    39.17552
5854.50000    14.95953    61.17663    50.31568
5855.00000    14.96003    62.11958    65.37863
5855.50000    14.96053    63.06253    76.21406
5856.00000    14.96104    63.72944    71.21595
5856.50000    14.96154    63.15586    67.90043
5857.00000    14.96204    62.58228    64.58491
5857.50000    14.96255    62.00870    61.26938
5858.00000    14.96305    61.43512    57.95386
5858.50000    14.96355    60.86154    54.63834
5859.00000    14.96405    60.28796    51.32281
5859.50000    14.96456    59.71438    54.02736
5860.00000    14.96506    60.15721    58.18836
5860.50000    14.96556    60.71678    62.34936
5861.00000    14.96607    61.27635    66.51036
5861.50000    14.96657    61.83592    62.97623
5862.00000    14.96707    62.39549    59.23618
5862.50000    14.96757    62.95506    55.49613
5863.00000    14.96808    62.94843    56.01404
5863.50000    14.96858    62.80309    58.78678
5864.00000    14.96908    62.65775    61.55952
5864.50000    14.96959    62.81988    60.57939
5865.00000    14.97009    63.00366    57.11321
5865.50000    14.97059    63.18744    53.64703
5866.00000    14.97109    63.37122    54.41303
5866.50000    14.97160    63.55499    57.51125
5867.00000    14.97163    61.62157    60.60948
5867.50000    14.97145    58.84818    60.09897
5868.00000    14.97127    65.90971    59.50044
5868.50000    14.97109    64.83907    58.90190
5869.00000    14.97091    63.76843    58.30336
5869.50000    14.97073    62.89820    57.70482
5870.00000    14.97055    62.26209    56.40497
5870.50000    14.97038    61.62598    53.84097
5871.00000    14.97020    60.98987    51.27696
5871.50000    14.97002    60.35375    48.71296
5872.00000    14.96984    59.87060    46.14896
5872.50000    14.96966    60.59147    49.56870
5873.00000    14.96948    61.31234    52.67176
5873.50000    14.96930    62.03320    54.01511
5874.00000    14.96912    62.42811    55.35846
5874.50000    14.96894    62.29137    56.70181
5875.00000    14.96876    62.15464    58.04516
5875.50000    14.96858    62.01790    57.74427
5876.00000    14.96841    61.88117    57.09457
5876.50000    14.96823    62.40935    56.44488
5877.00000    14.96805    62.30787    55.79518
5877.50000    14.96787    62.20639    55.14548
5878.00000    14.96769    62.10490    60.47743
5878.50000    14.96751    62.00342    66.10286
5879.00000    14.96733    61.90194    73.80922
5879.50000    14.96715    62.45844    82.66926
5880.00000    14.96697    63.11166    91.52930
5880.50000    14.96680    63.76489    100.38934
5881.00000    14.96662    64.41811    104.92515
5881.50000    14.96644    64.80216    92.72198
5882.00000    14.96626    64.12829    80.44649
5882.50000    14.96608    63.45441    56.27022
5883.00000    14.96590    62.78053    42.04419
5883.50000    14.96572    62.36706    40.72272
5884.00000    14.96554    62.54990    39.40125
5884.50000    14.96536    62.73274    39.36555
5885.00000    14.96518    62.91557    40.63614
5885.50000    14.96501    63.09841    41.90673
5886.00000    14.96483    63.28125    45.51977
5886.50000    14.96465    63.46409    78.76177
5887.00000    14.96447    63.64692    100.85899
5887.50000    14.96429    63.82976    98.38539
5888.00000    14.96411    63.28198    95.09322
5888.50000    14.96393    62.52623    86.42773
5889.00000    14.96375    61.77047    77.76225
5889.50000    14.96358    61.01472    77.26544
5890.00000    14.96340    60.25897    82.23489
5890.50000    14.96322    60.11131    86.77900
5891.00000    14.96304    60.85308    91.32312
5891.50000    14.96286    61.59485    95.86723
5892.00000    14.96268    62.33662    95.64074
5892.50000    14.96250    62.86485    93.42440
5893.00000    14.96232    62.60885    97.69932
5893.50000    14.96214    62.35286    104.97451
5894.00000    14.96196    62.09687    114.17448
