###############################################
##         ENVERUS                           ##
##         ESS - Open Hole                   ##
##         PERMIAN / DELAWARE                ##
##         Nov 02 2023  V4.0                 ##
##         42-109-32255-00-00                ##
###############################################
## Copyright 2017-2023  ENVERUS.  All Rights Reserved. 
## Confidential - Property of ENVERUS, use governed by terms and 
## conditions found within the existing Information Services Subscription Agreement 
## (as may be amended, the “ISSA”) between Customer and ENVERUS. 
## 
~VERSION INFORMATION
# MNEM.UNIT                               DATA : DESCRIPTION OF MNEMONIC
#-----.-----     ----------------------------- : -----------------------------
VERS.                                     2.00 : CWLS LOG ASCII STANDARD - VERSION 2.00
WRAP.                                       NO : MULTIPLE LINES PER DEPTH STEP
VEND.                                  ENVERUS : VENDOR
TYPE.                          ESS - OPEN HOLE : ENVERUS ESSENTIAL CURVES – ACCESSIBLE THROUGH ENVERUS PRISM(TM)
DOC.                                  31869427 : ENVERUS HEADER RAW DOCUMENT ID
#___________________________________________________________________________________________________ 
~WELL INFORMATION 
# Kns/CyAZPDgS4fEM5w0azv9tYcXlBSx1nHSqICrpKgQv6F2hlFUFpw+R1SAxYfM92i4ks6BDNpB+WhJDZXFO5Q== 
# MNEM.UNIT                                              DATA : DESCRIPTION OF MNEMONIC 
#-----.-----                    ----------------------------- : ----------------------------- 
CNTY.                                               CULBERSON : COUNTY 
STATE.                                                  TEXAS : STATE 
CNTRY.                                                    USA : COUNTRY 
API.                                             42-109-32255 : API (10 Digit) 
API_14.                                    42-109-32255-00-00 : API (14 Digits) 
API_14_std.                                 42-109-32255-0000 : API (14 Digits Standard) 
UWI.                                           42109322550000 : UNIQUE WELL ID 
WELL.                             MELISSA TAYLOR STATE 27  1H : WELL NAME
STRT.FT                                                  94.0 : START DEPTH
STOP.FT                                               13828.0 : STOP DEPTH
STEP.FT                                                   0.5 : STEP BETWEEN DEPTHS
NULL.                                                 -999.25 : NULL VALUE
COMP.                              CHESAPEAKE OPERATING  INC. : COMPANY 
DATE.                                             29-NOV-2005 : LOG DATE
#___________________________________________________________________________________________________ 
~CURVE INFORMATION 
# MNEM.UNIT           : CURVE DESCRIPTION 
#-----.-----          : ----------------------------- 
 DEPT.FT               : MEASURED DEPTH 
 CALI__B.IN            : CALIPER (CAL - CAL) 
 GR__B.API             : GAMMA RAY (GR) 
 DT__B.US/FT           : SONIC DELTA TRANSIT TIME (DT) 
 DPHI__B.V/V           : DENSITY POROSITY (DPHI) 
 NPHI__B.V/V           : NEUTRON POROSITY (NPHI) 
 RHOB__B.G/CC          : BULK DENSITY (RHOB) 
 #___________________________________________________________________________________________________ 
~A         DEPT        CALI__B          GR__B          DT__B        DPHI__B        NPHI__B        RHOB__B
# ...
        13356.0          6.202        184.683         92.980        0.08228        0.21450         2.5630
        13356.5          6.257        191.973         93.540        0.08302        0.20285         2.5400
        13357.0          6.295        191.973         93.976        0.12632        0.18854         2.5170
        13357.5          6.331        188.836         93.954        0.12930        0.18674         2.5150
        13358.0          6.368        185.388         93.932        0.10062        0.21200         2.5430
        13358.5          6.404        183.076         93.911        0.07867        0.24337         2.5720
        13359.0          6.421        182.527         93.889        0.07677        0.24597         2.5600
        13359.5          6.353        181.532         92.141        0.12083        0.24492         2.5180
        13360.0          6.286        179.919         90.838        0.10617        0.23715         2.5360
        13360.5          6.259        178.305         90.838        0.08831        0.22807         2.5550
        13361.0          6.285        178.050         90.838        0.08231        0.22205         2.5740
        13361.5          6.312        178.302         90.838        0.09150        0.23104         2.5640
        13362.0          6.338        179.911         91.318        0.08894        0.23502         2.5750
        13362.5          6.319        182.513         91.949        0.07753        0.23203         2.5900
        13363.0          6.222        185.147         92.580        0.06424        0.21523         2.6050
        13363.5          6.126        187.633         92.535        0.05730        0.19844         2.6150
        13364.0          6.074        187.633         92.202        0.06823        0.18583         2.5940
        13364.5          6.072        187.633         90.628        0.08175        0.19737         2.5740
        13365.0          6.069        187.633         89.053        0.08627        0.21040         2.5830
        13365.5          6.067        186.081         87.824        0.07908        0.22087         2.5930
        13366.0          6.064        183.471         87.992        0.06538        0.22888         2.6040
        13366.5          6.062        182.667         88.160        0.05806        0.23322         2.6150
        13367.0          6.059        182.969         88.463        0.05389        0.23546         2.6230
        13367.5          6.057        187.162         88.999        0.05311        0.23149         2.6120
        13368.0          6.054        190.770         89.535        0.06477        0.22224         2.6010
        13368.5          6.051        192.208         89.885        0.07372        0.21114         2.5900
        13369.0          6.051        191.263         89.885        0.07754        0.19799         2.5900
        13369.5          6.071        179.490         89.885        0.07536        0.18019         2.5930
        13370.0          6.091        169.125         89.885        0.06745        0.16761         2.5950
        13370.5          6.110        162.201         89.885        0.07113        0.18260         2.5960
        13371.0          6.130        161.135         88.982        0.08801        0.20774         2.5740
        13371.5          6.150        166.826         87.867        0.10490        0.22354         2.5520
        13372.0          6.169        172.815         86.908        0.09941        0.22511         2.5470
        13372.5          6.189        178.012         86.748        0.09506        0.21640         2.5560
        13373.0          6.208        179.990         86.589        0.09027        0.20769         2.5650
        13373.5          6.228        177.651         86.430        0.08108        0.20090         2.5740
        13374.0          6.211        173.949         86.333        0.07482        0.19569         2.5830
        13374.5          6.175        171.722         86.283        0.07239        0.19101         2.5920
        13375.0          6.139        172.954         86.095        0.07973        0.18288         2.5870
        13375.5          6.104        174.186         85.672        0.08119        0.18066         2.5820
        13376.0          6.068        174.308         84.402        0.08142        0.18191         2.5770
        13376.5          6.032        172.987         83.132        0.09091        0.18539         2.5690
        13377.0          5.997        173.633         81.862        0.09785        0.18538         2.5610
        13377.5          6.016        172.591         80.817        0.09517        0.18368         2.5570
        13378.0          6.036        170.972         79.943        0.09249        0.18452         2.5610
        13378.5          6.056        170.176         79.069        0.09280        0.18536         2.5650
        13379.0          6.076        172.105         78.194        0.09882        0.18349         2.5620
        13379.5          6.096        173.062         78.264        0.10518        0.18106         2.5520
        13380.0          6.117        169.732         78.358        0.11061        0.17862         2.5430
        13380.5          6.137        159.613         78.453        0.11539        0.17253         2.5330
        13381.0          6.157        149.347         81.252        0.10111        0.15884         2.5270
        13381.5          6.177        131.389         84.090        0.07136        0.14338         2.6000
        13382.0          6.185        128.069         86.927        0.04410        0.12846         2.6340
        13382.5          6.112        130.276         89.247        0.05113        0.13055         2.6200
        13383.0          6.039        144.955         89.395        0.06818        0.13552         2.6070
        13383.5          5.966        143.220         89.543        0.07757        0.13311         2.5940
        13384.0          5.893        135.015         89.692        0.04197        0.13340         2.6410
        13384.5          5.851        134.704         89.991        0.05507        0.14039         2.6160
        13385.0          5.854        147.889         90.294        0.09639        0.14459         2.5050
        13385.5          5.857        164.883         90.596        0.17046        0.14110         2.4170
        13386.0          5.860        173.882         90.846        0.18538        0.13917         2.4160
        13386.5          5.863        177.056         90.892        0.18467        0.14380         2.4150
        13387.0          5.867        177.056         90.714        0.18396        0.14926         2.4140
        13387.5          5.870        177.056         89.019        0.18947        0.15171         2.4080
        13388.0          5.873        180.215         87.324        0.18879        0.14941         2.4110
        13388.5          5.876        184.266         85.756        0.18334        0.14690         2.4170
        13389.0          5.879        188.234         85.396        0.17851        0.14732         2.4230
        13389.5          5.882        191.458         85.036        0.18224        0.15047         2.4170
        13390.0          5.885        200.168         84.446        0.18585        0.15354         2.4160
        13390.5          5.888        211.580         83.571        0.18488        0.15398         2.4290
        13391.0          5.891        224.996         82.696        0.17733        0.15231         2.4400
        13391.5          5.894        241.088         81.821        0.16892        0.14793         2.4430
        13392.0          5.897        246.614         81.031        0.16762        0.14146         2.4450
        13392.5          5.900        241.815         81.056        0.16632        0.14046         2.4480
        13393.0          5.903        235.087         81.081        0.16137        0.14189         2.4510
        13393.5          5.906        228.359         81.106        0.15301        0.14331         2.4540
