~Version Information
 VERS.                  2.0:   CWLS log ASCII Standard -VERSION 2.0
 WRAP.                   NO:   One line per depth step
~Well Information Block
#MNEM.UNIT     VALUE/NAME     DESCRIPTION
#---------     -----------    ---------------------------
 STRT.F              8564.0000: START DEPTH
 STOP.F             14132.0000: STOP DEPTH
 STEP.F                 0.5000: STEP DEPTH
 NULL.                 -999.25: NULL VALUE
 FL6 .       API  42-109-33219:  LOCATIONLINE6
 LOC .     253' FEL & 408' FNL:  LOCATION
 FL4 .           ABSTRACT 1760:  LOCATIONLINE4
 FL3 .        T&P RR CO SURVEY:  LOCATIONLINE3
 FL2 .     SECTION 32, BLOCK 58 T2:  LOCATIONLINE2
 FL1 .     253' FEL & 408' FNL:  LOCATIONLINE1
 DMF .                      KB:  DRILL MEAS FROM
 PDAT.                      GL:  PERMANENT DATUM
 CTRY.                     USA:  COUNTRY NAME
 PROV.                   TEXAS:  PROVINCE
 STAT.                   TEXAS:  STATE NAME
 CNTY.               CULBERSON:  COUNTY NAME
 FLD .     FORD, WEST (WOLFCAMP):  FIELD NAME
 WELL.        MOTHER FEE 28 2H:  WELL NAME
 COMP.     CAPITAN ENERGY INC.:  COMPANY
 DATE.             24-Jan-2018:  DATE
 SVCO.             Halliburton:  SERVICECONAME
 HIDE.                        :  WELLNAMEOPERAT
 BASI.                 PERMIAN:  BASIN
 UWI .            42-109-33219LAT:  UNIQUE WELL IDENTIFIER
 API .            42-109-33219LAT:  API NUMBER
 RANG.                     N/A:  RANGE
 TOWN.                     N/A:  TOWNSHIP
 SECT.                     N/A:  SECTION
 SON .               904563795:  JOB NUMBER
 SRVC.             Halliburton:  SERVICE COMPANY
 LMF .                      KB:  LOG MEASURED FROM
 EGL .ft             3142.0000:  GROUND ELEVATION
 BAP .ft                0.0000:  GL ELEV ONSHORE
 GVFD.g                 1.0000:  GRAVITY FIELD
 EKB .ft             3167.0000:  KB ELEVATION
 EDF .ft             3166.0000:  DF ELEVATION
~Curve Information Block
#MNEM.UNIT                 API CODE     Curve Description
#---------               -----------    ---------------------------
 DEPT.F                 00 000 000 000:  Depth
 CCL .V                 00 000 000 000:  Casing Collar Locator
 NPHI_OH.pu             00 000 000 000:  NPHI_OH
 NPHI_CHI.pu            00 000 000 000:  NPHI_CHI
 GR_OH.api              00 000 000 000:  GR_OH
 GR_CHI.api             00 000 000 000:  GR_CHI
 RHOB_OH.g/cc           00 000 000 000:  RHOB_OH
 RHOB_CHI.g/cc          00 000 000 000:  RHOB_CHI
 PE_OH.b/e              00 000 000 000:  PE_OH
 PE_CHI.b/e             00 000 000 000:  PE_CHI
 DTC_OH.uspf            00 000 000 000:  DTC_OH
 DTC_CHI.uspf           00 000 000 000:  DTC_CHI
 SPHI_CHI.pu            00 000 000 000:  SPHI_CHI
 RT10_OH.ohmm           00 000 000 000:  RT10_OH
 RT10_CHI.ohmm          00 000 000 000:  RT10_CHI
 RT30_OH.ohmm           00 000 000 000:  RT30_OH
 RT30_CHI.ohmm          00 000 000 000:  RT30_CHI
 RT90_OH.ohmm           00 000 000 000:  RT90_OH
 RT90_CHI.ohmm          00 000 000 000:  RT90_CHI
 SGF .cu                00 000 000 000:  Formation Sigma
 CRNF.NONE              00 000 000 000:  CaptMode Capt Ratio
 RIN .NONE              00 000 000 000:  CaptMode Gross Inel Ratio
#Other Information
#
#WARRANTY: Halliburton will use its best efforts to furnish customers with 
#accurate information and interpretations that are part of, and incident to, the services 
#provided.  However, Halliburton cannot and does not warrant the accuracy 
#or correctness of such information and interpretations.  Under no circumstances should any 
#such information or interpretation be relied upon as the sole basis for any drilling, 
#completion, production, or financial decision or any procedure involving any risk to the 
#safety of any drilling venture, drilling rig or its crew or any other third party.  The 
#Customer has full responsibility for all drilling, completion and production operation.  
#Halliburton makes no representations or warranties, either expressed or 
#implied, including, but not limited to, the implied warranties of merchantability or fitness 
#for a particular purpose, with respect to the services rendered.  In no event will 
#Halliburton be liable for failure to obtain any particular results or for 
#any damages, including, but not limited to, indirect, special or consequential damages, 
#resulting from the use of any information or interpretation provided by Halliburton.
#
~A    DEPT       CCL    NPHI_OH NPHI_CHI  GR_OH    GR_CHI  RHOB_OH RHOB_CHI  PE_OH   PE_CHI   DTC_OH  DTC_CHI SPHI_CHI RT10_OH  RT10_CHI RT30_OH  RT30_CHI RT90_OH  RT90_CHI   SGF    CRNF   RIN   
# ...
   10790.0000    1.2834 -999.25   8.3801  -999.25  88.5919 -999.25   2.6270 -999.25    3.6608 -999.25 65.5285  12.6800  -999.25  57.3117  -999.25  57.4514  -999.25  65.6243 23.1813 0.8657 1.0488
   10790.5000    1.2834 -999.25   8.3494  -999.25  92.0675 -999.25   2.6284 -999.25    3.7014 -999.25 65.1205  12.3900  -999.25  58.8636  -999.25  59.0009  -999.25  67.6722 22.9050 0.8646 1.0400
   10791.0000    1.2834 -999.25   8.0437  -999.25  89.2305 -999.25   2.6307 -999.25    3.7125 -999.25 64.3047  11.8100  -999.25  67.2132  -999.25  68.0629  -999.25  78.6186 22.6948 0.8638 1.0352
   10791.5000    1.2834 -999.25   7.7271  -999.25  88.4178 -999.25   2.6343 -999.25    3.7623 -999.25 63.3235  11.1200  -999.25  76.2457  -999.25  77.9091  -999.25  90.7526 22.5871 0.8679 1.0325
   10792.0000    1.2834 -999.25   7.4791  -999.25  84.2709 -999.25   2.6365 -999.25    3.7808 -999.25 62.8905  10.8100  -999.25  81.4937  -999.25  83.8764  -999.25  97.9295 22.5921 0.8645 1.0342
   10792.5000    1.2834 -999.25   7.3584  -999.25  82.2113 -999.25   2.6377 -999.25    3.7944 -999.25 62.7053  10.6800  -999.25  83.6301  -999.25  86.3427  -999.25 100.8790 22.7100 0.8633 1.0358
   10793.0000    1.2834 -999.25   7.5148  -999.25  83.0708 -999.25   2.6365 -999.25    3.7941 -999.25 63.2503  11.0700  -999.25  78.7110  -999.25  81.0184  -999.25  94.3810 22.8412 0.8709 1.0395
   10793.5000    1.2834 -999.25   7.7745  -999.25  89.3635 -999.25   2.6351 -999.25    3.8087 -999.25 63.6007  11.3200  -999.25  73.8220  -999.25  75.4589  -999.25  87.9000 23.1219 0.8864 1.0452
   10794.0000    1.2834 -999.25   7.7833  -999.25  89.4018 -999.25   2.6358 -999.25    3.8219 -999.25 63.7197  11.4000  -999.25  71.8405  -999.25  73.2492  -999.25  85.1675 23.5543 0.9096 1.0524
   10794.5000    1.2834 -999.25   8.0454  -999.25  92.4498 -999.25   2.6330 -999.25    3.7906 -999.25 64.2471  11.7700  -999.25  66.1502  -999.25  66.9424  -999.25  77.5188 24.0833 0.9264 1.0614
   10795.0000    1.2834 -999.25   7.8102  -999.25  83.5557 -999.25   2.6329 -999.25    3.7115 -999.25 64.1152  11.6800  -999.25  69.3458  -999.25  70.4406  -999.25  81.2006 24.6816 0.9416 1.0705
   10795.5000    1.2834 -999.25   9.2245  -999.25 105.4866 -999.25   2.6161 -999.25    3.5329 -999.25 65.9984  13.0100  -999.25  50.1268  -999.25  49.1819  -999.25  56.0114 24.9228 0.9462 1.0810
   10796.0000    1.2834 -999.25   9.8048  -999.25 108.4159 -999.25   2.6076 -999.25    3.3672 -999.25 67.1794  13.8500  -999.25  41.2972  -999.25  39.6191  -999.25  44.3545 25.0308 0.9464 1.0900
   10796.5000    1.2834 -999.25  10.8096  -999.25 118.9115 -999.25   2.5972 -999.25    3.2728 -999.25 68.8479  15.0300  -999.25  30.6625  -999.25  28.6629  -999.25  31.4895 24.9755 0.9388 1.0943
   10797.0000    1.2834 -999.25  10.9887  -999.25 118.7538 -999.25   2.5968 -999.25    3.2817 -999.25 69.3860  15.4100  -999.25  27.1986  -999.25  25.2242  -999.25  27.4813 24.7474 0.9258 1.0939
   10797.5000    1.2834 -999.25  11.3908  -999.25 125.6479 -999.25   2.5945 -999.25    3.3026 -999.25 69.6725  15.6100  -999.25  23.9304  -999.25  21.9622  -999.25  23.7850 24.4914 0.9169 1.0893
   10798.0000    1.2834 -999.25  11.2268  -999.25 124.8970 -999.25   2.5972 -999.25    3.3578 -999.25 69.3934  15.4100  -999.25  24.4547  -999.25  22.5335  -999.25  24.4935 24.0929 0.9102 1.0870
   10798.5000    1.2834 -999.25  10.4156  -999.25 113.1852 -999.25   2.6058 -999.25    3.4269 -999.25 68.5983  14.8500  -999.25  29.1233  -999.25  27.3061  -999.25  29.9776 23.9006 0.9091 1.0867
   10799.0000    1.2834 -999.25  10.0976  -999.25 109.2202 -999.25   2.6093 -999.25    3.4767 -999.25 68.2576  14.6100  -999.25  32.3380  -999.25  30.7065  -999.25  33.9718 23.7874 0.9069 1.0878
   10799.5000    1.2834 -999.25  10.2009  -999.25 113.9462 -999.25   2.6105 -999.25    3.5524 -999.25 68.1550  14.5400  -999.25  30.9230  -999.25  29.3119  -999.25  32.4877 23.9030 0.9040 1.0868
   10800.0000    1.2834 -999.25   9.9571  -999.25 109.5108 -999.25   2.6145 -999.25    3.6085 -999.25 68.0021  14.4300  -999.25  31.4930  -999.25  30.0054  -999.25  33.2970 24.0971 0.9044 1.0836
   10800.5000    1.2834 -999.25   9.6430  -999.25 102.7711 -999.25   2.6178 -999.25    3.6262 -999.25 67.8274  14.3100  -999.25  33.5427  -999.25  32.2114  -999.25  35.8051 24.1221 0.9057 1.0796
   10801.0000    1.2834 -999.25   9.0111  -999.25  90.6181 -999.25   2.6226 -999.25    3.6107 -999.25 67.1827  13.8500  -999.25  40.2864  -999.25  39.2825  -999.25  43.8601 24.2127 0.9080 1.0803
   10801.5000    1.2834 -999.25   9.6734  -999.25 106.4326 -999.25   2.6157 -999.25    3.5750 -999.25 67.4891  14.0700  -999.25  35.5049  -999.25  34.0083  -999.25  37.9020 24.2804 0.9129 1.0806
   10802.0000    1.2834 -999.25  10.2084  -999.25 116.9838 -999.25   2.6106 -999.25    3.5497 -999.25 67.8368  14.3100  -999.25  30.9847  -999.25  29.2199  -999.25  32.3908 24.4690 0.9124 1.0828
   10802.5000    1.2834 -999.25   9.9132  -999.25 110.3104 -999.25   2.6125 -999.25    3.5337 -999.25 67.6950  14.2100  -999.25  33.7237  -999.25  32.0699  -999.25  35.6308 24.6214 0.9142 1.0843
   10803.0000    1.2834 -999.25  10.1512  -999.25 112.8736 -999.25   2.6099 -999.25    3.4979 -999.25 68.0133  14.4400  -999.25  31.2120  -999.25  29.4401  -999.25  32.5338 24.6433 0.9180 1.0870
   10803.5000    1.2834 -999.25  10.2719  -999.25 115.1497 -999.25   2.6089 -999.25    3.4885 -999.25 68.0630  14.4700  -999.25  29.8240  -999.25  27.9654  -999.25  30.8158 24.6556 0.9186 1.0886
   10804.0000    1.2834 -999.25  10.5620  -999.25 120.4324 -999.25   2.6061 -999.25    3.4737 -999.25 68.2735  14.6200  -999.25  27.8968  -999.25  25.9702  -999.25  28.5347 24.5290 0.9218 1.0894
   10804.5000    1.2834 -999.25  11.0246  -999.25 128.4261 -999.25   2.6025 -999.25    3.4693 -999.25 68.5937  14.8500  -999.25  24.6394  -999.25  22.6750  -999.25  24.7716 24.4271 0.9200 1.0886
   10805.0000    1.2834 -999.25  11.1271  -999.25 129.6320 -999.25   2.6016 -999.25    3.4664 -999.25 68.7096  14.9300  -999.25  23.9681  -999.25  22.0169  -999.25  24.0168 24.3395 0.9133 1.0865
   10805.5000    1.2834 -999.25  11.3765  -999.25 133.7692 -999.25   2.5993 -999.25    3.4662 -999.25 68.8832  15.0500  -999.25  22.9067  -999.25  20.9820  -999.25  22.8555 24.3110 0.9054 1.0850
   10806.0000    1.2834 -999.25  11.4845  -999.25 136.6244 -999.25   2.5975 -999.25    3.4536 -999.25 68.8551  15.0300  -999.25  23.3709  -999.25  21.4298  -999.25  23.3937 24.3320 0.8941 1.0866
   10806.5000    1.2834 -999.25  11.3294  -999.25 136.8918 -999.25   2.5998 -999.25    3.4905 -999.25 68.5151  14.7900  -999.25  24.1944  -999.25  22.2230  -999.25  24.3490 24.2634 0.8916 1.0924
   10807.0000    1.2834 -999.25  11.1396  -999.25 135.1796 -999.25   2.6031 -999.25    3.5373 -999.25 68.2788  14.6200  -999.25  24.3613  -999.25  22.3935  -999.25  24.5668 24.1677 0.8867 1.0974
   10807.5000    1.2834 -999.25  10.8446  -999.25 132.0439 -999.25   2.6085 -999.25    3.6197 -999.25 67.9146  14.3700  -999.25  24.5862  -999.25  22.6584  -999.25  24.9100 23.9812 0.8812 1.0988
   10808.0000    1.2834 -999.25  10.9384  -999.25 133.7426 -999.25   2.6092 -999.25    3.6572 -999.25 67.9315  14.3800  -999.25  23.1861  -999.25  21.3027  -999.25  23.3735 23.7672 0.8708 1.0963
   10808.5000    1.2834 -999.25  10.9937  -999.25 136.3755 -999.25   2.6100 -999.25    3.7018 -999.25 67.8352  14.3100  -999.25  22.6756  -999.25  20.8189  -999.25  22.8694 23.4168 0.8637 1.0902
   10809.0000    1.2834 -999.25  11.1037  -999.25 140.7219 -999.25   2.6100 -999.25    3.7330 -999.25 67.7132  14.2200  -999.25  22.2400  -999.25  20.3680  -999.25  22.4008 22.9972 0.8590 1.0852
   10809.5000    1.2834 -999.25  10.7210  -999.25 134.4406 -999.25   2.6143 -999.25    3.7821 -999.25 67.5251  14.0900  -999.25  24.1098  -999.25  22.3155  -999.25  24.6775 22.5885 0.8573 1.0800
   10810.0000    1.2834 -999.25  10.7519  -999.25 141.0897 -999.25   2.6158 -999.25    3.8626 -999.25 67.1984  13.8600  -999.25  24.9331  -999.25  23.1264  -999.25  25.7718 22.2926 0.8597 1.0728
   10810.5000    1.2834 -999.25  10.0069  -999.25 127.6306 -999.25   2.6232 -999.25    3.9268 -999.25 66.8535  13.6200  -999.25  30.4255  -999.25  28.9079  -999.25  32.5682 22.0384 0.8568 1.0672
