~VERSION INFORMATION
VERS. 2.0 : CWLS Log ASCII Standard - version 2.0
WRAP.  NO : One line per depth step
#--------------------------------------------------#
#----------------DRILLING INFO, INC.---------------#
#---------------WWW.DRILLINGINFO.COM---------------#
#------------------COPYRIGHT 2015------------------#
#--------------------------------------------------#
#THIS FILE MAY BE USED ONLY IN ACCORDANCE WITH A CURRENT SUBSCRIPTION AGREEMENT BETWEEN
#THE USER AND DRILLING INFO, INC. NO PART OF THIS FILE MAY BE REPRODUCED, USED, COPIED,
#MODIFIED, PROPAGATED, OR DISTRIBUTED EXCEPT IN ACCORDANCE WITH THE SUBSCRIPTION
#AGREEMENT. UNAUTHORIZED USE OR DISTRIBUTION OF ALL OR ANY PART OF THIS FILE MAY VIOLATE
#COPYRIGHT, TRADEMARK, AND/OR OTHER LAWS AND IS SUBJECT TO CIVIL AS WELL AS CRIMINAL
#SANCTIONS.
#--------------------------------------------------#
#THIS FILE IS PROVIDED "AS-IS" AND ALL WARRANTIES ARE EXPRESSLY DISCLAIMED, WHETHER
#EXPRESS, ORAL, IMPLIED, STATUTORY OR OTHERWISE, INCLUDING ANY IMPLIED WARRANTY OF FITNESS
#FOR A PARTICULAR PURPOSE, MERCHANTABILITY, TITLE OR NON-INFRINGEMENT, AND ANY WARRANTIES
#ARISING BY VIRTUE OF CUSTOM OF TRADE OR COURSE OF DEALING.  FURTHER, DRILLING INFO,
#INC. AND ITS LICENSORS DO NOT REPRESENT OR WARRANT THAT THIS FILE WILL MEET USER'S
#REQUIREMENTS OR ARE SUITABLE FOR USER'S NEEDS OR THAT THE DATA OR RESULTS PROVIDED IN
#CONJUNCTION THEREWITH ARE CORRECT, ACCURATE, TIMELY OR RELIABLE. THESE DISCLAIMERS SHALL
#APPLY REGARDLESS OF ANY FAILURE OF ESSENTIAL PURPOSE OF ANY LIMITED REMEDY.  SOME
#JURISDICTIONS DO NOT ALLOW THE EXCLUSION OF CERTAIN WARRANTIES SO SOME OF THE ABOVE
#EXCLUSIONS MAY NOT APPLY. IN NO EVENT SHALL DRILLING INFO, INC. OR ANY OF ITS AFFILIATES
#BE LIABLE UNDER ANY LEGAL THEORY, WHETHER IN TORT (INCLUDING WITHOUT LIMITATION
#NEGLIGENCE), CONTRACT, STRICT LIABILITY, STATUTORY OR OTHERWISE, FOR ANY SPECIAL,
#INCIDENTAL, CONSEQUENTIAL, EXEMPLARY, PUNITIVE OR INDIRECT DAMAGE OF ANY KIND, INCLUDING
#WITHOUT LIMITATION LOSS OF REVENUE, PROFITS, GOODWILL, USE, AND/OR DATA OR THE COST OF
#PROCUREMENT OF SUBSTITUTE GOODS OR SERVICES, EVEN IF APPRISED OF THE POSSIBILITY OF SUCH
#DAMAGES IN ADVANCE.
#--------------------------------------------------#
~WELL INFORMATION
#MNEMONIC     .UNIT              VALUE :DESCRIPTION
#--------------------------------------------------#
STRT       .FT                35 :START DEPTH
STOP       .FT                15948 :STOP DEPTH
STEP       .FT                   0.500 :STEP
NULL       .                  -999.250 :NULL
API        .                421093136200 :API NUMBER
COMP       .         ARRINGTON DAVID H. OIL & GAS INC :COMPANY
WELL       .        SCOTT UNIT  1 :WELL
DATE       .                17-Jun-1991 :LOG DATE
~CURVE INFORMATION
#MNEMONIC     .UNIT      API CODE :CURVE DESCRIPTION
#--------------------------------------------------#
DEPTH       .FT                      :Measured Depth
CAL.INCH        UNKNOWN   :CAL
DT.US/FT        UNKNOWN   :DT
GR.API        UNKNOWN   :GR
~A    DEPTH    CAL    DT    GR
# ...
 5565.5     11.707   62.794   66.282
 5566     11.71   62.793   57.696
 5566.5     11.713   62.791   49.933
 5567     11.716   62.942   44.067
 5567.5     11.719   63.179   38.202
 5568     11.722   63.415   34.538
 5568.5     11.725   63.632   35.12
 5569     11.728   63.671   35.702
 5569.5     11.731   63.71   37.554
 5570     11.734   63.877   39.412
 5570.5     11.737   64.087   42.434
 5571     11.74   64.297   46.519
 5571.5     11.743   64.519   53.293
 5572     11.746   64.786   57.945
 5572.5     11.749   65.053   57.607
 5573     11.752   65.32   52.521
 5573.5     11.755   64.807   47.435
 5574     11.758   62.708   41.944
 5574.5     11.701   60.553   36.328
 5575     11.643   58.861   34.476
 5575.5     11.585   58.096   32.174
 5576     11.548   58.12   34.513
 5576.5     11.531   59.431   40.948
 5577     11.514   61.052   56.473
 5577.5     11.496   62.674   70.451
 5578     11.479   63.584   75.748
 5578.5     11.461   64.069   72.274
 5579     11.444   64.068   69.105
 5579.5     11.426   63.622   68.963
 5580     11.408   62.97   65.774
 5580.5     11.391   61.886   61.832
 5581     11.373   60.588   52.16
 5581.5     11.356   59.289   43.617
 5582     11.338   58.668   41.977
 5582.5     11.321   58.575   41.713
 5583     11.303   59.414   43.515
 5583.5     11.289   60.649   53.993
 5584     11.278   61.547   65.411
 5584.5     11.267   62.444   74.807
 5585     11.256   62.427   82.03
 5585.5     11.245   62.283   84.144
 5586     11.234   62.166   84.199
 5586.5     11.223   62.129   83.897
 5587     11.213   62.092   82.721
 5587.5     11.202   61.727   81.155
 5588     11.191   60.806   70.442
 5588.5     11.18   59.477   60.484
 5589     11.169   58.148   53.546
 5589.5     11.161   58.515   52.857
 5590     11.154   59.025   62.099
 5590.5     11.147   60.469   74.125
 5591     11.14   62.179   85.466
 5591.5     11.133   62.543   94.454
 5592     11.126   62.633   97.57
 5592.5     11.119   62.7   97.332
 5593     11.113   62.23   92.152
 5593.5     11.106   61.761   83.757
 5594     11.099   61.443   75.774
 5594.5     11.092   61.32   67.997
 5595     11.085   61.196   63.092
 5595.5     11.078   61.073   58.507
 5596     11.071   60.949   59.619
 5596.5     11.064   60.826   60.732
 5597     11.057   60.782   63.443
 5597.5     11.05   60.922   68.083
 5598     11.044   61.062   69.362
 5598.5     11.046   60.382   65.568
 5599     11.057   59.268   59.183
 5599.5     11.069   58.577   46.1
 5600     11.08   58.576   48.629
 5600.5     11.091   59.479   58.508
 5601     11.103   60.93   68.229
 5601.5     11.114   62.2   76.371
 5602     11.126   62.594   70.427
 5602.5     11.137   62.15   61.917
 5603     11.149   61.544   54.828
 5603.5     11.16   60.651   48.4
 5604     11.164   59.513   42.047
 5604.5     11.166   58.375   39.434
 5605     11.168   59.026   43.308
 5605.5     11.17   60.027   53.898
 5606     11.173   61.029   63.039
 5606.5     11.175   62.03   67.735
 5607     11.177   61.897   67.402
 5607.5     11.179   61.654   61.391
 5608     11.181   61.411   54.409
 5608.5     11.183   61.38   51.881
 5609     11.185   61.643   57.901
 5609.5     11.17   61.906   65.299
 5610     11.154   62.169   70.999
 5610.5     11.138   62.033   73.71
 5611     11.122   61.838   73.389
 5611.5     11.106   61.644   67.187
 5612     11.09   61.459   62.8
 5612.5     11.074   61.274   58.849
 5613     11.058   60.689   57.493
 5613.5     11.044   60.067   57.467
 5614     11.031   59.444   60.764
 5614.5     11.017   59.639   64.759
 5615     11.004   60.111   77.521
 5615.5     10.99   60.65   93.226
 5616     10.977   61.304   107.351
 5616.5     10.963   61.959   113.489
 5617     10.95   62.551   110.797
 5617.5     10.937   62.458   91.608
 5618     10.923   62.352   81.103
 5618.5     10.91   61.919   75.723
 5619     10.896   61.486   72.333
 5619.5     10.898   61.421   73.481
 5620     10.91   61.841   74.629
 5620.5     10.921   62.26   76.14
 5621     10.933   62.68   81.143
 5621.5     10.944   62.733   85.153
 5622     10.955   62.448   85.892
 5622.5     10.973   62.161   82.015
 5623     10.998   61.799   74.983
 5623.5     11.023   61.311   68.837
 5624     11.048   61.134   64.111
 5624.5     11.072   61.133   61.533
 5625     11.097   61.379   61.465
 5625.5     11.122   62.225   61.397
 5626     11.147   62.949   60.821
 5626.5     11.169   63.159   59.47
 5627     11.177   63.035   54.938
 5627.5     11.186   62.449   52.301
 5628     11.194   61.862   52.597
 5628.5     11.202   61.504   54.489
 5629     11.211   61.342   56.381
 5629.5     11.219   61.621   58.273
 5630     11.228   62.02   57.78
 5630.5     11.236   62.419   56.093
 5631     11.245   62.818   57.061
 5631.5     11.253   63.013   58.186
 5632     11.261   62.811   59.163
 5632.5     11.27   62.609   59.308
 5633     11.278   62.407   59.454
 5633.5     11.287   62.204   61.395
 5634     11.293   62.245   69.562
 5634.5     11.295   62.403   70.911
 5635     11.297   62.56   72.26
 5635.5     11.299   62.718   75.426
 5636     11.301   62.876   79.395
 5636.5     11.304   63.034   80.897
 5637     11.306   62.293   78.13
 5637.5     11.308   61.306   67.043
 5638     11.31   61.186   53.897
 5638.5     11.312   61.298   48.762
 5639     11.321   61.411   49.967
 5639.5     11.338   61.523   53.305
 5640     11.355   61.425   50.659
 5640.5     11.372   61.222   45.755
 5641     11.389   61.28   39.676
 5641.5     11.406   61.845   40.717
 5642     11.423   62.41   47.264
 5642.5     11.44   62.82   54.833
 5643     11.457   62.955   61.301
 5643.5     11.474   63.001   64.294
 5644     11.486   62.839   63.878
 5644.5     11.481   62.677   59.378
 5645     11.476   61.666   53.413
 5645.5     11.472   60.814   47.006
 5646     11.467   60.325   38.198
 5646.5     11.462   60.324   37.254
 5647     11.458   60.89   41.586
 5647.5     11.462   61.785   48.176
 5648     11.472   62.562   62.266
 5648.5     11.482   62.94   69.124
 5649     11.492   63.035   74.481
 5649.5     11.502   63.033   75.972
 5650     11.511   62.713   71.889
 5650.5     11.521   62.389   69.236
 5651     11.531   62.279   67.689
 5651.5     11.541   62.278   66.141
 5652     11.551   62.384   64.243
 5652.5     11.56   62.5   61.971
 5653     11.57   62.617   59.651
 5653.5     11.58   62.734   57.379
 5654     11.59   62.85   59.002
 5654.5     11.6   62.967   61.185
 5655     11.609   63.084   59.76
 5655.5     11.612   63.2   57.771
 5656     11.606   63.306   51.841
 5656.5     11.599   63.411   50.019
 5657     11.593   63.482   48.802
 5657.5     11.586   63.481   42.905
 5658     11.58   63.077   37.101
 5658.5     11.573   62.605   36.507
 5659     11.567   62.132   36.423
 5659.5     11.56   61.76   36.198
 5660     11.554   61.437   34.318
 5660.5     11.547   62.422   33.397
 5661     11.541   63.52   33.85
 5661.5     11.534   64.618   34.893
 5662     11.528   65.716   36.424
 5662.5     11.521   65.556   38.837
 5663     11.515   65.394   44.287
 5663.5     11.508   65.164   49.65
 5664     11.502   64.15   54.874
 5664.5     11.495   63.135   57.216
 5665     11.488   62.121   57.222
 5665.5     11.477   61.877   57.363
 5666     11.466   62.035   59.559
 5666.5     11.455   62.193   61.756
 5667     11.443   62.351   63.599
 5667.5     11.432   62.251   65.195
 5668     11.421   61.927   63.702
 5668.5     11.41   61.603   57.884
 5669     11.398   61.292   51.01
 5669.5     11.387   61.227   50.665
 5670     11.376   61.657   57.511
 5670.5     11.398   62.438   63.133
 5671     11.42   63.219   68.674
 5671.5     11.441   64   72.747
 5672     11.463   63.833   72.863
 5672.5     11.485   63.659   72.98
 5673     11.5   63.484   73.097
 5673.5     11.509   63.363   71.861
 5674     11.517   63.456   69.804
 5674.5     11.525   63.548   69.641
 5675     11.534   63.641   67.982
 5675.5     11.542   63.733   66.14
 5676     11.55   63.707   64.035
 5676.5     11.559   63.22   58.555
 5677     11.567   62.733   52.409
 5677.5     11.575   62.246   43.916
