~Version Information
 VERS.                  2.0:   CWLS log ASCII Standard -VERSION 2.0
 WRAP.                   NO:   One line per depth step
~Well Information Block
#MNEM.UNIT     VALUE/NAME     DESCRIPTION
#---------     -----------    ---------------------------
 STRT.F              8650.0000: START DEPTH
 STOP.F             14150.0000: STOP DEPTH
 STEP.F                 0.5000: STEP DEPTH
 NULL.                 -999.25: NULL VALUE
 LOC .     A1759-SEC34-BLK58-T2-:  LOCATION
 FL4 .        API 42-109-33169:  LOCATIONLINE4
 FL2 .     T&P RR CO-337FSL-25:  LOCATIONLINE2
 FL1 .     A1759-SEC34-BLK58-T2-:  LOCATIONLINE1
 DMF .                      KB:  DRILL MEAS FROM
 PDAT.                      GL:  PERMANENT DATUM
 CNTY.               CULBERSON:  COUNTY NAME
 FLD .     FORD, WEST (WOLFCAMP):  FIELD NAME
 WELL.         ALICE FEE 34 2H:  WELL NAME
 COMP.     CAPITAN ENERGY INC.:  COMPANY
 DATE.             27-Mar-2018:  DATE
 SVCO.             Halliburton:  SERVICECONAME
 PROV.                   TEXAS:  PROVINCE
 STAT.                   TEXAS:  STATE NAME
 CTRY.                     USA:  COUNTRY NAME
 HIDE.                        :  WELLNAMEOPERAT
 BASI.                 PERMIAN:  BASIN
 UWI .            42-109-33169LAT:  UNIQUE WELL IDENTIFIER
 API .            42-109-33169LAT:  API NUMBER
 RANG.                     N/A:  RANGE
 TOWN.                     N/A:  TOWNSHIP
 SECT.                     N/A:  SECTION
 SRVC.             Halliburton:  SERVICE COMPANY
 LMF .                      KB:  LOG MEASURED FROM
 TVDS.ft             3088.0000:  TVDSS CORRECTN
 EGL .ft             3063.0000:  GROUND ELEVATION
 APD .ft               25.0000:  DEPTH ABOVE PD
 EPD .ft             3063.0000:  ELEVATION
 BAP .ft                0.0000:  GL ELEV ONSHORE
 GVFD.g                 1.0000:  GRAVITY FIELD
 EKB .ft             3088.0000:  KB ELEVATION
 EDF .ft             3087.0000:  DF ELEVATION
~Curve Information Block
#MNEM.UNIT                 API CODE     Curve Description
#---------               -----------    ---------------------------
 DEPT.F                 00 000 000 000:  Depth
 CCL .mV                00 000 000 000:  Casing Collar Locator
 NPHI_OH.pu             00 000 000 000:  NPHI_OH
 NPHI_CHI.pu            00 000 000 000:  NPHI_CHI
 GR_OH.api              00 000 000 000:  GR_OH
 GR_CHI.api             00 000 000 000:  GR_CHI
 RHOB_OH.g/cc           00 000 000 000:  RHOB_OH
 RHOB_CHI.g/cc          00 000 000 000:  RHOB_CHI
 PE_OH.b/e              00 000 000 000:  PE_OH
 PE_CHI.b/e             00 000 000 000:  PE_CHI
 MSFL_OH.ohmm           00 000 000 000:  MSFL_OH
 MSFL_CHI.ohmm          00 000 000 000:  MSFL_CHI
 LLS_OH.ohmm            00 000 000 000:  LLS_OH
 LLS_CHI.ohmm           00 000 000 000:  LLS_CHI
 LLD_OH.ohmm            00 000 000 000:  LLD_OH
 LLD_CHI.ohmm           00 000 000 000:  LLD_CHI
 DTC_OH.uspf            00 000 000 000:  DTC_OH
 DTC_CHI.uspf           00 000 000 000:  DTC_CHI
 SPHI_CHI.pu            00 000 000 000:  SPHI_CHI
 SGF .cu                00 000 000 000:  Formation Sigma
 CRNF.NONE              00 000 000 000:  CM GrsCaptRatio
 RIN .NONE              00 000 000 000:  CM GrsInelRatio
#Other Information
#
#WARRANTY: Halliburton will use its best efforts to furnish customers with 
#accurate information and interpretations that are part of, and incident to, the services 
#provided.  However, Halliburton cannot and does not warrant the accuracy 
#or correctness of such information and interpretations.  Under no circumstances should any 
#such information or interpretation be relied upon as the sole basis for any drilling, 
#completion, production, or financial decision or any procedure involving any risk to the 
#safety of any drilling venture, drilling rig or its crew or any other third party.  The 
#Customer has full responsibility for all drilling, completion and production operation.  
#Halliburton makes no representations or warranties, either expressed or 
#implied, including, but not limited to, the implied warranties of merchantability or fitness 
#for a particular purpose, with respect to the services rendered.  In no event will 
#Halliburton be liable for failure to obtain any particular results or for 
#any damages, including, but not limited to, indirect, special or consequential damages, 
#resulting from the use of any information or interpretation provided by Halliburton.
#
~A    DEPT       CCL    NPHI_OH NPHI_CHI  GR_OH    GR_CHI  RHOB_OH RHOB_CHI  PE_OH  PE_CHI  MSFL_OH   MSFL_CHI  LLS_OH   LLS_CHI   LLD_OH   LLD_CHI  DTC_OH  DTC_CHI SPHI_CHI   SGF    CRNF   RIN   
# ...
   13754.5000    0.0000 -999.25  12.7082  -999.25  96.6764 -999.25   2.5629 -999.25 3.3468    -999.25  16.1453   -999.25  23.7043   -999.25  28.1859 -999.25 69.4926  15.4800 26.8569 0.7954 1.0644
   13755.0000    0.0000 -999.25  13.3180  -999.25 112.5606 -999.25   2.5542 -999.25 3.3159    -999.25  22.8281   -999.25  31.8410   -999.25  37.5029 -999.25 69.8619  15.7400 26.7852 0.7970 1.0667
   13755.5000    0.0000 -999.25  13.1162  -999.25 107.7064 -999.25   2.5571 -999.25 3.3306    -999.25  21.0268   -999.25  29.9600   -999.25  35.3326 -999.25 69.7526  15.6700 26.7960 0.8015 1.0651
   13756.0000    0.0000 -999.25  12.9728  -999.25 104.0904 -999.25   2.5591 -999.25 3.3425    -999.25  19.8683   -999.25  28.7722   -999.25  33.9644 -999.25 69.6866  15.6200 26.8804 0.7985 1.0615
   13756.5000    0.0000 -999.25  13.1696  -999.25 109.3366 -999.25   2.5564 -999.25 3.3281    -999.25  21.9591   -999.25  31.4178   -999.25  36.8728 -999.25 69.9032  15.7700 27.0818 0.7922 1.0594
   13757.0000    0.0000 -999.25  13.4020  -999.25 113.8718 -999.25   2.5531 -999.25 3.3158    -999.25  23.9166   -999.25  33.7851   -999.25  39.5476 -999.25 70.1611  15.9600 27.2358 0.7841 1.0606
   13757.5000    0.0000 -999.25  13.6676  -999.25 120.2568 -999.25   2.5494 -999.25 3.2959    -999.25  26.3654   -999.25  36.1639   -999.25  42.2793 -999.25 70.2893  16.0500 27.2193 0.7836 1.0653
   13758.0000    0.0000 -999.25  13.0691  -999.25 105.5224 -999.25   2.5578 -999.25 3.3196    -999.25  18.8154   -999.25  26.6428   -999.25  31.5921 -999.25 69.7014  15.6300 27.2226 0.7903 1.0696
   13758.5000    0.0000 -999.25  13.2411  -999.25 111.7978 -999.25   2.5555 -999.25 3.3041    -999.25  20.8713   -999.25  28.6415   -999.25  33.8835 -999.25 69.6212  15.5700 27.0574 0.8040 1.0724
   13759.0000    0.0000 -999.25  12.9768  -999.25 105.6612 -999.25   2.5591 -999.25 3.3201    -999.25  18.0470   -999.25  25.0566   -999.25  29.8182 -999.25 69.2861  15.3400 27.0300 0.8030 1.0732
   13759.5000    0.0000 -999.25  13.3910  -999.25 114.2232 -999.25   2.5530 -999.25 3.3094    -999.25  22.9532   -999.25  31.1879   -999.25  36.9390 -999.25 69.7020  15.6300 26.9091 0.7935 1.0719
   13760.0000  -49.2136 -999.25  13.4219  -999.25 110.1064 -999.25   2.5522 -999.25 3.3182    -999.25  21.8424   -999.25  30.4324   -999.25  36.1742 -999.25 70.0707  15.8900 26.7195 0.7862 1.0701
   13760.5000    0.0000 -999.25  14.5259  -999.25 139.5536 -999.25   2.5369 -999.25 3.2686    -999.25  38.9607   -999.25  49.5222   -999.25  57.5816 -999.25 70.8191  16.4200 26.5965 0.7882 1.0687
   13761.0000    0.0000 -999.25  14.2932  -999.25 136.0390 -999.25   2.5402 -999.25 3.2832    -999.25  37.5698   -999.25  48.4223   -999.25  56.3024 -999.25 70.5012  16.2000 26.4000 0.8012 1.0700
   13761.5000    0.0000 -999.25  13.1384  -999.25 107.7792 -999.25   2.5562 -999.25 3.3486    -999.25  22.2125   -999.25  31.3592   -999.25  37.1699 -999.25 69.5481  15.5200 26.4249 0.8128 1.0744
   13762.0000    0.0000 -999.25  13.7782  -999.25 122.3822 -999.25   2.5470 -999.25 3.3233    -999.25  31.0996   -999.25  41.7182   -999.25  49.1067 -999.25 70.0421  15.8700 26.3347 0.8215 1.0806
   13762.5000    0.0000 -999.25  13.6856  -999.25 117.9802 -999.25   2.5480 -999.25 3.3359    -999.25  29.1870   -999.25  39.8647   -999.25  47.1086 -999.25 70.0918  15.9100 26.3682 0.8312 1.0868
   13763.0000    0.0000 -999.25  13.7414  -999.25 115.8130 -999.25   2.5470 -999.25 3.3418    -999.25  28.7413   -999.25  40.0693   -999.25  47.3741 -999.25 70.4371  16.1500 26.5399 0.8444 1.0895
   13763.5000    0.0000 -999.25  14.1739  -999.25 127.0778 -999.25   2.5413 -999.25 3.3170    -999.25  34.1305   -999.25  46.7561   -999.25  54.4233 -999.25 70.9990  16.5500 26.9895 0.8605 1.0891
   13764.0000    0.0000 -999.25  13.2310  -999.25 101.2680 -999.25   2.5545 -999.25 3.3630    -999.25  21.1499   -999.25  31.8145   -999.25  37.6337 -999.25 70.5087  16.2000 27.4301 0.8594 1.0853
   13764.5000    0.0000 -999.25  13.0965  -999.25  95.6128 -999.25   2.5567 -999.25 3.3452    -999.25  17.2241   -999.25  26.0741   -999.25  31.0506 -999.25 70.5769  16.2500 27.7153 0.8497 1.0809
   13765.0000    0.0000 -999.25  13.9005  -999.25 109.5930 -999.25   2.5453 -999.25 3.2897    -999.25  21.3693   -999.25  30.8840   -999.25  36.6041 -999.25 71.6296  16.9900 27.7980 0.8357 1.0794
   13765.5000    0.0000 -999.25  14.1621  -999.25 115.9818 -999.25   2.5418 -999.25 3.2649    -999.25  23.0318   -999.25  32.1007   -999.25  38.0720 -999.25 71.7358  17.0700 27.6273 0.8212 1.0795
   13766.0000    0.0000 -999.25  13.5118  -999.25 100.9066 -999.25   2.5509 -999.25 3.2923    -999.25  16.4630   -999.25  23.7515   -999.25  28.5515 -999.25 70.9724  16.5300 27.4440 0.8125 1.0803
   13766.5000    0.0000 -999.25  13.5854  -999.25 106.4974 -999.25   2.5500 -999.25 3.2907    -999.25  18.7381   -999.25  26.4751   -999.25  31.6597 -999.25 70.7846  16.4000 27.1127 0.8030 1.0780
   13767.0000    0.0000 -999.25  14.1925  -999.25 126.7880 -999.25   2.5418 -999.25 3.2613    -999.25  28.4394   -999.25  37.6286   -999.25  44.2254 -999.25 70.9631  16.5200 26.8795 0.7940 1.0732
   13767.5000    0.0000 -999.25  13.6336  -999.25 115.0708 -999.25   2.5497 -999.25 3.2912    -999.25  23.0316   -999.25  31.7900   -999.25  37.5430 -999.25 70.4377  16.1500 26.7255 0.7911 1.0714
   13768.0000    0.0000 -999.25  12.9189  -999.25  98.8982 -999.25   2.5596 -999.25 3.3437    -999.25  17.4328   -999.25  25.5640   -999.25  30.4060 -999.25 69.8072  15.7100 26.7343 0.7929 1.0736
   13768.5000    0.0000 -999.25  12.7090  -999.25  94.7516 -999.25   2.5623 -999.25 3.3680    -999.25  16.2069   -999.25  23.8962   -999.25  28.5773 -999.25 69.3611  15.3900 26.7890 0.8008 1.0807
   13769.0000    0.0000 -999.25  13.3893  -999.25 112.0030 -999.25   2.5526 -999.25 3.3343    -999.25  24.0414   -999.25  33.2322   -999.25  39.4311 -999.25 69.7874  15.6900 26.7730 0.8206 1.0903
   13769.5000    0.0000 -999.25  13.4091  -999.25 111.8532 -999.25   2.5522 -999.25 3.3309    -999.25  23.4899   -999.25  32.1953   -999.25  38.3171 -999.25 69.7598  15.6700 26.7404 0.8505 1.0997
   13770.0000    0.0000 -999.25  12.9600  -999.25  99.5108 -999.25   2.5586 -999.25 3.3571    -999.25  18.2944   -999.25  26.6233   -999.25  31.7765 -999.25 69.6520  15.6000 26.8093 0.8853 1.1029
   13770.5000    0.0000 -999.25  13.6001  -999.25 113.1682 -999.25   2.5499 -999.25 3.3201    -999.25  24.5439   -999.25  35.1817   -999.25  41.2493 -999.25 70.6923  16.3300 27.0341 0.9048 1.0988
   13771.0000    0.0000 -999.25  13.6488  -999.25 109.1484 -999.25   2.5493 -999.25 3.3183    -999.25  22.1382   -999.25  32.8952   -999.25  38.3839 -999.25 71.4350  16.8600 27.4029 0.9039 1.0897
   13771.5000    0.0000 -999.25  13.9056  -999.25 106.8358 -999.25   2.5454 -999.25 3.3077    -999.25  20.7017   -999.25  31.3270   -999.25  36.6378 -999.25 72.3356  17.4900 27.6806 0.8707 1.0791
   13772.0000    0.0000 -999.25  13.5878  -999.25  93.0764 -999.25   2.5496 -999.25 3.3161    -999.25  16.3593   -999.25  25.6408   -999.25  30.4487 -999.25 72.3863  17.5300 27.6047 0.8392 1.0725
   13772.5000    0.0000 -999.25  14.2640  -999.25 109.4760 -999.25   2.5401 -999.25 3.2770    -999.25  20.8794   -999.25  31.0260   -999.25  36.5776 -999.25 72.8623  17.8700 27.3082 0.8136 1.0706
   13773.0000    0.0000 -999.25  14.5322  -999.25 118.8074 -999.25   2.5363 -999.25 3.2614    -999.25  24.6473   -999.25  34.9484   -999.25  41.1773 -999.25 72.6844  17.7400 27.0298 0.8014 1.0714
   13773.5000    0.0000 -999.25  14.5004  -999.25 126.4268 -999.25   2.5370 -999.25 3.2593    -999.25  28.6692   -999.25  38.8354   -999.25  45.5993 -999.25 71.8965  17.1800 26.8889 0.7976 1.0730
   13774.0000    0.0000 -999.25  13.8280  -999.25 116.3474 -999.25   2.5466 -999.25 3.2941    -999.25  24.6823   -999.25  34.3773   -999.25  40.5317 -999.25 70.8714  16.4600 26.9153 0.8014 1.0723
   13774.5000   74.5843 -999.25  13.4078  -999.25 112.1566 -999.25   2.5529 -999.25 3.3149    -999.25  22.9721   -999.25  32.4596   -999.25  38.1733 -999.25 70.2046  15.9900 27.2398 0.8097 1.0704
