###############################################
##         ENVERUS                           ##
##         ESS - Open Hole                   ##
##         PERMIAN / DELAWARE                ##
##         Nov 03 2023  V4.0                 ##
##         42-109-32538-90-00                ##
###############################################
## Copyright 2017-2023  ENVERUS.  All Rights Reserved. 
## Confidential - Property of ENVERUS, use governed by terms and 
## conditions found within the existing Information Services Subscription Agreement 
## (as may be amended, the “ISSA”) between Customer and ENVERUS. 
## 
~VERSION INFORMATION
# MNEM.UNIT                               DATA : DESCRIPTION OF MNEMONIC
#-----.-----     ----------------------------- : -----------------------------
VERS.                                     2.00 : CWLS LOG ASCII STANDARD - VERSION 2.00
WRAP.                                       NO : MULTIPLE LINES PER DEPTH STEP
VEND.                                  ENVERUS : VENDOR
TYPE.                          ESS - OPEN HOLE : ENVERUS ESSENTIAL CURVES – ACCESSIBLE THROUGH ENVERUS PRISM(TM)
DOC.                                  51093252 : ENVERUS HEADER RAW DOCUMENT ID
#___________________________________________________________________________________________________ 
~WELL INFORMATION 
# oCCetX3e+0pvkDd8h//i1tmWwvIHyfHqsQII3M49Y6eU5HggNAlLoqtwY+vCuZvzOG9Fr+Tv1xe2vto6NUMufQ== 
# MNEM.UNIT                                              DATA : DESCRIPTION OF MNEMONIC 
#-----.-----                    ----------------------------- : ----------------------------- 
CNTY.                                               CULBERSON : COUNTY 
STATE.                                                  TEXAS : STATE 
CNTRY.                                                    USA : COUNTRY 
API.                                             42-109-32538 : API (10 Digit) 
API_14.                                    42-109-32538-90-00 : API (14 Digits) 
API_14_std.                                 42-109-32538-9000 : API (14 Digits Standard) 
UWI.                                           42109325389000 : UNIQUE WELL ID 
WELL.                                                  DRD_55 : WELL NAME
STRT.FT                                                2546.5 : START DEPTH
STOP.FT                                               11260.0 : STOP DEPTH
STEP.FT                                                   0.5 : STEP BETWEEN DEPTHS
NULL.                                                 -999.25 : NULL VALUE
PREV_APII.                                     42109325380000 : WELL IDENTIFIER
#___________________________________________________________________________________________________ 
~PARAMETER INFORMATION 
# MNEM.UNIT                                              DATA : DESCRIPTION OF MNEMONIC 
#-----.-----                    ----------------------------- : ----------------------------- 
EKB.FT                                                   3182 : ELEVATION ABOVE MSL
#___________________________________________________________________________________________________ 
~CURVE INFORMATION 
# MNEM.UNIT           : CURVE DESCRIPTION 
#-----.-----          : ----------------------------- 
 DEPT.FT               : MEASURED DEPTH 
 CALI.IN               : CALIPER (CAL - CALIPER) 
 GR.API                : GAMMA RAY (GAMMA RAY) 
 DT.US/FT              : SONIC DELTA TRANSIT TIME (SONIC) 
 RESS.OHMM             : SHALLOW INDUCTION RESISTIVITY (ILS - SHALLOW RESISTIVITY) 
 RESD.OHMM             : DEEP INDUCTION RESISTIVITY (ILD - DEEP RESISTIVITY) 
 DPHI.V/V              : DENSITY POROSITY (DENSITY POROSITY) 
 NPHI.V/V              : NEUTRON POROSITY (NEUTRON POROSITY) 
 RHOB.G/CC             : BULK DENSITY (DENSITY) 
 #___________________________________________________________________________________________________ 
~A         DEPT           CALI             GR             DT           RESS           RESD           DPHI           NPHI           RHOB
# ...
        10010.0          6.021        102.698         87.035          3.506          3.952        0.08842        0.28812         2.5616
        10010.5          6.021         99.774         87.035          3.374          3.903        0.09270        0.28639         2.5674
        10011.0          6.024        100.134         86.626          3.429          3.946        0.08990        0.28162         2.5820
        10011.5          6.026        100.461         86.245          3.535          3.979        0.08007        0.30216         2.5900
        10012.0          6.029        104.146         85.227          3.695          4.173        0.07365        0.29605         2.5856
        10012.5          6.031        108.668         84.197          3.753          4.336        0.07974        0.26779         2.5871
        10013.0          6.034        108.874         82.759          3.780          4.418        0.07575        0.25629         2.5948
        10013.5          6.036        106.554         81.730          3.818          4.419        0.06745        0.25923         2.6031
        10014.0          6.039        100.448         80.701          3.866          4.336        0.07082        0.27144         2.5875
        10014.5          6.041        102.341         80.901          3.689          4.293        0.07519        0.26526         2.5630
        10015.0          6.043        107.216         81.930          3.550          4.094        0.09189        0.26010         2.5666
        10015.5          6.046        110.617         82.959          3.443          3.904        0.09118        0.26396         2.5813
        10016.0          6.048        109.597         83.989          3.415          3.946        0.08037        0.25116         2.5822
        10016.5          6.051        104.524         84.990          3.415          3.990        0.08196        0.24794         2.5786
        10017.0          6.053         97.841         84.751          3.482          4.183        0.08547        0.25552         2.5778
        10017.5          6.056         98.604         83.721          3.614          4.305        0.08344        0.25621         2.5791
        10018.0          6.058         96.924         82.361          3.803          4.514        0.08221        0.26073         2.5839
        10018.5          6.061         95.370         81.254          4.014          4.762        0.07863        0.25936         2.5975
        10019.0          6.063         94.523         80.225          4.369          5.169        0.06488        0.24643         2.6123
        10019.5          6.066         94.611         80.082          4.660          5.507        0.06020        0.23492         2.5980
        10020.0          6.066         95.564         80.361          4.839          5.647        0.07390        0.23112         2.5932
        10020.5          6.065         97.751         80.982          4.842          5.470        0.07507        0.23342         2.5969
        10021.0          6.063        101.819         81.718          4.669          5.206        0.07020        0.23781         2.5881
        10021.5          6.062        101.874         82.222          4.485          4.882        0.07020        0.25787         2.5796
        10022.0          6.061        102.245         82.536          4.306          4.878        0.08401        0.24340         2.5807
        10022.5          6.060        100.250         82.427          4.398          5.115        0.08113        0.24687         2.5871
        10023.0          6.059         95.610         82.127          4.441          5.310        0.07757        0.26486         2.5932
        10023.5          6.057         91.626         81.187          4.355          5.064        0.07021        0.25411         2.5890
        10024.0          6.056         96.979         80.491          4.175          5.167        0.07745        0.25338         2.5825
        10024.5          6.055        102.589         79.538          4.175          5.158        0.08265        0.25166         2.5770
        10025.0          6.054         96.348         78.917          4.160          5.073        0.07594        0.24487         2.5889
        10025.5          6.053         94.587         78.730          4.461          5.362        0.07161        0.23799         2.5892
        10026.0          6.051         98.346         78.918          4.868          5.793        0.07847        0.23907         2.5865
        10026.5          6.050         97.154         80.325          5.014          6.056        0.07609        0.24313         2.5828
        10027.0          6.049         97.433         82.260          4.431          5.231        0.08159        0.23346         2.5771
        10027.5          6.048        103.485         84.318          3.673          4.453        0.08635        0.24503         2.5725
        10028.0          6.047        106.978         86.183          3.130          3.584        0.07818        0.30803         2.5842
        10028.5          6.045        103.653         87.224          2.814          3.398        0.07735        0.31338         2.5880
        10029.0          6.044        103.964         87.853          2.895          3.356        0.07853        0.30365         2.5847
        10029.5          6.043        105.025         87.853          3.057          3.519        0.07654        0.28941         2.5780
        10030.0          6.042        104.015         87.030          3.085          3.590        0.08266        0.30302         2.5734
        10030.5          6.041         96.072         86.001          3.085          3.659        0.08578        0.29092         2.5770
        10031.0          6.039         90.651         84.963          3.093          3.834        0.08269        0.25826         2.5847
        10031.5          6.039         89.259         83.419          3.111          3.945        0.07871        0.25298         2.5930
        10032.0          6.044         94.784         82.095          3.142          3.872        0.07408        0.25938         2.5818
        10032.5          6.048         91.575         81.066          3.173          3.872        0.08108        0.26714         2.5728
        10033.0          6.047         91.407         80.900          3.200          3.833        0.08669        0.27217         2.5681
        10033.5          6.047         97.373         81.565          3.218          3.725        0.08323        0.26181         2.5766
        10034.0          6.046        102.334         82.594          3.182          3.659        0.08221        0.24879         2.5778
        10034.5          6.045        103.597         83.623          3.183          3.659        0.08368        0.26261         2.5796
        10035.0          6.045        102.848         84.652          3.279          3.618        0.08188        0.27597         2.5863
        10035.5          6.044        102.741         85.682          3.280          3.516        0.07389        0.27870         2.5935
        10036.0          6.044        103.701         86.626          3.165          3.353        0.08231        0.25361         2.5594
        10036.5          6.043        105.489         86.922          3.029          3.259        0.10048        0.27258         2.5317
        10037.0          6.043        103.034         87.951          2.999          3.108        0.11985        0.30993         2.5183
        10037.5          6.042        104.134         88.671          3.027          3.039        0.12218        0.30395         2.5127
        10038.0          6.042        103.263         89.080          3.076          3.146        0.12100        0.29977         2.5221
        10038.5          6.041        104.826         88.348          3.072          3.206        0.11596        0.31033         2.5285
        10039.0          6.041        102.870         87.256          3.138          3.410        0.11157        0.31210         2.5327
