#   WellGreen Tech Inc.   Digitizing Services
#   www.wellgreentech.com
#   email: sales@wellgreentech.com
#
~Version Information Block
 VERS.                2.00:     CWLS LOG ASCII STANDARD - VERSION 2.000000
 WRAP.                  NO:     One Line Per Depth Step
#
~Well Information Block
#MNEM.UNIT                     Data                         Information
#----------   ------------------------------------------   ----------------
 STRT.FT                                      400.0000:     START DEPTH
 STOP.FT                                    10100.0000:     STOP DEPTH
 STEP.FT                                        0.5000:     STEP
 NULL.                                       -999.2500:     NULL VALUE
 COMP.                       ENRON OIL AND GAS COMPANY:     COMPANY
 WELL.                                   TXL "1" NO. 1:     WELL
 FLD .                                         WILDCAT:     FIELD
 LOC .                                              63:     LOCATION
 CNTY.                                       CULBERSON:     COUNTY
 STAT.                                           TEXAS:     STATE
 CTRY.                                             USA:     COUNTRY
 SRVC.                                    SCHLUMBERGER:     SERVICE COMPANY
 DATE.                                      06/28/1989:     DATE
 API .               42109320330000:    API NUMBER
 UWI .               42109320330000:    UWI NUMBER
 TVD .                                              NO:     TVD flag
 MATRIX .G/CC                  :    Matrix Density
#
~Curve Information Block
#MNEM.UNIT       API CODE      Curve Description
#----------    -------------   -------------------
 DEPT.FT                   :   Depth in Feet
 GR  .API      35 310 01 01:   Gamma Ray
 CALI.INCHES   70 280 01 01:   Caliper
 DT  .US/FT    60 520 08 01:   Delta T
 SPHI.V/V      61 890 01 01:   Sonic Porosity
#
~Parameter Information Block
#MNEM.UNIT            Value               Description
#----------    --------------------    -------------------
 RUN .                         ONE:    Run Number
 PDAT.                          GL:    Permanent Datum
 EPD .FT                 3890.3000:    Elevation Of Perm. Datum
 LMF .               KELLY BUSHING:    Log Measured From
 EKB .FT                 3905.1000:    Elevation Of Kelly Bushing
 DF .FT                  3904.1000:    Elevation Of Derrick Floor
 GL .FT                  3890.3000:    Elevation Of Ground Level
 TD .FT                  10100.0000:    Total Depth
 BHT .DEGF               193.00 :  Bottom Hole Temperature
 BLI .FT               10100.0000:   Bottom Log Interval
 CSGSIZE.IN              9.6250:   Casing Size
 BITSIZE.IN               8.750 :  BitSize
 CSGD.FT                      405:    Casing Bottom (Driller) 1
 CSGL.FT                      405:    Casing Bottom (Logger) 1
 MUD .                      SW GEL:    Drilling Fluid Type
 MUDV .CP                  34.0000:    Drilling Fluid Viscosity
 MUDD .LB/USG               9.1000:    Drilling Fluid Density
 FL .ML/30MIN               8.0000:    Drilling Fluid Loss
 PH.                       10.0000:    Drilling Fluid Ph
 MUDS .                  CIRC TANK:    Mud Sample Source
 RM .OHMM                   0.1720:    Resistivity Of Mud Sample
 RMT .DEGF                 75.0000:    Mud Sample Temperature
 RMF .OHMM                  0.1720:    Mud Filtrate Resistivity
 RMFT.DEGF                 75.0000:    Mud Filtrate Sample Temperature
 RMB .OHMM                  0.0710:    Mud Resistivity At Bht
 TMAX .DEGF               193.0000:    Bottom Hole Temperature
#
~Other Information Block
<DescLogPlotStart>   NEURALOG PLOT DEFINITION
PLOTDEFVERSION: 3
LASFILE: D:\nds\projects\20MAY19H\las\42109320330000_BEG_RAS_RS0022815370.las
DEPTHSCALE: 240.000000
RESOLUTION: 400
DEPTHLABELFREQ: 100.000000
HEAVYGRIDFREQ: 100.000000
MEDIUMGRIDFREQ: 50.000000
LIGHTGRIDFREQ: 10.000000
#
#   TRACK 1
#
STARTTRACK: 
 LEFTX: 0.500000 inch
 RIGHTX: 3.000000 inch
 SCALETYPE: Linear
 NUMCHARTDIVISIONS: 10
CURVE: GR    0.000000   125.000000 (0,0,255)      Solid             2     Y    
BACKUP: 125.000000 250.000000 (0,0,255)      Solid             2    
ENDTRACK: 
#
#   TRACK 2
#
STARTTRACK: 
 LEFTX: 0.500000 inch
 RIGHTX: 3.000000 inch
 SCALETYPE: Linear
 NUMCHARTDIVISIONS: 10
CURVE: CALI  6.000000   16.000000  (0,131,131)    Solid             2     N    
ENDTRACK: 
#
#   TRACK 3
#
STARTTRACK: 
 LEFTX: 3.500000 inch
 RIGHTX: 8.500000 inch
 SCALETYPE: Linear
 NUMCHARTDIVISIONS: 10
CURVE: DT    100.000000 40.000000  (255,0,255)    Solid             2     Y    
BACKUP: 160.000000 100.000000 (255,0,255)    Solid             2    
CURVE: SPHI  0.300000   -0.100000  (255,0,0)      Dot               2     Y    
BACKUP: 0.700000   0.300000   (255,0,0)      Dot               2    
BACKUP: -0.100000  -0.500000  (255,0,0)      Dot               2    
ENDTRACK: 
<DescLogPlotEnd>
~A DEPTH     GR               CALI             DT               SPHI            
# ...
    2330.500 47.81            13.12            67.82            0.19            
    2331.000 53.99            13.11            66.93            0.18            
    2331.500 57.56            13.11            65.33            0.17            
    2332.000 58.21            13.10            63.93            0.16            
    2332.500 54.08            13.11            64.20            0.16            
    2333.000 48.17            13.12            64.89            0.17            
    2333.500 43.88            13.13            65.80            0.17            
    2334.000 43.28            13.14            66.71            0.18            
    2334.500 44.42            13.15            67.76            0.19            
    2335.000 43.64            13.15            69.09            0.19            
    2335.500 41.12            13.16            70.29            0.20            
    2336.000 38.61            13.17            70.97            0.21            
    2336.500 36.10            13.18            71.34            0.21            
    2337.000 36.05            13.17            70.98            0.21            
    2337.500 37.22            13.13            70.35            0.20            
    2338.000 38.28            13.10            70.14            0.20            
    2338.500 38.27            13.09            70.09            0.20            
    2339.000 38.27            13.08            70.38            0.20            
    2339.500 37.99            13.08            70.72            0.20            
    2340.000 37.41            13.07            70.90            0.21            
    2340.500 36.60            13.08            70.45            0.20            
    2341.000 33.94            13.08            69.83            0.20            
    2341.500 32.22            13.09            69.22            0.20            
    2342.000 31.02            13.09            68.68            0.19            
    2342.500 30.72            13.10            68.51            0.19            
    2343.000 30.72            13.10            68.36            0.19            
    2343.500 30.73            13.11            67.89            0.19            
    2344.000 31.09            13.11            67.61            0.19            
    2344.500 32.15            13.12            67.66            0.19            
    2345.000 33.42            13.12            68.32            0.19            
    2345.500 34.20            13.13            69.24            0.19            
    2346.000 34.47            13.13            69.58            0.20            
    2346.500 34.58            13.14            69.58            0.20            
    2347.000 34.18            13.14            69.53            0.20            
    2347.500 32.42            13.15            69.47            0.20            
    2348.000 30.05            13.15            69.41            0.20            
    2348.500 27.65            13.15            69.07            0.19            
    2349.000 27.19            13.14            68.39            0.19            
    2349.500 27.90            13.13            67.67            0.19            
    2350.000 28.59            13.12            67.19            0.18            
    2350.500 29.28            13.11            67.26            0.18            
    2351.000 29.97            13.09            67.76            0.19            
    2351.500 30.14            13.08            68.38            0.19            
    2352.000 30.30            13.07            68.78            0.19            
    2352.500 30.45            13.06            68.78            0.19            
    2353.000 30.61            13.06            68.60            0.19            
    2353.500 30.69            13.06            68.33            0.19            
    2354.000 30.13            13.07            67.88            0.19            
    2354.500 28.96            13.08            66.47            0.18            
    2355.000 27.80            13.08            64.94            0.17            
    2355.500 27.65            13.09            63.38            0.16            
    2356.000 27.84            13.10            62.57            0.15            
    2356.500 27.93            13.10            62.29            0.15            
    2357.000 27.18            13.09            63.18            0.15            
    2357.500 26.42            13.09            63.57            0.16            
    2358.000 26.54            13.08            63.85            0.16            
    2358.500 27.68            13.08            64.04            0.16            
    2359.000 28.82            13.07            64.24            0.16            
    2359.500 29.27            13.09            64.05            0.16            
    2360.000 28.54            13.11            63.66            0.16            
    2360.500 27.17            13.13            63.72            0.16            
    2361.000 27.31            13.14            65.00            0.16            
    2361.500 27.48            13.14            65.79            0.17            
    2362.000 28.49            13.14            65.88            0.17            
    2362.500 30.62            13.13            66.99            0.18            
    2363.000 32.70            13.13            67.43            0.18            
    2363.500 33.99            13.12            67.00            0.18            
    2364.000 34.29            13.11            66.63            0.18            
    2364.500 33.83            13.11            66.92            0.18            
    2365.000 32.79            13.10            67.45            0.18            
    2365.500 32.50            13.10            67.88            0.19            
    2366.000 32.81            13.09            67.56            0.18            
    2366.500 33.11            13.08            67.06            0.18            
    2367.000 32.86            13.08            67.31            0.18            
    2367.500 31.48            13.07            67.76            0.19            
    2368.000 30.08            13.06            68.21            0.19            
    2368.500 29.58            13.06            67.96            0.19            
    2369.000 30.04            13.05            67.61            0.19            
    2369.500 30.18            13.05            67.60            0.18            
    2370.000 29.65            13.04            67.74            0.19            
    2370.500 29.57            13.03            67.86            0.19            
    2371.000 30.11            13.03            67.86            0.19            
    2371.500 31.57            13.02            67.44            0.19            
    2372.000 32.71            13.02            66.91            0.18            
    2372.500 32.39            13.01            66.16            0.18            
    2373.000 31.70            13.00            65.73            0.17            
    2373.500 31.57            12.99            65.21            0.17            
    2374.000 31.44            12.97            64.36            0.16            
    2374.500 31.31            12.95            63.09            0.16            
    2375.000 31.46            12.94            61.25            0.14            
    2375.500 33.43            12.92            59.37            0.13            
    2376.000 37.42            12.90            58.97            0.12            
    2376.500 42.70            12.89            59.40            0.12            
    2377.000 47.42            12.87            58.82            0.12            
    2377.500 48.71            12.85            58.77            0.12            
    2378.000 49.93            12.84            60.52            0.13            
    2378.500 55.06            12.84            61.89            0.15            
    2379.000 62.11            12.83            62.97            0.15            
    2379.500 68.95            12.83            63.58            0.16            
