###############################################
##         ENVERUS                           ##
##         ESS - Open Hole                   ##
##         PERMIAN / DELAWARE                ##
##         Nov 02 2023  V4.0                 ##
##         42-109-10071-00-00                ##
###############################################
## Copyright 2017-2023  ENVERUS.  All Rights Reserved. 
## Confidential - Property of ENVERUS, use governed by terms and 
## conditions found within the existing Information Services Subscription Agreement 
## (as may be amended, the “ISSA”) between Customer and ENVERUS. 
## 
~VERSION INFORMATION
# MNEM.UNIT                               DATA : DESCRIPTION OF MNEMONIC
#-----.-----     ----------------------------- : -----------------------------
VERS.                                     2.00 : CWLS LOG ASCII STANDARD - VERSION 2.00
WRAP.                                       NO : MULTIPLE LINES PER DEPTH STEP
VEND.                                  ENVERUS : VENDOR
TYPE.                          ESS - OPEN HOLE : ENVERUS ESSENTIAL CURVES – ACCESSIBLE THROUGH ENVERUS PRISM(TM)
DOC.                                  31950413 : ENVERUS HEADER RAW DOCUMENT ID
#___________________________________________________________________________________________________ 
~WELL INFORMATION 
# OfUh2+mdeFjroaXzMJDg/lRWUsinBwpBr+LWp9Jgnw936lSgPWOOCrYxw0Bz1A8ekYSC2IJg55FhS+cGr4hs3w== 
# MNEM.UNIT                                              DATA : DESCRIPTION OF MNEMONIC 
#-----.-----                    ----------------------------- : ----------------------------- 
CNTY.                                               CULBERSON : COUNTY 
STATE.                                                  TEXAS : STATE 
CNTRY.                                                    USA : COUNTRY 
API.                                             42-109-10071 : API (10 Digit) 
API_14.                                    42-109-10071-00-00 : API (14 Digits) 
API_14_std.                                 42-109-10071-0000 : API (14 Digits Standard) 
UWI.                                           42109100710000 : UNIQUE WELL ID 
WELL.                                                  DRD_55 : WELL NAME
STRT.FT                                                 320.5 : START DEPTH
STOP.FT                                               12359.5 : STOP DEPTH
STEP.FT                                                   0.5 : STEP BETWEEN DEPTHS
NULL.                                                 -999.25 : NULL VALUE
#___________________________________________________________________________________________________ 
~PARAMETER INFORMATION 
# MNEM.UNIT                                              DATA : DESCRIPTION OF MNEMONIC 
#-----.-----                    ----------------------------- : -----------------------------
#___________________________________________________________________________________________________ 
~CURVE INFORMATION 
# MNEM.UNIT           : CURVE DESCRIPTION 
#-----.-----          : ----------------------------- 
 DEPT.FT               : MEASURED DEPTH 
 GR.API                : GAMMA RAY (GAMMA RAY) 
 DT.US/FT              : SONIC DELTA TRANSIT TIME (SONIC) 
 #___________________________________________________________________________________________________ 
~A         DEPT             GR             DT
# ...
         4322.5         55.101         71.077
         4323.0         47.765         62.055
         4323.5         40.984         56.934
         4324.0         43.538         55.732
         4324.5         44.992         55.761
         4325.0         55.167         57.993
         4325.5         65.310         63.513
         4326.0         76.075         67.117
         4326.5         88.970         70.807
         4327.0        100.657         73.948
         4327.5        107.657         75.864
         4328.0        112.299         77.850
         4328.5        116.941         79.163
         4329.0        121.583         83.841
         4329.5        126.226         85.951
         4330.0        130.868         88.520
         4330.5        135.012         90.000
         4331.0        128.233         90.466
         4331.5        120.021         90.852
         4332.0        115.958         90.551
         4332.5        114.386         84.717
         4333.0        102.809         81.044
         4333.5         95.185         80.565
         4334.0         95.929         79.951
         4334.5         98.668         78.888
         4335.0        110.959         79.379
         4335.5        122.847         81.995
         4336.0        137.398         84.611
         4336.5        148.786         86.754
         4337.0        152.397         87.515
         4337.5        140.853         88.802
         4338.0        137.033         88.471
         4338.5        134.597         86.415
         4339.0        127.411         85.439
         4339.5        114.627         85.001
         4340.0        112.817         83.454
         4340.5        109.780         80.416
         4341.0        100.927         78.735
         4341.5         89.152         78.610
         4342.0         81.298         78.341
         4342.5         79.590         77.046
         4343.0         76.527         75.750
         4343.5         71.205         74.455
         4344.0         69.145         73.163
         4344.5         68.212         72.444
         4345.0         69.112         71.856
         4345.5         69.331         71.181
         4346.0         68.538         71.194
         4346.5         68.538         71.904
         4347.0         71.473         72.051
         4347.5         74.067         72.359
         4348.0         75.843         72.561
         4348.5         72.992         72.821
         4349.0         70.544         72.821
         4349.5         69.191         72.350
         4350.0         68.259         71.456
         4350.5         67.016         70.766
         4351.0         65.601         70.286
         4351.5         65.601         70.365
         4352.0         65.897         71.870
         4352.5         64.980         72.208
         4353.0         64.621         72.966
         4353.5         64.295         73.668
         4354.0         60.271         72.629
         4354.5         58.936         72.119
         4355.0         56.789         69.382
         4355.5         56.789         68.672
         4356.0         54.318         68.186
         4356.5         53.075         67.569
         4357.0         48.505         65.012
         4357.5         40.311         63.957
         4358.0         33.447         62.788
         4358.5         32.110         61.769
         4359.0         31.332         61.732
         4359.5         32.061         61.581
         4360.0         31.970         62.450
         4360.5         31.053         61.343
         4361.0         27.198         59.141
         4361.5         22.691         56.910
         4362.0         20.284         55.456
         4362.5         20.132         54.058
         4363.0         22.161         53.498
         4363.5         23.078         52.784
         4364.0         24.263         52.682
         4364.5         23.757         52.761
         4365.0         19.536         52.591
         4365.5         19.189         52.369
         4366.0         20.483         51.821
         4366.5         21.726         52.393
         4367.0         22.846         52.444
         4367.5         21.285         52.610
         4368.0         19.910         52.841
         4368.5         20.542         52.467
         4369.0         23.473         51.852
         4369.5         26.404         51.731
         4370.0         33.228         51.996
         4370.5         41.903         53.395
         4371.0         53.082         58.677
         4371.5         66.164         62.772
         4372.0         91.710         72.492
         4372.5        101.930         85.628
         4373.0        110.603         88.757
         4373.5        113.195         90.463
         4374.0        103.950         88.748
         4374.5         94.338         86.249
         4375.0         86.581         82.447
         4375.5         83.073         79.639
         4376.0         87.414         77.088
         4376.5        106.952         77.661
         4377.0        114.897         80.613
         4377.5        123.998         82.506
         4378.0        126.898         82.652
         4378.5        115.273         80.806
         4379.0        103.648         79.307
         4379.5         92.023         77.991
         4380.0         72.315         75.279
         4380.5         68.308         72.526
         4381.0         67.573         71.585
         4381.5         69.143         71.324
         4382.0         69.300         71.177
         4382.5         68.383         71.289
         4383.0         68.304         71.541
         4383.5         70.393         71.819
         4384.0         74.066         72.416
         4384.5         74.762         74.659
         4385.0         71.788         76.940
         4385.5         67.235         79.222
         4386.0         65.229         77.513
         4386.5         63.985         71.103
         4387.0         56.321         67.956
         4387.5         50.549         66.772
         4388.0         42.305         64.114
         4388.5         40.419         62.475
         4389.0         35.253         59.103
         4389.5         33.416         58.483
         4390.0         30.214         58.023
         4390.5         28.467         57.641
         4391.0         26.315         57.223
         4391.5         29.247         56.639
         4392.0         32.263         56.117
         4392.5         33.831         56.855
         4393.0         40.349         57.628
         4393.5         47.431         61.539
         4394.0         57.559         64.960
         4394.5         71.459         68.190
         4395.0         77.661         73.617
         4395.5         76.068         74.129
         4396.0         72.358         70.941
         4396.5         51.334         65.930
         4397.0         47.249         62.918
         4397.5         41.083         59.884
         4398.0         40.560         56.932
         4398.5         47.490         57.059
         4399.0         55.154         59.712
         4399.5         62.819         61.336
         4400.0         72.535         64.212
         4400.5         84.524         67.698
         4401.0         96.513         71.183
         4401.5        108.502         74.669
         4402.0        120.492         78.154
         4402.5        132.481         81.640
         4403.0        135.883         83.592
         4403.5        125.308         85.065
         4404.0        111.269         85.463
         4404.5        100.695         83.675
         4405.0         92.833         80.918
         4405.5         90.107         79.715
         4406.0         84.233         78.886
         4406.5         73.007         74.778
         4407.0         71.594         71.511
         4407.5         79.722         71.881
         4408.0         86.584         74.620
         4408.5        108.418         77.028
         4409.0        128.784         81.455
