~Version Information
 VERS.                  2.0:   CWLS log ASCII Standard -VERSION 2.0
 WRAP.                   NO:   One line per depth step
~Well Information Block
#MNEM.UNIT     VALUE/NAME     DESCRIPTION
#---------     -----------    ---------------------------
 STRT.F              8830.0000: START DEPTH
 STOP.F             14230.0000: STOP DEPTH
 STEP.F                 0.5000: STEP DEPTH
 NULL.                 -999.25: NULL VALUE
 LOC .       API  42-109-33374Lat:  LOCATION
 FL1 .       API  42-109-33374Lat:  LOCATIONLINE1
 DMF .                      KB:  DRILL MEAS FROM
 PDAT.                      GL:  PERMANENT DATUM
 CTRY.                     USA:  COUNTRY NAME
 CNTY.               CULBERSON:  COUNTY NAME
 FLD .     FORD, WEST (WOLFCAMP):  FIELD NAME
 WELL.        MOTHER FEE 28 4H:  WELL NAME
 COMP.          CAPITAN ENERGY:  COMPANY
 DATE.             02-May-2019:  DATE
 SVCO.             Halliburton:  SERVICECONAME
 PROV.                   TEXAS:  PROVINCE
 STAT.                   TEXAS:  STATE NAME
 HIDE.                        :  WELLNAMEOPERAT
 BASI.                 PERMIAN:  BASIN
 UWI .            42-109-33374Lat:  UNIQUE WELL IDENTIFIER
 API .            42-109-33374Lat:  API NUMBER
 RANG.                     N/A:  RANGE
 TOWN.                     N/A:  TOWNSHIP
 SECT.                     N/A:  SECTION
 SON .               905631317:  JOB NUMBER
 SRVC.             Halliburton:  SERVICE COMPANY
 LMF .                      KB:  LOG MEASURED FROM
 BAP .ft                0.0000:  GL ELEV ONSHORE
 GVFD.g                 1.0000:  GRAVITY FIELD
~Curve Information Block
#MNEM.UNIT                 API CODE     Curve Description
#---------               -----------    ---------------------------
 DEPT.F                 00 000 000 000:  Depth
 CCL .V                 00 000 000 000:  Casing Collar Locator
 NPHI_OH.pu             00 000 000 000:  NPHI_OH
 NPHI_CHI.pu            00 000 000 000:  NPHI_CHI
 GR_OH.api              00 000 000 000:  GR_OH
 GR_CHI.api             00 000 000 000:  GR_CHI
 RHOB_OH.g/cc           00 000 000 000:  RHOB_OH
 RHOB_CHI.g/cc          00 000 000 000:  RHOB_CHI
 PE_OH.b/e              00 000 000 000:  PE_OH
 PE_CHI.b/e             00 000 000 000:  PE_CHI
 RT10_OH.ohmm           00 000 000 000:  RT10_OH
 RT10_CHI.ohmm          00 000 000 000:  RT10_CHI
 RT30_OH.ohmm           00 000 000 000:  RT30_OH
 RT30_CHI.ohmm          00 000 000 000:  RT30_CHI
 RT90_OH.ohmm           00 000 000 000:  RT90_OH
 RT90_CHI.ohmm          00 000 000 000:  RT90_CHI
 SPHI_CHI.pu            00 000 000 000:  SPHI_CHI
 DTC_CHI.uspf           00 000 000 000:  DTC_CHI
 DTC_OH.uspf            00 000 000 000:  DTC_OH
 SGF .cu                00 000 000 000:  Formation Sigma
 CRNF.NONE              00 000 000 000:  CM GrsCaptRatio
 RIN .NONE              00 000 000 000:  CM GrsInelRatio
#Other Information
#
#WARRANTY: Halliburton will use its best efforts to furnish customers with 
#accurate information and interpretations that are part of, and incident to, the services 
#provided.  However, Halliburton cannot and does not warrant the accuracy 
#or correctness of such information and interpretations.  Under no circumstances should any 
#such information or interpretation be relied upon as the sole basis for any drilling, 
#completion, production, or financial decision or any procedure involving any risk to the 
#safety of any drilling venture, drilling rig or its crew or any other third party.  The 
#Customer has full responsibility for all drilling, completion and production operation.  
#Halliburton makes no representations or warranties, either expressed or 
#implied, including, but not limited to, the implied warranties of merchantability or fitness 
#for a particular purpose, with respect to the services rendered.  In no event will 
#Halliburton be liable for failure to obtain any particular results or for 
#any damages, including, but not limited to, indirect, special or consequential damages, 
#resulting from the use of any information or interpretation provided by Halliburton.
#
~A    DEPT      CCL   NPHI_OH NPHI_CHI  GR_OH    GR_CHI  RHOB_OH RHOB_CHI  PE_OH  PE_CHI RT10_OH RT10_CHI RT30_OH RT30_CHI RT90_OH  RT90_CHI SPHI_CHI DTC_CHI DTC_OH    SGF    CRNF   RIN   
# ...
   13839.5000 17.4609 -999.25   8.7065  -999.25  50.3891 -999.25   2.5960 -999.25 4.1193 -999.25 108.1179 -999.25 111.0719  -999.25 118.1616  14.0000 67.3929 -999.25 17.7641 0.8876 0.9659
   13840.0000 17.3806 -999.25   8.1808  -999.25  48.8605 -999.25   2.6074 -999.25 4.2052 -999.25 107.9774 -999.25 110.9276  -999.25 118.0081  13.2700 66.3614 -999.25 17.7522 0.8888 0.9627
   13840.5000 17.4085 -999.25   8.0887  -999.25  48.3699 -999.25   2.6093 -999.25 4.2166 -999.25 107.9359 -999.25 110.8850  -999.25 117.9628  13.1400 66.1830 -999.25 17.7577 0.8930 0.9639
   13841.0000 17.3936 -999.25   8.2603  -999.25  48.8463 -999.25   2.6044 -999.25 4.1631 -999.25 107.8381 -999.25 110.7845  -999.25 117.8558  13.3900 66.5370 -999.25 17.8619 0.9010 0.9718
   13841.5000 17.4332 -999.25   8.6082  -999.25  49.6313 -999.25   2.5968 -999.25 4.0967 -999.25 107.5326 -999.25 110.4707  -999.25 117.5220  13.8700 67.2120 -999.25 17.9588 0.9085 0.9806
   13842.0000 17.4099 -999.25   8.8529  -999.25  49.9992 -999.25   2.5920 -999.25 4.0611 -999.25 106.9908 -999.25 109.9140  -999.25 116.9298  14.1900 67.6704 -999.25 18.0524 0.9131 0.9857
   13842.5000 17.4486 -999.25   8.9694  -999.25  49.6164 -999.25   2.5901 -999.25 4.0552 -999.25 106.4517 -999.25 109.3602  -999.25 116.3407  14.3400 67.8801 -999.25 18.0313 0.9198 0.9871
   13843.0000 17.3860 -999.25   8.9622  -999.25  48.5080 -999.25   2.5906 -999.25 4.0697 -999.25 106.1397 -999.25 109.0397  -999.25 115.9997  14.3300 67.8565 -999.25 17.8852 0.9250 0.9866
   13843.5000 17.4338 -999.25   8.9525  -999.25  47.4244 -999.25   2.5909 -999.25 4.0814 -999.25 106.3326 -999.25 109.2378  -999.25 116.2104  14.3100 67.8396 -999.25 17.6914 0.9294 0.9867
   13844.0000 17.4205 -999.25   9.0056  -999.25  46.8754 -999.25   2.5898 -999.25 4.0823 -999.25 107.0433 -999.25 109.9680  -999.25 116.9872  14.3900 67.9544 -999.25 17.5892 0.9265 0.9857
   13844.5000 17.3957 -999.25   9.1196  -999.25  47.1089 -999.25   2.5879 -999.25 4.0872 -999.25 107.9174 -999.25 110.8659  -999.25 117.9425  14.5600 68.1810 -999.25 17.6687 0.9224 0.9845
   13845.0000 17.3872 -999.25   9.1807  -999.25  47.8462 -999.25   2.5874 -999.25 4.1006 -999.25 108.4400 -999.25 111.4028  -999.25 118.5136  14.6400 68.2945 -999.25 17.8065 0.9176 0.9826
   13845.5000 17.4167 -999.25   9.2129  -999.25  48.9232 -999.25   2.5871 -999.25 4.1002 -999.25 108.2850 -999.25 111.2436  -999.25 118.3443  14.6700 68.3471 -999.25 17.9277 0.9189 0.9844
   13846.0000 17.4346 -999.25   9.3452  -999.25  49.8187 -999.25   2.5839 -999.25 4.0597 -999.25 107.6768 -999.25 110.6188  -999.25 117.6796  14.8500 68.6007 -999.25 17.9844 0.9219 0.9904
   13846.5000 17.4211 -999.25   9.3780  -999.25  50.4416 -999.25   2.5828 -999.25 4.0340 -999.25 107.0319 -999.25 109.9563  -999.25 116.9747  14.8900 68.6588 -999.25 17.9523 0.9272 0.9947
   13847.0000 17.4783 -999.25   9.5185  -999.25  50.8382 -999.25   2.5801 -999.25 4.0105 -999.25 106.6433 -999.25 109.5570  -999.25 116.5500  15.0800 68.9201 -999.25 17.9316 0.9341 0.9992
   13847.5000 17.4168 -999.25   9.6148  -999.25  51.5894 -999.25   2.5785 -999.25 4.0035 -999.25 106.5422 -999.25 109.4532  -999.25 116.4396  15.2000 69.0978 -999.25 17.9007 0.9335 0.9987
   13848.0000 17.4276 -999.25   9.6876  -999.25  52.9627 -999.25   2.5778 -999.25 4.0105 -999.25 106.5335 -999.25 109.4442  -999.25 116.4300  15.2900 69.2259 -999.25 17.9613 0.9310 0.9963
   13848.5000 17.4610 -999.25   9.8426  -999.25  54.5736 -999.25   2.5756 -999.25 4.0083 -999.25 106.4691 -999.25 109.3781  -999.25 116.3597  15.4900 69.5067 -999.25 18.0279 0.9206 0.9938
   13849.0000 17.3957 -999.25   9.8828  -999.25  55.8483 -999.25   2.5751 -999.25 4.0040 -999.25 106.1597 -999.25 109.0603  -999.25 116.0216  15.5400 69.5727 -999.25 18.1371 0.9125 0.9924
   13849.5000 17.4548 -999.25   9.8720  -999.25  56.1694 -999.25   2.5754 -999.25 4.0002 -999.25 105.6481 -999.25 108.5347  -999.25 115.4624  15.5200 69.5428 -999.25 18.1904 0.9122 0.9920
   13850.0000 17.3999 -999.25   9.7643  -999.25  55.4471 -999.25   2.5770 -999.25 3.9944 -999.25 105.0101 -999.25 107.8793  -999.25 114.7652  15.3700 69.3360 -999.25 18.2614 0.9154 0.9923
   13850.5000 17.4564 -999.25   9.4697  -999.25  53.6813 -999.25   2.5819 -999.25 4.0047 -999.25 104.4034 -999.25 107.2559  -999.25 114.1020  14.9800 68.7775 -999.25 18.3368 0.9233 0.9923
   13851.0000 17.3957 -999.25   9.2566  -999.25  51.4352 -999.25   2.5856 -999.25 4.0192 -999.25 103.8662 -999.25 106.7041  -999.25 113.5150  14.6900 68.3698 -999.25 18.3419 0.9286 0.9904
   13851.5000 17.4644 -999.25   9.2231  -999.25  49.5344 -999.25   2.5861 -999.25 4.0226 -999.25 103.4485 -999.25 106.2750  -999.25 113.0585  14.6400 68.3016 -999.25 18.3831 0.9310 0.9897
   13852.0000 17.3416 -999.25   9.2701  -999.25  48.6966 -999.25   2.5856 -999.25 4.0311 -999.25 103.2610 -999.25 106.0823  -999.25 112.8536  14.7000 68.3819 -999.25 18.2741 0.9341 0.9886
   13852.5000 17.4175 -999.25   9.3499  -999.25  49.0349 -999.25   2.5845 -999.25 4.0341 -999.25 103.3438 -999.25 106.1673  -999.25 112.9440  14.8000 68.5278 -999.25 18.2235 0.9330 0.9879
   13853.0000 17.4625 -999.25   9.3589  -999.25  49.9821 -999.25   2.5849 -999.25 4.0483 -999.25 103.6958 -999.25 106.5290  -999.25 113.3287  14.8100 68.5403 -999.25 18.1351 0.9282 0.9827
   13853.5000 17.4664 -999.25   9.2793  -999.25  50.9318 -999.25   2.5878 -999.25 4.0854 -999.25 104.0932 -999.25 106.9373  -999.25 113.7630  14.6900 68.3721 -999.25 18.1167 0.9169 0.9764
   13854.0000 17.9791 -999.25   9.0864  -999.25  51.5466 -999.25   2.5928 -999.25 4.1329 -999.25 104.4896 -999.25 107.3445  -999.25 114.1963  14.4200 67.9859 -999.25 18.0837 0.9059 0.9693
   13854.5000 17.5816 -999.25   8.7991  -999.25  52.0459 -999.25   2.6004 -999.25 4.2015 -999.25 104.7341 -999.25 107.5957  -999.25 114.4635  14.0000 67.3996 -999.25 18.1462 0.9010 0.9641
   13855.0000 17.4279 -999.25   8.4562  -999.25  52.4500 -999.25   2.6082 -999.25 4.2532 -999.25 104.7230 -999.25 107.5843  -999.25 114.4514  13.5200 66.7204 -999.25 18.2563 0.9040 0.9632
   13855.5000 17.4245 -999.25   8.0155  -999.25  52.0017 -999.25   2.6173 -999.25 4.3027 -999.25 104.3709 -999.25 107.2226  -999.25 114.0666  12.9100 65.8575 -999.25 18.3642 0.9071 0.9654
   13856.0000 17.4249 -999.25   8.0236  -999.25  50.7704 -999.25   2.6144 -999.25 4.2498 -999.25 103.7220 -999.25 106.5559  -999.25 113.3574  12.9500 65.9163 -999.25 18.4464 0.9087 0.9726
   13856.5000 17.4671 -999.25   8.3266  -999.25  49.4995 -999.25   2.6056 -999.25 4.1591 -999.25 102.9585 -999.25 105.7715  -999.25 112.5229  13.4000 66.5425 -999.25 18.5090 0.9075 0.9802
   13857.0000 17.4566 -999.25   8.9164  -999.25  48.8308 -999.25   2.5920 -999.25 4.0431 -999.25 102.2547 -999.25 105.0486  -999.25 111.7538  14.2100 67.6980 -999.25 18.5863 0.9110 0.9890
   13857.5000 17.4312 -999.25   9.2690  -999.25  48.9155 -999.25   2.5846 -999.25 3.9790 -999.25 101.6373 -999.25 104.4142  -999.25 111.0790  14.6900 68.3658 -999.25 18.6731 0.9172 0.9924
   13858.0000 17.4386 -999.25   9.3891  -999.25  49.8609 -999.25   2.5824 -999.25 3.9559 -999.25 101.1797 -999.25 103.9442  -999.25 110.5789  14.8400 68.5839 -999.25 18.6227 0.9251 0.9926
   13858.5000 17.3942 -999.25   9.5572  -999.25  51.4297 -999.25   2.5795 -999.25 3.9406 -999.25 101.0706 -999.25 103.8321  -999.25 110.4597  15.0600 68.8960 -999.25 18.3624 0.9262 0.9883
   13859.0000 17.3876 -999.25   9.5620  -999.25  53.0757 -999.25   2.5802 -999.25 3.9656 -999.25 101.6257 -999.25 104.4023  -999.25 111.0663  15.0700 68.9065 -999.25 18.0938 0.9261 0.9840
   13859.5000 17.4265 -999.25   9.6274  -999.25  53.9459 -999.25   2.5792 -999.25 3.9783 -999.25 102.9895 -999.25 105.8035  -999.25 112.5569  15.1700 69.0501 -999.25 17.8818 0.9212 0.9834
   13860.0000 17.4386 -999.25   9.6627  -999.25  53.8903 -999.25   2.5788 -999.25 4.0023 -999.25 104.6768 -999.25 107.5368  -999.25 114.4008  15.2300 69.1408 -999.25 17.7320 0.9174 0.9852
   13860.5000 17.3295 -999.25   9.7184  -999.25  53.2150 -999.25   2.5772 -999.25 4.0024 -999.25 106.2796 -999.25 109.1834  -999.25 116.1525  15.3300 69.2808 -999.25 17.6844 0.9151 0.9909
