###############################################
##         ENVERUS                           ##
##         ESS - Open Hole                   ##
##         PERMIAN / DELAWARE                ##
##         Nov 03 2023  V4.0                 ##
##         42-109-32620-90-00                ##
###############################################
## Copyright 2017-2023  ENVERUS.  All Rights Reserved. 
## Confidential - Property of ENVERUS, use governed by terms and 
## conditions found within the existing Information Services Subscription Agreement 
## (as may be amended, the “ISSA”) between Customer and ENVERUS. 
## 
~VERSION INFORMATION
# MNEM.UNIT                               DATA : DESCRIPTION OF MNEMONIC
#-----.-----     ----------------------------- : -----------------------------
VERS.                                     2.00 : CWLS LOG ASCII STANDARD - VERSION 2.00
WRAP.                                       NO : MULTIPLE LINES PER DEPTH STEP
VEND.                                  ENVERUS : VENDOR
TYPE.                          ESS - OPEN HOLE : ENVERUS ESSENTIAL CURVES – ACCESSIBLE THROUGH ENVERUS PRISM(TM)
DOC.                                  51092952 : ENVERUS HEADER RAW DOCUMENT ID
#___________________________________________________________________________________________________ 
~WELL INFORMATION 
# LYPeWtxrle9FodilXqet+3VuPRh8A73lGXm1Q3+VPjdIM+tEhu367IfA47DlYFnVF+yDwY76OrXOyADpoj01xA== 
# MNEM.UNIT                                              DATA : DESCRIPTION OF MNEMONIC 
#-----.-----                    ----------------------------- : ----------------------------- 
CNTY.                                               CULBERSON : COUNTY 
STATE.                                                  TEXAS : STATE 
CNTRY.                                                    USA : COUNTRY 
API.                                             42-109-32620 : API (10 Digit) 
API_14.                                    42-109-32620-90-00 : API (14 Digits) 
API_14_std.                                 42-109-32620-9000 : API (14 Digits Standard) 
UWI.                                           42109326209000 : UNIQUE WELL ID 
WELL.                               42109326200000_PREV_API14 : WELL NAME
STRT.FT                                                2339.0 : START DEPTH
STOP.FT                                               10866.0 : STOP DEPTH
STEP.FT                                                   0.5 : STEP BETWEEN DEPTHS
NULL.                                                 -999.25 : NULL VALUE
PREV_APII.                                     42109326200000 : WELL IDENTIFIER
#___________________________________________________________________________________________________ 
~PARAMETER INFORMATION 
# MNEM.UNIT                                              DATA : DESCRIPTION OF MNEMONIC 
#-----.-----                    ----------------------------- : ----------------------------- 
EKB.FT                                                   3330 : ELEVATION ABOVE MSL
#___________________________________________________________________________________________________ 
~CURVE INFORMATION 
# MNEM.UNIT           : CURVE DESCRIPTION 
#-----.-----          : ----------------------------- 
 DEPT.FT               : MEASURED DEPTH 
 GR__A.API             : GAMMA RAY (GAMMA RAY) 
 DT__A.US/FT           : SONIC DELTA TRANSIT TIME (SONIC) 
 #___________________________________________________________________________________________________ 
~A         DEPT          GR__A          DT__A
         2339.0         31.004       -999.250
         2339.5         25.083        161.958
         2340.0         24.884        161.222
         2340.5         28.277       -999.250
         2341.0         32.069       -999.250
         2341.5         32.180        164.895
         2342.0         31.537        166.990
         2342.5         32.934        170.111
         2343.0         33.311        170.712
         2343.5         27.378        168.383
         2344.0         25.416        167.569
         2344.5         27.579        166.700
         2345.0         36.638        166.700
         2345.5         39.455        166.500
         2346.0         37.391        165.920
         2346.5         28.939        165.909
         2347.0         27.545        165.697
         2347.5         35.152        166.098
         2348.0         37.769        166.723
         2348.5         39.853        167.302
         2349.0         37.835        167.949
         2349.5         37.237        168.048
         2350.0         29.134        168.104
         2350.5         24.595        167.904
         2351.0         26.105        168.104
         2351.5         36.628        168.606
         2352.0         44.448        168.706
         2352.5         54.229        168.506
         2353.0         47.435        167.970
         2353.5         38.034        166.956
         2354.0         39.812        166.901
         2354.5         41.583        167.269
         2355.0         41.873        168.684
         2355.5         48.029        169.107
         2356.0         53.493        169.107
         2356.5         53.915        169.096
         2357.0         55.888        168.907
         2357.5         52.591        168.907
         2358.0         45.085        169.107
         2358.5         39.928        168.851
         2359.0         36.992        168.238
         2359.5         36.484        167.503
         2360.0         38.502        167.703
         2360.5         39.521        167.703
         2361.0         40.941        167.703
         2361.5         41.916        167.503
         2362.0         37.523        166.900
         2362.5         29.221        165.552
         2363.0         26.435        165.095
         2363.5         22.286        165.095
         2364.0         20.802        165.095
         2364.5         22.524        165.687
         2365.0         24.351        165.697
         2365.5         22.919        165.898
         2366.0         19.162        166.299
         2366.5         22.856        166.333
         2367.0         26.347        166.299
         2367.5         26.747        166.098
         2368.0         27.944        166.166
         2368.5         27.310        166.378
         2369.0         24.172        166.389
         2369.5         23.952        166.901
         2370.0         24.751        167.101
         2370.5         24.996        166.901
         2371.0         27.148        166.901
         2371.5         28.453        166.500
         2372.0         24.925        166.299
         2372.5         21.622        166.551
         2373.0         25.043        167.302
         2373.5         28.712        167.703
         2374.0         26.544        167.200
         2374.5         23.928        165.378
         2375.0         21.511        164.069
         2375.5         18.763        163.290
         2376.0         21.783        163.290
         2376.5         33.493        163.892
         2377.0         51.176        164.561
         2377.5         59.536        165.095
         2378.0         56.548        164.403
         2378.5         51.299        164.293
         2379.0         56.472        164.205
         2379.5         64.257        165.018
         2380.0         68.940        160.374
         2380.5        101.379        104.769
         2381.0        139.817         89.468
         2381.5        159.165         84.085
         2382.0        170.816         95.233
         2382.5        210.787        103.511
         2383.0        222.959        107.427
         2383.5        221.998        111.088
         2384.0        213.387        113.765
         2384.5        222.092        111.632
         2385.0        269.609        103.369
         2385.5        306.979         97.952
         2386.0        312.318         96.690
         2386.5        285.488         97.572
         2387.0        248.981         98.586
         2387.5        222.849        105.424
         2388.0        205.956        110.305
         2388.5        184.397        114.027
         2389.0        184.480        113.371
         2389.5        215.554        109.910
         2390.0        230.302        104.164
         2390.5        232.335         99.226
         2391.0        226.893         99.097
         2391.5        211.843        101.284
         2392.0        198.972        104.324
         2392.5        183.559        110.745
         2393.0        169.555        112.184
         2393.5        163.673        113.492
         2394.0        165.407        113.472
         2394.5        169.031        111.449
         2395.0        187.525        106.943
         2395.5        219.618        101.225
         2396.0        239.241         97.768
         2396.5        250.901         94.984
         2397.0        242.889         96.239
         2397.5        232.622        100.777
         2398.0        215.544        107.165
         2398.5        204.063        112.730
         2399.0        196.266        113.741
         2399.5        182.817        113.171
         2400.0        182.394        112.157
         2400.5        215.994        108.479
         2401.0        236.363        103.298
         2401.5        273.269         97.329
         2402.0        289.374         93.798
         2402.5        277.730         94.946
         2403.0        247.971        107.506
         2403.5        220.093        118.169
         2404.0        224.488        118.859
         2404.5        260.491        114.326
         2405.0        299.044        106.577
         2405.5        314.989        100.591
         2406.0        334.922         96.552
         2406.5        394.374         86.168
         2407.0        430.909         78.656
         2407.5        367.756         82.045
         2408.0        255.974         90.457
         2408.5        182.751        103.994
         2409.0        153.939        115.323
         2409.5        150.162        116.760
         2410.0        179.676        109.928
         2410.5        293.041         89.224
         2411.0        379.883         71.631
         2411.5        382.717         72.137
         2412.0        329.263         81.336
         2412.5        218.065         92.952
         2413.0        165.044         98.532
         2413.5        155.689        100.702
         2414.0        156.306        100.611
         2414.5        155.289         99.947
         2415.0        156.712         98.897
         2415.5        156.088         98.295
         2416.0        161.547         98.159
         2416.5        165.961         97.493
         2417.0        165.754         97.091
         2417.5        164.135         97.292
         2418.0        167.225         96.711
         2418.5        189.609         95.902
         2419.0        208.801         94.482
         2419.5        216.993         93.480
         2420.0        210.682         93.280
         2420.5        192.498         93.480
         2421.0        186.887         93.635
         2421.5        183.945         92.993
         2422.0        181.899         91.371
         2422.5        219.648         86.280
         2423.0        205.662         81.627
         2423.5        180.603         75.310
         2424.0        170.233         70.699
         2424.5        172.077         67.655
         2425.0        173.383         66.263
         2425.5        169.090         67.214
