###############################################
##         ENVERUS                           ##
##         ESS - Open Hole                   ##
##         PERMIAN / DELAWARE                ##
##         Nov 02 2023  V4.0                 ##
##         42-109-31391-00-00                ##
###############################################
## Copyright 2017-2023  ENVERUS.  All Rights Reserved. 
## Confidential - Property of ENVERUS, use governed by terms and 
## conditions found within the existing Information Services Subscription Agreement 
## (as may be amended, the “ISSA”) between Customer and ENVERUS. 
## 
~VERSION INFORMATION
# MNEM.UNIT                               DATA : DESCRIPTION OF MNEMONIC
#-----.-----     ----------------------------- : -----------------------------
VERS.                                     2.00 : CWLS LOG ASCII STANDARD - VERSION 2.00
WRAP.                                       NO : MULTIPLE LINES PER DEPTH STEP
VEND.                                  ENVERUS : VENDOR
TYPE.                          ESS - OPEN HOLE : ENVERUS ESSENTIAL CURVES – ACCESSIBLE THROUGH ENVERUS PRISM(TM)
DOC.                                  31999167 : ENVERUS HEADER RAW DOCUMENT ID
#___________________________________________________________________________________________________ 
~WELL INFORMATION 
# BOC9FSWoKCUsCFcWObZ1iTDYvHtSUwfaSl9bEava01AYiR20s/sWwY1hBaxvFz+VJj0aOQNxXrzxY9t5EPBGbg== 
# MNEM.UNIT                                              DATA : DESCRIPTION OF MNEMONIC 
#-----.-----                    ----------------------------- : ----------------------------- 
CNTY.                                               CULBERSON : COUNTY 
STATE.                                                  TEXAS : STATE 
CNTRY.                                                    USA : COUNTRY 
API.                                             42-109-31391 : API (10 Digit) 
API_14.                                    42-109-31391-00-00 : API (14 Digits) 
API_14_std.                                 42-109-31391-0000 : API (14 Digits Standard) 
UWI.                                           42109313910000 : UNIQUE WELL ID 
WELL.                                            TRES ALAS  1 : WELL NAME
STRT.FT                                                     0 : START DEPTH
STOP.FT                                               15494.0 : STOP DEPTH
STEP.FT                                                   0.5 : STEP BETWEEN DEPTHS
NULL.                                                 -999.25 : NULL VALUE
COMP.                           AMERICAN QUASAR PETROLEUM CO. : COMPANY
#___________________________________________________________________________________________________ 
~CURVE INFORMATION 
# MNEM.UNIT           : CURVE DESCRIPTION 
#-----.-----          : ----------------------------- 
 DEPT.FT               : MEASURED DEPTH 
 CALI.IN               : CALIPER (CAL - CAL) 
 GR.API                : GAMMA RAY (GR) 
 DT.US/FT              : SONIC DELTA TRANSIT TIME (DT) 
 #___________________________________________________________________________________________________ 
~A         DEPT           CALI             GR             DT
# ...
        15444.0          8.689         12.148         48.421
        15444.5          8.676         13.026         47.866
        15445.0          8.663         13.641         47.310
        15445.5          8.650         13.168         46.797
        15446.0          8.637         12.694         46.368
        15446.5          8.624         12.221         45.957
        15447.0          8.629         12.017         45.590
        15447.5          8.636         12.957         45.863
        15448.0          8.643         13.897         46.415
        15448.5          8.651         14.838         46.776
        15449.0          8.658         15.313         46.994
        15449.5          8.665         13.876         47.212
        15450.0          8.672         12.439         47.237
        15450.5          8.679         11.088         47.101
        15451.0          8.687         11.613         47.100
        15451.5          8.694         12.138         47.108
        15452.0          8.701         12.663         47.116
        15452.5          8.708         13.188         47.124
        15453.0          8.716         13.018         47.132
        15453.5          8.723         12.631         47.140
        15454.0          8.618         12.243         47.148
        15454.5          8.450         11.856         47.155
        15455.0          8.442         11.469         47.163
        15455.5          8.441         11.082         47.171
        15456.0          8.289         10.695         46.413
        15456.5          7.942         11.645         45.929
        15457.0          7.594         12.519         45.706
        15457.5          7.247         12.431         45.738
        15458.0          7.150         12.344         46.205
        15458.5          7.149         12.257         46.672
        15459.0          7.149         12.169         47.106
        15459.5          7.149         12.082         47.139
        15460.0          7.149         11.995         47.171
        15460.5          7.149         11.907         47.595
        15461.0          7.159         11.820         48.139
        15461.5          7.219         11.733         48.683
        15462.0          7.279         11.645         49.227
        15462.5          7.340         11.558         49.997
        15463.0          7.400         11.471         50.768
        15463.5          7.460         11.383         51.328
        15464.0          7.481         11.296         50.649
        15464.5          7.419         11.209         49.969
        15465.0          7.357         11.121         49.290
        15465.5          7.296         11.034         48.610
        15466.0          7.234         10.947         48.573
        15466.5          7.172         10.859         49.456
        15467.0          7.142         10.772         49.610
        15467.5          7.195         10.685         49.384
        15468.0          7.248         10.597         49.384
        15468.5          7.300         11.093         49.385
        15469.0          7.286         11.656         49.510
        15469.5          7.226         12.219         49.604
        15470.0          7.166         12.781         49.232
        15470.5          7.106         13.344         48.861
        15471.0          7.046         13.907         48.489
        15471.5          6.986         13.067         48.117
        15472.0          6.937         12.077         47.745
        15472.5          6.907         11.088         47.524
        15473.0          6.877         10.745         47.451
        15473.5          6.846         11.138         47.378
        15474.0          6.816         11.531         47.377
        15474.5          6.785         10.875         47.446
        15475.0          6.755          9.557         47.514
        15475.5          6.725          8.875         47.503
        15476.0          6.727          9.531         47.271
        15476.5          6.899         10.188         47.040
        15477.0          6.928         10.845         46.524
        15477.5          6.926         11.502         45.913
        15478.0          6.924         11.649         45.638
        15478.5          6.923         11.630         45.497
        15479.0          6.921         11.610         45.864
        15479.5          6.920         11.591         46.511
        15480.0          6.918         11.572         47.157
        15480.5          6.917         11.552         47.754
        15481.0          6.915         11.533         48.352
        15481.5          6.913         11.514         48.949
        15482.0          6.912         11.494         48.650
        15482.5          6.910         11.475         48.330
        15483.0          6.909         11.456         48.011
        15483.5          6.910         11.436         48.053
        15484.0          6.912         11.417         48.198
        15484.5          6.915         11.397         48.344
        15485.0          6.917         11.378         48.489
        15485.5          6.920         11.359         48.634
        15486.0          6.922         11.339         48.066
        15486.5          6.925         11.320         47.961
        15487.0          6.927         11.301         47.855
        15487.5          6.930         11.281         47.893
        15488.0          6.932         11.262         48.090
        15488.5          6.935         11.243         48.287
        15489.0          6.937         11.223         48.484
        15489.5          6.939         11.529         48.130
        15490.0          6.958         11.873         47.777
        15490.5          6.993         12.217         47.709
        15491.0          7.028         12.561         47.642
        15491.5          7.016         12.905         47.561
        15492.0          7.003         13.000         47.410
        15492.5          6.990         12.808         47.259
        15493.0          6.977         12.617         47.108
        15493.5          6.965         12.808         46.956
        15494.0          6.952       -999.250         47.104
