# Exported from Transform Software 5.2.0 on 25-May-2018 by user brian.umlang
# DI Transform - A Product of Drillinginfo, Inc. - www.drillinginfo.com
#
~VERSION INFORMATION
 VERS.        2.0 : LAS ASCII STANDARD - VERSION 2.0
 WRAP.         NO : ONE LINE PER DEPTH STEP

~WELL INFORMATION
#MNEM.UNIT       DATA TYPE       INFORMATION
#---------       ---------       -----------
# Enverus has updated the API/UWI.  The previous names are renamed to  PREV_API / PREV_UWI
API.         42-109-32508-00-00 : API (14 Digits with Dashes)
UWI.             42109325080000 : UNIQUE WELL ID

 STRT.ft                1970 : Start Depth
 STOP.ft                8730 : Stop Depth
 STEP.ft                 0.5 : Step Length
 NULL.               -999.25 : Null Value
 COMP.                       : Company
 WELL.  42109325080000_API14 : Well Name
 FLD.                        : Field Name
 LOC.                        : Well Location
 CNTY.                       : County
 STAT.                       : State or Province
 CTRY.                       : Country
 SRVC.                       : Service Company
 DATE.                       : Date
PREV_APII.         42109325080000 : Well Identifier

~CURVE INFORMATION
#MNEM.UNIT       API CODE       CURVE DESCRIPTION
#---------       --------       -----------------
 DEPT.ft        : <Measured Depth>
 CAL.in         : Caliper
 DT.us/ft       : Pressure Wave Sonic
 GR.gAPI        : Gamma Ray

~PARAMETER INFORMATION
#MNEM.UNIT       VALUE       DESCRIPTION
#---------       -----       -----------
 EKB.ft      3552 : Elevation above MSL

~A      DEPT         CAL          DT          GR
# ...
        6808     10.4128     76.5541     91.1206
      6808.5      9.4994     75.6846     92.6695
        6809      9.1918     74.4597     97.3788
      6809.5      9.0547     74.2105     97.2656
        6810      8.9883     74.4223    100.9234
      6810.5      8.9883     75.8603    113.4749
        6811      8.9883     76.5497    125.1254
      6811.5      8.9883     76.2358    124.8047
        6812       8.955     75.5728    114.6513
      6812.5      8.9492     75.9697    107.7778
        6813      8.9492     76.1404    110.0079
      6813.5      8.9492     74.1124    112.7407
        6814      8.9297     72.6472    106.9707
      6814.5      8.9297     74.3362     96.5121
        6815      8.9297     84.0063     91.6016
      6815.5      8.9297     82.2378     94.6609
        6816      8.9297     78.4171    105.0663
      6816.5      8.9297     79.7014    115.5001
        6817      8.9297     77.1011    119.8382
      6817.5      8.9297     75.3915    123.9602
        6818      8.9297     75.3216    128.1336
      6818.5      8.9102     73.3998    124.6674
        6819      8.9688     71.1703    104.8896
      6819.5      8.9883      68.944      89.416
        6820      8.9883     67.7661     84.1719
      6820.5      9.0078     64.5411     82.7412
        6821      9.0273     60.8033     71.8786
      6821.5      9.0273     61.7664     60.6385
        6822      9.0298     62.1197     61.1328
      6822.5      9.0469     63.5264     64.9285
        6823      9.0469     66.5098     67.4475
      6823.5      9.0469      69.777     69.4452
        6824      9.0469      70.117     75.7147
      6824.5      9.0469     70.0497      86.082
        6825      9.0908     72.1058     96.8246
      6825.5      9.1498     71.7702    105.8382
        6826      9.2869     71.8713    111.0586
      6826.5      9.5803     70.0261    108.8265
        6827      9.6198     68.7913     93.8815
      6827.5      9.7566     69.2982     83.1581
        6828      9.7695     70.2411     87.7685
      6828.5      9.7227     74.1021    102.6571
        6829      9.2739     74.8051    102.7506
      6829.5      8.9993     74.9379     93.8961
        6830      8.9102     75.1194     91.7969
      6830.5      8.9102     74.0238     92.2812
        6831      8.8906      69.912     91.9915
      6831.5      8.8516     68.2406      76.691
        6832      8.8516     67.5369      65.966
      6832.5       8.832     70.8087     67.6657
        6833      8.8206     73.3918     80.9445
      6833.5      8.8125     73.3825     98.4525
        6834      8.8125     72.8213    107.0329
      6834.5      8.8125     72.5146    101.6087
        6835      8.8125     72.3001     95.7673
      6835.5      8.8125     72.0104     95.3125
        6836      8.8654     71.2224     93.4727
      6836.5      8.9635     67.9195     88.5442
        6837      9.0127     66.7687     85.4486
      6837.5      8.9688      66.446     86.3281
        6838      8.8751     66.6063      84.927
      6838.5      8.8516     66.7251     76.5927
        6839      8.8516     67.0568     69.8873
      6839.5      8.8516     69.2478     70.4786
        6840      8.8516     74.3059     81.3529
      6840.5      8.8516     75.5902     95.3451
        6841      8.8711     76.8279     112.115
      6841.5      8.8711     73.4854    119.9649
        6842      8.8906     65.7972    114.3468
      6842.5      8.9102     60.4178     97.8014
        6843      8.9102     58.4201     77.9242
      6843.5      8.9297     57.8502     61.7048
        6844      8.9297     62.3653     55.2734
      6844.5      8.9297     64.5144     57.6813
        6845      8.9297     65.1029     65.9724
      6845.5      8.9297     68.6449      80.456
        6846      8.9297     70.8563      92.433
      6846.5      8.9492     71.5615     91.8755
        6847      8.9492     71.1298     89.3534
      6847.5      8.9492     68.2508     83.9183
        6848      8.9492     66.5125     76.4678
      6848.5      8.9492     65.4426     70.0849
        6849      8.9492     65.4098     66.7473
      6849.5      8.9297     66.4868     66.2646
        6850      8.9297     67.4442     67.6359
      6850.5      8.9297     68.3481       68.75
        6851      8.9297     68.2638     67.7049
      6851.5      8.9297     66.9006     60.8122
        6852      8.9102     66.4387     60.9375
      6852.5      8.9102     65.3567     61.6017
        6853      8.9102     65.6972     66.9308
      6853.5      8.9015     64.1384     68.8364
        6854      8.8711     64.3817     69.8027
      6854.5      8.8516     65.0557     70.2179
        6855      8.8516     64.6778     65.2303
      6855.5      8.8516     64.7707     58.5734
        6856      8.8516     64.8803     57.9193
      6856.5      8.8516     64.8444     60.3734
        6857      8.8516     65.9409      62.283
      6857.5      8.8516     67.1987     66.2538
        6858      8.8639     69.2614     62.6983
      6858.5      8.8838     69.3337     61.4554
        6859      8.8906     69.6491     79.7689
      6859.5      8.9102     66.9091     88.4923
        6860      8.9102     64.6198     83.3704
      6860.5      8.9102     62.1362     77.7571
        6861      8.9297      61.345     60.9375
      6861.5      8.9297     62.5731     51.1506
        6862      8.9297     62.9122     50.7418
      6862.5      8.9297     64.6634     55.0615
        6863      8.9297     64.8421     59.0077
      6863.5      8.9492     63.8093     56.2176
        6864      8.9492     63.9112     52.3899
      6864.5      8.9688     65.5572     57.4275
        6865      8.9688     66.9591     71.0659
      6865.5      8.9883     66.5009     74.0342
        6866      8.9883     62.9297     68.2512
      6866.5      9.0078      59.069     61.1433
        6867      9.0078     57.5439     48.7942
      6867.5      9.0078     57.8379     42.7679
        6868      9.0078     59.4412     43.1834
      6868.5      9.0273     61.7247     48.3109
        6869      9.0664      63.328     60.9732
      6869.5      9.0664     63.1973     68.9691
        6870      9.0664     64.0936     67.8907
      6870.5      9.1055     64.2195      62.785
        6871       9.125      64.269     60.8105
      6871.5       9.125     64.1406     60.2671
        6872       9.125     62.5428     61.7611
      6872.5      9.1687     62.8487     61.3281
        6873      9.1836     63.3485     62.0588
      6873.5      9.1836     64.1332     68.3511
        6874      9.2285     65.9064     74.9616
      6874.5      9.2422     64.2711     78.1809
        6875      9.2684     63.8012      78.125
      6875.5      9.2812     63.8012      78.196
        6876      9.3008     65.0425     81.1596
      6876.5      9.3008     67.1234      83.678
        6877      9.3203     67.1345     82.6749
      6877.5      9.3398     67.4668     77.3851
        6878      9.3789     67.6957     76.2633
      6878.5      9.3984     67.7479     79.1755
        6879      9.3789     68.0415     84.4785
      6879.5      9.3789     68.0976     86.3402
        6880      9.3984     67.3099     88.3015
      6880.5       9.418      67.076     88.5884
        6881      9.3984      67.436     87.3841
      6881.5      9.3984     68.9065      88.446
        6882       9.386     68.4637     88.2995
      6882.5      9.3789     67.9385     83.0318
        6883      9.3789     70.3208     77.7344
      6883.5      9.3789     68.5965     78.0661
        6884      9.3984      68.262     76.1959
      6884.5      9.3984     69.1053     73.6328
        6885      9.3984     67.7001      75.446
      6885.5       9.418     70.0022     79.6524
        6886       9.418     69.0759     89.2636
      6886.5       9.418     68.9647    100.4262
        6887       9.418     69.6804    104.2363
      6887.5      9.3984     71.3756    104.3493
        6888      9.3984     73.5673    103.1471
      6888.5      9.3984     73.8596    102.7163
        6889      9.3984     75.2005    104.4503
      6889.5      9.3799     72.6056    103.1743
