~Version Information
 VERS.                  2.0:   CWLS log ASCII Standard -VERSION 2.0
 WRAP.                   NO:   One line per depth step
~Well Information Block
#MNEM.UNIT     VALUE/NAME     DESCRIPTION
#---------     -----------    ---------------------------
 STRT.F              8400.0000: START DEPTH
 STOP.F             14661.0000: STOP DEPTH
 STEP.F                 0.5000: STEP DEPTH
 NULL.                 -999.25: NULL VALUE
 LOC .            42-109-33545:  LOCATION
 FL1 .            42-109-33545:  LOCATIONLINE1
 DMF .             Drill Floor:  DRILL MEAS FROM
 PDAT.                      GL:  PERMANENT DATUM
 CNTY.               CULBERSON:  COUNTY NAME
 FLD .              WOLFCAMP B:  FIELD NAME
 WELL.           DALE STATE 3H:  WELL NAME
 COMP.     CAPITAN ENERGY INC.:  COMPANY
 DATE.             12-Feb-2020:  DATE
 SVCO.             Halliburton:  SERVICECONAME
 PROV.                      TX:  PROVINCE
 STAT.                      TX:  STATE NAME
 HIDE.                        :  WELLNAMEOPERAT
 BASI.                 PERMIAN:  BASIN
 UWI .            42-109-33545:  UNIQUE WELL IDENTIFIER
 API .            42-109-33545:  API NUMBER
 RANG.                     N/A:  RANGE
 TOWN.                     N/A:  TOWNSHIP
 SECT.                     N/A:  SECTION
 SON .               906290460:  JOB NUMBER
 CTRY.                        :  COUNTRY
 SRVC.             Halliburton:  SERVICE COMPANY
 LMF .             Drill Floor:  LOG MEASURED FROM
 TVDS.ft             3291.0000:  TVDSS CORRECTN
 EGL .ft             3266.0000:  GROUND ELEVATION
 APD .ft               25.0000:  DEPTH ABOVE PD
 EPD .ft             3266.0000:  ELEVATION
 BAP .ft                0.0000:  GL ELEV ONSHORE
 GVFD.g                 1.0000:  GRAVITY FIELD
 EKB .ft             3291.0000:  KB ELEVATION
 EDF .ft             3291.0000:  DF ELEVATION
~Curve Information Block
#MNEM.UNIT                 API CODE     Curve Description
#---------               -----------    ---------------------------
 DEPT.F                 00 000 000 000:  Depth
 CCL .V                 00 000 000 000:  Casing Collar Locator
 NPHI_OH.pu             00 000 000 000:  NPHI_OH
 NPHI_CHI.decp          00 000 000 000:  NPHI_CHI
 GR_OH.api              00 000 000 000:  GR_OH
 GR_CHI.api             00 000 000 000:  GR_CHI
 RHOB_OH.g/cc           00 000 000 000:  RHOB_OH
 RHOB_CHI.g/cc          00 000 000 000:  RHOB_CHI
 PE_OH.NONE             00 000 000 000:  PE_OH
 PE_CHI.NONE            00 000 000 000:  PE_CHI
 LLS_CHI.ohmm           00 000 000 000:  LLS_CHI
 LLS_OH.ohmm            00 000 000 000:  LLS_OH
 LLD_OH.ohmm            00 000 000 000:  LLD_OH
 LLD_CHI.ohmm           00 000 000 000:  LLD_CHI
 DTC_OH.uspf            00 000 000 000:  DTC_OH
 DTC_CHI.uspf           00 000 000 000:  DTC_CHI
 SPHW_CHI.decp          00 000 000 000:  SPHW_CHI
#Other Information
#
#WARRANTY: Halliburton will use its best efforts to furnish customers with 
#accurate information and interpretations that are part of, and incident to, the services 
#provided.  However, Halliburton cannot and does not warrant the accuracy 
#or correctness of such information and interpretations.  Under no circumstances should any 
#such information or interpretation be relied upon as the sole basis for any drilling, 
#completion, production, or financial decision or any procedure involving any risk to the 
#safety of any drilling venture, drilling rig or its crew or any other third party.  The 
#Customer has full responsibility for all drilling, completion and production operation.  
#Halliburton makes no representations or warranties, either expressed or 
#implied, including, but not limited to, the implied warranties of merchantability or fitness 
#for a particular purpose, with respect to the services rendered.  In no event will 
#Halliburton be liable for failure to obtain any particular results or for 
#any damages, including, but not limited to, indirect, special or consequential damages, 
#resulting from the use of any information or interpretation provided by Halliburton.
#
~A    DEPT      CCL   NPHI_OH NPHI_CHI  GR_OH    GR_CHI  RHOB_OH RHOB_CHI  PE_OH  PE_CHI  LLS_CHI   LLS_OH    LLD_OH    LLD_CHI  DTC_OH  DTC_CHI SPHW_CHI 
# ...
   10069.5000 -0.0499 -999.25   0.1483  -999.25 115.4470 -999.25   2.5481 -999.25 2.8995   36.7315   -999.25   -999.25   43.5719 -999.25 75.7332 0.1990
   10070.0000  0.0000 -999.25   0.1497  -999.25 125.4430 -999.25   2.5468 -999.25 2.8965   36.9518   -999.25   -999.25   44.0953 -999.25 76.8456 0.2068
   10070.5000  0.0195 -999.25   0.1477  -999.25 119.7427 -999.25   2.5513 -999.25 2.9157   34.4350   -999.25   -999.25   41.2102 -999.25 76.2255 0.2024
   10071.0000  0.0000 -999.25   0.1450  -999.25 115.7501 -999.25   2.5568 -999.25 2.9582   33.3745   -999.25   -999.25   40.1078 -999.25 75.7017 0.1987
   10071.5000  0.0000 -999.25   0.1427  -999.25 111.7161 -999.25   2.5612 -999.25 2.9884   32.3425   -999.25   -999.25   38.9363 -999.25 75.3265 0.1961
   10072.0000  0.0185 -999.25   0.1435  -999.25 115.1533 -999.25   2.5605 -999.25 3.0104   34.2738   -999.25   -999.25   41.2519 -999.25 75.6341 0.1983
   10072.5000  0.0000 -999.25   0.1443  -999.25 110.8584 -999.25   2.5599 -999.25 2.9870   32.4867   -999.25   -999.25   39.0006 -999.25 75.6645 0.1985
   10073.0000  0.0000 -999.25   0.1508  -999.25 125.2978 -999.25   2.5513 -999.25 2.9586   35.0838   -999.25   -999.25   42.1411 -999.25 77.3733 0.2106
   10073.5000  0.0000 -999.25   0.1531  -999.25 129.5679 -999.25   2.5488 -999.25 2.9547   35.8128   -999.25   -999.25   43.0431 -999.25 78.0495 0.2153
   10074.0000  0.0000 -999.25   0.1490  -999.25 119.2576 -999.25   2.5564 -999.25 2.9682   30.9111   -999.25   -999.25   37.3046 -999.25 76.6514 0.2055
   10074.5000 -0.0270 -999.25   0.1528  -999.25 135.9210 -999.25   2.5523 -999.25 3.0053   35.7518   -999.25   -999.25   43.4392 -999.25 77.4341 0.2110
   10075.0000  0.0000 -999.25   0.1532  -999.25 137.2382 -999.25   2.5521 -999.25 3.0350   38.6945   -999.25   -999.25   47.0280 -999.25 76.9110 0.2073
   10075.5000  0.0000 -999.25   0.1539  -999.25 140.6489 -999.25   2.5497 -999.25 3.0493   43.5695   -999.25   -999.25   52.7539 -999.25 77.1761 0.2092
   10076.0000  0.0000 -999.25   0.1544  -999.25 138.0379 -999.25   2.5475 -999.25 3.0445   46.1594   -999.25   -999.25   55.5902 -999.25 77.2740 0.2099
   10076.5000  0.0000 -999.25   0.1509  -999.25 122.2702 -999.25   2.5519 -999.25 3.0297   41.3489   -999.25   -999.25   49.6437 -999.25 76.0346 0.2011
   10077.0000 -0.0259 -999.25   0.1443  -999.25  93.6623 -999.25   2.5618 -999.25 3.0053   32.0577   -999.25   -999.25   38.4564 -999.25 73.9653 0.1865
   10077.5000 -0.0497 -999.25   0.1473  -999.25 104.1037 -999.25   2.5583 -999.25 2.9748   31.1902   -999.25   -999.25   37.6316 -999.25 74.3733 0.1893
   10078.0000  0.0000 -999.25   0.1465  -999.25 108.8763 -999.25   2.5587 -999.25 2.9572   29.8733   -999.25   -999.25   36.1017 -999.25 74.9608 0.1935
   10078.5000  0.0000 -999.25   0.1425  -999.25 106.1087 -999.25   2.5644 -999.25 2.9590   26.9314   -999.25   -999.25   32.6287 -999.25 74.8414 0.1927
   10079.0000 -0.0353 -999.25   0.1411  -999.25 108.8571 -999.25   2.5665 -999.25 2.9766   26.9184   -999.25   -999.25   32.6436 -999.25 75.1417 0.1948
   10079.5000  0.0000 -999.25   0.1388  -999.25  98.4384 -999.25   2.5720 -999.25 2.9918   24.3920   -999.25   -999.25   29.6260 -999.25 74.5879 0.1909
   10080.0000  0.0000 -999.25   0.1401  -999.25  97.2786 -999.25   2.5723 -999.25 2.9955   23.4989   -999.25   -999.25   28.5977 -999.25 74.5077 0.1903
   10080.5000  0.0735 -999.25   0.1433  -999.25  98.8815 -999.25   2.5694 -999.25 2.9968   24.0306   -999.25   -999.25   29.2465 -999.25 74.4678 0.1900
   10081.0000  0.0000 -999.25   0.1493  -999.25 118.0065 -999.25   2.5607 -999.25 3.0005   28.1221   -999.25   -999.25   34.3004 -999.25 75.5327 0.1975
   10081.5000  0.0000 -999.25   0.1493  -999.25 113.6446 -999.25   2.5610 -999.25 2.9966   27.5100   -999.25   -999.25   33.5209 -999.25 75.1636 0.1949
   10082.0000 -0.0273 -999.25   0.1466  -999.25 104.4669 -999.25   2.5646 -999.25 2.9852   25.3067   -999.25   -999.25   30.7957 -999.25 74.6660 0.1914
   10082.5000  0.0000 -999.25   0.1538  -999.25 127.9881 -999.25   2.5528 -999.25 2.9677   30.5629   -999.25   -999.25   37.2132 -999.25 76.8849 0.2071
   10083.0000  0.0000 -999.25   0.1490  -999.25 111.3606 -999.25   2.5586 -999.25 2.9412   26.4287   -999.25   -999.25   32.0143 -999.25 75.8446 0.1997
   10083.5000  0.0000 -999.25   0.1514  -999.25 114.3426 -999.25   2.5532 -999.25 2.9265   29.4887   -999.25   -999.25   35.4275 -999.25 76.6671 0.2056
   10084.0000  0.0000 -999.25   0.1550  -999.25 121.9945 -999.25   2.5480 -999.25 2.9378   33.2935   -999.25   -999.25   39.9501 -999.25 77.6475 0.2125
   10084.5000  0.0212 -999.25   0.1510  -999.25 109.2047 -999.25   2.5553 -999.25 2.9583   29.6931   -999.25   -999.25   35.6509 -999.25 76.2687 0.2027
   10085.0000  0.0000 -999.25   0.1543  -999.25 123.7031 -999.25   2.5533 -999.25 2.9846   30.7761   -999.25   -999.25   37.3457 -999.25 76.8225 0.2067
   10085.5000 -0.0154 -999.25   0.1525  -999.25 126.5656 -999.25   2.5587 -999.25 2.9956   26.9370   -999.25   -999.25   33.0666 -999.25 76.1001 0.2016
   10086.0000 -0.0101 -999.25   0.1469  -999.25 106.9181 -999.25   2.5681 -999.25 2.9942   22.2405   -999.25   -999.25   27.2967 -999.25 74.5382 0.1905
   10086.5000 -0.0201 -999.25   0.1457  -999.25 101.3308 -999.25   2.5700 -999.25 2.9895   21.3595   -999.25   -999.25   26.2172 -999.25 74.0678 0.1872
   10087.0000 -0.0114 -999.25   0.1551  -999.25 133.5089 -999.25   2.5556 -999.25 2.9995   28.4036   -999.25   -999.25   34.9983 -999.25 76.1073 0.2016
   10087.5000  0.0102 -999.25   0.1571  -999.25 140.3149 -999.25   2.5522 -999.25 2.9990   30.6348   -999.25   -999.25   37.7462 -999.25 76.7586 0.2062
   10088.0000 -0.0172 -999.25   0.1506  -999.25 123.0554 -999.25   2.5621 -999.25 2.9901   24.6409   -999.25   -999.25   30.3779 -999.25 75.3107 0.1960
   10088.5000 -0.0180 -999.25   0.1497  -999.25 119.2370 -999.25   2.5637 -999.25 2.9896   23.7534   -999.25   -999.25   29.2671 -999.25 75.0921 0.1944
   10089.0000  0.0000 -999.25   0.1549  -999.25 138.7086 -999.25   2.5565 -999.25 2.9994   27.5717   -999.25   -999.25   34.1295 -999.25 76.3578 0.2034
   10089.5000  0.0319 -999.25   0.1558  -999.25 143.6689 -999.25   2.5559 -999.25 3.0152   28.9128   -999.25   -999.25   35.8838 -999.25 76.3217 0.2031
   10090.0000 -0.0501 -999.25   0.1570  -999.25 148.0679 -999.25   2.5551 -999.25 3.0307   30.5134   -999.25   -999.25   37.9595 -999.25 76.2125 0.2024
   10090.5000  0.0000 -999.25   0.1541  -999.25 140.7595 -999.25   2.5598 -999.25 3.0484   29.2870   -999.25   -999.25   36.4350 -999.25 75.4470 0.1969
   10091.0000 -0.0261 -999.25   0.1627  -999.25 171.7756 -999.25   2.5458 -999.25 3.0457   40.6189   -999.25   -999.25   50.5611 -999.25 77.5697 0.2119
   10091.5000 -0.0301 -999.25   0.1661  -999.25 186.7903 -999.25   2.5386 -999.25 3.0424   49.1832   -999.25   -999.25   60.9850 -999.25 78.9021 0.2214
   10092.0000  0.0000 -999.25   0.1682  -999.25 195.4911 -999.25   2.5340 -999.25 3.0345   54.4888   -999.25   -999.25   67.3491 -999.25 80.0422 0.2294
   10092.5000 -0.0386 -999.25   0.1687  -999.25 191.8425 -999.25   2.5332 -999.25 3.0248   52.7672   -999.25   -999.25   65.0917 -999.25 80.7405 0.2344
   10093.0000  0.0000 -999.25   0.1691  -999.25 190.3028 -999.25   2.5347 -999.25 3.0117   46.5140   -999.25   -999.25   57.7938 -999.25 80.2860 0.2312
   10093.5000  0.0246 -999.25   0.1663  -999.25 172.6946 -999.25   2.5413 -999.25 3.0030   36.0167   -999.25   -999.25   44.8891 -999.25 79.1551 0.2232
   10094.0000  0.0000 -999.25   0.1711  -999.25 189.8818 -999.25   2.5350 -999.25 2.9897   38.9251   -999.25   -999.25   48.8174 -999.25 80.2503 0.2309
   10094.5000  0.0000 -999.25   0.1690  -999.25 182.1203 -999.25   2.5379 -999.25 2.9798   34.8886   -999.25   -999.25   43.7123 -999.25 80.3948 0.2319
   10095.0000  0.0000 -999.25   0.1631  -999.25 155.6435 -999.25   2.5455 -999.25 2.9549   27.8285   -999.25   -999.25   34.5514 -999.25 79.5769 0.2261
   10095.5000 -0.0166 -999.25   0.1611  -999.25 144.1427 -999.25   2.5468 -999.25 2.9192   25.5256   -999.25   -999.25   31.4740 -999.25 79.4938 0.2256
