###############################################
##         ENVERUS                           ##
##         ESS - Open Hole                   ##
##         PERMIAN / DELAWARE                ##
##         Nov 03 2023  V4.0                 ##
##         42-109-32978-00-00                ##
###############################################
## Copyright 2017-2023  ENVERUS.  All Rights Reserved. 
## Confidential - Property of ENVERUS, use governed by terms and 
## conditions found within the existing Information Services Subscription Agreement 
## (as may be amended, the “ISSA”) between Customer and ENVERUS. 
## 
~VERSION INFORMATION
# MNEM.UNIT                               DATA : DESCRIPTION OF MNEMONIC
#-----.-----     ----------------------------- : -----------------------------
VERS.                                     2.00 : CWLS LOG ASCII STANDARD - VERSION 2.00
WRAP.                                       NO : MULTIPLE LINES PER DEPTH STEP
VEND.                                  ENVERUS : VENDOR
TYPE.                          ESS - OPEN HOLE : ENVERUS ESSENTIAL CURVES – ACCESSIBLE THROUGH ENVERUS PRISM(TM)
DOC.                                  43644371 : ENVERUS HEADER RAW DOCUMENT ID
#___________________________________________________________________________________________________ 
~WELL INFORMATION 
# sF+t5dzO8TjfhJXm5BhYJSGKqyGjnVcKAr1GJS+XHP+EILfiOmlFF7qBSMjafOrEHsreRpz+nmfYFwcq0MlVOA== 
# MNEM.UNIT                                              DATA : DESCRIPTION OF MNEMONIC 
#-----.-----                    ----------------------------- : ----------------------------- 
CNTY.                                               CULBERSON : COUNTY 
STATE.                                                  TEXAS : STATE 
CNTRY.                                                    USA : COUNTRY 
API.                                             42-109-32978 : API (10 Digit) 
API_14.                                    42-109-32978-00-00 : API (14 Digits) 
API_14_std.                                 42-109-32978-0000 : API (14 Digits Standard) 
UWI.                                           42109329780000 : UNIQUE WELL ID 
WELL.                                    42109329780000_API14 : WELL NAME
STRT.FT                                                 179.0 : START DEPTH
STOP.FT                                                9893.5 : STOP DEPTH
STEP.FT                                                   0.5 : STEP BETWEEN DEPTHS
NULL.                                                 -999.25 : NULL VALUE
#___________________________________________________________________________________________________ 
~PARAMETER INFORMATION 
# MNEM.UNIT                                              DATA : DESCRIPTION OF MNEMONIC 
#-----.-----                    ----------------------------- : ----------------------------- 
EKB.FT                                                   3282 : ELEVATION ABOVE MSL
#___________________________________________________________________________________________________ 
~CURVE INFORMATION 
# MNEM.UNIT           : CURVE DESCRIPTION 
#-----.-----          : ----------------------------- 
 DEPT.FT               : MEASURED DEPTH 
 GR.API                : GAMMA RAY (GAMMA RAY) 
 DT.US/FT              : SONIC DELTA TRANSIT TIME (SONIC) 
 #___________________________________________________________________________________________________ 
~A         DEPT             GR             DT
# ...
         7226.0         31.755        277.994
         7226.5         32.173        277.994
         7227.0         33.724        277.994
         7227.5         36.732        277.994
         7228.0         38.022        277.994
         7228.5         36.221        277.994
         7229.0         35.098        277.994
         7229.5         35.053        277.994
         7230.0         34.262        277.994
         7230.5         33.298        277.994
         7231.0         33.387        277.994
         7231.5         34.997        277.994
         7232.0         35.471        277.994
         7232.5         34.680        277.994
         7233.0         33.443        277.996
         7233.5         31.794        277.994
         7234.0         30.290        277.994
         7234.5         29.711        277.994
         7235.0         31.215        277.994
         7235.5         33.056        277.994
         7236.0         34.680        277.994
         7236.5         35.834        277.712
         7237.0         38.717        277.437
         7237.5         40.407        277.437
         7238.0         40.529        277.437
         7238.5         38.954        277.437
         7239.0         38.656        279.392
         7239.5         39.394        280.223
         7240.0         36.029        280.223
         7240.5         31.031        280.223
         7241.0         27.994        280.223
         7241.5         29.882        280.223
         7242.0         31.800        280.162
         7242.5         32.887        279.109
         7243.0         33.973        279.109
         7243.5         36.845        279.109
         7244.0         39.276        279.109
         7244.5         38.372        279.109
         7245.0         33.555        279.109
         7245.5         27.945        279.109
         7246.0         27.539        279.109
         7246.5         29.461        279.109
         7247.0         31.383        279.109
         7247.5         31.876        279.109
         7248.0         31.467        279.109
         7248.5         32.971        279.109
         7249.0         36.159        279.109
         7249.5         41.503        279.109
         7250.0         43.454        279.109
         7250.5         41.315        279.109
         7251.0         38.306        279.109
         7251.5         36.769        279.109
         7252.0         37.233        279.109
         7252.5         38.440        279.109
         7253.0         37.475        279.109
         7253.5         35.590        279.109
         7254.0         34.893        279.109
         7254.5         36.862        279.109
         7255.0         38.737        279.109
         7255.5         36.458        279.109
         7256.0         30.613        279.109
         7256.5         25.158        279.109
         7257.0         23.700        279.109
         7257.5         27.215        279.109
         7258.0         32.146        279.109
         7258.5         34.262        279.109
         7259.0         32.897        279.109
         7259.5         29.781        279.109
         7260.0         27.697        279.109
         7260.5         26.741        279.109
         7261.0         27.540        279.109
         7261.5         30.833        279.109
         7262.0         35.424        279.109
         7262.5         38.827        279.109
         7263.0         40.529        279.109
         7263.5         38.531        279.109
         7264.0         34.878        279.109
         7264.5         32.126        279.109
         7265.0         32.977        279.109
         7265.5         35.646        279.109
         7266.0         36.769        279.109
         7266.5         38.976        279.109
         7267.0         45.618        279.109
         7267.5         55.926        279.109
         7268.0         65.144        279.109
         7268.5         68.148        279.109
         7269.0         65.373        279.109
         7269.5         59.512        279.109
         7270.0         53.930        279.109
         7270.5         50.164        279.109
         7271.0         45.060        279.109
         7271.5         39.043        279.109
         7272.0         35.468        279.109
         7272.5         36.739        279.109
         7273.0         40.506        279.109
         7273.5         44.427        279.109
         7274.0         45.543        279.109
         7274.5         43.310        279.109
         7275.0         40.231        279.109
         7275.5         40.727        279.109
         7276.0         41.783        279.109
         7276.5         40.308        279.109
         7277.0         39.324        279.109
         7277.5         41.485        279.109
         7278.0         46.422        279.109
         7278.5         49.304        279.109
         7279.0         49.088        279.109
         7279.5         47.070        279.109
         7280.0         41.990        279.109
         7280.5         37.209        279.109
         7281.0         35.098        279.109
         7281.5         37.840        279.109
         7282.0         43.600        280.288
         7282.5         46.678        280.780
         7283.0         46.665        280.780
         7283.5         45.160        280.780
         7284.0         46.918        280.780
         7284.5         49.770        280.780
         7285.0         52.350        279.824
         7285.5         53.767        277.818
         7286.0         51.671        277.437
         7286.5         46.660        277.437
         7287.0         39.031        277.437
         7287.5         33.962        277.437
         7288.0         33.559        277.437
         7288.5         35.847        277.437
         7289.0         40.342        277.437
         7289.5         44.412        277.437
         7290.0         47.097        277.437
         7290.5         47.500        277.437
         7291.0         44.410        277.437
         7291.5         42.417        277.437
         7292.0         43.921        277.437
         7292.5         43.331        277.437
         7293.0         37.776        277.437
         7293.5         31.857        277.437
         7294.0         30.501        277.437
         7294.5         31.387        277.437
         7295.0         32.055        277.437
         7295.5         33.559        277.437
         7296.0         35.673        277.437
         7296.5         36.134        277.437
         7297.0         33.536        277.437
         7297.5         30.018        277.437
         7298.0         27.994        277.437
         7298.5         29.389        277.437
         7299.0         33.133        277.437
         7299.5         35.515        277.437
         7300.0         35.933        277.437
         7300.5         34.546        277.437
         7301.0         32.641        277.437
         7301.5         32.390        277.437
         7302.0         32.098        277.437
         7302.5         30.201        277.437
         7303.0         29.114        277.437
         7303.5         28.989        277.437
         7304.0         30.719        277.437
         7304.5         31.705        277.437
         7305.0         32.056        277.437
         7305.5         33.560        277.437
         7306.0         34.262        277.437
         7306.5         33.627        277.437
         7307.0         31.863        277.437
         7307.5         29.423        277.437
         7308.0         26.682        277.437
         7308.5         24.685        277.437
         7309.0         26.132        277.437
         7309.5         29.375        277.437
         7310.0         30.618        277.437
         7310.5         28.427        277.437
         7311.0         24.509        277.437
         7311.5         21.927        277.437
         7312.0         20.891        277.437
         7312.5         20.172        277.437
