~VERSION INFORMATION
VERS.           1.2   :CWLS Log ASCII Standard - VERSION 1.2
WRAP.           NO    :One Line per depth step
PROD.  Schlumberger   :LAS Producer
PROG.  DLIS to ASCII 10C0-306                          :LAS Program name and version
CREA.        2007/06/08 22:43                          :LAS Creation date {YYYY/MM/DD hh:mm}
SOURCE.     294b92a6-1e54-4f75-8d20-4493e48002f1       :DLIS File Name
#--------------------------------------------------
~WELL INFORMATION
#MNEM.UNIT      DATA             DESCRIPTION
#---- ------ --------------   -----------------------------
STRT .F      4145.5000       :START DEPTH     
STOP .F      10380.0000      :STOP DEPTH     
STEP .F       0.5000         :STEP       
NULL .          -999.25      :NULL VALUE
COMP .                 COMPANY:  Chesapeake Operating Inc.          
WELL .                    WELL:  University Lands 4627-1            
FLD  .                   FIELD:  Wildcat                            
LOC  .                LOCATION:  1200' FNL & 1995; FEL              
CNTY .                  COUNTY:  Culberson                          
STAT .                   STATE:  Texas                              
CTRY .                 COUNTRY:                                     
SRVC .         SERVICE COMPANY:  Schlumberger                       
API  .              API NUMBER:  42-109-32287                       
DATE .                LOG DATE:  7-Jun-2007
UWI  .          UNIQUE WELL ID:  42-109-32287-0000                  
#-----------------------------------------------------------------------------
~PARAMETER INFORMATION
#MNEM.UNIT    VALUE                      DESCRIPTION
#---- -----   --------------------       ------------------------
CN   .        Chesapeake Operating Inc.  :Company Name
WN   .        University Lands 4627-1    :Well Name
FN   .        Wildcat                    :Field Name
FL   .        1200' FNL & 1995  FEL      :Field Location
FL1  .        Secion  27  Block  46  Abstract  2860 :Field Location Line 1
COUN .        Culberson                  :County or Rig Name
STAT .        Texas                      :State or Province
NATI .                                   :Nation
DATE .        7-Jun-2007                 :Date as Month-Day-Year
APIN .        42-109-32287               :API Serial Number
SECT .        27                         :Section
TOWN .        46                         :Township
RANG .        2860                       :Range
DMF  .        Kelly Bushing              :Drilling Measured From
LMF  .        Kelly Bushing              :Log Measured From
PDAT .        Ground Level               :Permanent Datum
ENGI .        Tarek Sheira               :Engineer's Name
WITN .        Wiley Tisdale /Jud Walker  :Witness's Name
LATI .                                   :Latitude
LONG .                                   :Longitude
LUL  .        Midland  TX                :Logging Unit Location
LUN  .              2365                 :Logging Unit Number
RUN  .        2                          :Run Number
SON  .        11592406                   :Service Order Number
BHT  .DEGF     185.00000                 :Bottom Hole Temperature (used in calculations)
BS   .IN         8.75000                 :Bit Size
DFD  .LB/G       8.60000                 :Drilling Fluid Density
DFV  .S         39.00000                 :Drilling Fluid Viscosity
DFL  .C3         8.00000                 :Drilling Fluid Loss
RMFS .OHMM       0.42100                 :Resistivity of Mud Filtrate Sample
EKB  .F       4323.00000                 :Elevation of Kelly Bushing
EGL  .F       4283.00000                 :Elevation of Ground Level
BLI  .F       10360.70020                :Bottom Log Interval
BSAL .PPM      500.00000                 :Borehole Salinity
FLEV .                                   :Fluid Level
MCST .                                   :Mud Cake Sample Temperature
MFST .DEGF      96.90000                 :Mud Filtrate Sample Temperature
MRT  .DEGF     185.00000                 :Maximum Recorded Temperature
MST  .DEGF      96.90000                 :Mud Sample Temperature
RMCS .                                   :Resistivity of Mud Cake Sample
RMS  .OHMM       0.42100                 :Resistivity of Mud Sample
RW   .OHMM       1.00000                 :Resistivity of Connate Water
TDD  .F       10350.00000                :Total Depth - Driller
TDL  .F       10362.00000                :Total Depth - Logger
TLI  .F       4200.00000                 :Top Log Interval
HIDE .        Formation Micro Imager     :Header Identifier
MATR .        LIME                       :Rock Matrix for Neutron Porosity Corrections
FNUM .           1.00000                 :Form Factor Numerator
FEXP .           2.00000                 :Form Factor Exponent
DFT  .        Fresh Mud                  :Drilling Fluid Type
DFPH .           9.00000                 :Drilling Fluid PH
MCSS .        Calculated                 :Mud Cake Sample Source
MFSS .        Calculated                 :Mud Filtrate Sample Source
MSS  .        Circulation Tank           :Mud Sample Source
OS1  .        TLD-APS-HNGS               :Other Services Line 1
OS2  .        HRLA-HNGS                  :Other Services Line 2
OS3  .        FMI-GR                     :Other Services Line 3
OS4  .        DSI-GR                     :Other Services Line 4
OS5  .        HNGS                       :Other Services Line 5
R1   .        -Tool ran as per tool sketch. :Remark Line 1
R2   .        -Hole size & standoff corrections applied to APS porosity. :Remark Line 2
R3   .        -Log performed on a limestone matrix (MDEN = 2.71 g/cc  DTM = 47.6 us/ft) :Remark Line 3
R4   .        -Hole & cement volumes computed using FCD = 7 . :Remark Line 4
R5   .        -Source of max. hole temperature is CTEM = 185 DegF. :Remark Line 5
R6   .        -Source of max. hole deviation is company man = 3 Deg. :Remark Line 6
R7   .        -Repeat performed off bottom for 300' as per client request. :Remark Line 7
R8   .        -Density measurment is affected by washouts. :Remark Line 8
TCS  .        9 00                       :Time Circulation Stopped
TLAB .        22 15                      :Time Logger At Bottom
EPD  .F         4283.000000              :Elevation of Permanent Datum above Mean Sea Level
APD  .F          40.000000               :Elevation of Depth Reference (LMF) above Permanent Datum
#-----------------------------------------------------------------------------
~CURVE INFORMATION
#MNEM.UNIT   API CODE                                  DESCRIPTION
#---- -----  --------                                  -----------------------
DEPT .F                                                :DEPTH (BOREHOLE) {F12.4}
C1   .IN                                               :Caliper 1 {F11.4}
C2   .IN                                               :Caliper 2 {F11.4}
CHRP .                                                 :Label Peak Coherence, Receiver Array, Compressional - Monopole P&S {F11.4}
CHR1 .                                                 :Label Peak Coherence, Receiver Array - Lower Dipole {F11.4}
CHR2 .                                                 :Label Peak Coherence, Receiver Array - Upper Dipole {F11.4}
DCAL .IN                                               :Differential Caliper {F11.4}
DEVI .DEG                                              :Hole Deviation {F11.4}
DT1R .US/F                                             :Delta-T Shear, Receiver Array - Lower Dipole {F11.4}
DT2  .US/F                                             :Delta-T Shear - Upper Dipole {F11.4}
DT2R .US/F                                             :Delta-T Shear, Receiver Array - Upper Dipole {F11.4}
DT4P .US/F                                             :Delta-T Compressional - Monopole P&S {F11.4}
DT4S .US/F                                             :Delta-T Shear - Monopole P&S {F11.4}
DTCO .US/F                                             :Delta-T Compressional {F11.4}
DTRP .US/F                                             :Delta-T Compressional, Receiver Array - Monopole P&S {F11.4}
DTRS .US/F                                             :Delta-T Shear, Receiver Array - Monopole P&S {F11.4}
DTSM .US/F                                             :Delta-T Shear {F11.4}
ED   .F                                                :East Departure {F11.4}
GR_EDTC.GAPI                                           :Gamma Ray {F11.4}
GTEM .DEGF                                             :Generalized Borehole Temperature {F11.4}
HAZI .DEG                                              :Hole Azimuth {F11.4}
ITT  .S                                                :Integrated Transit Time {F11.4}
ND   .F                                                :North Departure {F11.4}
P1AZ .DEG                                              :Pad 1 Azimuth {F11.4}
PR   .                                                 :Poisson's Ratio {F11.4}
RB   .DEG                                              :Relative Bearing {F11.4}
SDEV .DEG                                              :Sonde Deviation {F11.4}
SPHI .CFCF                                             :Sonic Porosity {F11.4}
STIT .F                                                :Stuck Tool Indicator, Total {F11.4}
TENS .LBF                                              :Cable Tension {F11.4}
#-----------------------------------------------------------------------------
# 
#      DEPT         C1         C2        CHRP       CHR1       CHR2       DCAL       DEVI       DT1R       DT2        DT2R       DT4P       DT4S       DTCO       DTRP       DTRS       DTSM        ED      GR_EDTC      GTEM       HAZI       ITT         ND        P1AZ        PR         RB        SDEV       SPHI       STIT       TENS
#
~A  
# ...
   9120.5000    10.1353    10.4155     0.8641     0.9744     0.9580     1.5244     3.0630   115.6079   111.3378   116.2279    63.2172   112.7650    63.2172    63.2172   112.7650   111.3378    68.4695    98.7831   174.3367   274.4492     0.0859   -15.9124   351.5798     0.2621    77.1128     3.0630     0.1104     0.0000  4229.0000
   9121.0000    10.1101    10.4032     0.8968     0.9876     0.9595     1.5056     3.0623   114.3262   109.9757   113.1409    63.1987   111.7651    63.1987    63.1987   111.7651   109.9757    68.4426    93.2374   174.3410   274.4601     0.0859   -15.9100   351.0626     0.2535    76.5840     3.0623     0.1103     0.0000  4194.0000
   9121.5000    10.0348    10.4032     0.8363     0.9913     0.9800     1.4673     3.0643   114.7804   111.7062   113.5591    63.3585   112.0092    63.3585    63.3585   112.0092   111.7062    68.4157    90.1759   174.3454   274.4780     0.0859   -15.9075   350.5713     0.2629    76.0742     3.0643     0.1114     0.0000  4224.0000
   9122.0000    10.0348    10.4032     0.7990     0.9885     0.9835     1.4673     3.0656   114.5752   111.9338   113.1215    63.0650   112.8932    63.0650    63.0650   112.8932   111.9338    68.3888    89.8417   174.3496   274.5065     0.0858   -15.9051   349.9777     0.2675    75.4510     3.0656     0.1094     0.0000  4214.0000
   9122.5000    10.0348    10.4032     0.8436     0.9789     0.9506     1.4673     3.0673   111.3502   110.4215   111.9550    61.2749   111.9019    61.2749    61.2749   111.9019   110.4215    68.3620    92.6146   174.3539   274.5295     0.0858   -15.9027   349.3659     0.2775    74.8158     3.0673     0.0967     0.0000  4234.0000
   9123.0000    10.0096    10.4032     0.6969     0.9837     0.9746     1.4545     3.0681   112.6774   110.6103   111.9090    60.2966   111.1077    60.2966    60.2966   111.1077   110.6103    68.3351    92.7907   174.3582   274.5667     0.0858   -15.9002   348.7663     0.2886    74.1780     3.0681     0.0898     0.0000  4207.0000
   9123.5000     9.9594    10.4032     0.8282     0.9865     0.9863     1.4289     3.0705   112.1660   109.1742   110.7094    59.4787   108.2869    59.4787    59.4787   108.2869   109.1742    68.3082    83.7577   174.3625   274.5749     0.0857   -15.8978   348.1787     0.2890    73.5815     3.0705     0.0840     0.0000  4203.0000
   9124.0000     9.9594    10.3910     0.6846     0.9711     0.9075     1.4229     3.0717   109.9364   106.4113   107.8776    57.7219   107.0046    57.7219    57.7219   107.0046   106.4113    68.2813    68.5902   174.3668   274.5970     0.0857   -15.8953   347.3568     0.2915    72.7362     3.0717     0.0716     0.0000  4260.0000
   9124.5000     9.9343    10.3787     0.7446     0.9716     0.9369     1.4041     3.0718   110.8867   110.2379   113.3057    58.0909   108.4316    58.0909    58.0909   108.4316   110.2379    68.2543    60.0376   174.3711   274.6487     0.0857   -15.8929   346.7259     0.3078    72.0529     3.0718     0.0742     0.0000  4232.0000
   9125.0000     9.9343    10.3787     0.7756     0.9750     0.9595     1.4041     3.0732   111.5678   108.6537   110.2389    58.2038   109.8629    58.2038    58.2038   109.8629   108.6537    68.2274    63.5124   174.3754   274.6820     0.0856   -15.8904   346.3152     0.2988    71.6087     3.0732     0.0750     0.0000  4207.0000
   9125.5000     9.9343    10.3787     0.7210     0.9767     0.9290     1.4041     3.0747   114.7124   110.5260   113.4066    59.7577   110.8281    59.7577    59.7577   110.8281   110.5260    68.2005    73.4808   174.3797   274.7284     0.0856   -15.8879   346.1145     0.2935    71.3612     3.0747     0.0860     0.0000  4246.0000
   9126.0000     9.9343    10.3787     0.6842     0.9705     0.9657     1.4041     3.0807   115.3609   112.1096   115.8051    63.9177   113.5974    63.9177    63.9177   113.5974   112.1096    68.1735    83.5113   174.3840   274.7802     0.0856   -15.8854   345.7202     0.2592    70.9145     3.0807     0.1154     0.0000  4240.0000
   9126.5000     9.9343    10.3787     0.6836     0.9561     0.9651     1.4041     3.0770   113.1579   113.5164   116.2075    60.3679   112.9813    60.3679    60.3679   112.9813   113.5164    68.1466    94.0828   174.3883   274.7879     0.0856   -15.8829   345.6425     0.3028    70.8289     3.0770     0.0903     0.0000  4229.0000
   9127.0000     9.9343    10.3787     0.7023     0.9595     0.9587     1.4041     3.0789   112.9796   116.3289   121.2109    60.8634   111.4432    60.8634    60.8634   111.4432   116.3289    68.1196    97.2023   174.3926   274.8327     0.0855   -15.8804   345.8529     0.3115    70.9946     3.0789     0.0938     0.0000  4266.0000
   9127.5000     9.9343    10.3787     0.5672     0.9516     0.9699     1.4041     3.0818   111.1576   113.3478   115.6904    60.5035   114.3899    60.5035    60.5035   114.3899   113.3478    68.0926    95.3170   174.3969   274.8571     0.0855   -15.8779   345.9406     0.3008    71.0579     3.0818     0.0913     0.0000  4255.0000
   9128.0000     9.9343    10.3787     0.6286     0.9571     0.9604     1.4041     3.0818   110.4909   112.5747   114.8333    63.4534   111.9461    63.4534    63.4534   111.9461   112.5747    68.0657    90.8296   174.4012   274.8989     0.0855   -15.8754   345.9670     0.2672    71.0426     3.0818     0.1121     0.0000  4280.0000
   9128.5000     9.9343    10.3787     0.6322     0.9729     0.9389     1.4041     3.0832   107.2860   112.6924   118.6383    62.0708   110.8109    62.0708    62.0708   110.8109   112.6924    68.0387    85.9984   174.4055   274.9152     0.0854   -15.8729   346.0728     0.2823    71.1321     3.0832     0.1023     0.0000  4242.0000
   9129.0000     9.9343    10.4032     0.5760     0.9615     0.8864     1.4160     3.0845   107.9613   112.3417   117.0524    62.5523   107.1720    62.5523    62.5523   107.1720   112.3417    68.0117    82.8679   174.4098   274.9615     0.0854   -15.8704   346.2324     0.2753    71.2456     3.0845     0.1057     0.0000  4226.0000
   9129.5000     9.9343    10.4032     0.4947     0.9580     0.9479     1.4160     3.0850   109.0387   106.5755   109.1090    59.0726   105.5337    59.0726    59.0726   105.5337   106.5755    67.9847    72.2258   174.4140   274.9953     0.0854   -15.8679   346.2635     0.2783    71.2430     3.0850     0.0811     0.0000  4276.0000
   9130.0000     9.9343    10.3910     0.6762     0.9699     0.8299     1.4101     3.0862   105.6074   102.9899   105.7433    61.6051   100.1283    61.6051    61.6051   100.1283   102.9899    67.9578    66.1469   174.4184   275.0382     0.0853   -15.8653   346.1101     0.2214    71.0462     3.0862     0.0990     0.0000  4267.0000
   9130.5000     9.8589    10.3787     0.7315     0.9738     0.9640     1.3655     3.0885   101.0223   102.0360   104.1025    56.8763    97.3480    56.8763    56.8763    97.3480   102.0360    67.9308    58.5247   174.4227   275.0736     0.0853   -15.8628   347.8074     0.2746    72.7100     3.0885     0.0656     0.0000  4287.0000
   9131.0000     9.8589    10.3787     0.6722     0.9758     0.9441     1.3655     3.0877    99.0704    99.5034   101.3405    54.5963    92.4144    54.5963    54.5963    92.4144    99.5034    67.9038    54.7575   174.4269   275.0960     0.0853   -15.8602   348.3050     0.2846    73.1861     3.0877     0.0495     0.0000  4273.0000
   9131.5000     9.8589    10.3787     0.7161     0.9714     0.9074     1.3655     3.0890    94.6694    98.3420    99.7989    52.1737    89.8108    52.1737    52.1737    89.8108    98.3420    67.8769    52.7439   174.4312   275.0951     0.0853   -15.8577   348.1510     0.3041    73.0326     3.0890     0.0323     0.0000  4257.0000
   9132.0000     9.8589    10.3787     0.8154     0.9690     0.9105     1.3655     3.0882    94.1730    99.9162   101.8236    52.6582    91.2761    52.6582    52.6582    91.2761    99.9162    67.8499    52.2396   174.4355   275.1175     0.0852   -15.8551   348.1010     0.3077    72.9602     3.0882     0.0358     0.0000  4268.0000
   9132.5000     9.8589    10.3787     0.7232     0.9767     0.9739     1.3655     3.0896    95.4569    99.1842   100.0254    52.6774    91.3983    52.6774    52.6774    91.3983    99.1842    67.8230    53.1129   174.4398   275.1400     0.0852   -15.8525   347.7462     0.3035    72.5823     3.0896     0.0359     0.0000  4249.0000
