~Version Information Block
 VERS.                2.00:     CWLS LOG ASCII STANDARD - VERSION 2.000000
 WRAP.                  NO:     One Line Per Depth Step
#
~Well Information Block
#MNEM.UNIT                     Data                         Information
#----------   ------------------------------------------   ----------------
 STRT.F                                        31.0000:     START DEPTH
 STOP.F                                     15936.0000:     STOP DEPTH
 STEP.F                                         0.5000:     STEP
 NULL.                                       -999.2500:     NULL VALUE
 COMP.                             AMERCN QUASAR PETRO:     COMPANY
 WELL.                                    SCOTT UNIT 1:     WELL
 FLD .                                         WILDCAT:     FIELD
 LOC .        Survey  PSL              - Abs  6331     - Blk  45   - Section  19:     LOCATION
 CNTY.                                              TX:     COUNTY
 STAT.                                              TX:     STATE
 CTRY.                        UNITED STATES OF AMERICA:     COUNTRY
 SRVC.                                      GEOGRAPHIX:     SERVICE COMPANY
 DATE.                                                :     DATE
 API .                                  42109313620000:     API NUMBER
 UWI .                                  42109313620000:     UWI NUMBER
 TVD .                                              NO:     TVD flag
 WSTA.                                             LOC:     Well status
#
~Curve Information Block
#MNEM.UNIT       API CODE      Curve Description
#----------    -------------   -------------------
 DEPT.F                    :   Depth in Feet
 LLD .OHMM                 :   LATEROLOG DEEP
 GRS .GAPI                 :   GAMMA RAY FROM SONIC LOG
 CALS.IN                   :   CALIPER FROM SONIC LOG
 MSFL.OHMM                 :   MICRO SPHERICALLY FOCUSED
 LLS .OHMM                 :   LATEROLOG SHALLOW
 DT  .US/F                 :   DELTA TIME
#
~Parameter Information Block
#MNEM.UNIT            Value               Description
#----------    --------------------    -------------------
 RUN .                         ONE:    Run Number
 PDAT.                          GL:    Permanent Datum
 EPD .FT                          :    Elevation Of Perm. Datum
 LMF .               KELLY BUSHING:    Log Measured From
 EKB .FT                          :    Elevation Of Kelly Bushing
 DF .FT                           :    Elevation Of Derrick Floor
 GL .FT                           :    Elevation Of Ground Level
 TD  .FT                          :    Total Depth
 CSGD.FT                          :    Casing Bottom (Driller) 1
 CSGL.FT                          :    Casing Bottom (Logger) 1
 MUD .                            :    Drilling Fluid Type
 MUDV .CP                         :    Drilling Fluid Viscosity
 MUDD .LB/USG                     :    Drilling Fluid Density
 FL .ML/30MIN                     :    Drilling Fluid Loss
 PH.                              :    Drilling Fluid Ph
 MUDS .                           :    Mud Sample Source
 RM .OHMM                         :    Resistivity Of Mud Sample
 RMT .DEGF                        :    Mud Sample Temperature
 RMF .OHMM                        :    Mud Filtrate Resistivity
 RMFT.DEGF                        :    Mud Filtrate Sample Temperature
 RMC .OHMM                        :    Mud Cake Resistivity
 RMCT.DEGF                        :    Mud Cake Sample Temperature
 RMB .OHMM                        :    Mud Resistivity At Bht
 TMAX .DEGF                       :    Bottom Hole Temperature
#
~Other Information Block
<DescLogPlotStart>   NEURALOG PLOT DEFINITION
PLOTDEFVERSION: 3
LASFILE: E:\Nair Innovations\42_TEXAS\109_Culberson\42109313620000_1.las
DEPTHSCALE: 239.999996
RESOLUTION: 200
DEPTHLABELFREQ: 100.000000
HEAVYGRIDFREQ: 50.000000
MEDIUMGRIDFREQ: 50.000000
LIGHTGRIDFREQ: 10.000000
#
#   TRACK 1
#
STARTTRACK: 
 LEFTX: 0.500000 inch
 RIGHTX: 3.000000 inch
 SCALETYPE: Linear
 NUMCHARTDIVISIONS: 10
CURVE: GRS   1.504600   250.000000 (0,0,255)      Solid             2     N    
CURVE: CALS  6.474400   14.873500  (0,131,131)    Solid             2     N    
ENDTRACK: 
#
#   TRACK 2
#
STARTTRACK: 
 LEFTX: 3.500000 inch
 RIGHTX: 6.000000 inch
 SCALETYPE: Log
 NUMCYCLES: 4
 STARTCYCLE: 2
CURVE: LLS   0.200000   2000.000000 (255,0,0)      Solid             4     Y   
BACKUP: 2000.000000 20000000.000000 (255,0,0)      Solid             4    
BACKUP: 0.000020   0.200000   (255,0,0)      Solid             4    
CURVE: MSFL  0.200000   2000.000000 (0,131,131)    Solid             2     N   
ENDTRACK: 
#
#   TRACK 3
#
STARTTRACK: 
 LEFTX: 6.500000 inch
 RIGHTX: 9.000000 inch
 SCALETYPE: Linear
 NUMCHARTDIVISIONS: 10
CURVE: LLD   0.200000   2000.000000 (255,0,255)    Solid             4     N   
CURVE: DT    190.000000 50.000000  (255,0,131)    Solid             2     N    
ENDTRACK: 
<DescLogPlotEnd>
<DepthTrack type='Reference' track='1' Label='0' color='0' hor='0' />
<Reference font='144,0,-900,0,500,0,16777216,Arial' />
~A DEPTH     LLD              GRS              CALS             MSFL             LLS              DT              
# ...
    9621.000 5.82430000       75.59860000      10.45150000      -999.25000000    6.26950000       79.39450000     
    9621.500 7.02780000       75.59650000      10.45140000      -999.25000000    6.81220000       77.29270000     
    9622.000 8.64260000       73.33570000      10.45120000      -999.25000000    7.30980000       78.89240000     
    9622.500 9.56770000       71.07480000      10.45110000      -999.25000000    7.50380000       80.71850000     
    9623.000 9.79580000       71.82600000      10.45090000      -999.25000000    7.46670000       81.64240000     
    9623.500 9.31560000       76.71870000      10.46540000      -999.25000000    6.98500000       82.39400000     
    9624.000 7.88560000       80.48200000      10.48070000      -999.25000000    5.91200000       81.88740000     
    9624.500 6.77440000       79.55770000      10.48050000      -999.25000000    5.44960000       80.78160000     
    9625.000 6.60120000       76.52260000      10.48040000      -999.25000000    5.55660000       80.58620000     
    9625.500 7.01680000       75.12050000      10.51040000      -999.25000000    5.63810000       79.98680000     
    9626.000 7.31400000       74.07380000      10.57050000      -999.25000000    5.80010000       78.75260000     
    9626.500 7.62370000       75.07900000      10.57030000      -999.25000000    6.00000000       80.29240000     
    9627.000 7.72920000       77.67480000      10.60030000      -999.25000000    6.08280000       80.83930000     
    9627.500 7.94550000       80.80750000      10.50980000      -999.25000000    6.33970000       76.72810000     
    9628.000 9.12650000       77.04660000      10.44940000      -999.25000000    6.70010000       68.59890000     
    9628.500 13.08800000      66.57070000      10.41660000      -999.25000000    7.28010000       64.85330000     
    9629.000 16.37140000      60.13140000      10.35870000      -999.25000000    9.70550000       63.75610000     
    9629.500 17.50900000      59.00010000      10.35230000      -999.25000000    12.15780000      69.69080000     
    9630.000 17.54760000      60.88080000      10.32830000      -999.25000000    13.22360000      74.27550000     
    9630.500 17.50400000      69.53860000      10.32820000      -999.25000000    13.76880000      75.00260000     
    9631.000 16.34530000      74.80780000      10.32800000      -999.25000000    13.51770000      75.48330000     
    9631.500 12.54540000      77.81810000      10.32790000      -999.25000000    12.20380000      76.27030000     
    9632.000 11.04240000      80.82830000      10.32770000      -999.25000000    10.05350000      77.49500000     
    9632.500 10.12040000      83.86270000      10.34460000      -999.25000000    8.78360000       78.17600000     
    9633.000 10.13050000      84.58970000      10.38760000      -999.25000000    7.87650000       76.82080000     
    9633.500 11.84630000      80.67300000      10.41760000      -999.25000000    7.52520000       75.71980000     
    9634.000 12.88770000      78.34850000      10.40980000      -999.25000000    8.20280000       75.63010000     
    9634.500 13.24850000      76.67760000      10.41730000      -999.25000000    10.41520000      79.53990000     
    9635.000 12.35910000      78.74850000      10.41720000      -999.25000000    10.70640000      81.54770000     
    9635.500 9.76150000       84.28530000      10.41700000      -999.25000000    9.44770000       82.64230000     
    9636.000 8.61480000       90.25160000      10.41690000      -999.25000000    8.10910000       83.46290000     
    9636.500 7.81660000       89.73860000      10.41530000      -999.25000000    7.25590000       83.09620000     
    9637.000 7.92470000       85.28500000      10.38640000      -999.25000000    6.86290000       82.45560000     
    9637.500 8.62740000       81.96280000      10.35620000      -999.25000000    7.56120000       81.54110000     
    9638.000 9.25450000       78.54640000      10.35600000      -999.25000000    8.57210000       80.16800000     
    9638.500 9.48680000       76.66200000      10.34720000      -999.25000000    8.92690000       80.19060000     
    9639.000 7.95990000       75.53060000      10.32560000      -999.25000000    8.63070000       80.95050000     
    9639.500 7.43560000       78.16440000      10.32550000      -999.25000000    7.78890000       81.61070000     
    9640.000 6.92480000       83.43360000      10.32530000      -999.25000000    7.06820000       82.24640000     
    9640.500 6.45010000       83.05530000      10.32520000      -999.25000000    6.51440000       82.62900000     
    9641.000 6.34040000       79.66490000      10.32500000      -999.25000000    6.30440000       81.73810000     
    9641.500 6.65850000       78.51840000      10.32480000      -999.25000000    6.78030000       80.41950000     
    9642.000 7.62220000       78.11880000      10.35480000      -999.25000000    8.61620000       79.10090000     
    9642.500 8.84100000       77.34280000      10.35470000      -999.25000000    9.70650000       77.87260000     
    9643.000 9.47460000       76.64530000      10.35450000      -999.25000000    9.41820000       79.06000000     
    9643.500 9.50770000       76.74320000      10.35440000      -999.25000000    8.78530000       80.61120000     
    9644.000 9.08600000       78.62540000      10.35420000      -999.25000000    7.86100000       84.26290000     
    9644.500 8.35930000       82.61390000      10.35410000      -999.25000000    7.13220000       84.71810000     
    9645.000 7.58480000       86.26820000      10.38400000      -999.25000000    6.65290000       84.99080000     
    9645.500 6.88200000       87.38520000      10.35000000      -999.25000000    6.64650000       84.80680000     
    9646.000 6.60060000       81.28820000      10.32350000      -999.25000000    7.03120000       82.42880000     
    9646.500 6.89800000       80.02030000      10.32330000      -999.25000000    7.43620000       81.31510000     
    9647.000 7.31760000       80.77180000      10.31390000      -999.25000000    7.78570000       80.82870000     
    9647.500 7.90970000       81.52270000      10.28180000      -999.25000000    9.00750000       79.47950000     
    9648.000 9.03080000       78.50880000      10.24980000      -999.25000000    12.72390000      77.40160000     
    9648.500 13.70500000      75.49490000      10.21770000      -999.25000000    15.54650000      76.67590000     
    9649.000 18.04610000      73.61060000      10.20210000      -999.25000000    17.72310000      76.13290000     
    9649.500 18.69450000      73.23230000      10.17180000      -999.25000000    18.27950000      74.05340000     
    9650.000 17.29970000      75.11300000      10.14150000      -999.25000000    18.14980000      71.59820000     
    9650.500 14.98050000      67.83040000      10.11130000      -999.25000000    16.76070000      71.35040000     
    9651.000 12.13480000      64.02120000      10.11110000      -999.25000000    14.63160000      73.46730000     
    9651.500 10.70920000      61.86610000      10.11100000      -999.25000000    12.91180000      76.47970000     
    9652.000 9.71690000       61.55140000      10.08070000      -999.25000000    10.48420000      79.12680000     
    9652.500 9.44980000       64.17280000      10.08060000      -999.25000000    9.38120000       78.76010000     
    9653.000 9.19000000       70.72420000      10.11050000      -999.25000000    9.12260000       74.92320000     
    9653.500 9.98620000       73.59410000      10.10770000      -999.25000000    10.47790000      71.81680000     
    9654.000 17.63320000      64.79610000      10.08010000      -999.25000000    16.88840000      70.53700000     
    9654.500 24.43260000      63.61640000      10.08000000      -999.25000000    23.39270000      72.44830000     
    9655.000 36.57480000      66.74750000      10.07980000      -999.25000000    35.38570000      76.48540000     
    9655.500 42.82490000      73.20940000      10.07970000      -999.25000000    43.09050000      78.15060000     
