~Version Information Block
 VERS.                2.00:     CWLS LOG ASCII STANDARD - VERSION 2.000000
 WRAP.                  NO:     One Line Per Depth Step
#
~Well Information Block
#MNEM.UNIT                     Data                         Information
#----------   ------------------------------------------   ----------------
 STRT.F                                        31.0000:     START DEPTH
 STOP.F                                     15936.0000:     STOP DEPTH
 STEP.F                                         0.5000:     STEP
 NULL.                                       -999.2500:     NULL VALUE
 COMP.                             AMERCN QUASAR PETRO:     COMPANY
 WELL.                                    SCOTT UNIT 1:     WELL
 FLD .                                         WILDCAT:     FIELD
 LOC .        Survey  PSL              - Abs  6331     - Blk  45   - Section  19:     LOCATION
 CNTY.                                              TX:     COUNTY
 STAT.                                              TX:     STATE
 CTRY.                        UNITED STATES OF AMERICA:     COUNTRY
 SRVC.                                      GEOGRAPHIX:     SERVICE COMPANY
 DATE.                                                :     DATE
 API .                                  42109313620000:     API NUMBER
 UWI .                                  42109313620000:     UWI NUMBER
 TVD .                                              NO:     TVD flag
 WSTA.                                             LOC:     Well status
#
~Curve Information Block
#MNEM.UNIT       API CODE      Curve Description
#----------    -------------   -------------------
 DEPT.F                    :   Depth in Feet
 LLD .OHMM                 :   LATEROLOG DEEP
 GRS .GAPI                 :   GAMMA RAY FROM SONIC LOG
 CALS.IN                   :   CALIPER FROM SONIC LOG
 MSFL.OHMM                 :   MICRO SPHERICALLY FOCUSED
 LLS .OHMM                 :   LATEROLOG SHALLOW
 DT  .US/F                 :   DELTA TIME
#
~Parameter Information Block
#MNEM.UNIT            Value               Description
#----------    --------------------    -------------------
 RUN .                         ONE:    Run Number
 PDAT.                          GL:    Permanent Datum
 EPD .FT                          :    Elevation Of Perm. Datum
 LMF .               KELLY BUSHING:    Log Measured From
 EKB .FT                          :    Elevation Of Kelly Bushing
 DF .FT                           :    Elevation Of Derrick Floor
 GL .FT                           :    Elevation Of Ground Level
 TD  .FT                          :    Total Depth
 CSGD.FT                          :    Casing Bottom (Driller) 1
 CSGL.FT                          :    Casing Bottom (Logger) 1
 MUD .                            :    Drilling Fluid Type
 MUDV .CP                         :    Drilling Fluid Viscosity
 MUDD .LB/USG                     :    Drilling Fluid Density
 FL .ML/30MIN                     :    Drilling Fluid Loss
 PH.                              :    Drilling Fluid Ph
 MUDS .                           :    Mud Sample Source
 RM .OHMM                         :    Resistivity Of Mud Sample
 RMT .DEGF                        :    Mud Sample Temperature
 RMF .OHMM                        :    Mud Filtrate Resistivity
 RMFT.DEGF                        :    Mud Filtrate Sample Temperature
 RMC .OHMM                        :    Mud Cake Resistivity
 RMCT.DEGF                        :    Mud Cake Sample Temperature
 RMB .OHMM                        :    Mud Resistivity At Bht
 TMAX .DEGF                       :    Bottom Hole Temperature
#
~Other Information Block
<DescLogPlotStart>   NEURALOG PLOT DEFINITION
PLOTDEFVERSION: 3
LASFILE: E:\Nair Innovations\42_TEXAS\109_Culberson\42109313620000_1.las
DEPTHSCALE: 239.999996
RESOLUTION: 200
DEPTHLABELFREQ: 100.000000
HEAVYGRIDFREQ: 50.000000
MEDIUMGRIDFREQ: 50.000000
LIGHTGRIDFREQ: 10.000000
#
#   TRACK 1
#
STARTTRACK: 
 LEFTX: 0.500000 inch
 RIGHTX: 3.000000 inch
 SCALETYPE: Linear
 NUMCHARTDIVISIONS: 10
CURVE: GRS   1.504600   250.000000 (0,0,255)      Solid             2     N    
CURVE: CALS  6.474400   14.873500  (0,131,131)    Solid             2     N    
ENDTRACK: 
#
#   TRACK 2
#
STARTTRACK: 
 LEFTX: 3.500000 inch
 RIGHTX: 6.000000 inch
 SCALETYPE: Log
 NUMCYCLES: 4
 STARTCYCLE: 2
CURVE: LLS   0.200000   2000.000000 (255,0,0)      Solid             4     Y   
BACKUP: 2000.000000 20000000.000000 (255,0,0)      Solid             4    
BACKUP: 0.000020   0.200000   (255,0,0)      Solid             4    
CURVE: MSFL  0.200000   2000.000000 (0,131,131)    Solid             2     N   
ENDTRACK: 
#
#   TRACK 3
#
STARTTRACK: 
 LEFTX: 6.500000 inch
 RIGHTX: 9.000000 inch
 SCALETYPE: Linear
 NUMCHARTDIVISIONS: 10
CURVE: LLD   0.200000   2000.000000 (255,0,255)    Solid             4     N   
CURVE: DT    190.000000 50.000000  (255,0,131)    Solid             2     N    
ENDTRACK: 
<DescLogPlotEnd>
<DepthTrack type='Reference' track='1' Label='0' color='0' hor='0' />
<Reference font='144,0,-900,0,500,0,16777216,Arial' />
~A DEPTH     LLD              GRS              CALS             MSFL             LLS              DT              
# ...
    8711.000 41.09350000      82.41400000      10.69130000      -999.25000000    43.74010000      70.18780000     
    8711.500 38.84270000      78.68980000      10.62940000      -999.25000000    40.81360000      71.09930000     
    8712.000 37.75760000      64.38250000      10.57830000      -999.25000000    38.61400000      71.49320000     
    8712.500 37.74470000      56.09940000      10.59090000      -999.25000000    37.55900000      68.44730000     
    8713.000 37.73190000      56.09940000      10.66710000      -999.25000000    37.55900000      66.52770000     
    8713.500 38.79000000      56.09940000      10.69880000      -999.25000000    38.63780000      65.15610000     
    8714.000 41.07520000      56.09940000      10.74660000      -999.25000000    41.05830000      64.42370000     
    8714.500 43.58080000      47.81630000      10.75900000      -999.25000000    46.03570000      63.86730000     
    8715.000 48.31080000      44.79210000      10.75900000      -999.25000000    49.87090000      63.30210000     
    8715.500 53.07140000      44.05120000      10.75900000      -999.25000000    51.14950000      62.60420000     
    8716.000 56.20520000      43.67470000      10.75900000      -999.25000000    51.90910000      61.71300000     
    8716.500 61.21210000      42.53610000      10.78920000      -999.25000000    53.09950000      61.10340000     
    8717.000 65.23230000      37.73230000      10.84940000      -999.25000000    53.45920000      60.76420000     
    8717.500 72.62320000      36.89760000      10.93980000      -999.25000000    55.01010000      60.41550000     
    8718.000 84.96090000      37.65060000      10.93980000      -999.25000000    60.14860000      60.03770000     
    8718.500 97.36160000      37.65060000      10.87660000      -999.25000000    71.02410000      59.70500000     
    8719.000 110.39550000     37.84410000      10.84480000      -999.25000000    77.17850000      59.23190000     
    8719.500 118.35840000     36.48930000      10.81930000      -999.25000000    83.86610000      58.55860000     
    8720.000 105.78390000     35.61690000      10.81930000      -999.25000000    87.42420000      57.82620000     
    8720.500 91.93520000      45.93370000      10.81930000      -999.25000000    88.64340000      57.45910000     
    8721.000 72.44210000      54.96990000      10.81930000      -999.25000000    80.45280000      59.92310000     
    8721.500 58.70270000      60.61750000      10.81930000      -999.25000000    67.87620000      61.56520000     
    8722.000 54.60680000      62.76010000      10.81930000      -999.25000000    59.75800000      61.74610000     
    8722.500 49.93420000      57.22890000      10.81930000      -999.25000000    53.04690000      61.92690000     
    8723.000 41.97030000      58.73490000      10.81930000      -999.25000000    43.93400000      62.29480000     
    8723.500 31.41290000      65.13550000      10.78920000      -999.25000000    36.84270000      63.06800000     
    8724.000 26.80930000      69.75190000      10.75900000      -999.25000000    28.65820000      65.77910000     
    8724.500 23.45400000      72.28920000      10.72890000      -999.25000000    23.40940000      69.36970000     
    8725.000 21.30610000      71.40910000      10.69880000      -999.25000000    21.43460000      69.58930000     
    8725.500 18.27290000      69.86080000      10.66870000      -999.25000000    21.12090000      69.37660000     
    8726.000 14.19820000      67.45360000      10.66870000      -999.25000000    18.79150000      69.18650000     
    8726.500 12.54350000      64.62750000      10.69880000      -999.25000000    13.29190000      69.66130000     
    8727.000 12.19300000      62.20360000      10.69880000      -999.25000000    11.89780000      69.89990000     
    8727.500 13.25680000      59.94010000      10.69880000      -999.25000000    11.73410000      69.84650000     
    8728.000 17.04960000      56.08580000      10.69880000      -999.25000000    13.47730000      68.84710000     
    8728.500 21.32210000      51.48420000      10.69880000      -999.25000000    20.70460000      67.38420000     
    8729.000 25.92920000      48.19280000      10.72890000      -999.25000000    24.11740000      65.46460000     
    8729.500 31.53180000      47.06330000      10.73930000      -999.25000000    25.13500000      63.72770000     
    8730.000 23.74280000      48.56930000      10.77110000      -999.25000000    19.85790000      61.99070000     
    8730.500 19.52530000      56.85240000      10.78920000      -999.25000000    17.44120000      63.99810000     
    8731.000 19.03050000      60.24100000      10.81930000      -999.25000000    16.82060000      65.27480000     
    8731.500 20.50310000      56.85240000      10.78920000      -999.25000000    20.26850000      65.82100000     
    8732.000 29.85030000      42.54520000      10.75900000      -999.25000000    28.46250000      64.03870000     
    8732.500 42.83850000      36.12040000      10.72890000      -999.25000000    30.93880000      60.73740000     
    8733.000 43.40440000      34.63860000      10.72890000      -999.25000000    30.72090000      60.51890000     
    8733.500 37.86750000      42.61780000      10.69880000      -999.25000000    25.37670000      61.35750000     
    8734.000 29.67400000      49.35100000      10.72890000      -999.25000000    19.31930000      62.62540000     
    8734.500 25.50760000      59.45770000      10.81930000      -999.25000000    16.82060000      64.85170000     
    8735.000 21.22460000      69.28160000      10.93980000      -999.25000000    15.05640000      68.48080000     
    8735.500 18.18960000      75.08650000      10.93980000      -999.25000000    13.29190000      70.22020000     
    8736.000 16.03120000      77.49520000      10.93980000      -999.25000000    11.89780000      70.82740000     
    8736.500 13.93240000      76.65300000      10.90960000      -999.25000000    11.10170000      70.45990000     
    8737.000 12.98630000      74.90350000      10.87370000      -999.25000000    10.64700000      70.36680000     
    8737.500 12.80140000      73.95090000      10.84940000      -999.25000000    10.34740000      70.63900000     
    8738.000 12.79710000      72.66570000      10.84940000      -999.25000000    10.21650000      70.81990000     
    8738.500 14.19190000      69.65360000      10.84940000      -999.25000000    11.56100000      70.54410000     
    8739.000 17.06080000      66.26510000      10.84940000      -999.25000000    14.26850000      69.44650000     
    8739.500 19.46910000      64.00600000      10.83500000      -999.25000000    15.33820000      68.53150000     
    8740.000 21.69470000      61.74700000      10.81930000      -999.25000000    15.69520000      67.52510000     
    8740.500 22.36320000      59.48800000      10.81930000      -999.25000000    15.47930000      66.77070000     
    8741.000 21.38740000      58.35840000      10.81930000      -999.25000000    14.94750000      66.69960000     
    8741.500 19.72990000      57.98190000      10.81930000      -999.25000000    13.66520000      67.74980000     
    8742.000 17.13500000      62.68140000      10.81930000      -999.25000000    12.23200000      68.31220000     
    8742.500 13.77720000      66.55240000      10.81930000      -999.25000000    10.79840000      69.41110000     
    8743.000 11.40070000      71.55280000      10.81930000      -999.25000000    10.07590000      70.16730000     
    8743.500 10.62640000      75.60060000      10.81930000      -999.25000000    9.40180000       70.60040000     
    8744.000 10.77300000      72.97710000      10.78920000      -999.25000000    9.01910000       70.79820000     
    8744.500 11.38910000      67.58510000      10.75780000      -999.25000000    9.66590000       70.60420000     
    8745.000 12.38270000      63.41180000      10.72890000      -999.25000000    10.81830000      69.36450000     
    8745.500 13.46300000      56.89020000      10.69880000      -999.25000000    12.09650000      67.96130000     
