###############################################
##         ENVERUS                           ##
##         ESS - Open Hole                   ##
##         PERMIAN / DELAWARE                ##
##         Nov 02 2023  V4.0                 ##
##         42-109-30915-00-00                ##
###############################################
## Copyright 2017-2023  ENVERUS.  All Rights Reserved. 
## Confidential - Property of ENVERUS, use governed by terms and 
## conditions found within the existing Information Services Subscription Agreement 
## (as may be amended, the “ISSA”) between Customer and ENVERUS. 
## 
~VERSION INFORMATION
# MNEM.UNIT                               DATA : DESCRIPTION OF MNEMONIC
#-----.-----     ----------------------------- : -----------------------------
VERS.                                     2.00 : CWLS LOG ASCII STANDARD - VERSION 2.00
WRAP.                                       NO : MULTIPLE LINES PER DEPTH STEP
VEND.                                  ENVERUS : VENDOR
TYPE.                          ESS - OPEN HOLE : ENVERUS ESSENTIAL CURVES – ACCESSIBLE THROUGH ENVERUS PRISM(TM)
DOC.                                  32305988 : ENVERUS HEADER RAW DOCUMENT ID
#___________________________________________________________________________________________________ 
~WELL INFORMATION 
# YiEbrulvYUtXh1D3opxUtnvhUVpPAvxlEBgV2kjbCTHvWrxGcz1+vOa1jEIuqGtoxi0rQ+ZQV9RU/rHAPCAAKQ== 
# MNEM.UNIT                                              DATA : DESCRIPTION OF MNEMONIC 
#-----.-----                    ----------------------------- : ----------------------------- 
CNTY.                                               CULBERSON : COUNTY 
STATE.                                                  TEXAS : STATE 
CNTRY.                                                    USA : COUNTRY 
API.                                             42-109-30915 : API (10 Digit) 
API_14.                                    42-109-30915-00-00 : API (14 Digits) 
API_14_std.                                 42-109-30915-0000 : API (14 Digits Standard) 
UWI.                                           42109309150000 : UNIQUE WELL ID 
WELL.                             VELMA CASEY ROUNSAVILLE A 1 : WELL NAME
STRT.FT                                                  82.0 : START DEPTH
STOP.FT                                               11225.0 : STOP DEPTH
STEP.FT                                                   0.5 : STEP BETWEEN DEPTHS
NULL.                                                 -999.25 : NULL VALUE
#___________________________________________________________________________________________________ 
~CURVE INFORMATION 
# MNEM.UNIT           : CURVE DESCRIPTION 
#-----.-----          : ----------------------------- 
 DEPT.FT               : MEASURED DEPTH 
 CALI.IN               : CALIPER (CAL - CAL) 
 GR.API                : GAMMA RAY (GR) 
 DT.US/FT              : SONIC DELTA TRANSIT TIME (DT) 
 NPHI.V/V              : NEUTRON POROSITY (NPHI) 
 RHOB.G/CC             : BULK DENSITY (RHOB) 
 #___________________________________________________________________________________________________ 
~A         DEPT           CALI             GR             DT           NPHI           RHOB
# ...
         8574.0          7.480         41.915         54.954        0.02112         2.6855
         8574.5          7.480         40.929         53.461        0.01964         2.6931
         8575.0          7.479         40.818         51.967        0.01815         2.7006
         8575.5          7.479         40.707         50.474        0.01667         2.7082
         8576.0          7.478         40.596         49.466        0.01518         2.7157
         8576.5          7.478         40.486         49.666        0.01370         2.7229
         8577.0          7.478         40.375         49.867        0.01221         2.7239
         8577.5          7.477         41.649         50.068        0.01073         2.7250
         8578.0          7.478         44.038         50.269        0.01099         2.7261
         8578.5          7.479         46.428         50.469        0.01180         2.7272
         8579.0          7.481         48.818         50.670        0.01260         2.7283
         8579.5          7.482         51.207         50.602        0.01341         2.7294
         8580.0          7.483         53.919         50.339        0.01422         2.7304
         8580.5          7.484         56.797         50.075        0.01549         2.7241
         8581.0          7.485         59.676         49.811        0.02353         2.7066
         8581.5          7.486         62.554         50.598        0.03158         2.6891
         8582.0          7.487         65.433         52.384        0.03962         2.6716
         8582.5          7.488         68.311         54.171        0.04767         2.6542
         8583.0          7.489         71.189         55.957        0.05571         2.6367
         8583.5          7.490         74.068         57.743        0.06291         2.6192
         8584.0          7.491         75.971         59.530        0.06184         2.6017
         8584.5          7.492         75.420         61.316        0.06077         2.5842
         8585.0          7.493         74.870         61.795        0.05969         2.5902
         8585.5          7.494         74.319         61.733        0.05862         2.5964
         8586.0          7.496         73.769         61.670        0.05755         2.6027
         8586.5          7.497         73.218         61.430        0.05648         2.6089
         8587.0          7.498         72.668         58.858        0.05540         2.6151
         8587.5          7.499         71.380         56.286        0.05433         2.6214
         8588.0          7.500         67.422         54.022        0.04977         2.6276
         8588.5          7.501         63.464         53.702        0.04482         2.6338
         8589.0          7.502         59.506         53.382        0.03988         2.6401
         8589.5          7.503         55.548         53.063        0.03493         2.6463
         8590.0          7.504         51.591         52.774        0.02998         2.6445
         8590.5          7.505         50.906         52.847        0.02503         2.6412
         8591.0          7.506         53.672         52.921        0.02641         2.6379
         8591.5          7.507         56.437         53.679        0.02846         2.6347
         8592.0          7.508         59.203         54.616        0.03052         2.6314
         8592.5          7.510         61.968         55.553        0.03228         2.6282
         8593.0          7.511         64.734         56.490        0.03313         2.6249
         8593.5          7.512         66.768         57.426        0.03398         2.6216
         8594.0          7.513         65.982         58.243        0.03482         2.6184
         8594.5          7.514         65.196         58.365        0.03567         2.6151
         8595.0          7.515         64.410         58.285        0.03652         2.6119
         8595.5          7.516         63.624         57.770        0.03737         2.6086
         8596.0          7.517         63.806         57.256        0.03822         2.6053
         8596.5          7.518         66.859         56.741        0.03907         2.6021
         8597.0          7.519         68.871         56.227        0.03992         2.5988
         8597.5          7.520         65.502         56.348        0.03787         2.5999
         8598.0          7.521         62.133         57.470        0.03555         2.6014
         8598.5          7.522         58.764         58.593        0.03323         2.6028
         8599.0          7.523         55.395         59.626        0.03090         2.6147
         8599.5          7.525         52.026         59.625        0.02858         2.6455
         8600.0          7.526         48.657         59.118        0.02656         2.6762
         8600.5          7.527         45.327         57.148        0.02514         2.6950
         8601.0          7.528         45.706         55.179        0.02372         2.6976
         8601.5          7.529         46.084         53.209        0.02229         2.7002
         8602.0          7.530         46.462         51.240        0.02087         2.7028
         8602.5          7.531         46.840         50.141        0.01945         2.7091
         8603.0          7.532         47.218         49.787        0.01803         2.7159
         8603.5          7.533         47.597         49.433        0.01661         2.7227
         8604.0          7.534         47.975         49.556        0.01518         2.7199
         8604.5          7.535         48.353         49.773        0.01376         2.7150
         8605.0          7.536         48.102         49.990        0.01362         2.7101
         8605.5          7.537         47.351         50.208        0.01425         2.7052
         8606.0          7.538         46.601         50.193        0.01488         2.7021
         8606.5          7.540         46.606         50.080        0.01550         2.7073
         8607.0          7.541         46.894         49.966        0.01613         2.7125
         8607.5          7.542         47.182         49.853        0.01851         2.7177
         8608.0          7.543         47.470         49.740        0.02095         2.7229
         8608.5          7.544         47.759         49.857        0.02339         2.7152
         8609.0          7.545         52.630         50.071        0.02583         2.6990
         8609.5          7.546         58.686         51.774        0.02826         2.6828
         8610.0          7.547         64.306         53.702        0.03070         2.6666
         8610.5          7.548         60.355         54.798        0.03314         2.6503
         8611.0          7.549         56.403         54.399        0.03558         2.6651
         8611.5          7.550         52.451         53.597        0.03774         2.6842
         8612.0          7.551         48.499         52.796        0.03583         2.7032
         8612.5          7.552         48.141         52.746        0.03391         2.7113
         8613.0          7.553         49.050         52.815        0.03199         2.7027
         8613.5          7.555         49.958         52.885        0.03008         2.6942
         8614.0          7.556         51.042         53.248        0.02816         2.6857
         8614.5          7.557         52.730         53.758        0.02624         2.6771
         8615.0          7.558         54.417         54.089        0.02432         2.6686
         8615.5          7.559         56.105         54.089        0.02241         2.6718
         8616.0          7.560         57.793         53.905        0.02049         2.6803
         8616.5          7.561         59.481         53.718        0.01857         2.6887
         8617.0          7.562         61.169         53.531        0.02002         2.6971
         8617.5          7.563         62.857         53.344        0.02707         2.7025
