###############################################
##         ENVERUS                           ##
##         ESS - Open Hole                   ##
##         PERMIAN / DELAWARE                ##
##         Nov 02 2023  V4.0                 ##
##         42-109-31408-00-00                ##
###############################################
## Copyright 2017-2023  ENVERUS.  All Rights Reserved. 
## Confidential - Property of ENVERUS, use governed by terms and 
## conditions found within the existing Information Services Subscription Agreement 
## (as may be amended, the “ISSA”) between Customer and ENVERUS. 
## 
~VERSION INFORMATION
# MNEM.UNIT                               DATA : DESCRIPTION OF MNEMONIC
#-----.-----     ----------------------------- : -----------------------------
VERS.                                     2.00 : CWLS LOG ASCII STANDARD - VERSION 2.00
WRAP.                                       NO : MULTIPLE LINES PER DEPTH STEP
VEND.                                  ENVERUS : VENDOR
TYPE.                          ESS - OPEN HOLE : ENVERUS ESSENTIAL CURVES – ACCESSIBLE THROUGH ENVERUS PRISM(TM)
DOC.                                  31850517 : ENVERUS HEADER RAW DOCUMENT ID
#___________________________________________________________________________________________________ 
~WELL INFORMATION 
# bqLd+XSZJOn45CI61XVoQu+UOVndmKoY6sdO6/bnbKn7IExcVbobTFa2ZjWyWmdO1mIol927X6bTh1nHm93KmQ== 
# MNEM.UNIT                                              DATA : DESCRIPTION OF MNEMONIC 
#-----.-----                    ----------------------------- : ----------------------------- 
CNTY.                                               CULBERSON : COUNTY 
STATE.                                                  TEXAS : STATE 
CNTRY.                                                    USA : COUNTRY 
API.                                             42-109-31408 : API (10 Digit) 
API_14.                                    42-109-31408-00-00 : API (14 Digits) 
API_14_std.                                 42-109-31408-0000 : API (14 Digits Standard) 
UWI.                                           42109314080000 : UNIQUE WELL ID 
WELL.                                           CASTILE 48  1 : WELL NAME
STRT.FT                                                2207.0 : START DEPTH
STOP.FT                                               11710.0 : STOP DEPTH
STEP.FT                                                   0.5 : STEP BETWEEN DEPTHS
NULL.                                                 -999.25 : NULL VALUE
COMP.                                         TENNECO OIL CO. : COMPANY 
DATE.                                             28-APR-1980 : LOG DATE
#___________________________________________________________________________________________________ 
~CURVE INFORMATION 
# MNEM.UNIT           : CURVE DESCRIPTION 
#-----.-----          : ----------------------------- 
 DEPT.FT               : MEASURED DEPTH 
 CALI.IN               : CALIPER (CAL - CAL) 
 GR.API                : GAMMA RAY (GR) 
 DT.US/FT              : SONIC DELTA TRANSIT TIME (DT) 
 RESS.OHMM             : SHALLOW INDUCTION RESISTIVITY (ILS - ILS) 
 RESD.OHMM             : DEEP INDUCTION RESISTIVITY (ILD - ILD) 
 #___________________________________________________________________________________________________ 
~A         DEPT           CALI             GR             DT           RESS           RESD
# ...
        10391.0         12.493         86.814         76.444         16.421         16.534
        10391.5         12.487         87.642         76.100         16.599         16.780
        10392.0         12.481         88.396         75.757         16.776         17.026
        10392.5         12.475         88.097         75.676         17.270         17.272
        10393.0         12.470         87.799         76.132         17.820         17.518
        10393.5         12.464         87.501         76.588         17.919         17.765
        10394.0         12.458         87.202         77.044         17.133         17.241
        10394.5         12.452         86.904         77.500         16.477         16.247
        10395.0         12.446         86.606         77.095         17.028         16.512
        10395.5         12.441         86.307         75.532         17.580         16.916
        10396.0         12.435         86.009         73.969         18.132         17.319
        10396.5         12.429         85.711         73.535         18.683         17.723
        10397.0         12.423         85.845         74.295         17.515         17.264
        10397.5         12.418         86.303         75.055         16.244         15.932
        10398.0         12.412         86.760         75.814         15.199         14.599
        10398.5         12.406         87.217         76.574         14.153         14.357
        10399.0         12.400         87.674         77.333         14.230         14.399
        10399.5         12.394         88.132         77.999         14.321         14.441
        10400.0         12.389         88.051         77.905         15.209         14.483
        10400.5         12.383         87.199         77.812         15.197         14.525
        10401.0         12.377         86.348         77.718         15.076         14.599
        10401.5         12.371         85.496         77.625         14.955         14.677
        10402.0         12.366         84.644         77.531         14.835         14.754
        10402.5         12.360         83.792         77.437         14.794         14.832
        10403.0         12.354         83.397         77.344         14.855         14.910
        10403.5         12.348         84.171         77.250         14.915         14.987
        10404.0         12.342         84.945         77.156         14.976         15.065
        10404.5         12.337         85.719         77.063         15.036         15.145
        10405.0         12.331         86.493         76.969         15.096         15.228
        10405.5         12.331         86.643         76.763         15.157         15.311
        10406.0         12.339         84.748         76.535         15.217         15.395
        10406.5         12.347         82.853         76.307         15.278         15.478
        10407.0         12.355         80.958         76.079         15.338         15.561
        10407.5         12.362         81.943         75.851         15.399         15.644
        10408.0         12.370         83.232         76.170         15.459         15.373
        10408.5         12.378         84.520         76.529         14.650         14.662
        10409.0         12.386         85.808         76.888         13.829         13.952
        10409.5         12.394         87.097         77.246         13.008         13.242
        10410.0         12.402         87.129         77.605         13.016         12.556
        10410.5         12.410         86.934         77.996         13.111         12.784
        10411.0         12.417         86.738         79.050         13.206         13.012
        10411.5         12.425         86.542         79.208         13.301         13.240
        10412.0         12.433         86.346         78.701         13.552         13.468
        10412.5         12.441         86.150         78.194         13.804         13.696
        10413.0         12.449         85.955         77.687         14.057         13.924
        10413.5         12.419         85.759         77.180         14.309         14.143
        10414.0         12.389         85.563         76.672         14.561         14.319
        10414.5         12.358         85.367         76.408         14.814         14.495
        10415.0         12.328         85.980         76.250         15.066         14.671
        10415.5         12.297         86.808         76.523         15.038         14.730
        10416.0         12.267         87.635         76.951         14.671         14.452
        10416.5         12.236         88.462         77.379         14.305         14.174
        10417.0         12.206         89.289         77.808         13.939         13.895
        10417.5         12.175         90.117         78.236         13.573         13.661
        10418.0         12.144         90.944         78.664         13.207         13.515
        10418.5         12.114         91.771         78.940         12.841         13.370
        10419.0         12.098         91.855         78.940         12.834         13.224
        10419.5         12.104         90.725         78.523         12.954         13.079
        10420.0         12.110         89.594         78.051         13.074         12.933
        10420.5         12.117         88.463         77.580         13.194         12.787
        10421.0         12.123         87.332         77.894         13.314         12.642
        10421.5         12.129         86.927         79.137         13.434         12.496
        10422.0         12.135         87.768         80.379         13.554         12.350
        10422.5         12.142         88.609         79.802         13.674         12.646
        10423.0         12.013         89.442         77.469         13.794         13.069
        10423.5         11.816         88.414         75.137         14.336         13.871
        10424.0         11.620         87.386         72.804         15.267         15.441
        10424.5         11.520         86.358         70.472         16.199         17.012
        10425.0         11.530         85.330         70.755         17.130         17.607
        10425.5         11.539         85.690         72.532         17.457         16.764
        10426.0         11.548         87.191         74.310         16.609         15.922
        10426.5         11.558         88.693         76.087         15.761         15.080
        10427.0         11.567         90.194         77.864         14.913         15.297
        10427.5         11.577         91.503         77.704         15.372         15.924
        10428.0         11.586         89.313         76.751         16.399         16.552
        10428.5         11.596         87.123         75.799         17.426         17.180
        10429.0         11.605         84.933         74.846         18.453         17.807
        10429.5         11.615         83.202         73.893         19.480         18.435
        10430.0         11.624         83.736         77.012         19.029         18.539
        10430.5         11.634         84.270         77.358         18.515         18.304
        10431.0         11.654         84.804         76.949         18.000         18.068
        10431.5         11.683         85.338         76.541         17.316         17.833
        10432.0         11.711         84.876         76.132         16.276         17.096
        10432.5         11.739         83.961         76.270         15.237         15.722
        10433.0         11.768         83.047         77.154         14.197         14.348
        10433.5         11.796         82.791         78.038         13.157         13.825
        10434.0         11.825         83.786         78.151         13.105         13.607
        10434.5         11.853         84.782         78.235         13.245         13.389
