# Exported from Transform Software 5.2.0 on 21-Oct-2019 by user kathryn.gehrke
# DI Transform - A Product of Drillinginfo, Inc. - www.drillinginfo.com
#
~VERSION INFORMATION
 VERS.        2.0 : LAS ASCII STANDARD - VERSION 2.0
 WRAP.         NO : ONE LINE PER DEPTH STEP

~WELL INFORMATION
#MNEM.UNIT       DATA TYPE       INFORMATION
#---------       ---------       -----------
 STRT.ft                  30 : Start Depth
 STOP.ft                9000 : Stop Depth
 STEP.ft                 0.5 : Step Length
 NULL.               -999.25 : Null Value
 COMP.                       : Company
 WELL.  42109330470000_API14 : Well Name
 FLD.                        : Field Name
 LOC.                        : Well Location
 CNTY.                       : County
 STAT.                       : State or Province
 CTRY.                       : Country
 SRVC.                       : Service Company
 DATE.                       : Date
 API.         42109330470000 : Well Identifier

~CURVE INFORMATION
#MNEM.UNIT       API CODE       CURVE DESCRIPTION
#---------       --------       -----------------
 DEPT.ft        : <Measured Depth>
 DT.us/ft       : Sonic
 GR.gAPI        : Gamma Ray

~PARAMETER INFORMATION
#MNEM.UNIT       VALUE       DESCRIPTION
#---------       -----       -----------
 EKB.ft      3201 : Elevation above MSL

~A      DEPT          DT          GR
# ...
        7191    326.0123     65.3188
      7191.5    326.0123     62.3439
        7192    326.0123     57.6061
      7192.5    326.0123     54.4723
        7193    326.0123     66.0253
      7193.5    326.0123     91.4621
        7194    326.0123    103.2399
      7194.5    326.0123     96.8274
        7195    326.0123     91.1078
      7195.5    326.0123     89.9255
        7196    326.0123     81.0206
      7196.5    326.0123      57.735
        7197    326.0123     42.3615
      7197.5    326.0123     40.9966
        7198    326.0123     48.3199
      7198.5    326.0123     55.9715
        7199    326.0123     61.9965
      7199.5    326.0123       53.01
        7200    326.0123     36.0141
      7200.5    326.0123     27.1389
        7201    326.0123      27.371
      7201.5    326.0123     26.9564
        7202    326.0123     24.0663
      7202.5    326.0123     22.5919
        7203    326.0123     22.8546
      7203.5    326.0123     22.5919
        7204    326.0123     22.0665
      7204.5    326.0123     23.9299
        7205    326.0123     32.6766
      7205.5    326.0123     50.4358
        7206    326.0123     68.4588
      7206.5    326.0123     74.3164
        7207    326.0123     64.8841
      7207.5    326.0123     60.9738
        7208    326.0123     63.2566
      7208.5    326.0123     52.4514
        7209    326.0123     36.7177
      7209.5    326.0123     32.4197
        7210    326.0123      40.943
      7210.5    326.0123     55.4927
        7211    326.0123     61.9965
      7211.5    326.0123     59.8619
        7212    326.0123     52.5271
      7212.5    326.0123      46.387
        7213    326.0123     44.0777
      7213.5    326.0123     41.8446
        7214    326.2192     43.3056
      7214.5    326.0123     52.8756
        7215    326.0123     61.9587
      7215.5    326.0123     63.7225
        7216    326.0123     57.5101
      7216.5    326.0123     50.8495
        7217    326.0123     50.2892
      7217.5    326.0123     55.0182
        7218    326.0123     56.6851
      7218.5    326.0123     55.5028
        7219    326.0123     54.8458
      7219.5    326.0123     47.8717
        7220    326.0123     33.2173
      7220.5    326.0123     26.5324
        7221    326.0123     26.5911
      7221.5    326.0123     30.9711
        7222    326.0123     42.3861
      7222.5    326.0123     50.2937
        7223    326.0123     51.2259
      7223.5    326.0123     50.0557
        7224    326.0123     46.1148
      7224.5    326.0123     44.6585
        7225    326.0123     47.9315
      7225.5    326.0123     50.7005
        7226    325.8371     51.5494
      7226.5    325.8371     55.9355
        7227    325.8371     65.7173
      7227.5    325.8371     69.8074
        7228    325.8782     74.5895
      7228.5    326.0123     81.6292
        7229    326.0123     79.4733
      7229.5    326.0123     75.5324
        7230    325.8371     67.6643
      7230.5    325.8371     57.2803
        7231    325.8371     52.4138
      7231.5    326.0123      48.804
        7232    326.0123     44.9943
      7232.5    326.0123     45.8361
        7233    326.0123     48.6626
      7233.5    326.0123     51.6162
        7234    326.0123     56.9346
      7234.5    326.0123     58.9784
        7235    326.0123     54.7748
      7235.5    326.0123     54.3116
        7236    326.0123     57.4625
      7236.5    326.0123     58.8441
        7237    326.0123     56.3494
      7237.5    326.0123     55.0346
        7238    326.0123     59.5665
      7238.5    326.0123     61.2739
        7239    326.0123     53.9819
      7239.5    326.0123     43.0799
        7240    326.0123     44.0731
      7240.5    326.0123     64.5063
        7241    326.0123     84.7271
      7241.5    326.0123      84.647
        7242    326.0123     69.2717
      7242.5    326.0123     56.6075
        7243    326.0123     58.3269
      7243.5    326.0123     64.4966
        7244    326.0123      64.818
      7244.5    326.0123     63.5727
        7245    326.0123       68.05
      7245.5    325.8371     75.9943
        7246    325.8371     75.1872
      7246.5    325.8371      64.734
        7247    325.8371     56.5345
      7247.5    325.8371     54.1156
        7248    325.8371      51.542
      7248.5    326.0123     46.9442
        7249    326.0123     40.5075
      7249.5    326.0123     37.5047
        7250    326.0123     46.5366
      7250.5    325.8371     60.4408
        7251    325.8371     61.0664
      7251.5    325.8371     60.5627
        7252    325.8371     67.6559
      7252.5    325.8371     64.3968
        7253    325.8371      58.056
      7253.5    325.8371     67.5045
        7254    325.8371      82.467
      7254.5    325.8371     86.8079
        7255    325.8371     79.5694
      7255.5    325.8371     73.2053
        7256    325.8371     64.1852
      7256.5    325.8371      55.808
        7257    325.8371     58.0137
      7257.5    325.8371     65.8216
        7258    325.8371     67.5131
      7258.5    325.8371     67.4559
        7259    325.8371     68.6382
      7259.5    325.8371     70.8144
        7260    325.8371     78.9945
      7260.5    325.8371     91.3989
        7261    325.8371     94.3457
      7261.5    325.8371     78.3189
        7262    325.8371     60.3417
      7262.5    325.8371     51.1302
        7263    325.8371     49.8016
      7263.5    325.8371     56.0515
        7264    325.8371     56.2509
      7264.5    325.8371     48.7634
        7265    325.8371      48.227
      7265.5    325.8371     53.1643
        7266    325.8371     57.7621
      7266.5    325.8371     65.4042
        7267    325.8371     74.9162
      7267.5    325.8371     74.4557
        7268    325.8371     56.0986
      7268.5    325.8371     39.4078
        7269    325.8371       36.75
      7269.5    325.8371     42.6613
        7270    325.8371     50.8317
      7270.5    325.8371     63.7315
        7271    325.8371     77.7081
      7271.5    325.8371     81.2253
        7272    325.8371     74.5503
      7272.5    325.8371     68.2447
        7273    325.8371      60.363
      7273.5    325.8371     55.6918
        7274    325.8371     60.8224
      7274.5    325.8371     69.4625
        7275    325.8371     74.8687
      7275.5    325.8371     72.3423
        7276    325.8371     67.6134
      7276.5    325.8371     62.6716
        7277    325.8371     53.6079
      7277.5    325.8371     50.2893
        7278    325.8371     59.2379
      7278.5    325.8371     67.8249
        7279    325.8371     60.2707
      7279.5    325.8371      51.586
        7280    325.8371     53.9217
      7280.5    325.8371      58.678
        7281    325.8371     50.2841
      7281.5    325.8371     45.6136
        7282    325.8371     49.6381
      7282.5    325.8371     53.8054
        7283    325.8371       50.28
      7283.5    325.8371     42.9607
        7284    325.8371     41.9379
      7284.5    325.8371     49.4166
        7285    325.8371     61.4474
      7285.5    325.8371     75.8586
        7286    325.8371     83.1896
      7286.5    325.8371     72.6081
        7287    325.8371      57.713
      7287.5    325.8371     57.8745
        7288    325.8371     72.4917
      7288.5    325.8371     87.1632
        7289    325.8371     95.5322
      7289.5    325.8371     89.3378
        7290    325.8371     73.2977
      7290.5    325.8371     64.9303
        7291    325.8371     62.2597
      7291.5    325.8371     55.3851
        7292    325.8371     50.9632
      7292.5    325.8371     51.4453
        7293    325.8371     56.3073
      7293.5    325.8371     65.2398
        7294    325.8371     71.7195
      7294.5    325.8371     71.5812
        7295    326.0716     59.7125
      7295.5    326.1874     54.4725
        7296    325.8371      70.157
      7296.5    325.8371     78.1878
        7297    325.8371     64.9555
      7297.5    325.8371     57.6695
        7298    325.8371     67.7098
      7298.5    325.8371     76.7075
        7299    325.8371     68.9707
