###############################################
##         ENVERUS                           ##
##         ESS - Open Hole                   ##
##         PERMIAN / DELAWARE                ##
##         Nov 03 2023  V4.0                 ##
##         42-109-32508-00-00                ##
###############################################
## Copyright 2017-2023  ENVERUS.  All Rights Reserved. 
## Confidential - Property of ENVERUS, use governed by terms and 
## conditions found within the existing Information Services Subscription Agreement 
## (as may be amended, the “ISSA”) between Customer and ENVERUS. 
## 
~VERSION INFORMATION
# MNEM.UNIT                               DATA : DESCRIPTION OF MNEMONIC
#-----.-----     ----------------------------- : -----------------------------
VERS.                                     2.00 : CWLS LOG ASCII STANDARD - VERSION 2.00
WRAP.                                       NO : MULTIPLE LINES PER DEPTH STEP
VEND.                                  ENVERUS : VENDOR
TYPE.                          ESS - OPEN HOLE : ENVERUS ESSENTIAL CURVES – ACCESSIBLE THROUGH ENVERUS PRISM(TM)
DOC.                                  51093165 : ENVERUS HEADER RAW DOCUMENT ID
#___________________________________________________________________________________________________ 
~WELL INFORMATION 
# 1l9uGBxUQQhBCtjIwzslcirW42fLV8cokTOAxV7sfA093x4JFuWG6+twQwU/7oNL7vvW02EVanlAmdL+peO2nw== 
# MNEM.UNIT                                              DATA : DESCRIPTION OF MNEMONIC 
#-----.-----                    ----------------------------- : ----------------------------- 
CNTY.                                               CULBERSON : COUNTY 
STATE.                                                  TEXAS : STATE 
CNTRY.                                                    USA : COUNTRY 
API.                                             42-109-32508 : API (10 Digit) 
API_14.                                    42-109-32508-00-00 : API (14 Digits) 
API_14_std.                                 42-109-32508-0000 : API (14 Digits Standard) 
UWI.                                           42109325080000 : UNIQUE WELL ID 
WELL.                                  LT. GIBSON 12 STATE 1H : WELL NAME
STRT.FT                                                1970.5 : START DEPTH
STOP.FT                                                8727.0 : STOP DEPTH
STEP.FT                                                   0.5 : STEP BETWEEN DEPTHS
NULL.                                                 -999.25 : NULL VALUE
PREV_APII.                                     42109325080000 : WELL IDENTIFIER
#___________________________________________________________________________________________________ 
~PARAMETER INFORMATION 
# MNEM.UNIT                                              DATA : DESCRIPTION OF MNEMONIC 
#-----.-----                    ----------------------------- : ----------------------------- 
EKB.FT                                                   3552 : ELEVATION ABOVE MSL
#___________________________________________________________________________________________________ 
~CURVE INFORMATION 
# MNEM.UNIT           : CURVE DESCRIPTION 
#-----.-----          : ----------------------------- 
 DEPT.FT               : MEASURED DEPTH 
 GR__A.API             : GAMMA RAY (GAMMA RAY) 
 DT__A.US/FT           : SONIC DELTA TRANSIT TIME (SONIC) 
 #___________________________________________________________________________________________________ 
~A         DEPT          GR__A          DT__A
# ...
         3797.5        265.172        107.610
         3798.0        266.406        101.035
         3798.5        274.287         97.642
         3799.0        304.924         97.577
         3799.5        302.824         98.591
         3800.0        274.360        104.877
         3800.5        269.161        103.088
         3801.0        255.897         99.940
         3801.5        213.606         99.220
         3802.0        182.085        105.025
         3802.5        185.249        106.293
         3803.0        216.025        106.094
         3803.5        227.453        106.043
         3804.0        206.247        107.083
         3804.5        195.160        110.916
         3805.0        180.249        115.470
         3805.5        166.193        115.400
         3806.0        161.480        114.116
         3806.5        177.922        110.767
         3807.0        240.228        107.535
         3807.5        264.756        114.878
         3808.0        239.928        117.523
         3808.5        199.661        118.701
         3809.0        172.256        115.801
         3809.5        177.738        107.614
         3810.0        164.751        112.688
         3810.5        142.771        118.178
         3811.0        120.173        122.434
         3811.5        112.037        121.212
         3812.0        109.331        117.518
         3812.5        119.770        109.628
         3813.0        159.173        104.184
         3813.5        200.550        105.917
         3814.0        199.065        108.107
         3814.5        191.642        110.544
         3815.0        190.124        110.480
         3815.5        186.211        109.942
         3816.0        169.106        110.137
         3816.5        158.978        110.526
         3817.0        158.052        110.074
         3817.5        166.809        108.705
         3818.0        167.045        108.382
         3818.5        158.801        106.088
         3819.0        145.935        104.209
         3819.5        146.595        103.704
         3820.0        150.801        104.463
         3820.5        140.953        108.450
         3821.0        114.890        119.860
         3821.5        101.346        129.261
         3822.0         94.141        124.159
         3822.5         96.351        117.138
         3823.0        107.313        104.557
         3823.5        109.544         93.225
         3824.0         99.639         88.169
         3824.5         92.862         88.676
         3825.0        103.361         91.813
         3825.5        106.766         91.486
         3826.0        105.078         90.234
         3826.5        108.157         88.164
         3827.0        125.189         89.568
         3827.5        150.781         92.546
         3828.0        125.781         91.508
         3828.5        125.000         87.287
         3829.0         99.424         86.355
         3829.5         97.656         86.520
         3830.0        103.933         87.667
         3830.5        120.396         89.820
         3831.0        175.281         95.073
         3831.5        198.300         96.101
         3832.0        170.525         96.101
         3832.5        146.751         95.327
         3833.0        105.904         94.932
         3833.5         98.516         95.522
         3834.0        129.741         97.721
         3834.5        140.380        102.404
         3835.0        123.798        105.068
         3835.5        122.531        104.798
         3836.0        138.146        102.901
         3836.5        150.109        101.532
         3837.0        144.469         99.743
         3837.5        133.062         95.890
         3838.0        119.840         89.978
         3838.5        112.759         84.730
         3839.0        112.680         81.092
         3839.5        117.188         81.975
         3840.0        116.295         83.932
         3840.5        111.750         88.332
         3841.0        107.813        100.302
         3841.5        106.369        112.366
         3842.0        104.051        117.688
         3842.5        112.204        117.782
         3843.0        135.521        110.975
         3843.5        159.163        106.738
         3844.0        169.104        105.760
         3844.5        170.724        104.678
         3845.0        163.293        100.685
         3845.5        165.839         97.259
         3846.0        210.205         94.842
         3846.5        261.253         99.464
         3847.0        271.856        105.017
         3847.5        266.093        107.174
         3848.0        269.680        103.146
         3848.5        245.601         97.941
         3849.0        182.083         97.453
         3849.5        126.980        103.711
         3850.0        106.047        106.129
         3850.5         98.867        118.300
         3851.0         89.360        131.158
         3851.5         87.982        144.017
         3852.0         88.589        150.909
         3852.5         91.108        151.104
         3853.0         95.570        130.447
         3853.5        101.603        116.616
         3854.0        132.601        102.835
         3854.5        157.825         99.826
         3855.0        171.297         96.347
         3855.5        151.012         94.165
         3856.0        139.132         93.762
         3856.5        146.038         95.108
         3857.0        148.049        100.195
         3857.5        133.410        112.699
         3858.0        108.112        117.162
         3858.5        108.141        109.996
         3859.0        130.299         89.906
         3859.5        132.740         71.711
         3860.0        139.940         68.055
         3860.5        164.806         72.350
         3861.0        216.471         84.921
         3861.5        205.497         92.153
         3862.0        166.355         93.762
         3862.5        137.001         93.222
         3863.0        122.656         95.077
         3863.5        133.233         98.013
         3864.0        138.899         99.805
         3864.5        142.821        100.390
         3865.0        146.094        100.000
         3865.5        142.279         97.970
         3866.0        133.156         93.471
         3866.5        125.082         91.849
         3867.0        115.985         95.451
         3867.5        109.204        101.582
         3868.0        111.686        105.799
         3868.5        120.059        103.559
         3869.0        137.303         98.051
         3869.5        160.220         95.212
         3870.0        169.775         92.187
         3870.5        170.703         89.035
         3871.0        164.681         84.698
         3871.5        138.102         80.698
         3872.0        112.402         77.778
         3872.5         99.658         79.484
         3873.0         97.006         88.955
         3873.5        103.419        103.145
         3874.0        108.366        109.617
         3874.5        115.382        100.948
         3875.0        129.106         89.327
         3875.5        137.801         86.806
         3876.0        139.682         90.327
         3876.5        153.694         95.530
         3877.0        168.230        100.327
         3877.5        171.099        103.842
         3878.0        161.719        105.629
         3878.5        163.610        106.823
         3879.0        179.663        105.669
         3879.5        210.462        103.007
         3880.0        269.923         94.955
         3880.5        319.361         88.896
         3881.0        389.063         86.748
         3881.5        346.013         95.348
         3882.0        314.690        101.365
         3882.5        306.615        101.170
         3883.0        295.659        102.389
         3883.5        253.704        108.897
         3884.0        192.298        114.865
