#   WellGreen Tech Inc.   Digitizing Services
#   www.wellgreentech.com
#   email: sales@wellgreentech.com
#
~Version Information Block
 VERS.                2.00:     CWLS LOG ASCII STANDARD - VERSION 2.000000
 WRAP.                  NO:     One Line Per Depth Step
#
~Well Information Block
#MNEM.UNIT                     Data                         Information
#----------   ------------------------------------------   ----------------
 STRT.FT                                      400.0000:     START DEPTH
 STOP.FT                                    10100.0000:     STOP DEPTH
 STEP.FT                                        0.5000:     STEP
 NULL.                                       -999.2500:     NULL VALUE
 COMP.                       ENRON OIL AND GAS COMPANY:     COMPANY
 WELL.                                   TXL "1" NO. 1:     WELL
 FLD .                                         WILDCAT:     FIELD
 LOC .                                              63:     LOCATION
 CNTY.                                       CULBERSON:     COUNTY
 STAT.                                           TEXAS:     STATE
 CTRY.                                             USA:     COUNTRY
 SRVC.                                    SCHLUMBERGER:     SERVICE COMPANY
 DATE.                                      06/28/1989:     DATE
 API .               42109320330000:    API NUMBER
 UWI .               42109320330000:    UWI NUMBER
 TVD .                                              NO:     TVD flag
 MATRIX .G/CC                  :    Matrix Density
#
~Curve Information Block
#MNEM.UNIT       API CODE      Curve Description
#----------    -------------   -------------------
 DEPT.FT                   :   Depth in Feet
 GR  .API      35 310 01 01:   Gamma Ray
 CALI.INCHES   70 280 01 01:   Caliper
 DT  .US/FT    60 520 08 01:   Delta T
 SPHI.V/V      61 890 01 01:   Sonic Porosity
#
~Parameter Information Block
#MNEM.UNIT            Value               Description
#----------    --------------------    -------------------
 RUN .                         ONE:    Run Number
 PDAT.                          GL:    Permanent Datum
 EPD .FT                 3890.3000:    Elevation Of Perm. Datum
 LMF .               KELLY BUSHING:    Log Measured From
 EKB .FT                 3905.1000:    Elevation Of Kelly Bushing
 DF .FT                  3904.1000:    Elevation Of Derrick Floor
 GL .FT                  3890.3000:    Elevation Of Ground Level
 TD .FT                  10100.0000:    Total Depth
 BHT .DEGF               193.00 :  Bottom Hole Temperature
 BLI .FT               10100.0000:   Bottom Log Interval
 CSGSIZE.IN              9.6250:   Casing Size
 BITSIZE.IN               8.750 :  BitSize
 CSGD.FT                      405:    Casing Bottom (Driller) 1
 CSGL.FT                      405:    Casing Bottom (Logger) 1
 MUD .                      SW GEL:    Drilling Fluid Type
 MUDV .CP                  34.0000:    Drilling Fluid Viscosity
 MUDD .LB/USG               9.1000:    Drilling Fluid Density
 FL .ML/30MIN               8.0000:    Drilling Fluid Loss
 PH.                       10.0000:    Drilling Fluid Ph
 MUDS .                  CIRC TANK:    Mud Sample Source
 RM .OHMM                   0.1720:    Resistivity Of Mud Sample
 RMT .DEGF                 75.0000:    Mud Sample Temperature
 RMF .OHMM                  0.1720:    Mud Filtrate Resistivity
 RMFT.DEGF                 75.0000:    Mud Filtrate Sample Temperature
 RMB .OHMM                  0.0710:    Mud Resistivity At Bht
 TMAX .DEGF               193.0000:    Bottom Hole Temperature
#
~Other Information Block
<DescLogPlotStart>   NEURALOG PLOT DEFINITION
PLOTDEFVERSION: 3
LASFILE: D:\nds\projects\20MAY19H\las\42109320330000_BEG_RAS_RS0022815370.las
DEPTHSCALE: 240.000000
RESOLUTION: 400
DEPTHLABELFREQ: 100.000000
HEAVYGRIDFREQ: 100.000000
MEDIUMGRIDFREQ: 50.000000
LIGHTGRIDFREQ: 10.000000
#
#   TRACK 1
#
STARTTRACK: 
 LEFTX: 0.500000 inch
 RIGHTX: 3.000000 inch
 SCALETYPE: Linear
 NUMCHARTDIVISIONS: 10
CURVE: GR    0.000000   125.000000 (0,0,255)      Solid             2     Y    
BACKUP: 125.000000 250.000000 (0,0,255)      Solid             2    
ENDTRACK: 
#
#   TRACK 2
#
STARTTRACK: 
 LEFTX: 0.500000 inch
 RIGHTX: 3.000000 inch
 SCALETYPE: Linear
 NUMCHARTDIVISIONS: 10
CURVE: CALI  6.000000   16.000000  (0,131,131)    Solid             2     N    
ENDTRACK: 
#
#   TRACK 3
#
STARTTRACK: 
 LEFTX: 3.500000 inch
 RIGHTX: 8.500000 inch
 SCALETYPE: Linear
 NUMCHARTDIVISIONS: 10
CURVE: DT    100.000000 40.000000  (255,0,255)    Solid             2     Y    
BACKUP: 160.000000 100.000000 (255,0,255)    Solid             2    
CURVE: SPHI  0.300000   -0.100000  (255,0,0)      Dot               2     Y    
BACKUP: 0.700000   0.300000   (255,0,0)      Dot               2    
BACKUP: -0.100000  -0.500000  (255,0,0)      Dot               2    
ENDTRACK: 
<DescLogPlotEnd>
~A DEPTH     GR               CALI             DT               SPHI            
# ...
    8122.000 11.03            9.43             47.04            -0.01           
    8122.500 12.58            9.44             47.93            0.01            
    8123.000 15.89            9.46             48.52            0.01            
    8123.500 20.90            9.48             53.00            0.06            
    8124.000 29.26            9.50             59.39            0.13            
    8124.500 41.56            9.51             59.93            0.12            
    8125.000 53.86            9.59             69.48            0.15            
    8125.500 66.18            10.36            85.07            0.22            
    8126.000 72.55            11.15            92.10            0.29            
    8126.500 72.23            11.58            86.10            0.30            
    8127.000 70.78            10.92            82.28            0.27            
    8127.500 70.20            10.19            74.64            0.22            
    8128.000 70.58            10.71            65.68            0.16            
    8128.500 70.95            12.00            64.82            0.15            
    8129.000 71.32            13.49            78.94            0.24            
    8129.500 72.23            13.12            83.13            0.27            
    8130.000 74.09            11.96            83.25            0.27            
    8130.500 76.10            10.78            83.24            0.26            
    8131.000 77.49            10.24            83.67            0.26            
    8131.500 77.93            10.75            81.04            0.25            
    8132.000 78.38            11.68            84.01            0.27            
    8132.500 78.83            12.65            92.17            0.29            
    8133.000 78.74            12.00            99.56            0.29            
    8133.500 77.20            10.89            83.94            0.26            
    8134.000 75.65            10.17            67.29            0.15            
    8134.500 74.61            10.12            63.59            0.15            
    8135.000 76.66            11.43            68.76            0.19            
    8135.500 79.36            12.93            79.57            0.22            
    8136.000 80.74            13.61            93.25            0.28            
    8136.500 79.57            14.04            99.72            0.30            
    8137.000 78.20            14.60            97.55            0.30            
    8137.500 77.66            14.09            88.44            0.29            
    8138.000 79.17            12.29            83.56            0.25            
    8138.500 80.82            10.28            67.49            0.19            
    8139.000 80.14            9.35             60.12            0.13            
    8139.500 78.39            9.17             58.94            0.12            
    8140.000 75.67            9.15             59.68            0.12            
    8140.500 74.14            9.15             62.37            0.14            
    8141.000 73.60            9.15             65.07            0.16            
    8141.500 73.24            9.16             66.37            0.18            
    8142.000 72.58            9.16             64.09            0.17            
    8142.500 71.39            9.16             61.82            0.14            
    8143.000 70.13            9.16             61.07            0.14            
    8143.500 69.85            9.16             65.87            0.16            
    8144.000 70.33            9.17             68.24            0.18            
    8144.500 70.39            9.17             68.88            0.19            
    8145.000 68.47            9.17             65.92            0.18            
    8145.500 64.93            9.17             62.26            0.15            
    8146.000 63.39            9.18             59.52            0.13            
    8146.500 63.92            9.18             59.05            0.12            
    8147.000 66.79            9.18             60.65            0.13            
    8147.500 68.95            9.19             63.52            0.16            
    8148.000 70.55            9.19             67.84            0.18            
    8148.500 72.16            9.20             72.67            0.20            
    8149.000 73.10            9.20             71.12            0.21            
    8149.500 71.78            9.20             67.44            0.19            
    8150.000 68.87            9.21             62.35            0.14            
    8150.500 66.00            9.21             59.14            0.12            
    8151.000 65.82            9.21             60.78            0.13            
    8151.500 67.03            9.22             63.84            0.15            
    8152.000 67.67            9.22             66.89            0.18            
    8152.500 67.23            9.23             69.78            0.20            
    8153.000 66.29            9.23             72.01            0.21            
    8153.500 65.33            9.24             72.50            0.21            
    8154.000 65.27            9.25             69.61            0.20            
    8154.500 65.35            9.29             67.60            0.18            
    8155.000 65.42            9.33             68.49            0.19            
    8155.500 65.76            9.37             69.09            0.19            
    8156.000 67.01            9.34             65.66            0.17            
    8156.500 70.30            9.30             63.08            0.15            
    8157.000 76.15            9.29             60.51            0.13            
    8157.500 81.93            9.36             62.54            0.15            
    8158.000 86.50            9.43             67.08            0.17            
    8158.500 87.99            9.50             72.35            0.21            
    8159.000 88.25            9.57             75.97            0.23            
    8159.500 89.66            9.61             79.63            0.25            
    8160.000 91.22            9.60             81.16            0.26            
    8160.500 92.20            9.60             76.74            0.25            
    8161.000 91.89            9.59             71.03            0.21            
    8161.500 89.88            9.58             69.21            0.20            
    8162.000 86.24            9.61             64.95            0.17            
    8162.500 82.11            9.69             58.86            0.12            
    8163.000 78.37            9.77             63.70            0.15            
    8163.500 79.62            9.85             69.51            0.18            
    8164.000 81.09            9.95             72.29            0.21            
    8164.500 80.36            10.06            75.60            0.24            
    8165.000 78.34            10.29            82.64            0.26            
    8165.500 76.59            10.62            91.50            0.29            
    8166.000 77.41            10.90            89.74            0.30            
    8166.500 78.69            10.73            81.43            0.26            
    8167.000 80.64            10.58            70.69            0.23            
    8167.500 82.60            10.58            73.12            0.20            
    8168.000 82.99            10.64            77.76            0.23            
    8168.500 81.67            10.89            80.52            0.25            
    8169.000 80.37            11.38            79.38            0.25            
    8169.500 79.06            12.02            83.23            0.27            
    8170.000 78.29            12.65            85.95            0.28            
    8170.500 79.45            13.01            85.41            0.28            
    8171.000 81.80            13.03            86.36            0.28            
