###############################################
##         ENVERUS                           ##
##         ESS - Open Hole                   ##
##         PERMIAN / DELAWARE                ##
##         Nov 03 2023  V4.0                 ##
##         42-109-32620-90-00                ##
###############################################
## Copyright 2017-2023  ENVERUS.  All Rights Reserved. 
## Confidential - Property of ENVERUS, use governed by terms and 
## conditions found within the existing Information Services Subscription Agreement 
## (as may be amended, the “ISSA”) between Customer and ENVERUS. 
## 
~VERSION INFORMATION
# MNEM.UNIT                               DATA : DESCRIPTION OF MNEMONIC
#-----.-----     ----------------------------- : -----------------------------
VERS.                                     2.00 : CWLS LOG ASCII STANDARD - VERSION 2.00
WRAP.                                       NO : MULTIPLE LINES PER DEPTH STEP
VEND.                                  ENVERUS : VENDOR
TYPE.                          ESS - OPEN HOLE : ENVERUS ESSENTIAL CURVES – ACCESSIBLE THROUGH ENVERUS PRISM(TM)
DOC.                                  51092952 : ENVERUS HEADER RAW DOCUMENT ID
#___________________________________________________________________________________________________ 
~WELL INFORMATION 
# LYPeWtxrle9FodilXqet+3VuPRh8A73lGXm1Q3+VPjdIM+tEhu367IfA47DlYFnVF+yDwY76OrXOyADpoj01xA== 
# MNEM.UNIT                                              DATA : DESCRIPTION OF MNEMONIC 
#-----.-----                    ----------------------------- : ----------------------------- 
CNTY.                                               CULBERSON : COUNTY 
STATE.                                                  TEXAS : STATE 
CNTRY.                                                    USA : COUNTRY 
API.                                             42-109-32620 : API (10 Digit) 
API_14.                                    42-109-32620-90-00 : API (14 Digits) 
API_14_std.                                 42-109-32620-9000 : API (14 Digits Standard) 
UWI.                                           42109326209000 : UNIQUE WELL ID 
WELL.                               42109326200000_PREV_API14 : WELL NAME
STRT.FT                                                2339.0 : START DEPTH
STOP.FT                                               10866.0 : STOP DEPTH
STEP.FT                                                   0.5 : STEP BETWEEN DEPTHS
NULL.                                                 -999.25 : NULL VALUE
PREV_APII.                                     42109326200000 : WELL IDENTIFIER
#___________________________________________________________________________________________________ 
~PARAMETER INFORMATION 
# MNEM.UNIT                                              DATA : DESCRIPTION OF MNEMONIC 
#-----.-----                    ----------------------------- : ----------------------------- 
EKB.FT                                                   3330 : ELEVATION ABOVE MSL
#___________________________________________________________________________________________________ 
~CURVE INFORMATION 
# MNEM.UNIT           : CURVE DESCRIPTION 
#-----.-----          : ----------------------------- 
 DEPT.FT               : MEASURED DEPTH 
 GR__A.API             : GAMMA RAY (GAMMA RAY) 
 DT__A.US/FT           : SONIC DELTA TRANSIT TIME (SONIC) 
 #___________________________________________________________________________________________________ 
~A         DEPT          GR__A          DT__A
# ...
        10256.0        195.726         55.508
        10256.5        176.096         62.396
        10257.0        210.712        143.402
        10257.5        252.770         27.988
        10258.0        252.696         26.300
        10258.5        209.352         39.769
        10259.0        205.053         46.759
        10259.5        212.737         55.275
        10260.0        202.996         54.904
        10260.5        177.424         55.939
        10261.0        186.247         64.811
        10261.5        233.563         40.381
        10262.0        253.961         22.583
        10262.5        257.988         24.144
        10263.0        241.882         16.889
        10263.5        224.647         21.005
        10264.0        214.304         27.261
        10264.5        187.003         49.593
        10265.0        184.421         42.573
        10265.5        206.115         28.084
        10266.0        212.702         29.543
        10266.5        211.976         50.333
        10267.0        219.720         49.476
        10267.5        239.866         36.597
        10268.0        251.729         31.397
        10268.5        248.073         31.514
        10269.0        239.478         34.944
        10269.5        235.047         24.961
        10270.0        225.528         39.678
        10270.5        215.731         31.719
        10271.0        201.649         51.880
        10271.5        190.186         53.388
        10272.0        209.021         47.004
        10272.5        224.882         37.022
        10273.0        221.325         52.548
        10273.5        214.510         63.408
        10274.0        224.033         73.520
        10274.5        249.225         53.820
        10275.0        270.408         30.339
        10275.5        276.942         17.014
        10276.0        261.165         16.016
        10276.5        242.127         26.265
        10277.0        241.134         35.565
        10277.5        242.277         38.784
        10278.0        235.806         41.724
        10278.5        223.902         45.177
        10279.0        210.628         41.419
        10279.5        181.990         93.083
        10280.0        163.796        103.310
        10280.5        128.822        104.830
        10281.0        123.947         96.652
        10281.5        133.201        119.118
        10282.0        126.161        129.183
        10282.5         91.268        144.988
        10283.0         68.445        156.812
        10283.5         69.649        148.292
        10284.0         84.536        141.598
        10284.5        115.198        128.997
        10285.0        167.896        131.845
        10285.5        231.408         83.288
        10286.0        265.552         25.604
        10286.5        303.491         14.022
        10287.0        298.403         16.997
        10287.5        273.702         24.056
        10288.0        257.124         29.187
        10288.5        236.471         32.993
        10289.0        236.154         16.541
        10289.5        242.089         25.396
        10290.0        243.513         20.662
        10290.5        254.920         18.214
        10291.0        279.276         14.004
        10291.5        295.181         10.987
        10292.0        291.455         15.797
        10292.5        280.448          8.613
        10293.0        277.445         17.119
        10293.5        292.768          0.607
        10294.0        293.839          6.205
        10294.5        291.812          9.369
        10295.0        295.010         -2.110
        10295.5        290.840         11.347
        10296.0        282.708         25.106
        10296.5        272.728        108.526
        10297.0        271.538         91.193
        10297.5        252.654        170.448
        10298.0        209.829        139.343
        10298.5        142.039        109.090
        10299.0        130.432         77.543
        10299.5        163.372         71.998
        10300.0        186.986         80.720
        10300.5        234.127         57.600
        10301.0        265.274         45.813
        10301.5        307.040         21.187
        10302.0        316.006         21.028
        10302.5        272.598         32.612
        10303.0        223.445         44.227
        10303.5        202.619         52.150
        10304.0        195.963         43.722
        10304.5        201.619         14.263
        10305.0        220.209         30.814
        10305.5        204.049         42.349
        10306.0        196.034         60.289
        10306.5        223.382         56.304
        10307.0        261.391         14.053
        10307.5        240.462          1.305
        10308.0        215.647         52.540
        10308.5        211.413         45.537
        10309.0        233.738         15.563
        10309.5        238.725         19.111
        10310.0        235.644         17.629
        10310.5        235.896         16.403
        10311.0        249.548         15.883
        10311.5        251.243         19.441
        10312.0        242.433         18.442
        10312.5        237.924         17.639
        10313.0        235.264         35.525
        10313.5        206.723         50.698
        10314.0        188.034         61.669
        10314.5        156.160         84.138
        10315.0        180.882         29.976
        10315.5        244.441         47.506
        10316.0        253.974         44.329
        10316.5        224.729        131.917
        10317.0        196.407        145.450
        10317.5        222.775         19.792
        10318.0        267.089         17.104
        10318.5        299.768         21.539
        10319.0        313.402         10.047
        10319.5        263.046          0.837
        10320.0        235.293         32.485
        10320.5        223.137         43.884
        10321.0        255.651         45.046
        10321.5        285.825          8.241
        10322.0        297.423          6.612
        10322.5        276.973         14.491
        10323.0        289.148         15.336
        10323.5        317.959         10.328
        10324.0        347.551         13.645
        10324.5        349.801         16.806
        10325.0        337.696          6.483
        10325.5        326.352        -11.306
        10326.0        304.568        -10.020
        10326.5        280.374          0.712
        10327.0        254.990          9.690
        10327.5        235.266         32.273
        10328.0        223.496         37.942
        10328.5        215.014         43.729
        10329.0        192.481         72.227
        10329.5        157.594        122.700
        10330.0        146.946        122.161
        10330.5        200.708         81.245
        10331.0        241.328         80.957
        10331.5        240.553         40.639
        10332.0        235.529         48.343
        10332.5        234.645         40.801
        10333.0        235.130         30.426
        10333.5        234.535         22.602
        10334.0        225.872         35.887
        10334.5        226.385         23.753
        10335.0        236.516         17.854
        10335.5        254.440         17.268
        10336.0        269.768         12.523
        10336.5        315.624          8.425
        10337.0        353.184          8.293
        10337.5        364.870          1.450
        10338.0        355.452          8.758
        10338.5        335.694         10.932
        10339.0        307.184          3.115
        10339.5        281.454         -6.718
        10340.0        281.915         -4.865
        10340.5        300.480         22.605
        10341.0        310.631         19.464
        10341.5        299.225         26.711
        10342.0        293.795         -7.599
        10342.5        272.504         -2.342
