~Version Information
 VERS.                  2.0:   CWLS log ASCII Standard -VERSION 2.0
 WRAP.                   NO:   One line per depth step
~Well Information Block
#MNEM.UNIT     VALUE/NAME     DESCRIPTION
#---------     -----------    ---------------------------
 STRT.F              8650.0000: START DEPTH
 STOP.F             14150.0000: STOP DEPTH
 STEP.F                 0.5000: STEP DEPTH
 NULL.                 -999.25: NULL VALUE
 LOC .     A1759-SEC34-BLK58-T2-:  LOCATION
 FL4 .        API 42-109-33169:  LOCATIONLINE4
 FL2 .     T&P RR CO-337FSL-25:  LOCATIONLINE2
 FL1 .     A1759-SEC34-BLK58-T2-:  LOCATIONLINE1
 DMF .                      KB:  DRILL MEAS FROM
 PDAT.                      GL:  PERMANENT DATUM
 CNTY.               CULBERSON:  COUNTY NAME
 FLD .     FORD, WEST (WOLFCAMP):  FIELD NAME
 WELL.         ALICE FEE 34 2H:  WELL NAME
 COMP.     CAPITAN ENERGY INC.:  COMPANY
 DATE.             27-Mar-2018:  DATE
 SVCO.             Halliburton:  SERVICECONAME
 PROV.                   TEXAS:  PROVINCE
 STAT.                   TEXAS:  STATE NAME
 CTRY.                     USA:  COUNTRY NAME
 HIDE.                        :  WELLNAMEOPERAT
 BASI.                 PERMIAN:  BASIN
 UWI .            42-109-33169LAT:  UNIQUE WELL IDENTIFIER
 API .            42-109-33169LAT:  API NUMBER
 RANG.                     N/A:  RANGE
 TOWN.                     N/A:  TOWNSHIP
 SECT.                     N/A:  SECTION
 SRVC.             Halliburton:  SERVICE COMPANY
 LMF .                      KB:  LOG MEASURED FROM
 TVDS.ft             3088.0000:  TVDSS CORRECTN
 EGL .ft             3063.0000:  GROUND ELEVATION
 APD .ft               25.0000:  DEPTH ABOVE PD
 EPD .ft             3063.0000:  ELEVATION
 BAP .ft                0.0000:  GL ELEV ONSHORE
 GVFD.g                 1.0000:  GRAVITY FIELD
 EKB .ft             3088.0000:  KB ELEVATION
 EDF .ft             3087.0000:  DF ELEVATION
~Curve Information Block
#MNEM.UNIT                 API CODE     Curve Description
#---------               -----------    ---------------------------
 DEPT.F                 00 000 000 000:  Depth
 CCL .mV                00 000 000 000:  Casing Collar Locator
 NPHI_OH.pu             00 000 000 000:  NPHI_OH
 NPHI_CHI.pu            00 000 000 000:  NPHI_CHI
 GR_OH.api              00 000 000 000:  GR_OH
 GR_CHI.api             00 000 000 000:  GR_CHI
 RHOB_OH.g/cc           00 000 000 000:  RHOB_OH
 RHOB_CHI.g/cc          00 000 000 000:  RHOB_CHI
 PE_OH.b/e              00 000 000 000:  PE_OH
 PE_CHI.b/e             00 000 000 000:  PE_CHI
 MSFL_OH.ohmm           00 000 000 000:  MSFL_OH
 MSFL_CHI.ohmm          00 000 000 000:  MSFL_CHI
 LLS_OH.ohmm            00 000 000 000:  LLS_OH
 LLS_CHI.ohmm           00 000 000 000:  LLS_CHI
 LLD_OH.ohmm            00 000 000 000:  LLD_OH
 LLD_CHI.ohmm           00 000 000 000:  LLD_CHI
 DTC_OH.uspf            00 000 000 000:  DTC_OH
 DTC_CHI.uspf           00 000 000 000:  DTC_CHI
 SPHI_CHI.pu            00 000 000 000:  SPHI_CHI
 SGF .cu                00 000 000 000:  Formation Sigma
 CRNF.NONE              00 000 000 000:  CM GrsCaptRatio
 RIN .NONE              00 000 000 000:  CM GrsInelRatio
#Other Information
#
#WARRANTY: Halliburton will use its best efforts to furnish customers with 
#accurate information and interpretations that are part of, and incident to, the services 
#provided.  However, Halliburton cannot and does not warrant the accuracy 
#or correctness of such information and interpretations.  Under no circumstances should any 
#such information or interpretation be relied upon as the sole basis for any drilling, 
#completion, production, or financial decision or any procedure involving any risk to the 
#safety of any drilling venture, drilling rig or its crew or any other third party.  The 
#Customer has full responsibility for all drilling, completion and production operation.  
#Halliburton makes no representations or warranties, either expressed or 
#implied, including, but not limited to, the implied warranties of merchantability or fitness 
#for a particular purpose, with respect to the services rendered.  In no event will 
#Halliburton be liable for failure to obtain any particular results or for 
#any damages, including, but not limited to, indirect, special or consequential damages, 
#resulting from the use of any information or interpretation provided by Halliburton.
#
~A    DEPT       CCL    NPHI_OH NPHI_CHI  GR_OH    GR_CHI  RHOB_OH RHOB_CHI  PE_OH  PE_CHI  MSFL_OH   MSFL_CHI  LLS_OH   LLS_CHI   LLD_OH   LLD_CHI  DTC_OH  DTC_CHI SPHI_CHI   SGF    CRNF   RIN   
# ...
   12668.0000  -36.4670 -999.25  16.2589  -999.25 197.0344 -999.25   2.5131 -999.25 3.3002    -999.25  45.8672   -999.25  49.0385   -999.25  50.9184 -999.25 72.6182  17.6900 24.7742 0.7965 1.0682
   12668.5000    0.0000 -999.25  15.6183  -999.25 173.6644 -999.25   2.5212 -999.25 3.3231    -999.25  39.7671   -999.25  48.5705   -999.25  51.9826 -999.25 72.1228  17.3400 24.7358 0.7896 1.0675
   12669.0000    0.0000 -999.25  15.2717  -999.25 163.3912 -999.25   2.5259 -999.25 3.3339    -999.25  36.2062   -999.25  47.1513   -999.25  50.9558 -999.25 71.8440  17.1500 24.8227 0.7903 1.0675
   12669.5000    0.0000 -999.25  15.2867  -999.25 164.3890 -999.25   2.5257 -999.25 3.3334    -999.25  38.5200   -999.25  49.9583   -999.25  54.1475 -999.25 71.7694  17.0900 24.9724 0.7939 1.0692
   12670.0000    0.0000 -999.25  14.6717  -999.25 148.7912 -999.25   2.5342 -999.25 3.3517    -999.25  35.0384   -999.25  50.0982   -999.25  55.4436 -999.25 71.1127  16.6300 25.2716 0.7979 1.0709
   12670.5000    0.0000 -999.25  14.5345  -999.25 145.4392 -999.25   2.5362 -999.25 3.3500    -999.25  34.0958   -999.25  49.4388   -999.25  55.0697 -999.25 70.9464  16.5100 25.6522 0.8027 1.0735
   12671.0000    0.0000 -999.25  14.6103  -999.25 146.7562 -999.25   2.5354 -999.25 3.3326    -999.25  33.5699   -999.25  47.6986   -999.25  53.1259 -999.25 71.0392  16.5800 25.8123 0.8030 1.0745
   12671.5000    0.0000 -999.25  14.5748  -999.25 145.1232 -999.25   2.5361 -999.25 3.3160    -999.25  30.9178   -999.25  43.5485   -999.25  48.5947 -999.25 71.0509  16.5800 25.8891 0.8020 1.0744
   12672.0000    0.0000 -999.25  14.8578  -999.25 151.3516 -999.25   2.5322 -999.25 3.2995    -999.25  34.0219   -999.25  46.0370   -999.25  51.2774 -999.25 71.3234  16.7800 25.8448 0.8047 1.0766
   12672.5000    0.0000 -999.25  14.9214  -999.25 152.4346 -999.25   2.5312 -999.25 3.2968    -999.25  36.0922   -999.25  48.4025   -999.25  54.2171 -999.25 71.3407  16.7900 25.7196 0.8114 1.0782
   12673.0000    0.0000 -999.25  15.2063  -999.25 160.2080 -999.25   2.5273 -999.25 3.2852    -999.25  42.8502   -999.25  54.9451   -999.25  61.5474 -999.25 71.4835  16.8900 25.6033 0.8215 1.0831
   12673.5000    0.0000 -999.25  15.2411  -999.25 159.8180 -999.25   2.5264 -999.25 3.2943    -999.25  45.9333   -999.25  59.3342   -999.25  67.0611 -999.25 71.5080  16.9100 25.4571 0.8242 1.0859
   12674.0000    0.0000 -999.25  15.5824  -999.25 167.6236 -999.25   2.5213 -999.25 3.2929    -999.25  53.1122   -999.25  66.2061   -999.25  74.7036 -999.25 71.8408  17.1400 25.3449 0.8202 1.0851
   12674.5000    0.0000 -999.25  15.9046  -999.25 174.5216 -999.25   2.5166 -999.25 3.2951    -999.25  54.6042   -999.25  65.9647   -999.25  73.7458 -999.25 72.3042  17.4700 25.2600 0.8113 1.0827
   12675.0000    0.0000 -999.25  15.4005  -999.25 158.3406 -999.25   2.5234 -999.25 3.3191    -999.25  41.5338   -999.25  55.2541   -999.25  62.2136 -999.25 72.1228  17.3400 25.2674 0.8065 1.0770
   12675.5000    0.0000 -999.25  15.2900  -999.25 157.1924 -999.25   2.5252 -999.25 3.3218    -999.25  37.3639   -999.25  50.1318   -999.25  55.7654 -999.25 72.0498  17.2900 25.2706 0.8064 1.0716
   12676.0000    0.0000 -999.25  15.7468  -999.25 174.8020 -999.25   2.5198 -999.25 3.2990    -999.25  37.6087   -999.25  45.1035   -999.25  48.2092 -999.25 72.4197  17.5500 25.3506 0.8108 1.0665
   12676.5000    0.0000 -999.25  15.8062  -999.25 178.3438 -999.25   2.5193 -999.25 3.2946    -999.25  37.8009   -999.25  44.3524   -999.25  47.0070 -999.25 72.4322  17.5600 25.3575 0.8128 1.0656
   12677.0000    0.0000 -999.25  15.1594  -999.25 159.1892 -999.25   2.5279 -999.25 3.3106    -999.25  35.0484   -999.25  46.2086   -999.25  50.4394 -999.25 71.7531  17.0800 25.3821 0.8084 1.0678
   12677.5000    0.0000 -999.25  14.6619  -999.25 143.3912 -999.25   2.5344 -999.25 3.3334    -999.25  30.0406   -999.25  43.5218   -999.25  48.6838 -999.25 71.4082  16.8400 25.2277 0.8047 1.0710
   12678.0000    0.0000 -999.25  15.1447  -999.25 155.4252 -999.25   2.5275 -999.25 3.3186    -999.25  37.8535   -999.25  51.1461   -999.25  57.0441 -999.25 71.7636  17.0900 25.0907 0.8048 1.0744
   12678.5000    0.0000 -999.25  14.7626  -999.25 145.5312 -999.25   2.5328 -999.25 3.3336    -999.25  32.2680   -999.25  46.2705   -999.25  51.8929 -999.25 71.4744  16.8800 24.9602 0.8087 1.0722
   12679.0000    0.0000 -999.25  14.9458  -999.25 153.2272 -999.25   2.5307 -999.25 3.3266    -999.25  31.4863   -999.25  43.2557   -999.25  47.2409 -999.25 71.6451  17.0100 24.9187 0.8126 1.0681
   12679.5000    0.0000 -999.25  14.2200  -999.25 135.0122 -999.25   2.5407 -999.25 3.3637    -999.25  24.2262   -999.25  37.4165   -999.25  41.3524 -999.25 71.0601  16.5900 24.9327 0.8124 1.0655
   12680.0000    0.0000 -999.25  14.0727  -999.25 130.4762 -999.25   2.5426 -999.25 3.3770    -999.25  22.5450   -999.25  35.9471   -999.25  39.8804 -999.25 71.0048  16.5500 24.9836 0.8079 1.0643
   12680.5000    0.0000 -999.25  14.8441  -999.25 149.0792 -999.25   2.5318 -999.25 3.3441    -999.25  28.5111   -999.25  40.4585   -999.25  44.1509 -999.25 71.7146  17.0500 24.9845 0.8015 1.0639
   12681.0000    0.0000 -999.25  15.5457  -999.25 169.0632 -999.25   2.5224 -999.25 3.3166    -999.25  32.9807   -999.25  40.9900   -999.25  43.6862 -999.25 72.3385  17.5000 24.9090 0.7966 1.0622
   12681.5000    0.0000 -999.25  15.3654  -999.25 165.4916 -999.25   2.5250 -999.25 3.3191    -999.25  32.1527   -999.25  40.8909   -999.25  43.6248 -999.25 72.1042  17.3300 24.7911 0.7937 1.0575
   12682.0000    0.0000 -999.25  14.8904  -999.25 154.2170 -999.25   2.5316 -999.25 3.3360    -999.25  29.6450   -999.25  40.6429   -999.25  43.7774 -999.25 71.5798  16.9600 24.5289 0.7876 1.0530
   12682.5000    0.0000 -999.25  14.4803  -999.25 145.0904 -999.25   2.5374 -999.25 3.3527    -999.25  26.0888   -999.25  37.9475   -999.25  40.9808 -999.25 71.1875  16.6800 24.2285 0.7826 1.0487
   12683.0000    0.0000 -999.25  13.8584  -999.25 128.9898 -999.25   2.5458 -999.25 3.3911    -999.25  21.0861   -999.25  34.1108   -999.25  37.3580 -999.25 70.7154  16.3500 23.9433 0.7758 1.0490
   12683.5000    0.0000 -999.25  14.7706  -999.25 153.8690 -999.25   2.5330 -999.25 3.3623    -999.25  30.5896   -999.25  42.5854   -999.25  45.6931 -999.25 71.3273  16.7800 23.6604 0.7739 1.0510
   12684.0000    0.0000 -999.25  14.6827  -999.25 151.3784 -999.25   2.5338 -999.25 3.3826    -999.25  34.2689   -999.25  49.1009   -999.25  53.4413 -999.25 71.1199  16.6300 23.5508 0.7727 1.0555
   12684.5000    0.0000 -999.25  14.3194  -999.25 141.8096 -999.25   2.5384 -999.25 3.4181    -999.25  35.6742   -999.25  55.2326   -999.25  61.4038 -999.25 70.6984  16.3400 23.5008 0.7717 1.0595
   12685.0000    0.0000 -999.25  14.7270  -999.25 153.0320 -999.25   2.5324 -999.25 3.4121    -999.25  44.3115   -999.25  64.0441   -999.25  70.9527 -999.25 70.8992  16.4800 23.5132 0.7701 1.0613
   12685.5000    0.0000 -999.25  14.3069  -999.25 141.6018 -999.25   2.5381 -999.25 3.4370    -999.25  41.9939   -999.25  65.8418   -999.25  74.2614 -999.25 70.5294  16.2200 23.4220 0.7640 1.0591
   12686.0000    0.0000 -999.25  14.0822  -999.25 136.0118 -999.25   2.5413 -999.25 3.4479    -999.25  39.3578   -999.25  64.0609   -999.25  72.6650 -999.25 70.3415  16.0800 23.2146 0.7541 1.0537
   12686.5000    0.0000 -999.25  13.4300  -999.25 120.5352 -999.25   2.5506 -999.25 3.4880    -999.25  29.4830   -999.25  53.2944   -999.25  60.7760 -999.25 69.8633  15.7400 22.9357 0.7442 1.0463
   12687.0000    0.0000 -999.25  13.2796  -999.25 118.8640 -999.25   2.5528 -999.25 3.5041    -999.25  28.8675   -999.25  53.2180   -999.25  60.4340 -999.25 69.6639  15.6000 22.6506 0.7358 1.0403
   12687.5000    0.0000 -999.25  13.4126  -999.25 125.6160 -999.25   2.5510 -999.25 3.5024    -999.25  32.0398   -999.25  57.0796   -999.25  63.8345 -999.25 69.6233  15.5800 22.5368 0.7342 1.0368
   12688.0000    0.0000 -999.25  13.0346  -999.25 120.5898 -999.25   2.5566 -999.25 3.5256    -999.25  27.9290   -999.25  51.6600   -999.25  57.0802 -999.25 69.2158  15.2900 22.4506 0.7431 1.0335
