###############################################
##         ENVERUS                           ##
##         ESS - Open Hole                   ##
##         PERMIAN / DELAWARE                ##
##         Nov 02 2023  V4.0                 ##
##         42-109-32255-00-00                ##
###############################################
## Copyright 2017-2023  ENVERUS.  All Rights Reserved. 
## Confidential - Property of ENVERUS, use governed by terms and 
## conditions found within the existing Information Services Subscription Agreement 
## (as may be amended, the “ISSA”) between Customer and ENVERUS. 
## 
~VERSION INFORMATION
# MNEM.UNIT                               DATA : DESCRIPTION OF MNEMONIC
#-----.-----     ----------------------------- : -----------------------------
VERS.                                     2.00 : CWLS LOG ASCII STANDARD - VERSION 2.00
WRAP.                                       NO : MULTIPLE LINES PER DEPTH STEP
VEND.                                  ENVERUS : VENDOR
TYPE.                          ESS - OPEN HOLE : ENVERUS ESSENTIAL CURVES – ACCESSIBLE THROUGH ENVERUS PRISM(TM)
DOC.                                  22531479 : ENVERUS HEADER RAW DOCUMENT ID
#___________________________________________________________________________________________________ 
~WELL INFORMATION 
# hWe/832LbRsDOXT7erJRLf+k/AYA64twV/RtTeeHm/CkPExvlrAQ0qJE/El28xU0WYmlktkqeCNHArF5iUyCGg== 
# MNEM.UNIT                                              DATA : DESCRIPTION OF MNEMONIC 
#-----.-----                    ----------------------------- : ----------------------------- 
CNTY.                                               CULBERSON : COUNTY 
STATE.                                                  TEXAS : STATE 
CNTRY.                                                    USA : COUNTRY 
API.                                             42-109-32255 : API (10 Digit) 
API_14.                                    42-109-32255-00-00 : API (14 Digits) 
API_14_std.                                 42-109-32255-0000 : API (14 Digits Standard) 
UWI.                                           42109322550000 : UNIQUE WELL ID 
WELL.                               MELISSA TAYLOR STATE 27-1 : WELL NAME
STRT.FT                                                7612.0 : START DEPTH
STOP.FT                                               13645.5 : STOP DEPTH
STEP.FT                                                   0.5 : STEP BETWEEN DEPTHS
NULL.                                                 -999.25 : NULL VALUE
COMP.                                         PETRO-HUNT,LLC. : COMPANY 
FLD.                                                  WILDCAT : FIELD 
SRVC.                                            SCHLUMBERGER : SERVICE COMPANY 
DATE.                                              04/06/2006 : DATE 
TVD.                                                       NO : TVD FLAG
#___________________________________________________________________________________________________ 
~PARAMETER INFORMATION 
# MNEM.UNIT                                              DATA : DESCRIPTION OF MNEMONIC 
#-----.-----                    ----------------------------- : ----------------------------- 
RUN.                                                      ONE : RUN NUMBER 
PDAT.                                                      GL : PERMANENT DATUM 
EPD.FT                                               000.0000 : ELEVATION OF PERM. DATUM 
LMF.                                            KELLY BUSHING : LOG MEASURED FROM 
EKB.FT                                                 3796.6 : ELEVATION OF KELLY BUSHING 
DF.FT                                                  3773.0 : ELEVATION OF DERRICK FLOOR 
GL.FT                                                  3795.6 : ELEVATION OF GROUND LEVEL 
TD.FT                                              13716.0000 : TOTAL DEPTH 
BHT.DEGF                                               224.00 : BOTTOM HOLE TEMPERATURE 
BLI.FT                                             13716.0000 : BOTTOM LOG INTERVAL 
CSGSIZE.IN                                             9.6250 : CASING SIZE 
BITSIZE.IN                                              8.750 : BITSIZE 
CSGD.FT                                               12804.0 : CASING BOTTOM (DRILLER) 1 
CSGL.FT                                               12802.0 : CASING BOTTOM (LOGGER) 1 
MUD.                                                    BRINE : DRILLING FLUID TYPE 
MUDV.CP                                                  45.0 : DRILLING FLUID VISCOSITY 
MUDD.LB/USG                                               9.5 : DRILLING FLUID DENSITY 
PH.                                                      10.0 : DRILLING FLUID PH 
FL.ML/30MIN                                               5.0 : DRILLING FLUID LOSS 
MUDS.                                               CIRC TANK : MUD SAMPLE SOURCE 
RM.OHMM                                                 0.064 : RESISTIVITY OF MUD SAMPLE 
RMT.DEGF                                                66.00 : MUD SAMPLE TEMPERATURE 
RMF.OHMM                                                0.048 : MUD FILTRATE RESISTIVITY 
RMFT.DEGF                                               66.00 : MUD FILTRATE SAMPLE TEMPERATURE 
RMC.OHMM                                                0.095 : MUD CAKE RESISTIVITY 
RMCT.DEGF                                               66.00 : MUD CAKE SAMPLE TEMPERATURE 
RMB.OHMM                                                0.015 : MUD RESISTIVITY AT BHT 
TMAX.DEGF                                              224.00 : BOTTOM HOLE TEMPERATURE
#___________________________________________________________________________________________________ 
~CURVE INFORMATION 
# MNEM.UNIT           : CURVE DESCRIPTION 
#-----.-----          : ----------------------------- 
 DEPT.FT               : MEASURED DEPTH 
 DT__A.US/FT           : SONIC DELTA TRANSIT TIME (DELTA T COMP) 
 SPHI__A.V/V           : SONIC POROSITY (SONIC POROSITY) 
 #___________________________________________________________________________________________________ 
~A         DEPT          DT__A        SPHI__A
# ...
        13093.0         93.186     -999.25000
        13093.5         93.287     -999.25000
        13094.0         93.370     -999.25000
        13094.5         93.454     -999.25000
        13095.0         93.537     -999.25000
        13095.5         93.621     -999.25000
        13096.0         93.704     -999.25000
        13096.5         93.788     -999.25000
        13097.0         93.788     -999.25000
        13097.5         93.788     -999.25000
        13098.0         93.788     -999.25000
        13098.5         93.803     -999.25000
        13099.0         93.842     -999.25000
        13099.5         93.881     -999.25000
        13100.0         93.920     -999.25000
        13100.5         93.958     -999.25000
        13101.0         93.988     -999.25000
        13101.5         93.988     -999.25000
        13102.0         93.898     -999.25000
        13102.5         93.813     -999.25000
        13103.0         93.337     -999.25000
        13103.5         92.786     -999.25000
        13104.0         92.204     -999.25000
        13104.5         91.685     -999.25000
        13105.0         91.325     -999.25000
        13105.5         91.176     -999.25000
        13106.0         90.335     -999.25000
        13106.5         89.583     -999.25000
        13107.0         89.615     -999.25000
        13107.5         89.647     -999.25000
        13108.0         89.678     -999.25000
        13108.5         89.707     -999.25000
        13109.0         89.737     -999.25000
        13109.5         89.767     -999.25000
        13110.0         89.666     -999.25000
        13110.5         89.473     -999.25000
        13111.0         89.280     -999.25000
        13111.5         89.087     -999.25000
        13112.0         88.893     -999.25000
        13112.5         88.845     -999.25000
        13113.0         88.979     -999.25000
        13113.5         89.341     -999.25000
        13114.0         89.581     -999.25000
        13114.5         89.580     -999.25000
        13115.0         89.580     -999.25000
        13115.5         89.579     -999.25000
        13116.0         89.579     -999.25000
        13116.5         89.576     -999.25000
        13117.0         89.070     -999.25000
        13117.5         88.563     -999.25000
        13118.0         87.954     -999.25000
        13118.5         85.944     -999.25000
        13119.0         83.937     -999.25000
        13119.5         81.053     -999.25000
        13120.0         79.158     -999.25000
        13120.5         79.158     -999.25000
        13121.0         79.146     -999.25000
        13121.5         79.095     -999.25000
        13122.0         79.044     -999.25000
        13122.5         78.993     -999.25000
        13123.0         79.027     -999.25000
        13123.5         79.246     -999.25000
        13124.0         79.465     -999.25000
        13124.5         79.579     -999.25000
        13125.0         79.613     -999.25000
        13125.5         79.647     -999.25000
        13126.0         79.680     -999.25000
        13126.5         79.714     -999.25000
        13127.0         79.747     -999.25000
        13127.5         79.801     -999.25000
        13128.0         79.867     -999.25000
        13128.5         79.931     -999.25000
        13129.0         80.061     -999.25000
        13129.5         80.245     -999.25000
        13130.0         80.430     -999.25000
        13130.5         80.614     -999.25000
        13131.0         80.762     -999.25000
        13131.5         80.762     -999.25000
        13132.0         80.762     -999.25000
        13132.5         80.762     -999.25000
        13133.0         80.762     -999.25000
        13133.5         80.762     -999.25000
        13134.0         80.762     -999.25000
        13134.5         80.762     -999.25000
        13135.0         80.842     -999.25000
        13135.5         80.922     -999.25000
        13136.0         81.002     -999.25000
        13136.5         81.082     -999.25000
        13137.0         81.162     -999.25000
        13137.5         81.242     -999.25000
        13138.0         81.322     -999.25000
        13138.5         81.402     -999.25000
        13139.0         81.482     -999.25000
        13139.5         81.563     -999.25000
        13140.0         81.532     -999.25000
        13140.5         81.502     -999.25000
        13141.0         81.471     -999.25000
        13141.5         81.440     -999.25000
        13142.0         81.409     -999.25000
        13142.5         81.378     -999.25000
        13143.0         81.507     -999.25000
        13143.5         81.802     -999.25000
        13144.0         82.096     -999.25000
        13144.5         82.391     -999.25000
        13145.0         82.565     -999.25000
        13145.5         82.565     -999.25000
        13146.0         82.565     -999.25000
        13146.5         82.565     -999.25000
        13147.0         82.566     -999.25000
        13147.5         82.566     -999.25000
        13148.0         82.566     -999.25000
        13148.5         82.566     -999.25000
        13149.0         82.566     -999.25000
        13149.5         82.565     -999.25000
        13150.0         82.565     -999.25000
        13150.5         82.564     -999.25000
        13151.0         82.495     -999.25000
        13151.5         82.202     -999.25000
        13152.0         81.909     -999.25000
        13152.5         81.760     -999.25000
        13153.0         81.761     -999.25000
        13153.5         81.761     -999.25000
        13154.0         81.762     -999.25000
        13154.5         81.763     -999.25000
        13155.0         81.764     -999.25000
        13155.5         81.764     -999.25000
        13156.0         81.764     -999.25000
        13156.5         81.764     -999.25000
        13157.0         81.764     -999.25000
        13157.5         81.764     -999.25000
        13158.0         81.764     -999.25000
        13158.5         81.764     -999.25000
        13159.0         81.764     -999.25000
        13159.5         81.764     -999.25000
        13160.0         81.764     -999.25000
        13160.5         81.764     -999.25000
        13161.0         81.764     -999.25000
        13161.5         81.764     -999.25000
        13162.0         81.764     -999.25000
        13162.5         81.764     -999.25000
        13163.0         81.764     -999.25000
        13163.5         81.764     -999.25000
        13164.0         81.764     -999.25000
        13164.5         81.764     -999.25000
        13165.0         81.764     -999.25000
        13165.5         81.764     -999.25000
        13166.0         81.764     -999.25000
        13166.5         81.764     -999.25000
        13167.0         81.764     -999.25000
        13167.5         81.764     -999.25000
        13168.0         81.764     -999.25000
        13168.5         81.764     -999.25000
        13169.0         81.765     -999.25000
        13169.5         81.764     -999.25000
        13170.0         81.762     -999.25000
        13170.5         81.764     -999.25000
        13171.0         81.764     -999.25000
        13171.5         81.630     -999.25000
        13172.0         81.363     -999.25000
        13172.5         80.040     -999.25000
        13173.0         78.737     -999.25000
        13173.5         77.945     -999.25000
        13174.0         77.917     -999.25000
        13174.5         77.889     -999.25000
        13175.0         77.861     -999.25000
        13175.5         77.833     -999.25000
        13176.0         77.806     -999.25000
        13176.5         77.778     -999.25000
        13177.0         77.756     -999.25000
        13177.5         77.154     -999.25000
        13178.0         76.553     -999.25000
        13178.5         76.353     -999.25000
        13179.0         76.152     -999.25000
        13179.5         76.122     -999.25000
