###############################################
##         ENVERUS                           ##
##         ESS - Open Hole                   ##
##         PERMIAN / DELAWARE                ##
##         Nov 02 2023  V4.0                 ##
##         42-109-31375-00-00                ##
###############################################
## Copyright 2017-2023  ENVERUS.  All Rights Reserved. 
## Confidential - Property of ENVERUS, use governed by terms and 
## conditions found within the existing Information Services Subscription Agreement 
## (as may be amended, the “ISSA”) between Customer and ENVERUS. 
## 
~VERSION INFORMATION
# MNEM.UNIT                               DATA : DESCRIPTION OF MNEMONIC
#-----.-----     ----------------------------- : -----------------------------
VERS.                                     2.00 : CWLS LOG ASCII STANDARD - VERSION 2.00
WRAP.                                       NO : MULTIPLE LINES PER DEPTH STEP
VEND.                                  ENVERUS : VENDOR
TYPE.                          ESS - OPEN HOLE : ENVERUS ESSENTIAL CURVES – ACCESSIBLE THROUGH ENVERUS PRISM(TM)
DOC.                                  32006335 : ENVERUS HEADER RAW DOCUMENT ID
#___________________________________________________________________________________________________ 
~WELL INFORMATION 
# Eb7Zbut2Nwqt2ftj1i2q6V2Ye1Joym9Qrd6BFF0aHeZ6Mf1z+VAuEcbs4uVngcAWjTW62nvWGWatc34NWk2mnA== 
# MNEM.UNIT                                              DATA : DESCRIPTION OF MNEMONIC 
#-----.-----                    ----------------------------- : ----------------------------- 
CNTY.                                               CULBERSON : COUNTY 
STATE.                                                  TEXAS : STATE 
CNTRY.                                                    USA : COUNTRY 
API.                                             42-109-31375 : API (10 Digit) 
API_14.                                    42-109-31375-00-00 : API (14 Digits) 
API_14_std.                                 42-109-31375-0000 : API (14 Digits Standard) 
UWI.                                           42109313750000 : UNIQUE WELL ID 
WELL.                                      7806 JV-P DUVAL  1 : WELL NAME
STRT.FT                                                     0 : START DEPTH
STOP.FT                                               15739.0 : STOP DEPTH
STEP.FT                                                   0.5 : STEP BETWEEN DEPTHS
NULL.                                                 -999.25 : NULL VALUE
COMP.                                  BTA OIL PRODUCERS  LLC : COMPANY 
DATE.                                             26-MAY-1978 : LOG DATE
#___________________________________________________________________________________________________ 
~CURVE INFORMATION 
# MNEM.UNIT           : CURVE DESCRIPTION 
#-----.-----          : ----------------------------- 
 DEPT.FT               : MEASURED DEPTH 
 CALI.IN               : CALIPER (CAL - CAL) 
 GR.API                : GAMMA RAY (GR) 
 DT.US/FT              : SONIC DELTA TRANSIT TIME (DT) 
 #___________________________________________________________________________________________________ 
~A         DEPT           CALI             GR             DT
# ...
        10296.0         10.009         96.539         82.225
        10296.5         10.036         99.530         82.979
        10297.0         10.124        109.749         83.733
        10297.5         10.198        114.466         84.487
        10298.0         10.191        120.654         85.240
        10298.5         10.185        127.606         85.994
        10299.0         10.178        134.557         86.748
        10299.5         10.185        134.356         85.929
        10300.0         10.196        129.728         85.036
        10300.5         10.192        125.101         84.142
        10301.0         10.180        120.488         83.249
        10301.5         10.154        115.874         83.826
        10302.0         10.118        122.430         84.535
        10302.5         10.081        129.452         85.244
        10303.0         10.044        123.398         85.953
        10303.5         10.007        117.484         84.298
        10304.0         10.007        111.570         82.502
        10304.5         10.006        105.656         79.633
        10305.0         10.006         99.742         79.606
        10305.5         10.005         93.828         79.580
        10306.0         10.005         88.682         79.553
        10306.5         10.014         87.794         79.527
        10307.0         10.027         86.906         79.501
        10307.5         10.040         86.017         79.474
        10308.0         10.052         85.201         79.448
        10308.5         10.042         84.487         79.421
        10309.0         10.032         83.773         79.160
        10309.5         10.022         83.058         78.888
        10310.0         10.012         82.814         78.616
        10310.5         10.002         83.216         78.510
        10311.0         10.016         83.618         78.441
        10311.5         10.037         84.020         78.372
        10312.0         10.058         84.422         78.302
        10312.5         10.022         84.824         78.233
        10313.0          9.979         85.226         76.973
        10313.5          9.954         84.205         75.701
        10314.0          9.995         83.030         66.233
        10314.5         10.036         75.609         61.254
        10315.0         10.076         66.141         59.036
        10315.5         10.117         56.673         56.819
        10316.0          9.578         47.205         54.601
        10316.5          9.581         38.843         52.369
        10317.0          9.584         35.077         50.066
        10317.5          9.586         31.310         48.454
        10318.0          9.595         27.544         50.619
        10318.5          9.612         23.777         53.066
        10319.0          9.629         24.822         57.260
        10319.5          9.646         29.000         62.665
        10320.0          9.663         33.178         68.428
        10320.5          9.674         77.129         74.190
        10321.0          9.676         94.450         77.654
        10321.5          9.679        111.770         78.741
        10322.0          9.681        114.421         79.828
        10322.5          9.683        113.334         80.915
        10323.0          9.724        111.479         82.003
        10323.5          9.769        109.624         83.090
        10324.0          9.813        107.769         84.402
        10324.5          9.855        105.914         85.740
        10325.0          9.891        104.060         87.078
        10325.5          9.928        106.950         88.415
        10326.0          9.964        113.200         89.753
        10326.5         10.000        114.308         90.880
        10327.0         10.036        111.368         89.111
        10327.5         10.047        108.428         87.342
        10328.0         10.052        105.488         85.760
        10328.5         10.056        102.548         84.900
        10329.0         10.061         99.609         84.041
        10329.5         10.066         96.924         83.723
        10330.0         10.070         97.317         83.505
        10330.5         10.075         97.710         83.304
        10331.0         10.070         98.103         83.444
        10331.5         10.053         98.496         83.584
        10332.0         10.035         98.889         83.724
        10332.5         10.017         99.282         83.864
        10333.0         10.000         99.042         84.004
        10333.5          9.982         97.869         83.384
        10334.0          9.965         96.696         81.890
        10334.5          9.981         96.965         81.543
        10335.0         10.009         98.441         82.464
        10335.5         10.036         99.917         83.386
        10336.0         10.052        101.393         84.307
        10336.5         10.061        106.737         85.228
        10337.0         10.069        111.247         86.150
        10337.5         10.078        107.032         87.071
        10338.0         10.086        102.816         87.195
        10338.5         10.094         98.601         86.122
        10339.0         10.094         94.385         85.049
        10339.5         10.093         90.170         83.976
        10340.0         10.087         85.954         82.903
        10340.5         10.078         81.739         81.830
        10341.0         10.069         77.523         79.669
        10341.5         10.060         82.274         77.331
        10342.0         10.053         90.328         77.545
        10342.5         10.058         98.383         81.424
        10343.0         10.062        106.437         85.303
        10343.5         10.066        114.491         87.189
        10344.0         10.070        122.545         86.383
        10344.5         10.075        116.776         85.577
        10345.0         10.077        107.828         84.771
        10345.5         10.078         98.880         83.965
        10346.0         10.080         94.112         83.159
        10346.5         10.081         93.054         82.353
        10347.0         10.083         91.997         81.547
        10347.5         10.084         91.566         80.742
        10348.0         10.082         91.441         80.052
        10348.5         10.080         91.316         80.050
        10349.0         10.078         91.303         80.047
        10349.5         10.076         91.308         80.045
        10350.0         10.074         91.313         80.042
        10350.5         10.072         91.318         80.039
        10351.0         10.070         91.323         80.037
        10351.5         10.068         91.328         80.034
        10352.0         10.066         91.334         80.032
        10352.5         10.063         91.339         80.029
        10353.0         10.061         91.344         80.027
        10353.5         10.059         91.349         80.024
        10354.0         10.057         91.354         80.021
        10354.5         10.055         91.359         80.019
        10355.0         10.053         91.365         80.016
        10355.5         10.051         91.370         80.014
        10356.0         10.049         91.375         80.011
        10356.5         10.047         91.380         80.008
        10357.0         10.044         91.385         80.006
        10357.5         10.042         91.390         80.003
        10358.0         10.040         91.395         80.001
        10358.5         10.038         91.401         79.998
        10359.0         10.036         91.406         79.996
        10359.5         10.034         91.411         79.993
        10360.0         10.032         91.416         79.990
        10360.5         10.030         91.421         79.988
        10361.0         10.028         91.426         79.985
        10361.5         10.025         91.432         79.983
