###############################################
##         ENVERUS                           ##
##         ESS - Open Hole                   ##
##         PERMIAN / DELAWARE                ##
##         Nov 02 2023  V4.0                 ##
##         42-109-32346-90-00                ##
###############################################
## Copyright 2017-2023  ENVERUS.  All Rights Reserved. 
## Confidential - Property of ENVERUS, use governed by terms and 
## conditions found within the existing Information Services Subscription Agreement 
## (as may be amended, the “ISSA”) between Customer and ENVERUS. 
## 
~VERSION INFORMATION
# MNEM.UNIT                               DATA : DESCRIPTION OF MNEMONIC
#-----.-----     ----------------------------- : -----------------------------
VERS.                                     2.00 : CWLS LOG ASCII STANDARD - VERSION 2.00
WRAP.                                       NO : MULTIPLE LINES PER DEPTH STEP
VEND.                                  ENVERUS : VENDOR
TYPE.                          ESS - OPEN HOLE : ENVERUS ESSENTIAL CURVES – ACCESSIBLE THROUGH ENVERUS PRISM(TM)
DOC.                                  51092887 : ENVERUS HEADER RAW DOCUMENT ID
#___________________________________________________________________________________________________ 
~WELL INFORMATION 
# XhrHiXkIrwGIJmPLTIo0+WseqdI1VWn+o0JF90EYfb9BJ/ikjsIPmHpj3yVLlwnYQ/npclNvflN3Ll99f4ZCqQ== 
# MNEM.UNIT                                              DATA : DESCRIPTION OF MNEMONIC 
#-----.-----                    ----------------------------- : ----------------------------- 
CNTY.                                               CULBERSON : COUNTY 
STATE.                                                  TEXAS : STATE 
CNTRY.                                                    USA : COUNTRY 
API.                                             42-109-32346 : API (10 Digit) 
API_14.                                    42-109-32346-90-00 : API (14 Digits) 
API_14_std.                                 42-109-32346-9000 : API (14 Digits Standard) 
UWI.                                           42109323469000 : UNIQUE WELL ID 
WELL.                                                  DRD_55 : WELL NAME
STRT.FT                                                 334.5 : START DEPTH
STOP.FT                                                4950.0 : STOP DEPTH
STEP.FT                                                   0.5 : STEP BETWEEN DEPTHS
NULL.                                                 -999.25 : NULL VALUE
PREV_APII.                                     42109323460000 : WELL IDENTIFIER
#___________________________________________________________________________________________________ 
~PARAMETER INFORMATION 
# MNEM.UNIT                                              DATA : DESCRIPTION OF MNEMONIC 
#-----.-----                    ----------------------------- : -----------------------------
#___________________________________________________________________________________________________ 
~CURVE INFORMATION 
# MNEM.UNIT           : CURVE DESCRIPTION 
#-----.-----          : ----------------------------- 
 DEPT.FT               : MEASURED DEPTH 
 CALI.IN               : CALIPER (CAL - CALIPER) 
 GR.API                : GAMMA RAY (GAMMA RAY) 
 DT.US/FT              : SONIC DELTA TRANSIT TIME (SONIC) 
 #___________________________________________________________________________________________________ 
~A         DEPT           CALI             GR             DT
# ...
         3370.5          8.281         91.171         67.865
         3371.0          8.281         81.976         67.142
         3371.5          8.281         78.938         66.414
         3372.0          8.281         76.555         66.464
         3372.5          8.300         77.394         66.589
         3373.0          8.300         83.271         66.862
         3373.5          8.300         83.787         67.498
         3374.0          8.300         82.305         67.917
         3374.5          8.300         73.595         67.823
         3375.0          8.300         68.436         67.529
         3375.5          8.281         64.178         67.234
         3376.0          8.281         62.189         66.532
         3376.5          8.261         60.624         64.659
         3377.0          8.261         60.723         63.578
         3377.5          8.239         50.268         62.545
         3378.0          8.222         46.988         61.909
         3378.5          8.222         47.438         59.732
         3379.0          8.222         55.013         60.376
         3379.5          8.222         77.021         62.315
         3380.0          8.222         88.486         64.099
         3380.5          8.213        114.634         70.134
         3381.0          8.194        121.543         73.762
         3381.5          8.194        117.839         73.388
         3382.0          8.197        112.449         72.425
         3382.5          8.206        100.078         66.613
         3383.0          8.215         86.341         64.048
         3383.5          8.224         74.575         62.483
         3384.0          8.233         71.052         61.597
         3384.5          8.242         75.853         63.275
         3385.0          8.250         97.852         65.981
         3385.5          8.258        149.539         69.373
         3386.0          8.258        161.484         71.016
         3386.5          8.252        215.000         74.257
         3387.0          8.215        220.163         75.259
         3387.5          8.214        214.078         74.095
         3388.0          8.152        206.381         73.850
         3388.5          8.152        201.573         74.838
         3389.0          8.152        204.011         77.586
         3389.5          8.152        211.985         79.060
         3390.0          8.152        213.689         75.763
         3390.5          8.168        199.730         67.454
         3391.0          8.184        159.062         63.255
         3391.5          8.184        109.883         61.889
         3392.0          8.184         99.424         62.137
         3392.5          8.183         66.730         62.966
         3393.0          8.183         63.158         61.784
         3393.5          8.183         65.584         62.467
         3394.0          8.183         70.343         62.430
         3394.5          8.183         73.294         61.288
         3395.0          8.183         71.362         60.525
         3395.5          8.183         64.212         61.285
         3396.0          8.183         62.573         61.882
         3396.5          8.183         66.921         61.998
         3397.0          8.183         64.176         61.681
         3397.5          8.183         63.560         61.285
         3398.0          8.178         65.285         62.148
         3398.5          8.164         81.015         63.721
         3399.0          8.164         92.988         64.786
         3399.5          8.164         93.223         64.447
         3400.0          8.154         82.238         63.529
         3400.5          8.125         75.029         63.557
         3401.0          8.123         88.295         65.375
         3401.5          8.137        102.852         65.263
         3402.0          8.144         99.865         64.333
         3402.5          8.144         78.572         61.620
         3403.0          8.144         68.755         59.499
         3403.5          8.144         62.860         60.574
         3404.0          8.144         59.668         61.919
         3404.5          8.164         61.997         63.640
         3405.0          8.183         66.669         61.660
         3405.5          8.183         67.240         59.919
         3406.0          8.183         66.862         58.886
         3406.5          8.161         68.802         59.319
         3407.0          8.144         76.607         59.934
         3407.5          8.144         75.919         62.436
         3408.0          8.144         74.335         62.780
         3408.5          8.144         80.356         61.417
         3409.0          8.144         78.916         63.398
         3409.5          8.144         75.049         65.155
         3410.0          8.144         76.516         66.037
         3410.5          8.144         87.218         67.696
         3411.0          8.176        100.822         67.898
         3411.5          8.183        110.813         67.852
         3412.0          8.203        108.434         67.270
         3412.5          8.203         97.577         65.762
         3413.0          8.203         95.194         64.442
         3413.5          8.203        101.899         64.099
         3414.0          8.183        107.417         62.919
         3414.5          8.183         80.725         61.604
         3415.0          8.164         54.728         59.729
         3415.5          8.164         60.287         61.295
         3416.0          8.164         69.440         63.301
         3416.5          8.164         91.965         65.143
         3417.0          8.203         90.145         64.721
         3417.5          8.203         66.666         63.075
         3418.0          8.203         59.327         62.857
         3418.5          8.203         61.645         63.204
         3419.0          8.203         66.470         64.987
         3419.5          8.203         84.878         66.621
         3420.0          8.203         95.043         66.939
         3420.5          8.203        108.854         66.615
         3421.0          8.203         97.538         64.701
         3421.5          8.203         79.838         61.604
         3422.0          8.203         69.829         59.896
         3422.5          8.203         58.711         60.558
         3423.0          8.203         62.900         63.533
         3423.5          8.222         77.738         66.195
         3424.0          8.222         85.572         66.507
         3424.5          8.222         76.225         64.467
         3425.0          8.222         61.386         62.412
         3425.5          8.222         60.819         62.595
         3426.0          8.222         60.624         63.614
         3426.5          8.222         60.477         63.562
         3427.0          8.222         61.209         63.290
         3427.5          8.222         60.750         63.289
         3428.0          8.222         59.762         63.584
         3428.5          8.222         62.068         63.929
         3429.0          8.242         63.257         65.294
         3429.5          8.242         63.353         65.378
         3430.0          8.242         63.353         65.427
         3430.5          8.242         58.091         65.427
         3431.0          8.242         57.767         65.581
         3431.5          8.222         61.508         65.461
         3432.0          8.222         61.598         65.746
         3432.5          8.222         61.209         64.946
         3433.0          8.222         61.530         65.690
         3433.5          8.222         75.083         68.027
         3434.0          8.222        107.667         69.681
         3434.5          8.222        169.308         74.189
         3435.0          8.200        195.397         75.524
         3435.5          8.183        193.137         75.529
         3436.0          8.183        182.688         74.811
