~Version Information
 VERS.                  2.0:   CWLS log ASCII Standard -VERSION 2.0
 WRAP.                   NO:   One line per depth step
~Well Information Block
#MNEM.UNIT     VALUE/NAME     DESCRIPTION
#---------     -----------    ---------------------------
 STRT.F              8400.0000: START DEPTH
 STOP.F             14130.0000: STOP DEPTH
 STEP.F                 0.5000: STEP DEPTH
 NULL.                 -999.25: NULL VALUE
 LOC .            42-109-33596:  LOCATION
 FL1 .            42-109-33596:  LOCATIONLINE1
 PROV.                      TX:  PROVINCE
 STAT.                      TX:  STATE NAME
 CNTY.               CULBERSON:  COUNTY NAME
 FLD .              WOLFCAMP B:  FIELD NAME
 WELL.           DALE STATE 5H:  WELL NAME
 COMP.     CAPITAN ENERGY INC.:  COMPANY
 DMF .             Drill Floor:  DRILL MEAS FROM
 PDAT.                      GL:  PERMANENT DATUM
 DATE.             11-Feb-2020:  DATE
 SVCO.             Halliburton:  SERVICECONAME
 HIDE.                        :  WELLNAMEOPERAT
 BASI.                 PERMIAN:  BASIN
 UWI .            42-109-33596:  UNIQUE WELL IDENTIFIER
 API .            42-109-33596:  API NUMBER
 RANG.                     N/A:  RANGE
 TOWN.                     N/A:  TOWNSHIP
 SECT.                     N/A:  SECTION
 SON .               906289953:  JOB NUMBER
 CTRY.                        :  COUNTRY
 SRVC.             Halliburton:  SERVICE COMPANY
 LMF .             Drill Floor:  LOG MEASURED FROM
 TVDS.ft             3291.0000:  TVDSS CORRECTN
 EGL .ft             3266.0000:  GROUND ELEVATION
 APD .ft               25.0000:  DEPTH ABOVE PD
 EPD .ft             3266.0000:  ELEVATION
 BAP .ft                0.0000:  GL ELEV ONSHORE
 GVFD.g                 1.0000:  GRAVITY FIELD
 EKB .ft             3291.0000:  KB ELEVATION
 EDF .ft             3291.0000:  DF ELEVATION
~Curve Information Block
#MNEM.UNIT                 API CODE     Curve Description
#---------               -----------    ---------------------------
 DEPT.F                 00 000 000 000:  Depth
 CCL .V                 00 000 000 000:  Casing Collar Locator
 NPHI_OH.pu             00 000 000 000:  NPHI_OH
 NPHI_CHI.decp          00 000 000 000:  NPHI_CHI
 GR_OH.api              00 000 000 000:  GR_OH
 GR_CHI.api             00 000 000 000:  GR_CHI
 RHOB_OH.g/cc           00 000 000 000:  RHOB_OH
 RHOB_CHI.g/cc          00 000 000 000:  RHOB_CHI
 PE_OH.NONE             00 000 000 000:  PE_OH
 PE_CHI.NONE            00 000 000 000:  PE_CHI
 LLS_CHI.ohmm           00 000 000 000:  LLS_CHI
 LLS_OH.ohmm            00 000 000 000:  LLS_OH
 LLD_OH.ohmm            00 000 000 000:  LLD_OH
 LLD_CHI.ohmm           00 000 000 000:  LLD_CHI
 DTC_OH.uspf            00 000 000 000:  DTC_OH
 DTC_CHI.uspf           00 000 000 000:  DTC_CHI
 SPHW_CHI.decp          00 000 000 000:  SPHW_CHI
#Other Information
#
#WARRANTY: Halliburton will use its best efforts to furnish customers with 
#accurate information and interpretations that are part of, and incident to, the services 
#provided.  However, Halliburton cannot and does not warrant the accuracy 
#or correctness of such information and interpretations.  Under no circumstances should any 
#such information or interpretation be relied upon as the sole basis for any drilling, 
#completion, production, or financial decision or any procedure involving any risk to the 
#safety of any drilling venture, drilling rig or its crew or any other third party.  The 
#Customer has full responsibility for all drilling, completion and production operation.  
#Halliburton makes no representations or warranties, either expressed or 
#implied, including, but not limited to, the implied warranties of merchantability or fitness 
#for a particular purpose, with respect to the services rendered.  In no event will 
#Halliburton be liable for failure to obtain any particular results or for 
#any damages, including, but not limited to, indirect, special or consequential damages, 
#resulting from the use of any information or interpretation provided by Halliburton.
#
~A    DEPT      CCL   NPHI_OH NPHI_CHI  GR_OH    GR_CHI  RHOB_OH RHOB_CHI  PE_OH  PE_CHI LLS_CHI   LLS_OH    LLD_OH    LLD_CHI  DTC_OH  DTC_CHI SPHW_CHI 
# ...
    9168.5000 -0.0022 15.6100   0.1443 118.0933 133.8086  2.5649   2.5703  3.1186 3.5245 139.6888   42.3649   51.2322  131.9900 73.1697 75.0194 0.1939
    9169.0000  0.0025 15.6100   0.1436 118.0933 141.3948  2.5649   2.5681  3.1186 3.5946 168.0362   42.3649   51.2322  155.4491 71.3224 74.7060 0.1917
    9169.5000  0.0000 13.5600   0.1390  94.3896 136.3437  2.5519   2.5674  3.2770 3.6193 165.7574   44.2542   53.4666  156.5321 68.8237 73.4444 0.1828
    9170.0000  0.0000 13.5600   0.1296  94.3896 122.7468  2.5519   2.5679  3.2770 3.5946 138.3253   44.2542   53.4666  135.9198 66.8524 71.7475 0.1708
    9170.5000  0.0000 13.5800   0.0959  86.4747  76.9249  2.5659   2.5952  3.4657 3.7192 101.7635   57.1059   68.0265  117.9437 64.5307 69.6346 0.1558
    9171.0000  0.0000 13.6000   0.0560  78.5597  45.8318  2.5799   2.6438  3.6544 4.2064 105.6107   69.9577   82.5864  143.1430 63.0335 68.0379 0.1445
    9171.5000  0.0000 13.6000   0.0476  78.5597  44.4506  2.5799   2.6520  3.6544 4.3645 126.9964   69.9577   82.5864  180.5167 61.5638 66.5620 0.1341
    9172.0000  0.0000  8.3900   0.0417  70.2942  44.4284  2.6264   2.6601  3.9856 4.5380 156.7369  149.5920  158.3629  235.1225 59.8863 65.0605 0.1235
    9172.5000  0.0000  8.3900   0.0389  70.2942  46.4136  2.6264   2.6644  3.9856 4.6819 191.9467  149.5920  158.3629  300.4418 58.6913 63.8132 0.1147
    9173.0000  0.0000  3.8700   0.0371  53.7074  48.1775  2.6747   2.6679  4.1107 4.8141 228.8137  165.1387  174.9041  371.2036 57.6517 63.1724 0.1101
    9173.5000  0.0000  3.8700   0.0333  53.7074  45.4871  2.6747   2.6738  4.1107 4.9430 263.7115  165.1387  174.9041  445.8165 56.6708 62.6636 0.1065
    9174.0000  0.0000  3.9200   0.0317  38.6575  44.7998  2.7009   2.6761  4.1629 5.0260 297.7976  124.7591  180.5181  513.0464 56.0378 62.6324 0.1063
    9174.5000  0.0000  3.9200   0.0297  38.6575  42.4360  2.7009   2.6779  4.1629 5.0775 332.4826  124.7591  180.5181  575.6649 55.3711 62.4126 0.1048
    9175.0000  0.0000  4.4700   0.0296  37.7742  44.1398  2.7013   2.6757  4.1989 5.0769 374.0024  118.9145  176.2370  626.6008 54.9865 62.3861 0.1046
    9175.5000  0.0000  5.0200   0.0290  36.8909  44.0783  2.7017   2.6739  4.2350 5.0553 410.5046  113.0699  171.9560  664.6008 55.0853 62.1327 0.1028
    9176.0000  0.0000  5.0200   0.0278  36.8909  42.2877  2.7017   2.6736  4.2350 5.0321 429.7212  113.0699  171.9560  681.6526 55.1890 61.8363 0.1007
    9176.5000 -0.0012  6.2200   0.0260  39.6592  39.0720  2.7013   2.6763  4.3454 5.0583 448.2108  112.2115  167.3012  717.2598 55.3661 61.6109 0.0991
    9177.0000 -0.0023  7.4200   0.0264  42.4275  39.7232  2.7009   2.6769  4.4558 5.0903 463.6282  111.3531  162.6465  746.0634 56.2865 61.8325 0.1007
    9177.5000  0.0462  7.4200   0.0279  42.4275  40.4744  2.7009   2.6764  4.4558 5.1248 471.7621  111.3531  162.6465  758.3240 56.9664 62.6332 0.1063
    9178.0000 -0.0054  8.7300   0.0298  43.4325  39.1975  2.7108   2.6753  4.8156 5.1494 466.1819   37.7923   45.2142  739.7651 57.9589 64.0796 0.1165
    9178.5000 -0.0229  8.7300   0.0352  43.4325  41.3761  2.7108   2.6695  4.8156 5.1458 438.3785   37.7923   45.2142  663.9042 60.1540 66.8961 0.1365
    9179.0000  0.0267  9.5300   0.0426  44.2495  43.1534  2.7112   2.6633  4.8183 5.1499 399.4772   33.3590   42.0497  577.1235 62.2692 70.5318 0.1622
    9179.5000 -0.0011 10.3300   0.0508  45.0664  45.8491  2.7117   2.6587  4.8211 5.1266 349.5753   28.9257   38.8852  489.5813 63.9539 73.2139 0.1811
    9180.0000 -0.0209 10.3300   0.0607  45.0664  52.2757  2.7117   2.6557  4.8211 4.9032 234.3413   28.9257   38.8852  317.9361 65.0545 73.7886 0.1852
    9180.5000  0.0337 10.7700   0.0785  54.4193  58.5396  2.6997   2.6560  4.4620 4.5821 144.5544   25.1344   33.3917  200.3366 66.2419 73.1488 0.1807
    9181.0000 -0.0033 11.2100   0.0899  63.7721  55.1694  2.6876   2.6632  4.1028 4.4240 103.8159   21.3432   27.8981  156.9189 68.0536 72.8605 0.1786
    9181.5000  0.0127 11.2100   0.0990  63.7721  59.5932  2.6876   2.6500  4.1028 4.1788  79.6103   21.3432   27.8981  120.4826 69.1010 72.6912 0.1774
    9182.0000  0.0159 10.8600   0.1035  84.4100  65.5719  2.6482   2.6281  3.2076 3.7886  46.9268    9.0486   12.0182   68.6392 69.6664 72.2220 0.1741
    9182.5000  0.0092 10.8600   0.1221  84.4100  87.2926  2.6482   2.5887  3.2076 3.3079  34.9519    9.0486   12.0182   46.4512 70.1799 72.7455 0.1778
    9183.0000  0.0000 12.2650   0.1312  88.8683 101.0783  2.6215   2.5746  2.9802 3.1648  33.1230    9.0387   11.8651   41.3428 70.9642 73.4120 0.1825
    9183.5000  0.0022 13.6700   0.1370  93.3266 111.5203  2.5948   2.5697  2.7528 3.1346  33.9746    9.0287   11.7120   40.2200 71.2959 73.9658 0.1865
    9184.0000  0.0078 13.6700   0.1409  93.3266 120.5997  2.5948   2.5678  2.7528 3.1328  34.3220    9.0287   11.7120   38.8584 71.6823 74.5941 0.1909
    9184.5000 -0.0383 15.4700   0.1434  95.0295 125.5639  2.5517   2.5672  2.6425 3.1361  33.8048    9.0259   11.6993   37.6131 72.2374 75.1165 0.1946
    9185.0000  0.0159 15.4700   0.1420  95.0295 119.7103  2.5517   2.5686  2.6425 3.1043  29.4919    9.0259   11.6993   33.7993 72.7173 74.8606 0.1928
    9185.5000 -0.0053 15.4650   0.1415  93.2982 116.2232  2.5415   2.5687  2.6477 3.0893  27.4346    9.0963   11.5590   32.3996 73.3600 74.7683 0.1921
    9186.0000 -0.0096 15.4600   0.1381  91.5668 107.8142  2.5314   2.5714  2.6530 3.0705  24.5639    9.1666   11.4188   30.4746 73.7602 74.1715 0.1879
    9186.5000  0.0090 15.4600   0.1367  91.5668 105.2492  2.5314   2.5723  2.6530 3.0591  23.2245    9.1666   11.4188   29.5072 74.2550 73.9115 0.1861
    9187.0000  0.0257 14.9900   0.1315  88.5771  96.8001  2.5258   2.5774  2.6887 3.0427  20.5391   10.0965   11.5049   26.9465 74.5624 73.1462 0.1807
    9187.5000  0.0222 14.9900   0.1333  88.5771 100.8752  2.5258   2.5750  2.6887 3.0109  19.9505   10.0965   11.5049   25.5912 74.5879 73.3029 0.1818
    9188.0000 -0.0169 14.0000   0.1309  83.3903  97.3141  2.5256   2.5770  2.6676 2.9828  18.0910   10.1595   11.4902   23.1594 74.4891 73.0267 0.1798
    9188.5000 -0.0540 14.0000   0.1288  83.3903  94.7520  2.5256   2.5784  2.6676 2.9589  16.8669   10.1595   11.4902   21.4973 74.3384 72.8348 0.1785
    9189.0000 -0.0075 14.0400   0.1303  77.7973  97.6486  2.5225   2.5764  2.5844 2.9595  17.3073   10.2653   11.5333   21.8590 74.1451 73.0951 0.1803
    9189.5000  0.0479 14.0400   0.1258  77.7973  89.3843  2.5225   2.5813  2.5844 2.9706  16.3793   10.2653   11.5333   21.4556 74.0038 72.6006 0.1768
    9190.0000  0.0145 14.2250   0.1245  77.7458  87.0532  2.5224   2.5829  2.5356 2.9862  16.2385   10.4873   11.5603   21.6687 73.8497 72.5394 0.1764
    9190.5000 -0.0208 14.4100   0.1254  77.6944  87.9398  2.5223   2.5825  2.4868 2.9905  16.5430   10.7093   11.5873   21.9790 73.9404 72.5848 0.1767
    9191.0000 -0.0109 14.4100   0.1250  77.6944  87.4611  2.5223   2.5825  2.4868 2.9717  15.8392   10.7093   11.5873   20.9128 74.0187 72.5681 0.1766
    9191.5000 -0.0081 14.5500   0.1237  82.0936  84.9958  2.5265   2.5839  2.4111 2.9665  15.0185   10.5838   11.5103   19.9844 74.1199 72.5545 0.1765
    9192.0000  0.0028 14.5500   0.1258  82.0936  87.7729  2.5265   2.5815  2.4111 2.9620  14.9510   10.5838   11.5103   19.9223 74.1896 72.8503 0.1786
    9192.5000  0.0216 14.5500   0.1280  83.8375  90.8551  2.5310   2.5788  2.4161 2.9629  14.9531   10.2468   11.4008   20.1147 74.3434 73.1817 0.1809
    9193.0000 -0.0152 14.5500   0.1316  83.8375  96.3383  2.5310   2.5751  2.4161 2.9639  15.5632   10.2468   11.4008   20.8840 74.5769 73.5535 0.1835
    9193.5000 -0.0047 14.3500   0.1268  81.8232  89.0279  2.5316   2.5799  2.4885 2.9640  13.9868    9.8298   11.4921   19.4338 74.7502 73.1127 0.1804
    9194.0000  0.0050 14.3500   0.1218  81.8232  82.5362  2.5316   2.5851  2.4885 2.9679  12.7005    9.8298   11.4921   18.1121 74.8319 72.7576 0.1779
    9194.5000 -0.0179 14.3650   0.1243  82.1559  86.2223  2.5305   2.5809  2.5034 2.9382  12.3629    9.7697   11.4623   17.5017 74.8489 73.1309 0.1806
