#--------------------------------------------------#
#----------------DRILLING INFO, INC.---------------#
#---------------WWW.DRILLINGINFO.COM---------------#
#------------------COPYRIGHT 2018------------------#
#--------------------------------------------------#
#THIS FILE MAY BE USED ONLY IN ACCORDANCE WITH A CURRENT SUBSCRIPTION AGREEMENT BETWEEN
#THE USER AND DRILLING INFO, INC. NO PART OF THIS FILE MAY BE REPRODUCED, USED, COPIED,
#MODIFIED, PROPAGATED, OR DISTRIBUTED EXCEPT IN ACCORDANCE WITH THE SUBSCRIPTION
#AGREEMENT. UNAUTHORIZED USE OR DISTRIBUTION OF ALL OR ANY PART OF THIS FILE MAY VIOLATE
#COPYRIGHT, TRADEMARK, AND/OR OTHER LAWS AND IS SUBJECT TO CIVIL AS WELL AS CRIMINAL
#SANCTIONS.
#--------------------------------------------------#
#THIS FILE IS PROVIDED "AS-IS" AND ALL WARRANTIES ARE EXPRESSLY DISCLAIMED, WHETHER
#EXPRESS, ORAL, IMPLIED, STATUTORY OR OTHERWISE, INCLUDING ANY IMPLIED WARRANTY OF FITNESS
#FOR A PARTICULAR PURPOSE, MERCHANTABILITY, TITLE OR NON-INFRINGEMENT, AND ANY WARRANTIES
#ARISING BY VIRTUE OF CUSTOM OF TRADE OR COURSE OF DEALING.  FURTHER, DRILLING INFO,
#INC. AND ITS LICENSORS DO NOT REPRESENT OR WARRANT THAT THIS FILE WILL MEET USER'S
#REQUIREMENTS OR ARE SUITABLE FOR USER'S NEEDS OR THAT THE DATA OR RESULTS PROVIDED IN
#CONJUNCTION THEREWITH ARE CORRECT, ACCURATE, TIMELY OR RELIABLE. THESE DISCLAIMERS SHALL
#APPLY REGARDLESS OF ANY FAILURE OF ESSENTIAL PURPOSE OF ANY LIMITED REMEDY.  SOME
#JURISDICTIONS DO NOT ALLOW THE EXCLUSION OF CERTAIN WARRANTIES SO SOME OF THE ABOVE
#EXCLUSIONS MAY NOT APPLY. IN NO EVENT SHALL DRILLING INFO, INC. OR ANY OF ITS AFFILIATES
#BE LIABLE UNDER ANY LEGAL THEORY, WHETHER IN TORT (INCLUDING WITHOUT LIMITATION
#NEGLIGENCE), CONTRACT, STRICT LIABILITY, STATUTORY OR OTHERWISE, FOR ANY SPECIAL,
#INCIDENTAL, CONSEQUENTIAL, EXEMPLARY, PUNITIVE OR INDIRECT DAMAGE OF ANY KIND, INCLUDING
#WITHOUT LIMITATION LOSS OF REVENUE, PROFITS, GOODWILL, USE, AND/OR DATA OR THE COST OF
#PROCUREMENT OF SUBSTITUTE GOODS OR SERVICES, EVEN IF APPRISED OF THE POSSIBILITY OF SUCH
#DAMAGES IN ADVANCE.
#--------------------------------------------------#
# Exported from DI Transform
# DI Transform - A Product of Drillinginfo, Inc. - www.drillinginfo.com
#--------------------------------------------------#
#
~VERSION INFORMATION
 VERS.        2.0 : LAS ASCII STANDARD - VERSION 2.0
 WRAP.         NO : ONE LINE PER DEPTH STEP

~WELL INFORMATION
#MNEM.UNIT       DATA TYPE       INFORMATION
#---------       ---------       -----------
 STRT.ft          9043 : Start Depth
 STOP.ft         16870 : Stop Depth
 STEP.ft           0.5 : Step Length
 NULL.         -999.25 : Null Value
 COMP.                 : Company
 WELL.          DRD_55 : Well Name
 FLD.                  : Field Name
 LOC.                  : Well Location
 CNTY.                 : County
 STAT.                 : State or Province
 CTRY.                 : Country
 SRVC.                 : Service Company
 DATE.                 : Date
 API.   42109326310000 : Well Identifier

~CURVE INFORMATION
#MNEM.UNIT       API CODE       CURVE DESCRIPTION
#---------       --------       -----------------
 DEPT.ft          : <Measured Depth>
 CAL.in           : Caliper
 DPHI.%           : Density Porosity
 DT.us/ft         : Sonic
 GR.gAPI          : Gamma Ray
 ILD.ohmm         : Deep Resistivity
 ILS.ohmm         : Shallow Resistivity
 RHOB.g/cm3       : Density

~PARAMETER INFORMATION
#MNEM.UNIT       VALUE       DESCRIPTION
#---------       -----       -----------
 EKB.ft      3382 : Elevation above MSL

~A       DEPT         CAL        DPHI          DT          GR         ILD         ILS        RHOB
# ...
        16341      6.0732      5.1989     65.7143    465.9091   3871.8207        2000      2.6201
      16341.5      6.0732      5.7618      65.714    460.3569   3871.8207        2000      2.6194
        16342      6.0732      6.2551     65.8367    445.6522   3831.4458        2000      2.6045
      16342.5      6.1068      6.4612     65.8334    434.1723   3945.5901        2000      2.5995
        16343      6.1138      6.4475     65.7708    441.4534   4020.7649        2000      2.5977
      16343.5      6.1135      6.2414     65.7143    457.9731   4033.7717        2000      2.5996
        16344      6.1138      6.1676     65.5918    465.9091    2239.849   1965.8034      2.5997
      16344.5      6.1138      6.3115     65.5918    452.9988   1040.3361   1943.1084      2.6018
        16345      6.1138      6.4259     65.7143    445.6522    509.7998   1467.6049      2.6032
      16345.5      6.1138       6.632     65.8367    439.2857    263.4318    468.6192      2.5974
        16346      6.1138      6.7561     65.8212    433.0986     98.8805    153.7942      2.5953
      16346.5      6.1138      6.8852     65.8226    421.5922     69.0355     72.4406      2.5932
        16347      6.1138      6.6842     65.7143    423.8808     89.5343    114.3019      2.5918
      16347.5      6.1138      6.4781     65.5918    439.0791    111.7875    125.1911      2.5957
        16348      6.0732      6.5968     65.5918    448.8021    110.6112     -999.25      2.5971
      16348.5      6.0732      6.8028     65.7143    458.9552     87.9186      74.854      2.5932
        16349      6.0732      6.9672     65.7963    452.2059     70.6811     58.0806      2.5911
      16349.5      6.0732      6.9672     65.8367    466.0716     66.5184     42.9811       2.589
        16350      6.0732      7.0932     65.9214    496.6839     58.6069     39.0676      2.5873
      16350.5      6.0732       7.209     66.0816    521.1865     51.2973     35.8821      2.5873
        16351      6.0732      7.0849     66.0816       512.5     46.9811     34.0611      2.5873
      16351.5      6.0732      6.9608     66.2283    503.4582     44.4816     33.5204       2.587
        16352      6.0732      6.8431     66.0816    495.9677     39.1401     32.4702      2.5849
      16352.5      6.0732      7.3038     66.0816    479.6796     35.7113     27.1655      2.5828
        16353      6.0732      7.5099     66.0539    461.5923     34.0582     25.2578      2.5808
      16353.5      6.0732      7.6119     66.2041     444.794     33.6357     24.1887      2.5791
        16354      6.0732       7.459     66.2041    439.2857     30.8505     20.8346      2.5791
      16354.5      6.0732      7.5543     66.0816    427.0833     26.7213     19.0953      2.5787
        16355      6.0732      7.6784     65.9835    417.3801     24.3036     17.0726       2.577
      16355.5      6.0732      7.6893     65.8287    404.6053     25.7727     16.8286      2.5774
        16356      6.0732       7.541     65.9592    404.6053      33.422     20.9074      2.5791
      16356.5      6.0732       7.395     66.0001    405.7861     41.0789     23.9025      2.5788
        16357      6.0732      7.6311      66.155    419.7124     46.5579     24.5339      2.5763
      16357.5      6.0732      8.1446     65.9592    415.5405     44.6973     23.4759      2.5673
        16358      6.0732      8.6903     65.9592    411.3246     43.3606     21.6688      2.5567
      16358.5      6.0732      9.1209     65.8069    404.6053     43.3606     21.1578      2.5513
        16359      6.0732      9.0337     65.9456    404.6053     41.8131     20.4128      2.5559
      16359.5      6.0732      8.5445     66.0816    399.3506     41.4132     19.6394      2.5621
        16360      6.0732      8.2117     66.0816    403.6436     39.4951     19.1512      2.5675
      16360.5      6.0732      7.9787     66.2041    406.3909     38.7182     18.6851      2.5706
        16361      6.0732       8.184     66.2041    420.3507     38.7182      18.537      2.5708
      16361.5      6.0913      8.3901     66.2041    427.0833     37.6531     18.5352      2.5641
        16362      6.0774      8.5962     66.2041    426.3406      36.593     18.5352      2.5621
      16362.5      6.0708      8.6885     66.2041    427.0833     35.5658     18.9816        2.56
        16363      6.0604      8.6885     66.2041    433.0986     33.9183     19.1714      2.5585
      16363.5      6.0606      8.7705     66.0219    427.0833     32.3498     19.0111      2.5591
        16364      6.0618      8.6124      65.945    415.9441     30.8514     17.7479      2.5606
      16364.5      6.0631      8.4426     65.9592    415.5405     29.4246      16.681      2.5612
        16365      6.0644      8.3607     66.0816    420.9889     28.0912     16.5367       2.562
      16365.5      6.0656      8.5632     66.1467    427.0833     28.3947     16.6466      2.5596
        16366      6.0669      8.7693     66.2041    427.0833     29.8395      17.212      2.5562
      16366.5      6.0682      9.0368     66.2041    433.0986     33.2219     19.5447      2.5521
        16367      6.0695      9.1803     66.3265    433.0986      35.836     20.2551      2.5483
      16367.5      6.0707      9.1803     66.3265    442.6421     33.9838     19.3497      2.5475
        16368       6.072       9.095      66.386    433.3536     31.6503      18.404       2.551
      16368.5      6.0733      9.0528     66.2041    445.6522      31.243     18.3017      2.5531
        16369      6.0745      8.9288     66.1905    445.6522     32.5824     18.2363      2.5558
      16369.5      6.0758      8.6339     66.2041    441.9388     30.6977     17.1121        2.56
        16370      6.0771      8.3494     66.2201    432.5134       27.92     15.9386      2.5634
      16370.5      6.0783      8.7159     66.4051     423.507     26.2097     14.7721      2.5617
        16371      6.0796      9.2367     66.5714         410     26.6391     14.3761      2.5538
      16371.5      6.0809      9.4786     66.6527         410     29.0373     16.5091      2.5481
        16372      6.0821      9.4137     66.6939    415.5405     30.9935     17.7968       2.547
      16372.5      6.0834      9.2076     66.8163         410     30.2519     17.2393       2.549
        16373      6.0847      9.1803     66.9628         410     27.9707     16.2345      2.5503
      16373.5      6.0859      9.0984     67.1478         410     26.6762      15.745      2.5495
        16374      6.0872      9.0916     67.2104    415.5405     25.5616      15.521      2.5466
      16374.5      6.0885      9.5745     67.3061    425.4652     24.7263      15.521      2.5421
        16375      6.0898      9.9472     67.3061    433.0986     23.0825     15.1894      2.5369
      16375.5       6.091     10.2973     67.4286    428.5785     21.6572     13.9475      2.5322
        16376      6.0923     10.3496     67.6735    419.7218      20.655     13.0182      2.5298
      16376.5      6.0936      10.264     67.6735         410     19.6988     12.6717      2.5306
        16377      6.0948     10.3279     67.8307    411.6261     19.6261     12.7228      2.5309
      16377.5      6.0961      10.476     68.1382    420.1371     19.6261     12.8333      2.5289
        16378      6.0974     10.6557     68.4644    429.0174     19.1375     12.7787      2.5268
      16378.5      6.0986     10.7242     68.8755    422.1951     18.2514     12.4116      2.5243
        16379      6.0999     10.8483      69.183    415.5405      17.407     12.1188      2.5207
      16379.5      6.1012     11.1308     69.3878    405.3413      16.601     11.5787      2.5171
        16380      6.1024     11.3424     69.5102    406.6422      15.833     10.9171      2.5145
      16380.5      6.1037     11.4754     69.5102    405.1901     15.6485     10.2291      2.5124
        16381       6.105     11.5087     69.5299    415.5405     15.6485     10.4512      2.5113
      16381.5      6.1063      11.482     69.2797    415.5405     15.9209     11.1154      2.5103
