~Version Information
 VERS.                  2.0:   CWLS log ASCII Standard -VERSION 2.0
 WRAP.                   NO:   One line per depth step
~Well Information Block
#MNEM.UNIT     VALUE/NAME     DESCRIPTION
#---------     -----------    ---------------------------
 STRT.F              8650.0000: START DEPTH
 STOP.F             14150.0000: STOP DEPTH
 STEP.F                 0.5000: STEP DEPTH
 NULL.                 -999.25: NULL VALUE
 LOC .     A1759-SEC34-BLK58-T2-:  LOCATION
 FL4 .        API 42-109-33169:  LOCATIONLINE4
 FL2 .     T&P RR CO-337FSL-25:  LOCATIONLINE2
 FL1 .     A1759-SEC34-BLK58-T2-:  LOCATIONLINE1
 DMF .                      KB:  DRILL MEAS FROM
 PDAT.                      GL:  PERMANENT DATUM
 CNTY.               CULBERSON:  COUNTY NAME
 FLD .     FORD, WEST (WOLFCAMP):  FIELD NAME
 WELL.         ALICE FEE 34 2H:  WELL NAME
 COMP.     CAPITAN ENERGY INC.:  COMPANY
 DATE.             27-Mar-2018:  DATE
 SVCO.             Halliburton:  SERVICECONAME
 PROV.                   TEXAS:  PROVINCE
 STAT.                   TEXAS:  STATE NAME
 CTRY.                     USA:  COUNTRY NAME
 HIDE.                        :  WELLNAMEOPERAT
 BASI.                 PERMIAN:  BASIN
 UWI .            42-109-33169LAT:  UNIQUE WELL IDENTIFIER
 API .            42-109-33169LAT:  API NUMBER
 RANG.                     N/A:  RANGE
 TOWN.                     N/A:  TOWNSHIP
 SECT.                     N/A:  SECTION
 SRVC.             Halliburton:  SERVICE COMPANY
 LMF .                      KB:  LOG MEASURED FROM
 TVDS.ft             3088.0000:  TVDSS CORRECTN
 EGL .ft             3063.0000:  GROUND ELEVATION
 APD .ft               25.0000:  DEPTH ABOVE PD
 EPD .ft             3063.0000:  ELEVATION
 BAP .ft                0.0000:  GL ELEV ONSHORE
 GVFD.g                 1.0000:  GRAVITY FIELD
 EKB .ft             3088.0000:  KB ELEVATION
 EDF .ft             3087.0000:  DF ELEVATION
~Curve Information Block
#MNEM.UNIT                 API CODE     Curve Description
#---------               -----------    ---------------------------
 DEPT.F                 00 000 000 000:  Depth
 CCL .mV                00 000 000 000:  Casing Collar Locator
 NPHI_OH.pu             00 000 000 000:  NPHI_OH
 NPHI_CHI.pu            00 000 000 000:  NPHI_CHI
 GR_OH.api              00 000 000 000:  GR_OH
 GR_CHI.api             00 000 000 000:  GR_CHI
 RHOB_OH.g/cc           00 000 000 000:  RHOB_OH
 RHOB_CHI.g/cc          00 000 000 000:  RHOB_CHI
 PE_OH.b/e              00 000 000 000:  PE_OH
 PE_CHI.b/e             00 000 000 000:  PE_CHI
 MSFL_OH.ohmm           00 000 000 000:  MSFL_OH
 MSFL_CHI.ohmm          00 000 000 000:  MSFL_CHI
 LLS_OH.ohmm            00 000 000 000:  LLS_OH
 LLS_CHI.ohmm           00 000 000 000:  LLS_CHI
 LLD_OH.ohmm            00 000 000 000:  LLD_OH
 LLD_CHI.ohmm           00 000 000 000:  LLD_CHI
 DTC_OH.uspf            00 000 000 000:  DTC_OH
 DTC_CHI.uspf           00 000 000 000:  DTC_CHI
 SPHI_CHI.pu            00 000 000 000:  SPHI_CHI
 SGF .cu                00 000 000 000:  Formation Sigma
 CRNF.NONE              00 000 000 000:  CM GrsCaptRatio
 RIN .NONE              00 000 000 000:  CM GrsInelRatio
#Other Information
#
#WARRANTY: Halliburton will use its best efforts to furnish customers with 
#accurate information and interpretations that are part of, and incident to, the services 
#provided.  However, Halliburton cannot and does not warrant the accuracy 
#or correctness of such information and interpretations.  Under no circumstances should any 
#such information or interpretation be relied upon as the sole basis for any drilling, 
#completion, production, or financial decision or any procedure involving any risk to the 
#safety of any drilling venture, drilling rig or its crew or any other third party.  The 
#Customer has full responsibility for all drilling, completion and production operation.  
#Halliburton makes no representations or warranties, either expressed or 
#implied, including, but not limited to, the implied warranties of merchantability or fitness 
#for a particular purpose, with respect to the services rendered.  In no event will 
#Halliburton be liable for failure to obtain any particular results or for 
#any damages, including, but not limited to, indirect, special or consequential damages, 
#resulting from the use of any information or interpretation provided by Halliburton.
#
~A    DEPT       CCL    NPHI_OH NPHI_CHI  GR_OH    GR_CHI  RHOB_OH RHOB_CHI  PE_OH  PE_CHI  MSFL_OH   MSFL_CHI  LLS_OH   LLS_CHI   LLD_OH   LLD_CHI  DTC_OH  DTC_CHI SPHI_CHI   SGF    CRNF   RIN   
# ...
   10105.5000   32.5856 -999.25  14.6978  -999.25 146.7990 -999.25   2.5349 -999.25 3.2798    -999.25  41.5711   -999.25  53.5985   -999.25  61.0274 -999.25 71.1808  16.6800 26.7000 0.8366 1.0853
   10106.0000    0.0000 -999.25  14.9350  -999.25 147.7400 -999.25   2.5312 -999.25 3.2748    -999.25  41.2561   -999.25  53.2015   -999.25  60.6958 -999.25 71.7169  17.0600 26.9106 0.8294 1.0836
   10106.5000    0.0000 -999.25  14.4673  -999.25 133.5094 -999.25   2.5377 -999.25 3.2894    -999.25  33.9020   -999.25  46.0240   -999.25  53.0068 -999.25 71.5561  16.9400 27.0659 0.8147 1.0783
   10107.0000    0.0000 -999.25  14.0287  -999.25 120.8998 -999.25   2.5439 -999.25 3.2983    -999.25  27.2283   -999.25  38.5229   -999.25  44.7785 -999.25 71.3792  16.8200 27.3042 0.8062 1.0738
   10107.5000    0.0000 -999.25  15.2185  -999.25 155.9762 -999.25   2.5285 -999.25 3.2377    -999.25  38.6015   -999.25  48.5959   -999.25  54.8622 -999.25 72.1970  17.4000 27.4339 0.8075 1.0691
   10108.0000    0.0000 -999.25  14.3297  -999.25 135.3308 -999.25   2.5410 -999.25 3.2520    -999.25  30.6114   -999.25  40.7613   -999.25  46.7517 -999.25 71.2487  16.7200 27.5766 0.8158 1.0684
   10108.5000    0.0000 -999.25  14.4482  -999.25 142.6954 -999.25   2.5400 -999.25 3.2299    -999.25  32.7276   -999.25  42.1087   -999.25  48.0330 -999.25 71.0441  16.5800 27.5758 0.8317 1.0702
   10109.0000    0.0000 -999.25  15.0300  -999.25 158.9780 -999.25   2.5324 -999.25 3.2043    -999.25  39.5888   -999.25  48.1897   -999.25  54.4062 -999.25 71.4174  16.8400 27.4989 0.8416 1.0752
   10109.5000    0.0000 -999.25  15.4332  -999.25 167.3786 -999.25   2.5266 -999.25 3.1992    -999.25  43.7916   -999.25  52.0061   -999.25  58.5171 -999.25 71.8702  17.1600 27.3521 0.8479 1.0807
   10110.0000    0.0000 -999.25  15.3544  -999.25 159.8302 -999.25   2.5269 -999.25 3.2116    -999.25  41.0817   -999.25  50.1609   -999.25  56.8797 -999.25 72.0939  17.3200 27.1587 0.8488 1.0827
   10110.5000  -55.2521 -999.25  15.7056  -999.25 166.7774 -999.25   2.5217 -999.25 3.2150    -999.25  43.9858   -999.25  52.8671   -999.25  59.6944 -999.25 72.5793  17.6700 27.0632 0.8489 1.0824
   10111.0000    0.0000 -999.25  15.8968  -999.25 170.6838 -999.25   2.5189 -999.25 3.2222    -999.25  44.5084   -999.25  53.2104   -999.25  59.8506 -999.25 72.9131  17.9000 26.9123 0.8403 1.0762
   10111.5000    0.0000 -999.25  15.9784  -999.25 173.4750 -999.25   2.5180 -999.25 3.2219    -999.25  43.9292   -999.25  52.2394   -999.25  58.5386 -999.25 73.0572  18.0000 26.6415 0.8216 1.0698
   10112.0000    0.0000 -999.25  15.5949  -999.25 161.8622 -999.25   2.5228 -999.25 3.2348    -999.25  41.1766   -999.25  50.8597   -999.25  57.4255 -999.25 72.7160  17.7600 26.1400 0.7899 1.0624
   10112.5000    0.0000 -999.25  15.1251  -999.25 147.7104 -999.25   2.5287 -999.25 3.2594    -999.25  38.3024   -999.25  49.5978   -999.25  56.6339 -999.25 72.3059  17.4700 25.4241 0.7537 1.0558
   10113.0000    0.0000 -999.25  15.0197  -999.25 147.9068 -999.25   2.5299 -999.25 3.2751    -999.25  40.9618   -999.25  52.9400   -999.25  60.4175 -999.25 71.9370  17.2100 24.5203 0.7241 1.0489
   10113.5000    0.0000 -999.25  14.9565  -999.25 152.5020 -999.25   2.5305 -999.25 3.3171    -999.25  45.3916   -999.25  58.5937   -999.25  66.1112 -999.25 71.5567  16.9400 23.5343 0.7030 1.0400
   10114.0000    0.0000 -999.25  14.3867  -999.25 151.6812 -999.25   2.5387 -999.25 3.3620    -999.25  51.5317   -999.25  66.8703   -999.25  74.7804 -999.25 70.1674  15.9600 22.5526 0.6877 1.0327
   10114.5000    0.0000 -999.25  14.0082  -999.25 150.6422 -999.25   2.5439 -999.25 3.4142    -999.25  53.0667   -999.25  70.1029   -999.25  77.5760 -999.25 69.4773  15.4700 21.7422 0.6778 1.0247
   10115.0000    0.0000 -999.25  13.3382  -999.25 139.9234 -999.25   2.5530 -999.25 3.4923    -999.25  51.3022   -999.25  71.5639   -999.25  78.9739 -999.25 68.6850  14.9100 21.4433 0.6743 1.0222
   10115.5000    0.0000 -999.25  13.2637  -999.25 142.4352 -999.25   2.5538 -999.25 3.5324    -999.25  52.7234   -999.25  73.4741   -999.25  80.4731 -999.25 68.4473  14.7400 21.6184 0.6805 1.0231
   10116.0000    0.0000 -999.25  12.2027  -999.25 120.9356 -999.25   2.5688 -999.25 3.6137    -999.25  47.0004   -999.25  71.8988   -999.25  79.2019 -999.25 67.4930  14.0700 22.1192 0.7009 1.0280
   10116.5000  -47.1314 -999.25  11.8601  -999.25 114.8550 -999.25   2.5738 -999.25 3.6319    -999.25  44.4512   -999.25  69.5942   -999.25  76.7385 -999.25 67.1915  13.8600 22.8254 0.7304 1.0352
   10117.0000    0.0000 -999.25  12.3254  -999.25 126.3290 -999.25   2.5676 -999.25 3.5750    -999.25  45.7585   -999.25  68.1654   -999.25  74.6206 -999.25 67.5656  14.1200 23.7166 0.7642 1.0422
   10117.5000  -48.2423 -999.25  12.8496  -999.25 134.7118 -999.25   2.5606 -999.25 3.5092    -999.25  45.6635   -999.25  65.3047   -999.25  71.5343 -999.25 68.1871  14.5600 24.6601 0.7892 1.0497
   10118.0000    0.0000 -999.25  13.5317  -999.25 143.8682 -999.25   2.5511 -999.25 3.4403    -999.25  45.6318   -999.25  62.4675   -999.25  68.6693 -999.25 69.1056  15.2100 25.5049 0.8024 1.0545
   10118.5000    0.0000 -999.25  13.6989  -999.25 138.8914 -999.25   2.5488 -999.25 3.3981    -999.25  41.6234   -999.25  57.4252   -999.25  63.9686 -999.25 69.6917  15.6200 26.3864 0.8062 1.0591
   10119.0000    0.0000 -999.25  13.9235  -999.25 137.0056 -999.25   2.5462 -999.25 3.3329    -999.25  35.9640   -999.25  49.1530   -999.25  55.2913 -999.25 70.3509  16.0900 27.0415 0.8066 1.0592
   10119.5000    0.0000 -999.25  13.5071  -999.25 119.8634 -999.25   2.5521 -999.25 3.3211    -999.25  26.7172   -999.25  38.0832   -999.25  43.7290 -999.25 70.4301  16.1500 27.4635 0.8105 1.0616
   10120.0000    0.0000 -999.25  14.1380  -999.25 135.0088 -999.25   2.5439 -999.25 3.2601    -999.25  30.7536   -999.25  40.9920   -999.25  46.8543 -999.25 70.8417  16.4400 27.5957 0.8219 1.0668
   10120.5000    0.0000 -999.25  14.5188  -999.25 144.6540 -999.25   2.5390 -999.25 3.2264    -999.25  33.9928   -999.25  43.2845   -999.25  49.3987 -999.25 71.0211  16.5600 27.5713 0.8293 1.0755
   10121.0000    0.0000 -999.25  14.4605  -999.25 139.7764 -999.25   2.5391 -999.25 3.2297    -999.25  32.8084   -999.25  41.8448   -999.25  48.3401 -999.25 70.9609  16.5200 27.3216 0.8244 1.0846
   10121.5000    0.0000 -999.25  14.2273  -999.25 128.1492 -999.25   2.5415 -999.25 3.2514    -999.25  28.2354   -999.25  37.1563   -999.25  43.6005 -999.25 70.9983  16.5500 27.0197 0.8063 1.0875
   10122.0000    0.0000 -999.25  14.1709  -999.25 124.0246 -999.25   2.5418 -999.25 3.2645    -999.25  27.1495   -999.25  36.0781   -999.25  42.6287 -999.25 71.0214  16.5600 26.4022 0.7730 1.0820
   10122.5000    0.0000 -999.25  14.0106  -999.25 118.3914 -999.25   2.5436 -999.25 3.2934    -999.25  26.3582   -999.25  36.1467   -999.25  42.8034 -999.25 71.0115  16.5600 25.5434 0.7336 1.0698
   10123.0000    0.0000 -999.25  13.7498  -999.25 117.1806 -999.25   2.5477 -999.25 3.3140    -999.25  26.6286   -999.25  37.4927   -999.25  43.9228 -999.25 70.7107  16.3400 24.3798 0.7091 1.0509
   10123.5000   57.8816 -999.25  13.4646  -999.25 118.6866 -999.25   2.5519 -999.25 3.3498    -999.25  29.5090   -999.25  42.1139   -999.25  48.6802 -999.25 70.1054  15.9200 23.2837 0.6893 1.0329
   10124.0000    0.0000 -999.25  12.3805  -999.25 103.6192 -999.25   2.5668 -999.25 3.4810    -999.25  28.8489   -999.25  44.7873   -999.25  51.3948 -999.25 68.7409  14.9500 22.4958 0.6799 1.0187
   10124.5000    0.0000 -999.25  11.7642  -999.25 101.5822 -999.25   2.5755 -999.25 3.5623    -999.25  33.2295   -999.25  52.7026   -999.25  59.7815 -999.25 67.5579  14.1100 21.7274 0.6724 1.0095
   10125.0000   39.3023 -999.25  11.6898  -999.25 105.2268 -999.25   2.5764 -999.25 3.6024    -999.25  39.1484   -999.25  62.2604   -999.25  69.9225 -999.25 67.2001  13.8600 21.1467 0.6680 1.0057
   10125.5000    0.0000 -999.25  11.5595  -999.25 105.1962 -999.25   2.5779 -999.25 3.6507    -999.25  41.9209   -999.25  67.7773   -999.25  75.5877 -999.25 67.0014  13.7200 20.7305 0.6681 1.0017
