# Exported from Transform Software 5.2.0 on 27-Jun-2019 by user brian.umlang
# DI Transform - A Product of Drillinginfo, Inc. - www.drillinginfo.com
#
~VERSION INFORMATION
 VERS.        2.0 : LAS ASCII STANDARD - VERSION 2.0
 WRAP.         NO : ONE LINE PER DEPTH STEP

~WELL INFORMATION
#MNEM.UNIT       DATA TYPE       INFORMATION
#---------       ---------       -----------
 STRT.ft                   0 : Start Depth
 STOP.ft               12430 : Stop Depth
 STEP.ft                 0.5 : Step Length
 NULL.               -999.25 : Null Value
 COMP.                       : Company
 WELL.  42109313590000_API14 : Well Name
 FLD.                        : Field Name
 LOC.                        : Well Location
 CNTY.                       : County
 STAT.                       : State or Province
 CTRY.                       : Country
 SRVC.                       : Service Company
 DATE.                       : Date
 API.         42109313590000 : Well Identifier

~CURVE INFORMATION
#MNEM.UNIT       API CODE       CURVE DESCRIPTION
#---------       --------       -----------------
 DEPT.ft          : <Measured Depth>
 CAL.in           : Caliper
 DPHI.%           : Density Porosity
 DT.us/ft         : Sonic
 GR.gAPI          : Gamma Ray
 ILD.ohmm         : Deep Resistivity
 ILM.ohmm         : Medium Resistivity
 ILS.ohmm         : Shallow Resistivity
 NPHI.%           : Neutron Porosity
 RHOB.g/cm3       : Density
 SP.mV            : Spontaneous Potential

~PARAMETER INFORMATION
#MNEM.UNIT       VALUE       DESCRIPTION
#---------       -----       -----------
 EKB.ft      3771 : Elevation above MSL

~A      DEPT         CAL        DPHI          DT          GR         ILD         ILM         ILS        NPHI        RHOB          SP
# ...
     12352.5       9.631     19.4153     81.7338    129.1118     -999.25     -999.25     -999.25     31.0704      2.4563     -999.25
       12353      9.5714     17.9887     82.8945    129.4643     -999.25     -999.25     -999.25     34.4051      2.4889     -999.25
     12353.5      9.5913     12.8215     83.2265    129.4643     -999.25     -999.25     -999.25     34.9076      2.4876     -999.25
       12354      9.5913      12.424     83.1582    130.1841     -999.25     -999.25     -999.25     32.6572      2.4597     -999.25
     12354.5      9.5914     15.0235     82.0014    131.1966     -999.25     -999.25     -999.25     29.5607      2.4317     -999.25
       12355      9.6508     17.7153     81.4497    129.4058     -999.25     -999.25     -999.25      28.961      2.4038     -999.25
     12355.5       9.631      18.834     81.3634    127.0001     -999.25     -999.25     -999.25     28.7404      2.3758     -999.25
       12356       9.631     19.0717     81.9285    122.2718     -999.25     -999.25     -999.25     28.8768      2.3479     -999.25
     12356.5       9.631     20.0671     83.1764    121.6663     -999.25     -999.25     -999.25     30.1364      2.3225     -999.25
       12357      9.6508     22.2275     84.1102    127.4802     -999.25     -999.25     -999.25      32.243      2.3091     -999.25
     12357.5      9.6899     24.5825     84.2277    127.4802     -999.25     -999.25     -999.25     32.4715      2.2981     -999.25
       12358       9.872       21.57     84.0124    127.4802     -999.25     -999.25     -999.25     32.1404      2.2958     -999.25
     12358.5      9.9856     22.7799     84.5396    124.3505     -999.25     -999.25     -999.25     31.7443      2.3076     -999.25
       12359     10.1865     22.9435     84.6693    122.5198     -999.25     -999.25     -999.25     31.7443      2.3241     -999.25
     12359.5      10.187     22.6211     84.6693    122.2718     -999.25     -999.25     -999.25     31.7408      2.3406     -999.25
       12360     10.1628     22.3885     84.7295    121.7271     -999.25     -999.25     -999.25     31.2212      2.3571     -999.25
     12360.5     10.1468      18.095     84.6693    121.6032     -999.25     -999.25     -999.25     31.1497      2.3736     -999.25
       12361      9.7815     18.8138     84.7672    129.8145     -999.25     -999.25     -999.25     30.9654      2.3901     -999.25
     12361.5      9.6111     20.5807      84.489    132.0734     -999.25     -999.25     -999.25     26.8539      2.4065     -999.25
       12362       9.559     20.9646     84.7284    133.3402     -999.25     -999.25     -999.25     31.0556       2.423     -999.25
     12362.5      9.5516     19.1243     84.7722    132.5061     -999.25     -999.25     -999.25      31.981      2.4395     -999.25
       12363      9.6278     18.3573     84.8497    119.0865     -999.25     -999.25     -999.25     34.1597       2.456     -999.25
     12363.5      9.6706     18.0601     84.7896    118.3036     -999.25     -999.25     -999.25     35.5452      2.4593     -999.25
       12364      9.6508     17.6663     84.7295    120.6017     -999.25     -999.25     -999.25     35.7086      2.4617     -999.25
     12364.5      9.6508     17.3076     84.6693    123.1198     -999.25     -999.25     -999.25     34.9488      2.4641     -999.25
       12365      9.5714     16.5104     84.7185    127.7282     -999.25     -999.25     -999.25      34.667      2.4665     -999.25
     12365.5      9.5516     15.7133     84.7889    127.7282     -999.25     -999.25     -999.25     34.4645      2.4689     -999.25
       12366      9.5516      15.718     85.4509    118.4979     -999.25     -999.25     -999.25      34.262      2.4713     -999.25
     12366.5      9.5516     20.0733      85.511    117.6591     -999.25     -999.25     -999.25     33.9484      2.4713     -999.25
       12367      9.5516     23.0341     85.8717    117.8222     -999.25     -999.25     -999.25     34.3445      2.4371     -999.25
     12367.5      9.5516      27.143     85.2104    120.3973     -999.25     -999.25     -999.25     35.6238       2.403     -999.25
       12368      9.5135     26.5541       83.31    122.5198     -999.25     -999.25     -999.25     38.7961      2.3688     -999.25
     12368.5      9.5119      24.131     81.2074    123.8041     -999.25     -999.25     -999.25      39.196      2.3346     -999.25
       12369      9.4325     22.9415     78.8978    133.7147     -999.25     -999.25     -999.25     35.9004      2.3004     -999.25
     12369.5      9.4325     19.6232     79.9709    133.8677     -999.25     -999.25     -999.25      35.025      2.2663     -999.25
       12370      9.3929     22.9228     81.7914    122.4322     -999.25     -999.25     -999.25     34.1554      2.3206     -999.25
     12370.5      9.3929     23.7364     83.2265    121.1654     -999.25     -999.25     -999.25     33.0922      2.4148     -999.25
       12371      9.3532     23.4428     83.6165    121.0317     -999.25     -999.25     -999.25     35.8062      2.4339     -999.25
     12371.5       9.446     21.3576      84.008    120.7837     -999.25     -999.25     -999.25     38.6045      2.4248     -999.25
       12372      9.4757     18.5974     83.6658    120.5357     -999.25     -999.25     -999.25     39.3937      2.4157     -999.25
     12372.5      9.4921     18.4242     82.8901    121.5011     -999.25     -999.25     -999.25     38.8801      2.4066     -999.25
       12373      9.6111     18.4242     83.7153    123.2639     -999.25     -999.25     -999.25     37.8095      2.3975     -999.25
     12373.5       9.783     18.6267     84.4279    121.8328     -999.25     -999.25     -999.25     36.5765      2.3884     -999.25
       12374      9.8294     18.8591     84.0488    121.1389     -999.25     -999.25     -999.25      36.374      2.3793     -999.25
     12374.5      9.8294     20.7363     84.3016    123.4906     -999.25     -999.25     -999.25     35.2614      2.3702     -999.25
       12375      9.8294     21.3563     84.7335    127.9762     -999.25     -999.25     -999.25     33.0721      2.3638     -999.25
     12375.5      9.8401     22.4495     84.7295    127.9762     -999.25     -999.25     -999.25     32.3786      2.3615     -999.25
       12376      9.9216     22.6264     84.5163    128.2973     -999.25     -999.25     -999.25     31.0727      2.3593     -999.25
     12376.5     10.0229     22.1701     85.3038    129.6516     -999.25     -999.25     -999.25     30.8422      2.3623     -999.25
       12377     10.1468     21.1789     85.7928    125.3008     -999.25     -999.25     -999.25     30.5884      2.3719     -999.25
     12377.5     10.1468     20.4868     84.5348    119.5509     -999.25     -999.25     -999.25     29.3697      2.3815     -999.25
       12378     10.1071     19.7324     84.6459    119.7917     -999.25     -999.25     -999.25     31.7078      2.3911     -999.25
     12378.5     10.1071     19.9491     85.6736    119.7917     -999.25     -999.25     -999.25     32.7031      2.3949     -999.25
       12379     10.0873     20.2991     85.6998    120.2877     -999.25     -999.25     -999.25     33.7282      2.3988     -999.25
     12379.5     10.1071     21.1755      85.846    120.7352     -999.25     -999.25     -999.25     38.4994      2.4026     -999.25
       12380     10.0772     21.1393     83.2845    121.4013     -999.25     -999.25     -999.25      36.402       2.407     -999.25
     12380.5      9.9758     20.7235     87.4885    121.2798     -999.25     -999.25     -999.25     34.3688      2.4118     -999.25
       12381      9.8745     20.6154     87.7355    121.7758     -999.25     -999.25     -999.25     33.7255      2.4166     -999.25
     12381.5      9.8294     19.3293     87.7355    121.0317     -999.25     -999.25     -999.25     35.3718      2.4208     -999.25
       12382      9.8679     18.5454     87.6754    121.5132     -999.25     -999.25     -999.25     35.6667      2.4208     -999.25
     12382.5      9.9891     18.5847     88.1563    125.2785     -999.25     -999.25     -999.25     37.0669      2.4055     -999.25
