###############################################
##         ENVERUS                           ##
##         ESS - Open Hole                   ##
##         PERMIAN / DELAWARE                ##
##         Nov 03 2023  V4.0                 ##
##         42-109-32709-00-00                ##
###############################################
## Copyright 2017-2023  ENVERUS.  All Rights Reserved. 
## Confidential - Property of ENVERUS, use governed by terms and 
## conditions found within the existing Information Services Subscription Agreement 
## (as may be amended, the “ISSA”) between Customer and ENVERUS. 
## 
~VERSION INFORMATION
# MNEM.UNIT                               DATA : DESCRIPTION OF MNEMONIC
#-----.-----     ----------------------------- : -----------------------------
VERS.                                     2.00 : CWLS LOG ASCII STANDARD - VERSION 2.00
WRAP.                                       NO : MULTIPLE LINES PER DEPTH STEP
VEND.                                  ENVERUS : VENDOR
TYPE.                          ESS - OPEN HOLE : ENVERUS ESSENTIAL CURVES – ACCESSIBLE THROUGH ENVERUS PRISM(TM)
DOC.                                  32116645 : ENVERUS HEADER RAW DOCUMENT ID
#___________________________________________________________________________________________________ 
~WELL INFORMATION 
# 8SOIrMNgLSTosdYTMQVb7KPebVRgGb4NQOaGG3/cpRvPeoxWQd7So5pZ7XPWbXIrV4d26no2f3ffGwkTWQV8GA== 
# MNEM.UNIT                                              DATA : DESCRIPTION OF MNEMONIC 
#-----.-----                    ----------------------------- : ----------------------------- 
CNTY.                                               CULBERSON : COUNTY 
STATE.                                                  TEXAS : STATE 
CNTRY.                                                    USA : COUNTRY 
API.                                             42-109-32709 : API (10 Digit) 
API_14.                                    42-109-32709-00-00 : API (14 Digits) 
API_14_std.                                 42-109-32709-0000 : API (14 Digits Standard) 
UWI.                                           42109327090000 : UNIQUE WELL ID 
WELL.                                    42109327090000_API14 : WELL NAME
STRT.FT                                                  26.5 : START DEPTH
STOP.FT                                                5244.0 : STOP DEPTH
STEP.FT                                                   0.5 : STEP BETWEEN DEPTHS
NULL.                                                 -999.25 : NULL VALUE
#___________________________________________________________________________________________________ 
~PARAMETER INFORMATION 
# MNEM.UNIT                                              DATA : DESCRIPTION OF MNEMONIC 
#-----.-----                    ----------------------------- : ----------------------------- 
EKB.FT                                                   3124 : ELEVATION ABOVE MSL
#___________________________________________________________________________________________________ 
~CURVE INFORMATION 
# MNEM.UNIT           : CURVE DESCRIPTION 
#-----.-----          : ----------------------------- 
 DEPT.FT               : MEASURED DEPTH 
 CALI.IN               : CALIPER (CAL - CALIPER) 
 GR.API                : GAMMA RAY (GAMMA RAY) 
 DT.US/FT              : SONIC DELTA TRANSIT TIME (SONIC) 
 PE.B/E                : PHOTOELECTRIC EFFECT/FACTOR (PHOTOELECTRIC FACTOR) 
 RESS.OHMM             : SHALLOW INDUCTION RESISTIVITY (ILS - SHALLOW RESISTIVITY) 
 RESS_LL.OHMM          : SHALLOW LATEROLOG (LLS - SHALLOW RESISTIVITY) 
 RESD_LL.OHMM          : DEEP LATEROLOG (LLD - DEEP RESISTIVITY) 
 DPHI.V/V              : DENSITY POROSITY (DENSITY POROSITY) 
 NPHI.V/V              : NEUTRON POROSITY (NEUTRON POROSITY) 
 RHOB.G/CC             : BULK DENSITY (DENSITY) 
 #___________________________________________________________________________________________________ 
~A         DEPT           CALI             GR             DT             PE           RESS        RESS_LL        RESD_LL           DPHI           NPHI           RHOB
# ...
         3260.5          8.036         62.317        325.768         2.5838          6.599         9.5362        13.1005        0.13681        0.16653         2.4925
         3261.0          8.036         60.263        330.219         2.6201         10.355        11.9438        15.3259        0.13116        0.16877         2.5024
         3261.5          8.016         65.421        336.606         2.7478         12.277        14.2448        20.0199        0.12016        0.16813         2.5209
         3262.0          8.016         68.146        332.728         2.8792         10.384        15.7152        17.5826        0.10990        0.17062         2.5352
         3262.5          8.016         64.763        330.379         2.8291          7.628        12.6746        15.8662        0.10931        0.16211         2.5336
         3263.0          8.016         58.275        335.865         2.7197          6.726        10.9502        14.3802        0.11781        0.15709         2.5177
         3263.5          8.016         56.397        336.311         2.6824          6.821        10.9210        15.1152        0.12526        0.14576         2.5078
         3264.0          8.016         60.961        329.252         2.7464          8.751        12.4525        16.0826        0.12761        0.14851         2.5059
         3264.5          8.016         66.580        327.595         2.8624         10.634        12.4392        16.0066        0.12789        0.15427         2.5050
         3265.0          8.016         64.216        327.073         3.0685          8.069        10.6866        15.2865        0.12604        0.19168         2.5060
         3265.5          8.055         63.924        327.420         3.1273          5.485         9.7607        14.0385        0.12430        0.19112         2.5056
         3266.0          8.154         67.363        329.780         2.9182          4.644         6.8997         8.9084        0.12288        0.17121         2.5014
         3266.5          8.196         65.202        334.335         2.7104          3.028         4.5630         6.1554        0.13301        0.15204         2.4950
         3267.0          8.084         64.491        342.062         2.6104          1.633         2.9717         4.9214        0.14197        0.15041         2.4794
         3267.5          8.047         70.121        341.380         2.5499          1.360         2.2869         4.1808        0.15391        0.15838         2.4607
         3268.0          8.012         74.413        340.449         2.4852          1.384         2.8631         4.0069        0.16026        0.14716         2.4500
         3268.5          8.134         72.582        341.366         2.4655          1.450         3.1098         4.0827        0.16950        0.17565         2.4396
         3269.0          8.134         68.969        340.414         2.4260          1.518         3.4016         4.3813        0.17211        0.17535         2.4369
         3269.5          8.165         65.911        342.441         2.4260          1.613         3.7875         4.8623        0.16768        0.17398         2.4416
         3270.0          8.174         66.188        342.585         2.4063          1.695         4.0399         5.1394        0.16509        0.16191         2.4428
         3270.5          8.215         67.363        342.655         2.4088          1.706         4.2059         5.4239        0.16672        0.15676         2.4414
         3271.0          8.248         67.337        342.779         2.4458          1.654         4.0914         5.5268        0.16620        0.16201         2.4418
         3271.5          8.273         74.425        342.903         2.4406          1.675         3.8805         5.5567        0.17116        0.16595         2.4399
         3272.0          8.332         82.734        343.000         2.4260          1.722         4.1004         5.6350        0.17422        0.17186         2.4270
         3272.5          8.351         88.635        343.000         2.4733          1.666         4.2936         5.9543        0.18205        0.17593         2.4181
         3273.0          8.372         84.623        343.000         2.5641          1.565         4.2055         5.9390        0.18305        0.17692         2.4156
         3273.5          8.413         72.245        343.000         2.6325          1.516         3.8992         5.7623        0.18622        0.18182         2.4152
         3274.0          8.451         71.878        343.000         2.5128          1.665         3.8639         5.7102        0.18730        0.18276         2.4092
         3274.5          8.490         74.804        343.000         2.4129          2.097         4.0803         5.7102        0.18889        0.17370         2.4076
         3275.0          8.496         68.672        343.000         2.4103          2.201         4.0803         5.6101        0.18380        0.17398         2.4172
         3275.5          8.530         63.363        343.000         2.5207          1.833         3.9696         5.3577        0.17368        0.18316         2.4319
         3276.0          8.549         65.814        343.000         2.5641          1.435         3.7572         5.1167        0.17017        0.18871         2.4353
         3276.5          8.549         69.713        343.000         2.4864          1.603         3.6540         5.0742        0.18375        0.19105         2.4117
         3277.0          8.549         66.518        343.000         2.4458          2.165         3.6997         5.1775        0.19231        0.20120         2.4026
         3277.5          8.530         58.074        343.000         2.4669          2.750         4.0910         5.4285        0.18987        0.21027         2.4063
         3278.0          8.476         57.165        343.000         2.4880          2.493         4.4020         5.7623        0.18977        0.21133         2.4040
         3278.5          8.396         59.944        343.000         2.5090          1.892         4.4513         5.7623        0.19515        0.21201         2.3969
         3279.0          8.372         61.148        343.000         2.6036          1.469         4.2898         5.5826        0.18592        0.19461         2.4078
         3279.5          8.372         65.255        343.000         2.6233          1.512         4.2143         5.3801        0.17625        0.18613         2.4283
         3280.0          8.372         67.755        343.000         2.5560          1.808         4.2313         5.3584        0.17535        0.18183         2.4280
         3280.5          8.372         65.379        343.000         2.4655          2.065         4.2969         5.3584        0.18311        0.16807         2.4144
         3281.0          8.372         54.568        343.000         2.4655          2.241         4.5355         5.5065        0.18736        0.16950         2.4063
         3281.5          8.372         52.674        343.000         2.4534          2.327         4.5917         5.5987        0.18588        0.19073         2.4133
         3282.0          8.372         53.554        343.000         2.3866          2.228         4.5502         5.5567        0.18284        0.18792         2.4222
         3282.5          8.372         58.989        343.000         2.3669          1.975         4.7163         5.5065        0.17663        0.19270         2.4250
         3283.0          8.391         62.166        343.000         2.3669          1.979         4.4670         5.5065        0.18447        0.19421         2.4208
         3283.5          8.391         63.370        343.000         2.3297          3.224         4.4683         5.6430        0.18492        0.19857         2.4118
         3284.0          8.391         65.358        343.000         2.3471          3.421         4.1963         4.8358        0.18602        0.19046         2.4122
         3284.5          8.391         73.148        343.000         2.3471          2.187         3.6974         4.1118        0.17630        0.18173         2.4275
