~Version Information
 VERS.                  2.0:   CWLS log ASCII Standard -VERSION 2.0
 WRAP.                   NO:   One line per depth step
~Well Information Block
#MNEM.UNIT     VALUE/NAME     DESCRIPTION
#---------     -----------    ---------------------------
 STRT.F              8400.0000: START DEPTH
 STOP.F             14130.0000: STOP DEPTH
 STEP.F                 0.5000: STEP DEPTH
 NULL.                 -999.25: NULL VALUE
 LOC .            42-109-33596:  LOCATION
 FL1 .            42-109-33596:  LOCATIONLINE1
 PROV.                      TX:  PROVINCE
 STAT.                      TX:  STATE NAME
 CNTY.               CULBERSON:  COUNTY NAME
 FLD .              WOLFCAMP B:  FIELD NAME
 WELL.           DALE STATE 5H:  WELL NAME
 COMP.     CAPITAN ENERGY INC.:  COMPANY
 DMF .             Drill Floor:  DRILL MEAS FROM
 PDAT.                      GL:  PERMANENT DATUM
 DATE.             11-Feb-2020:  DATE
 SVCO.             Halliburton:  SERVICECONAME
 HIDE.                        :  WELLNAMEOPERAT
 BASI.                 PERMIAN:  BASIN
 UWI .            42-109-33596:  UNIQUE WELL IDENTIFIER
 API .            42-109-33596:  API NUMBER
 RANG.                     N/A:  RANGE
 TOWN.                     N/A:  TOWNSHIP
 SECT.                     N/A:  SECTION
 SON .               906289953:  JOB NUMBER
 CTRY.                        :  COUNTRY
 SRVC.             Halliburton:  SERVICE COMPANY
 LMF .             Drill Floor:  LOG MEASURED FROM
 TVDS.ft             3291.0000:  TVDSS CORRECTN
 EGL .ft             3266.0000:  GROUND ELEVATION
 APD .ft               25.0000:  DEPTH ABOVE PD
 EPD .ft             3266.0000:  ELEVATION
 BAP .ft                0.0000:  GL ELEV ONSHORE
 GVFD.g                 1.0000:  GRAVITY FIELD
 EKB .ft             3291.0000:  KB ELEVATION
 EDF .ft             3291.0000:  DF ELEVATION
~Curve Information Block
#MNEM.UNIT                 API CODE     Curve Description
#---------               -----------    ---------------------------
 DEPT.F                 00 000 000 000:  Depth
 CCL .V                 00 000 000 000:  Casing Collar Locator
 NPHI_OH.pu             00 000 000 000:  NPHI_OH
 NPHI_CHI.decp          00 000 000 000:  NPHI_CHI
 GR_OH.api              00 000 000 000:  GR_OH
 GR_CHI.api             00 000 000 000:  GR_CHI
 RHOB_OH.g/cc           00 000 000 000:  RHOB_OH
 RHOB_CHI.g/cc          00 000 000 000:  RHOB_CHI
 PE_OH.NONE             00 000 000 000:  PE_OH
 PE_CHI.NONE            00 000 000 000:  PE_CHI
 LLS_CHI.ohmm           00 000 000 000:  LLS_CHI
 LLS_OH.ohmm            00 000 000 000:  LLS_OH
 LLD_OH.ohmm            00 000 000 000:  LLD_OH
 LLD_CHI.ohmm           00 000 000 000:  LLD_CHI
 DTC_OH.uspf            00 000 000 000:  DTC_OH
 DTC_CHI.uspf           00 000 000 000:  DTC_CHI
 SPHW_CHI.decp          00 000 000 000:  SPHW_CHI
#Other Information
#
#WARRANTY: Halliburton will use its best efforts to furnish customers with 
#accurate information and interpretations that are part of, and incident to, the services 
#provided.  However, Halliburton cannot and does not warrant the accuracy 
#or correctness of such information and interpretations.  Under no circumstances should any 
#such information or interpretation be relied upon as the sole basis for any drilling, 
#completion, production, or financial decision or any procedure involving any risk to the 
#safety of any drilling venture, drilling rig or its crew or any other third party.  The 
#Customer has full responsibility for all drilling, completion and production operation.  
#Halliburton makes no representations or warranties, either expressed or 
#implied, including, but not limited to, the implied warranties of merchantability or fitness 
#for a particular purpose, with respect to the services rendered.  In no event will 
#Halliburton be liable for failure to obtain any particular results or for 
#any damages, including, but not limited to, indirect, special or consequential damages, 
#resulting from the use of any information or interpretation provided by Halliburton.
#
~A    DEPT      CCL   NPHI_OH NPHI_CHI  GR_OH    GR_CHI  RHOB_OH RHOB_CHI  PE_OH  PE_CHI LLS_CHI   LLS_OH    LLD_OH    LLD_CHI  DTC_OH  DTC_CHI SPHW_CHI 
# ...
   14097.5000  0.0508 -999.25   0.1490  -999.25 110.2328 -999.25   2.5742 -999.25 3.1398  23.6068   -999.25   -999.25   27.7200 -999.25 76.3536 0.2033
   14098.0000  0.0317 -999.25   0.1491  -999.25 106.4119 -999.25   2.5756 -999.25 3.1450  22.9100   -999.25   -999.25   27.6512 -999.25 76.0882 0.2015
   14098.5000 -0.0064 -999.25   0.1506  -999.25 109.9291 -999.25   2.5752 -999.25 3.1607  24.7356   -999.25   -999.25   29.5918 -999.25 76.2084 0.2023
   14099.0000 -0.0248 -999.25   0.1472  -999.25 102.8533 -999.25   2.5783 -999.25 3.1502  24.2938   -999.25   -999.25   29.4787 -999.25 75.4565 0.1970
   14099.5000  0.0367 -999.25   0.1438  -999.25  97.8882 -999.25   2.5812 -999.25 3.1384  24.0719   -999.25   -999.25   29.2844 -999.25 74.8508 0.1927
   14100.0000 -0.0257 -999.25   0.1473  -999.25 110.8124 -999.25   2.5771 -999.25 3.1583  28.4277   -999.25   -999.25   32.6866 -999.25 75.5296 0.1975
   14100.5000  0.0036 -999.25   0.1447  -999.25 105.7130 -999.25   2.5782 -999.25 3.1347  25.7996   -999.25   -999.25   29.9539 -999.25 75.2373 0.1955
   14101.0000 -0.0134 -999.25   0.1446  -999.25 106.4061 -999.25   2.5766 -999.25 3.1181  23.8428   -999.25   -999.25   27.4982 -999.25 75.6110 0.1981
   14101.5000  0.0123 -999.25   0.1484  -999.25 115.6172 -999.25   2.5723 -999.25 3.1468  26.3475   -999.25   -999.25   29.4677 -999.25 76.7034 0.2058
   14102.0000  0.0449 -999.25   0.1452  -999.25 104.6219 -999.25   2.5749 -999.25 3.1337  24.0153   -999.25   -999.25   27.8718 -999.25 76.1588 0.2020
   14102.5000  0.0000 -999.25   0.1422  -999.25  94.6224 -999.25   2.5796 -999.25 3.1536  23.8699   -999.25   -999.25   28.7282 -999.25 75.5400 0.1976
   14103.0000 -0.0361 -999.25   0.1457  -999.25 100.8560 -999.25   2.5781 -999.25 3.1831  28.2373   -999.25   -999.25   33.5008 -999.25 75.6770 0.1986
   14103.5000 -0.0379 -999.25   0.1496  -999.25 109.1669 -999.25   2.5754 -999.25 3.2065  31.9314   -999.25   -999.25   37.3287 -999.25 76.1289 0.2018
   14104.0000  0.0063 -999.25   0.1440  -999.25  95.4823 -999.25   2.5812 -999.25 3.1821  26.2670   -999.25   -999.25   32.5209 -999.25 75.0581 0.1942
   14104.5000 -0.0034 -999.25   0.1439  -999.25  96.4996 -999.25   2.5801 -999.25 3.1639  24.3256   -999.25   -999.25   30.2640 -999.25 75.0973 0.1945
   14105.0000  0.0315 -999.25   0.1421  -999.25  93.8822 -999.25   2.5809 -999.25 3.1422  21.9072   -999.25   -999.25   27.5132 -999.25 74.9633 0.1935
   14105.5000  0.0098 -999.25   0.1457  -999.25 104.3125 -999.25   2.5759 -999.25 3.1358  23.5266   -999.25   -999.25   28.3305 -999.25 75.6470 0.1984
   14106.0000 -0.0035 -999.25   0.1407  -999.25  93.4410 -999.25   2.5803 -999.25 3.1001  19.3666   -999.25   -999.25   23.9915 -999.25 75.0585 0.1942
   14106.5000  0.0053 -999.25   0.1424  -999.25  96.8002 -999.25   2.5791 -999.25 3.0971  19.7810   -999.25   -999.25   24.1078 -999.25 75.2520 0.1956
   14107.0000  0.0000 -999.25   0.1453  -999.25 103.3165 -999.25   2.5776 -999.25 3.1070  21.3228   -999.25   -999.25   25.3711 -999.25 75.5444 0.1976
   14107.5000 -0.0073 -999.25   0.1502  -999.25 117.2335 -999.25   2.5753 -999.25 3.1517  26.4086   -999.25   -999.25   29.9226 -999.25 76.2853 0.2029
   14108.0000 -0.0078 -999.25   0.1467  -999.25 107.6283 -999.25   2.5785 -999.25 3.1272  24.4054   -999.25   -999.25   28.4729 -999.25 75.3773 0.1964
   14108.5000 -0.0017 -999.25   0.1407  -999.25  94.8034 -999.25   2.5833 -999.25 3.0863  20.6045   -999.25   -999.25   24.8569 -999.25 74.4751 0.1901
   14109.0000  0.0000 -999.25   0.1442  -999.25 107.8294 -999.25   2.5786 -999.25 3.1034  23.3760   -999.25   -999.25   26.7968 -999.25 75.1722 0.1950
   14109.5000  0.0000 -999.25   0.1426  -999.25 105.1366 -999.25   2.5790 -999.25 3.0964  22.9991   -999.25   -999.25   26.3551 -999.25 75.0427 0.1941
   14110.0000 -0.0043 -999.25   0.1406  -999.25 100.3354 -999.25   2.5807 -999.25 3.0983  23.2698   -999.25   -999.25   26.6505 -999.25 74.8522 0.1927
   14110.5000 -0.0260 -999.25   0.1405  -999.25  98.2869 -999.25   2.5809 -999.25 3.1250  25.3722   -999.25   -999.25   28.9161 -999.25 75.0379 0.1940
   14111.0000  0.0059 -999.25   0.1400  -999.25  94.7943 -999.25   2.5819 -999.25 3.1439  26.6106   -999.25   -999.25   30.3256 -999.25 75.1425 0.1948
   14111.5000  0.0015 -999.25   0.1420  -999.25  97.9832 -999.25   2.5807 -999.25 3.1696  30.0712   -999.25   -999.25   33.7099 -999.25 75.4211 0.1968
   14112.0000  0.0000 -999.25   0.1456  -999.25 104.2324 -999.25   2.5789 -999.25 3.1994  34.9676   -999.25   -999.25   38.6995 -999.25 75.7529 0.1991
   14112.5000 -0.0033 -999.25   0.1434  -999.25  95.9471 -999.25   2.5828 -999.25 3.1943  33.2325   -999.25   -999.25   38.2388 -999.25 75.1491 0.1948
   14113.0000  0.0433 -999.25   0.1411  -999.25  88.2290 -999.25   2.5864 -999.25 3.1840  28.9282   -999.25   -999.25   34.8211 -999.25 74.7788 0.1922
   14113.5000  0.0232 -999.25   0.1472  -999.25 103.2927 -999.25   2.5796 -999.25 3.1877  31.3614   -999.25   -999.25   36.4764 -999.25 75.4743 0.1971
   14114.0000  0.0006 -999.25   0.1438  -999.25  97.3821 -999.25   2.5813 -999.25 3.1522  26.0288   -999.25   -999.25   30.9491 -999.25 75.0973 0.1945
   14114.5000 -0.0057 -999.25   0.1411  -999.25  92.9851 -999.25   2.5826 -999.25 3.1302  23.0152   -999.25   -999.25   27.7977 -999.25 74.8778 0.1929
   14115.0000  0.0082 -999.25   0.1403  -999.25  93.2127 -999.25   2.5827 -999.25 3.1230  23.0021   -999.25   -999.25   27.6377 -999.25 74.7406 0.1919
   14115.5000  0.0659 -999.25   0.1414  -999.25  97.1247 -999.25   2.5815 -999.25 3.1193  23.6813   -999.25   -999.25   28.0322 -999.25 74.8021 0.1924
   14116.0000  0.0372 -999.25   0.1436  -999.25 103.3320 -999.25   2.5799 -999.25 3.1282  25.5823   -999.25   -999.25   29.6513 -999.25 74.9865 0.1937
   14116.5000  0.0011 -999.25   0.1424  -999.25 101.3629 -999.25   2.5808 -999.25 3.1205  24.9452   -999.25   -999.25   29.0210 -999.25 74.7964 0.1923
   14117.0000  0.0173 -999.25   0.1436  -999.25 102.3437 -999.25   2.5791 -999.25 3.1364  25.6568   -999.25   -999.25   29.9750 -999.25 75.1373 0.1947
   14117.5000  0.0076 -999.25   0.1476  -999.25 111.3332 -999.25   2.5749 -999.25 3.1733  29.6767   -999.25   -999.25   33.8465 -999.25 76.0079 0.2009
   14118.0000  0.0206 -999.25   0.1479  -999.25 108.7884 -999.25   2.5742 -999.25 3.1779  28.6049   -999.25   -999.25   33.2257 -999.25 76.2481 0.2026
   14118.5000 -0.0020 -999.25   0.1442  -999.25  97.8010 -999.25   2.5784 -999.25 3.1699  25.5500   -999.25   -999.25   30.8165 -999.25 75.6380 0.1983
   14119.0000 -0.0229 -999.25   0.1399  -999.25  88.2419 -999.25   2.5837 -999.25 3.1580  22.7154   -999.25   -999.25   28.0486 -999.25 75.0818 0.1944
   14119.5000 -0.0452 -999.25   0.1447  -999.25  98.4783 -999.25   2.5796 -999.25 3.1643  26.5900   -999.25   -999.25   31.3789 -999.25 75.5319 0.1975
   14120.0000  0.0360 -999.25   0.1477  -999.25 108.8512 -999.25   2.5775 -999.25 3.1846  32.0277   -999.25   -999.25   35.9554 -999.25 75.9035 0.2002
   14120.5000  0.0000 -999.25   0.1506  -999.25 121.3928 -999.25   2.5756 -999.25 3.2171  38.9090   -999.25   -999.25   41.3116 -999.25 76.5490 0.2047
   14121.0000 -0.0137 -999.25   0.1475  -999.25 114.6014 -999.25   2.5786 -999.25 3.1843  35.3207   -999.25   -999.25   37.9049 -999.25 75.7708 0.1992
   14121.5000 -0.0419 -999.25   0.1482  -999.25 118.9360 -999.25   2.5781 -999.25 3.1750  33.6558   -999.25   -999.25   35.5506 -999.25 76.0691 0.2013
   14122.0000 -0.0306 -999.25   0.1485  -999.25 118.9718 -999.25   2.5778 -999.25 3.1545  29.6529   -999.25   -999.25   31.6146 -999.25 76.2326 0.2025
   14122.5000  0.0063 -999.25   0.1450  -999.25 105.8519 -999.25   2.5804 -999.25 3.1002  23.0087   -999.25   -999.25   25.8691 -999.25 75.4666 0.1971
   14123.0000  0.0116 -999.25   0.1454  -999.25 104.8289 -999.25   2.5802 -999.25 3.1012  22.4844   -999.25   -999.25   25.6792 -999.25 75.4483 0.1969
   14123.5000 -0.0291 -999.25   0.1500  -999.25 119.1440 -999.25   2.5764 -999.25 3.1636  29.3503   -999.25   -999.25   32.0033 -999.25 76.4110 0.2038
