~Version Information
 VERS.                  2.0:   CWLS log ASCII Standard -VERSION 2.0
 WRAP.                   NO:   One line per depth step
~Well Information Block
#MNEM.UNIT     VALUE/NAME     DESCRIPTION
#---------     -----------    ---------------------------
 STRT.F              8650.0000: START DEPTH
 STOP.F             14150.0000: STOP DEPTH
 STEP.F                 0.5000: STEP DEPTH
 NULL.                 -999.25: NULL VALUE
 LOC .     A1759-SEC34-BLK58-T2-:  LOCATION
 FL4 .        API 42-109-33169:  LOCATIONLINE4
 FL2 .     T&P RR CO-337FSL-25:  LOCATIONLINE2
 FL1 .     A1759-SEC34-BLK58-T2-:  LOCATIONLINE1
 DMF .                      KB:  DRILL MEAS FROM
 PDAT.                      GL:  PERMANENT DATUM
 CNTY.               CULBERSON:  COUNTY NAME
 FLD .     FORD, WEST (WOLFCAMP):  FIELD NAME
 WELL.         ALICE FEE 34 2H:  WELL NAME
 COMP.     CAPITAN ENERGY INC.:  COMPANY
 DATE.             27-Mar-2018:  DATE
 SVCO.             Halliburton:  SERVICECONAME
 PROV.                   TEXAS:  PROVINCE
 STAT.                   TEXAS:  STATE NAME
 CTRY.                     USA:  COUNTRY NAME
 HIDE.                        :  WELLNAMEOPERAT
 BASI.                 PERMIAN:  BASIN
 UWI .            42-109-33169LAT:  UNIQUE WELL IDENTIFIER
 API .            42-109-33169LAT:  API NUMBER
 RANG.                     N/A:  RANGE
 TOWN.                     N/A:  TOWNSHIP
 SECT.                     N/A:  SECTION
 SRVC.             Halliburton:  SERVICE COMPANY
 LMF .                      KB:  LOG MEASURED FROM
 TVDS.ft             3088.0000:  TVDSS CORRECTN
 EGL .ft             3063.0000:  GROUND ELEVATION
 APD .ft               25.0000:  DEPTH ABOVE PD
 EPD .ft             3063.0000:  ELEVATION
 BAP .ft                0.0000:  GL ELEV ONSHORE
 GVFD.g                 1.0000:  GRAVITY FIELD
 EKB .ft             3088.0000:  KB ELEVATION
 EDF .ft             3087.0000:  DF ELEVATION
~Curve Information Block
#MNEM.UNIT                 API CODE     Curve Description
#---------               -----------    ---------------------------
 DEPT.F                 00 000 000 000:  Depth
 CCL .mV                00 000 000 000:  Casing Collar Locator
 NPHI_OH.pu             00 000 000 000:  NPHI_OH
 NPHI_CHI.pu            00 000 000 000:  NPHI_CHI
 GR_OH.api              00 000 000 000:  GR_OH
 GR_CHI.api             00 000 000 000:  GR_CHI
 RHOB_OH.g/cc           00 000 000 000:  RHOB_OH
 RHOB_CHI.g/cc          00 000 000 000:  RHOB_CHI
 PE_OH.b/e              00 000 000 000:  PE_OH
 PE_CHI.b/e             00 000 000 000:  PE_CHI
 MSFL_OH.ohmm           00 000 000 000:  MSFL_OH
 MSFL_CHI.ohmm          00 000 000 000:  MSFL_CHI
 LLS_OH.ohmm            00 000 000 000:  LLS_OH
 LLS_CHI.ohmm           00 000 000 000:  LLS_CHI
 LLD_OH.ohmm            00 000 000 000:  LLD_OH
 LLD_CHI.ohmm           00 000 000 000:  LLD_CHI
 DTC_OH.uspf            00 000 000 000:  DTC_OH
 DTC_CHI.uspf           00 000 000 000:  DTC_CHI
 SPHI_CHI.pu            00 000 000 000:  SPHI_CHI
 SGF .cu                00 000 000 000:  Formation Sigma
 CRNF.NONE              00 000 000 000:  CM GrsCaptRatio
 RIN .NONE              00 000 000 000:  CM GrsInelRatio
#Other Information
#
#WARRANTY: Halliburton will use its best efforts to furnish customers with 
#accurate information and interpretations that are part of, and incident to, the services 
#provided.  However, Halliburton cannot and does not warrant the accuracy 
#or correctness of such information and interpretations.  Under no circumstances should any 
#such information or interpretation be relied upon as the sole basis for any drilling, 
#completion, production, or financial decision or any procedure involving any risk to the 
#safety of any drilling venture, drilling rig or its crew or any other third party.  The 
#Customer has full responsibility for all drilling, completion and production operation.  
#Halliburton makes no representations or warranties, either expressed or 
#implied, including, but not limited to, the implied warranties of merchantability or fitness 
#for a particular purpose, with respect to the services rendered.  In no event will 
#Halliburton be liable for failure to obtain any particular results or for 
#any damages, including, but not limited to, indirect, special or consequential damages, 
#resulting from the use of any information or interpretation provided by Halliburton.
#
~A    DEPT       CCL    NPHI_OH NPHI_CHI  GR_OH    GR_CHI  RHOB_OH RHOB_CHI  PE_OH  PE_CHI  MSFL_OH   MSFL_CHI  LLS_OH   LLS_CHI   LLD_OH   LLD_CHI  DTC_OH  DTC_CHI SPHI_CHI   SGF    CRNF   RIN   
# ...
   12299.0000    0.0000 -999.25  16.5108  -999.25 190.9386 -999.25   2.5064 -999.25 3.3292    -999.25  98.4785   -999.25 112.5339   -999.25 129.1577 -999.25 72.3794  17.5200 24.8960 0.8136 1.1126
   12299.5000    0.0000 -999.25  15.7574  -999.25 165.9300 -999.25   2.5167 -999.25 3.3492    -999.25  82.7777   -999.25 106.7109   -999.25 126.9883 -999.25 71.8787  17.1700 25.1415 0.8028 1.1099
   12300.0000    0.0000 -999.25  15.4385  -999.25 154.9670 -999.25   2.5212 -999.25 3.3580    -999.25  65.8838   -999.25  89.9477   -999.25 107.5696 -999.25 71.8622  17.1600 25.5538 0.7849 1.0998
   12300.5000   95.7838 -999.25  15.9513  -999.25 172.8302 -999.25   2.5147 -999.25 3.3226    -999.25  73.0917   -999.25  90.2461   -999.25 104.4885 -999.25 72.1537  17.3600 25.8439 0.7672 1.0886
   12301.0000    0.0000 -999.25  16.0253  -999.25 179.7086 -999.25   2.5145 -999.25 3.3007    -999.25  71.7945   -999.25  85.0313   -999.25  96.3410 -999.25 72.0599  17.3000 26.0543 0.7635 1.0794
   12301.5000    0.0000 -999.25  15.6192  -999.25 171.0062 -999.25   2.5208 -999.25 3.2905    -999.25  63.6425   -999.25  77.7632   -999.25  88.4772 -999.25 71.5649  16.9500 26.1118 0.7606 1.0757
   12302.0000    0.0000 -999.25  15.2518  -999.25 166.9194 -999.25   2.5267 -999.25 3.2756    -999.25  60.6315   -999.25  73.8006   -999.25  84.0809 -999.25 70.8422  16.4400 26.1240 0.7638 1.0747
   12302.5000    0.0000 -999.25  14.7169  -999.25 155.1964 -999.25   2.5344 -999.25 3.2830    -999.25  47.9480   -999.25  60.2150   -999.25  69.1644 -999.25 70.2162  15.9900 26.0640 0.7676 1.0759
   12303.0000    0.0000 -999.25  14.8435  -999.25 159.4410 -999.25   2.5327 -999.25 3.2771    -999.25  53.6017   -999.25  65.9315   -999.25  75.6707 -999.25 70.2195  16.0000 25.9347 0.7720 1.0788
   12303.5000    0.0000 -999.25  15.3661  -999.25 173.4496 -999.25   2.5255 -999.25 3.2637    -999.25  68.2484   -999.25  80.2230   -999.25  90.7188 -999.25 70.7168  16.3500 25.6802 0.7787 1.0805
   12304.0000    0.0000 -999.25  15.8655  -999.25 187.0564 -999.25   2.5186 -999.25 3.2590    -999.25  78.8090   -999.25  88.4513   -999.25  98.2092 -999.25 71.2847  16.7500 25.3060 0.7890 1.0843
   12304.5000    0.0000 -999.25  15.0931  -999.25 163.0686 -999.25   2.5287 -999.25 3.2944    -999.25  58.5078   -999.25  73.6721   -999.25  83.9556 -999.25 70.7257  16.3500 25.0592 0.7975 1.0863
   12305.0000    0.0000 -999.25  15.0335  -999.25 159.1232 -999.25   2.5290 -999.25 3.3186    -999.25  55.9699   -999.25  73.4333   -999.25  83.8970 -999.25 70.8708  16.4600 24.8799 0.7983 1.0893
   12305.5000    0.0000 -999.25  14.7401  -999.25 147.1578 -999.25   2.5324 -999.25 3.3508    -999.25  48.0818   -999.25  67.9811   -999.25  79.0387 -999.25 70.8801  16.4600 24.9013 0.7949 1.0903
   12306.0000    0.0000 -999.25  15.0887  -999.25 153.7776 -999.25   2.5272 -999.25 3.3469    -999.25  55.0450   -999.25  75.6038   -999.25  87.8760 -999.25 71.2872  16.7500 24.8403 0.7923 1.0910
   12306.5000    0.0000 -999.25  15.4730  -999.25 164.1074 -999.25   2.5217 -999.25 3.3388    -999.25  63.5684   -999.25  82.8903   -999.25  95.4049 -999.25 71.5984  16.9700 24.8084 0.7918 1.0885
   12307.0000    0.0000 -999.25  15.4619  -999.25 165.0782 -999.25   2.5222 -999.25 3.3343    -999.25  60.4745   -999.25  78.3913   -999.25  89.4055 -999.25 71.5909  16.9700 24.7085 0.7943 1.0860
   12307.5000    0.0000 -999.25  15.4359  -999.25 165.9622 -999.25   2.5227 -999.25 3.3370    -999.25  57.6594   -999.25  74.6388   -999.25  84.2508 -999.25 71.5657  16.9500 24.6579 0.7962 1.0856
   12308.0000    0.0000 -999.25  15.6055  -999.25 171.1300 -999.25   2.5203 -999.25 3.3317    -999.25  63.3027   -999.25  79.6183   -999.25  89.7246 -999.25 71.6357  17.0000 24.8337 0.7937 1.0872
   12308.5000    0.0000 -999.25  16.2473  -999.25 188.6462 -999.25   2.5111 -999.25 3.3261    -999.25  73.4991   -999.25  84.4042   -999.25  93.6868 -999.25 72.2372  17.4200 24.8792 0.7892 1.0900
   12309.0000    0.0000 -999.25  16.5034  -999.25 195.3960 -999.25   2.5076 -999.25 3.3163    -999.25  78.8890   -999.25  87.5047   -999.25  96.9215 -999.25 72.4756  17.5900 25.0358 0.7887 1.0909
   12309.5000    0.0000 -999.25  16.4371  -999.25 194.2750 -999.25   2.5086 -999.25 3.3135    -999.25  78.8047   -999.25  87.8607   -999.25  97.3217 -999.25 72.3719  17.5200 24.9987 0.7901 1.0893
   12310.0000    0.0000 -999.25  16.3967  -999.25 194.8738 -999.25   2.5096 -999.25 3.3038    -999.25  79.0569   -999.25  87.7108   -999.25  96.8023 -999.25 72.2622  17.4400 24.9317 0.7937 1.0863
   12310.5000    0.0000 -999.25  16.2006  -999.25 189.8764 -999.25   2.5125 -999.25 3.3059    -999.25  70.8554   -999.25  80.3361   -999.25  88.3501 -999.25 72.1383  17.3500 24.8382 0.7971 1.0826
   12311.0000    0.0000 -999.25  16.0308  -999.25 185.2166 -999.25   2.5150 -999.25 3.3100    -999.25  62.5057   -999.25  72.3971   -999.25  79.2580 -999.25 72.0800  17.3100 24.9277 0.8010 1.0794
   12311.5000    0.0000 -999.25  15.2913  -999.25 164.0648 -999.25   2.5252 -999.25 3.3319    -999.25  51.2905   -999.25  66.9037   -999.25  74.7099 -999.25 71.4474  16.8700 25.1629 0.8054 1.0761
   12312.0000    0.0000 -999.25  16.0932  -999.25 186.8898 -999.25   2.5144 -999.25 3.3105    -999.25  52.1654   -999.25  59.4259   -999.25  63.8720 -999.25 72.3824  17.5300 25.3721 0.8087 1.0746
   12312.5000   47.1849 -999.25  16.4655  -999.25 197.5250 -999.25   2.5095 -999.25 3.2986    -999.25  53.8901   -999.25  57.8552   -999.25  61.4722 -999.25 72.8167  17.8300 25.5605 0.8115 1.0757
   12313.0000    0.0000 -999.25  15.8077  -999.25 175.3138 -999.25   2.5180 -999.25 3.3050    -999.25  56.1856   -999.25  68.0938   -999.25  75.6451 -999.25 72.0439  17.2900 25.6178 0.8116 1.0783
   12313.5000    0.0000 -999.25  16.1794  -999.25 185.1178 -999.25   2.5131 -999.25 3.2856    -999.25  63.3147   -999.25  72.4581   -999.25  80.2412 -999.25 72.3651  17.5100 25.7941 0.8082 1.0818
   12314.0000  -48.2604 -999.25  15.7509  -999.25 170.2244 -999.25   2.5186 -999.25 3.2960    -999.25  58.5459   -999.25  72.1632   -999.25  82.0246 -999.25 72.0153  17.2700 25.8130 0.7978 1.0833
   12314.5000    0.0000 -999.25  14.7376  -999.25 141.4680 -999.25   2.5327 -999.25 3.3228    -999.25  36.3558   -999.25  51.1940   -999.25  59.8469 -999.25 71.2690  16.7400 25.9245 0.7882 1.0831
   12315.0000    0.0000 -999.25  15.0472  -999.25 151.5088 -999.25   2.5286 -999.25 3.3061    -999.25  43.3527   -999.25  58.1394   -999.25  67.1325 -999.25 71.4162  16.8400 25.8194 0.7856 1.0810
   12315.5000    0.0000 -999.25  15.7747  -999.25 176.6444 -999.25   2.5194 -999.25 3.2708    -999.25  57.9453   -999.25  68.3625   -999.25  76.0797 -999.25 71.8232  17.1300 25.7385 0.7867 1.0782
   12316.0000    0.0000 -999.25  15.5491  -999.25 173.5080 -999.25   2.5229 -999.25 3.2708    -999.25  54.7633   -999.25  65.5393   -999.25  72.6288 -999.25 71.4935  16.9000 25.6406 0.7922 1.0766
   12316.5000    0.0000 -999.25  14.8512  -999.25 154.1370 -999.25   2.5322 -999.25 3.3004    -999.25  42.2543   -999.25  55.9652   -999.25  63.1743 -999.25 70.9148  16.4900 25.5528 0.7905 1.0781
   12317.0000    0.0000 -999.25  15.7334  -999.25 179.4748 -999.25   2.5202 -999.25 3.2756    -999.25  60.4843   -999.25  70.8422   -999.25  78.0603 -999.25 71.6117  16.9800 25.7407 0.7866 1.0786
   12317.5000    0.0000 -999.25  15.7383  -999.25 177.5438 -999.25   2.5196 -999.25 3.2859    -999.25  61.3493   -999.25  72.9126   -999.25  80.9572 -999.25 71.6782  17.0300 25.9620 0.7825 1.0781
   12318.0000    0.0000 -999.25  15.8274  -999.25 179.3026 -999.25   2.5185 -999.25 3.2821    -999.25  60.4200   -999.25  71.0448   -999.25  78.6207 -999.25 71.8333  17.1400 26.2448 0.7769 1.0752
   12318.5000    0.0000 -999.25  15.7393  -999.25 179.0794 -999.25   2.5203 -999.25 3.2645    -999.25  59.4092   -999.25  69.1197   -999.25  76.3295 -999.25 71.6306  16.9900 26.3507 0.7783 1.0714
   12319.0000    0.0000 -999.25  15.4656  -999.25 173.1544 -999.25   2.5245 -999.25 3.2547    -999.25  54.5084   -999.25  64.3253   -999.25  71.3935 -999.25 71.2640  16.7400 26.1245 0.7752 1.0685
