###############################################
##         ENVERUS                           ##
##         ESS - Open Hole                   ##
##         PERMIAN / DELAWARE                ##
##         Nov 03 2023  V4.0                 ##
##         42-109-32572-90-00                ##
###############################################
## Copyright 2017-2023  ENVERUS.  All Rights Reserved. 
## Confidential - Property of ENVERUS, use governed by terms and 
## conditions found within the existing Information Services Subscription Agreement 
## (as may be amended, the “ISSA”) between Customer and ENVERUS. 
## 
~VERSION INFORMATION
# MNEM.UNIT                               DATA : DESCRIPTION OF MNEMONIC
#-----.-----     ----------------------------- : -----------------------------
VERS.                                     2.00 : CWLS LOG ASCII STANDARD - VERSION 2.00
WRAP.                                       NO : MULTIPLE LINES PER DEPTH STEP
VEND.                                  ENVERUS : VENDOR
TYPE.                          ESS - OPEN HOLE : ENVERUS ESSENTIAL CURVES – ACCESSIBLE THROUGH ENVERUS PRISM(TM)
DOC.                                  51093105 : ENVERUS HEADER RAW DOCUMENT ID
#___________________________________________________________________________________________________ 
~WELL INFORMATION 
# JLMmoJa/ja/TVcwAQvDk33OYEn4U2aLD16xKSNtVAxpK3Y/5Eg5lhKgsZNDQ5ZP0fRHfEZLFMAnipg5oeA7W3g== 
# MNEM.UNIT                                              DATA : DESCRIPTION OF MNEMONIC 
#-----.-----                    ----------------------------- : ----------------------------- 
CNTY.                                               CULBERSON : COUNTY 
STATE.                                                  TEXAS : STATE 
CNTRY.                                                    USA : COUNTRY 
API.                                             42-109-32572 : API (10 Digit) 
API_14.                                    42-109-32572-90-00 : API (14 Digits) 
API_14_std.                                 42-109-32572-9000 : API (14 Digits Standard) 
UWI.                                           42109325729000 : UNIQUE WELL ID 
WELL.                               42109325720000_PREV_API14 : WELL NAME
STRT.FT                                                2248.5 : START DEPTH
STOP.FT                                               10721.5 : STOP DEPTH
STEP.FT                                                   0.5 : STEP BETWEEN DEPTHS
NULL.                                                 -999.25 : NULL VALUE
PREV_APII.                                     42109325720000 : WELL IDENTIFIER
#___________________________________________________________________________________________________ 
~PARAMETER INFORMATION 
# MNEM.UNIT                                              DATA : DESCRIPTION OF MNEMONIC 
#-----.-----                    ----------------------------- : ----------------------------- 
EKB.FT                                                   3340 : ELEVATION ABOVE MSL
#___________________________________________________________________________________________________ 
~CURVE INFORMATION 
# MNEM.UNIT           : CURVE DESCRIPTION 
#-----.-----          : ----------------------------- 
 DEPT.FT               : MEASURED DEPTH 
 GR__A.API             : GAMMA RAY (GAMMA RAY) 
 DT__A.US/FT           : SONIC DELTA TRANSIT TIME (SONIC) 
 #___________________________________________________________________________________________________ 
~A         DEPT          GR__A          DT__A
# ...
         6163.5        229.605         82.972
         6164.0        235.563         83.453
         6164.5        332.595         94.390
         6165.0        383.052         98.610
         6165.5        392.358         98.589
         6166.0        348.262         97.790
         6166.5        205.582         81.355
         6167.0        135.176         72.485
         6167.5        106.013         75.483
         6168.0        104.530         83.294
         6168.5        151.764         83.396
         6169.0        142.901         79.544
         6169.5        124.417         74.101
         6170.0        120.961         73.029
         6170.5        202.650         81.955
         6171.0        241.739         86.938
         6171.5        246.612         88.305
         6172.0        267.261         91.646
         6172.5        359.215        101.239
         6173.0        394.132        102.658
         6173.5        398.406        104.555
         6174.0        394.387        102.310
         6174.5        352.402         93.267
         6175.0        203.892         87.979
         6175.5        153.013         85.686
         6176.0        142.890         85.681
         6176.5        156.803         88.457
         6177.0        177.102         90.687
         6177.5        192.967         91.071
         6178.0        188.229         90.572
         6178.5        183.159         89.217
         6179.0        171.597         87.354
         6179.5        155.770         85.262
         6180.0        146.757         84.628
         6180.5        140.901         83.116
         6181.0        146.755         81.894
         6181.5        159.674         83.354
         6182.0        176.777         84.185
         6182.5        204.122         85.056
         6183.0        247.284         91.116
         6183.5        284.527         95.190
         6184.0        314.655         96.781
         6184.5        332.655        101.089
         6185.0        327.505        103.838
         6185.5        312.242        106.005
         6186.0        337.903        106.217
         6186.5        365.561        106.113
         6187.0        397.400        105.831
         6187.5        394.159         98.673
         6188.0        352.039         97.336
         6188.5        364.672         98.561
         6189.0        387.800        105.856
         6189.5        390.224        109.707
         6190.0        368.123        107.915
         6190.5        318.862        101.461
         6191.0        303.791         95.968
         6191.5        277.151        101.022
         6192.0        336.054        102.720
         6192.5        403.512        104.258
         6193.0        423.981        103.585
         6193.5        367.273         98.789
         6194.0        342.545         98.426
         6194.5        332.323        100.041
         6195.0        336.472        104.349
         6195.5        336.267        101.033
         6196.0        292.001         99.571
         6196.5        257.651         98.904
         6197.0        255.256         94.799
         6197.5        282.903         91.601
         6198.0        343.942         97.013
         6198.5        408.935        102.922
         6199.0        426.446        103.789
         6199.5        391.623         99.715
         6200.0        271.062         97.787
         6200.5        230.068         99.295
         6201.0        232.399         99.913
         6201.5        265.665        102.478
         6202.0        293.187        102.871
         6202.5        273.283         93.610
         6203.0        207.460         93.002
         6203.5        187.573         88.620
         6204.0        177.212         88.535
         6204.5        164.302         86.932
         6205.0        143.775         84.660
         6205.5        129.159         84.531
         6206.0        151.173         85.449
         6206.5        265.390        101.444
         6207.0        339.038        119.255
         6207.5        373.429        120.566
         6208.0        379.881        120.498
         6208.5        301.974        110.299
         6209.0        263.916        101.294
         6209.5        213.267         99.814
         6210.0        224.518        103.017
         6210.5        281.867        107.890
         6211.0        336.345        113.277
         6211.5        291.713        110.671
         6212.0        261.917        109.662
         6212.5        276.969        113.216
         6213.0        318.927        114.185
         6213.5        269.806        104.235
         6214.0        241.241        101.773
         6214.5        203.150         93.621
         6215.0        185.672         90.720
         6215.5        167.270         89.768
         6216.0        162.818         90.609
         6216.5        163.450         92.681
         6217.0        162.818         95.197
         6217.5        148.101         80.515
         6218.0        118.179         76.579
         6218.5         97.559         72.532
         6219.0         93.808         74.923
         6219.5        119.210         84.588
         6220.0        132.611         84.573
         6220.5        133.381         85.094
         6221.0        122.675         80.911
         6221.5         99.671         72.445
         6222.0         70.109         69.733
         6222.5         54.414         65.554
         6223.0         50.046         66.030
         6223.5         69.878         70.987
         6224.0        101.213         75.859
         6224.5        124.495         84.284
         6225.0        124.137         82.909
         6225.5        111.735         76.111
         6226.0         63.130         71.026
         6226.5         45.887         62.312
         6227.0         42.857         60.703
         6227.5         40.902         58.775
         6228.0         40.904         58.700
         6228.5         36.992         59.558
         6229.0         36.978         59.238
         6229.5         39.716         59.629
         6230.0         42.661         59.485
         6230.5         42.270         57.728
         6231.0         42.841         58.014
         6231.5         45.187         58.990
         6232.0         43.593         59.043
         6232.5         38.382         58.023
         6233.0         37.745         57.914
         6233.5         42.048         58.122
         6234.0         43.836         59.506
         6234.5         43.053         58.025
         6235.0         44.911         59.644
         6235.5         49.084         61.680
         6236.0         54.376         61.484
         6236.5         64.696         61.836
         6237.0         74.791         64.071
         6237.5         77.647         68.139
         6238.0         83.079         69.796
         6238.5         87.428         71.055
         6239.0         86.550         70.995
         6239.5         77.351         69.564
         6240.0         76.071         70.362
         6240.5         94.856         77.221
         6241.0        145.034         82.124
         6241.5        164.655         81.468
         6242.0        150.207         84.761
         6242.5        125.503         85.866
         6243.0        122.114         83.327
         6243.5        118.200         80.701
         6244.0        117.808         73.857
         6244.5        127.431         77.551
         6245.0        165.629        102.184
         6245.5        247.086        108.119
         6246.0        288.079        108.135
         6246.5        319.723        106.056
         6247.0        293.730         97.548
         6247.5        217.502         84.939
         6248.0        173.513         83.709
         6248.5        143.146         82.868
         6249.0        296.287         94.871
         6249.5        465.671        110.801
         6250.0        478.006        108.803
