~VERSION INFORMATION
VERS.           1.2   :CWLS Log ASCII Standard - VERSION 1.2
WRAP.           NO    :One Line per depth step
PROD.  Schlumberger   :LAS Producer
PROG.  DLIS to ASCII 10C0-306                          :LAS Program name and version
CREA.        2007/06/08 22:43                          :LAS Creation date {YYYY/MM/DD hh:mm}
SOURCE.     294b92a6-1e54-4f75-8d20-4493e48002f1       :DLIS File Name
#--------------------------------------------------
~WELL INFORMATION
#MNEM.UNIT      DATA             DESCRIPTION
#---- ------ --------------   -----------------------------
STRT .F      4145.5000       :START DEPTH     
STOP .F      10380.0000      :STOP DEPTH     
STEP .F       0.5000         :STEP       
NULL .          -999.25      :NULL VALUE
COMP .                 COMPANY:  Chesapeake Operating Inc.          
WELL .                    WELL:  University Lands 4627-1            
FLD  .                   FIELD:  Wildcat                            
LOC  .                LOCATION:  1200' FNL & 1995; FEL              
CNTY .                  COUNTY:  Culberson                          
STAT .                   STATE:  Texas                              
CTRY .                 COUNTRY:                                     
SRVC .         SERVICE COMPANY:  Schlumberger                       
API  .              API NUMBER:  42-109-32287                       
DATE .                LOG DATE:  7-Jun-2007
UWI  .          UNIQUE WELL ID:  42-109-32287-0000                  
#-----------------------------------------------------------------------------
~PARAMETER INFORMATION
#MNEM.UNIT    VALUE                      DESCRIPTION
#---- -----   --------------------       ------------------------
CN   .        Chesapeake Operating Inc.  :Company Name
WN   .        University Lands 4627-1    :Well Name
FN   .        Wildcat                    :Field Name
FL   .        1200' FNL & 1995  FEL      :Field Location
FL1  .        Secion  27  Block  46  Abstract  2860 :Field Location Line 1
COUN .        Culberson                  :County or Rig Name
STAT .        Texas                      :State or Province
NATI .                                   :Nation
DATE .        7-Jun-2007                 :Date as Month-Day-Year
APIN .        42-109-32287               :API Serial Number
SECT .        27                         :Section
TOWN .        46                         :Township
RANG .        2860                       :Range
DMF  .        Kelly Bushing              :Drilling Measured From
LMF  .        Kelly Bushing              :Log Measured From
PDAT .        Ground Level               :Permanent Datum
ENGI .        Tarek Sheira               :Engineer's Name
WITN .        Wiley Tisdale /Jud Walker  :Witness's Name
LATI .                                   :Latitude
LONG .                                   :Longitude
LUL  .        Midland  TX                :Logging Unit Location
LUN  .              2365                 :Logging Unit Number
RUN  .        2                          :Run Number
SON  .        11592406                   :Service Order Number
BHT  .DEGF     185.00000                 :Bottom Hole Temperature (used in calculations)
BS   .IN         8.75000                 :Bit Size
DFD  .LB/G       8.60000                 :Drilling Fluid Density
DFV  .S         39.00000                 :Drilling Fluid Viscosity
DFL  .C3         8.00000                 :Drilling Fluid Loss
RMFS .OHMM       0.42100                 :Resistivity of Mud Filtrate Sample
EKB  .F       4323.00000                 :Elevation of Kelly Bushing
EGL  .F       4283.00000                 :Elevation of Ground Level
BLI  .F       10360.70020                :Bottom Log Interval
BSAL .PPM      500.00000                 :Borehole Salinity
FLEV .                                   :Fluid Level
MCST .                                   :Mud Cake Sample Temperature
MFST .DEGF      96.90000                 :Mud Filtrate Sample Temperature
MRT  .DEGF     185.00000                 :Maximum Recorded Temperature
MST  .DEGF      96.90000                 :Mud Sample Temperature
RMCS .                                   :Resistivity of Mud Cake Sample
RMS  .OHMM       0.42100                 :Resistivity of Mud Sample
RW   .OHMM       1.00000                 :Resistivity of Connate Water
TDD  .F       10350.00000                :Total Depth - Driller
TDL  .F       10362.00000                :Total Depth - Logger
TLI  .F       4200.00000                 :Top Log Interval
HIDE .        Formation Micro Imager     :Header Identifier
MATR .        LIME                       :Rock Matrix for Neutron Porosity Corrections
FNUM .           1.00000                 :Form Factor Numerator
FEXP .           2.00000                 :Form Factor Exponent
DFT  .        Fresh Mud                  :Drilling Fluid Type
DFPH .           9.00000                 :Drilling Fluid PH
MCSS .        Calculated                 :Mud Cake Sample Source
MFSS .        Calculated                 :Mud Filtrate Sample Source
MSS  .        Circulation Tank           :Mud Sample Source
OS1  .        TLD-APS-HNGS               :Other Services Line 1
OS2  .        HRLA-HNGS                  :Other Services Line 2
OS3  .        FMI-GR                     :Other Services Line 3
OS4  .        DSI-GR                     :Other Services Line 4
OS5  .        HNGS                       :Other Services Line 5
R1   .        -Tool ran as per tool sketch. :Remark Line 1
R2   .        -Hole size & standoff corrections applied to APS porosity. :Remark Line 2
R3   .        -Log performed on a limestone matrix (MDEN = 2.71 g/cc  DTM = 47.6 us/ft) :Remark Line 3
R4   .        -Hole & cement volumes computed using FCD = 7 . :Remark Line 4
R5   .        -Source of max. hole temperature is CTEM = 185 DegF. :Remark Line 5
R6   .        -Source of max. hole deviation is company man = 3 Deg. :Remark Line 6
R7   .        -Repeat performed off bottom for 300' as per client request. :Remark Line 7
R8   .        -Density measurment is affected by washouts. :Remark Line 8
TCS  .        9 00                       :Time Circulation Stopped
TLAB .        22 15                      :Time Logger At Bottom
EPD  .F         4283.000000              :Elevation of Permanent Datum above Mean Sea Level
APD  .F          40.000000               :Elevation of Depth Reference (LMF) above Permanent Datum
#-----------------------------------------------------------------------------
~CURVE INFORMATION
#MNEM.UNIT   API CODE                                  DESCRIPTION
#---- -----  --------                                  -----------------------
DEPT .F                                                :DEPTH (BOREHOLE) {F12.4}
C1   .IN                                               :Caliper 1 {F11.4}
C2   .IN                                               :Caliper 2 {F11.4}
CHRP .                                                 :Label Peak Coherence, Receiver Array, Compressional - Monopole P&S {F11.4}
CHR1 .                                                 :Label Peak Coherence, Receiver Array - Lower Dipole {F11.4}
CHR2 .                                                 :Label Peak Coherence, Receiver Array - Upper Dipole {F11.4}
DCAL .IN                                               :Differential Caliper {F11.4}
DEVI .DEG                                              :Hole Deviation {F11.4}
DT1R .US/F                                             :Delta-T Shear, Receiver Array - Lower Dipole {F11.4}
DT2  .US/F                                             :Delta-T Shear - Upper Dipole {F11.4}
DT2R .US/F                                             :Delta-T Shear, Receiver Array - Upper Dipole {F11.4}
DT4P .US/F                                             :Delta-T Compressional - Monopole P&S {F11.4}
DT4S .US/F                                             :Delta-T Shear - Monopole P&S {F11.4}
DTCO .US/F                                             :Delta-T Compressional {F11.4}
DTRP .US/F                                             :Delta-T Compressional, Receiver Array - Monopole P&S {F11.4}
DTRS .US/F                                             :Delta-T Shear, Receiver Array - Monopole P&S {F11.4}
DTSM .US/F                                             :Delta-T Shear {F11.4}
ED   .F                                                :East Departure {F11.4}
GR_EDTC.GAPI                                           :Gamma Ray {F11.4}
GTEM .DEGF                                             :Generalized Borehole Temperature {F11.4}
HAZI .DEG                                              :Hole Azimuth {F11.4}
ITT  .S                                                :Integrated Transit Time {F11.4}
ND   .F                                                :North Departure {F11.4}
P1AZ .DEG                                              :Pad 1 Azimuth {F11.4}
PR   .                                                 :Poisson's Ratio {F11.4}
RB   .DEG                                              :Relative Bearing {F11.4}
SDEV .DEG                                              :Sonde Deviation {F11.4}
SPHI .CFCF                                             :Sonic Porosity {F11.4}
STIT .F                                                :Stuck Tool Indicator, Total {F11.4}
TENS .LBF                                              :Cable Tension {F11.4}
#-----------------------------------------------------------------------------
# 
#      DEPT         C1         C2        CHRP       CHR1       CHR2       DCAL       DEVI       DT1R       DT2        DT2R       DT4P       DT4S       DTCO       DTRP       DTRS       DTSM        ED      GR_EDTC      GTEM       HAZI       ITT         ND        P1AZ        PR         RB        SDEV       SPHI       STIT       TENS
#
~A  
# ...
   8708.0000    10.1353     9.8393     0.8410     0.9780     0.9490     1.2362     3.2234   108.2929   100.4042   102.8137    60.7577   108.9405    60.7577    60.7577   108.9405   100.4042    92.1876    75.0528   170.7938   269.9780     0.1118   -16.3928   262.5992     0.2111   352.6328     3.2234     0.0931     0.0000  4130.0000
   8708.5000    10.1337     9.8270     0.7441     0.9822     0.8915     1.2292     3.2201   109.0193   102.6521   104.5309    63.2976   106.3167    63.2976    63.2976   106.3167   102.6521    92.1598    81.4302   170.7980   269.9296     0.1118   -16.3932   264.4902     0.1933   354.5692     3.2201     0.1110     0.0000  4208.0000
   8709.0000     9.9953     9.8393     0.5579     0.9912     0.9578     1.1670     3.2158   107.9427    99.6712   106.6221    59.9343   101.9827    59.9343    59.9343   101.9827    99.6712    92.1319    84.4144   170.8024   269.8963     0.1117   -16.3937   266.4211     0.2168   356.5301     3.2158     0.0872     0.0000  4224.0000
   8709.5000     9.9343     9.8393     0.6685     0.9883     0.9792     1.1367     3.2143   107.0289   104.2030   107.5702    59.7460   103.7956    59.7460    59.7460   103.7956   104.2030    92.1041    82.1906   170.8066   269.8541     0.1117   -16.3942   266.8882     0.2551   357.0388     3.2143     0.0859     0.0000  4066.0000
   8710.0000     9.9343     9.8393     0.6318     0.9773     0.9634     1.1367     3.2151   104.2237   102.0173   102.8896    58.3407   105.6085    58.3407    58.3407   105.6085   102.0173    92.0762    69.2300   170.8109   269.8183     0.1117   -16.3947   268.1575     0.2570   358.3418     3.2151     0.0760     0.0000  4146.0000
   8710.5000     9.9343     9.8025     0.5579     0.9783     0.9634     1.1182     3.2181   102.3890   101.6281   102.7473    56.8041    99.4539    56.8041    56.8041    99.4539   101.6281    92.0484    62.6614   170.8152   269.8003     0.1117   -16.3952   270.2955     0.2728     0.4944     3.2181     0.0651     0.0000  4179.0000
   8711.0000     9.9343     9.8147     0.5664     0.9824     0.9459     1.1243     3.2148   100.8870    97.3524    98.7788    54.1673    95.2927    54.1673    54.1673    95.2927    97.3524    92.0205    63.5219   170.8195   269.7556     0.1116   -16.3956   271.5015     0.2758     1.7432     3.2148     0.0464     0.0000  4113.0000
   8711.5000    10.1085     9.8393     0.6688     0.9628     0.9694     1.2230     3.2168   100.6125    98.9649    98.5745    57.6971    95.1800    57.6971    57.6971    95.1800    98.9649    91.9927    67.6452   170.8238   269.7437     0.1116   -16.3961   271.7299     0.2425     1.9832     3.2168     0.0714     0.0000  4074.0000
   8712.0000    10.4229     9.8147     0.7621     0.9815     0.9529     1.3643     3.2139    96.1698    96.3616   100.2292    58.9164    92.3828    58.9164    58.9164    92.3828    96.3616    91.9648    66.9883   170.8281   269.7370     0.1116   -16.3966   272.3881     0.2015     2.6469     3.2139     0.0800     0.0000  4166.0000
   8712.5000    10.6105     9.8147     0.7155     0.9812     0.9793     1.4549     3.2088    97.2630    96.2818    99.7507    56.1901    94.3030    56.1901    56.1901    94.3030    96.2818    91.9370    58.8353   170.8324   269.6819     0.1115   -16.3970   274.5330     0.2417     4.8436     3.2088     0.0608     0.0000  4284.0000
   8713.0000    10.1839     9.8147     0.6714     0.9754     0.9767     1.2476     3.2095    99.7000    94.8376    97.8765    55.7986    95.0764    55.7986    55.7986    95.0764    94.8376    91.9091    53.8980   170.8367   269.6435     0.1115   -16.3975   275.7300     0.2353     6.0770     3.2095     0.0580     0.0000  4249.0000
   8713.5000     9.9343     9.8147     0.6134     0.9732     0.8798     1.1243     3.2131   101.3801    94.9692    96.5154    59.1758   102.5674    59.1758    59.1758   102.5674    94.9692    91.8812    53.5696   170.8410   269.5884     0.1115   -16.3979   275.9181     0.1827     6.3198     3.2131     0.0819     0.0000  4110.0000
   8714.0000     9.9306     9.8147     0.7497     0.9885     0.9651     1.1225     3.2114   102.2720    98.4214   100.1967    59.6111   101.3100    59.6111    59.6111   101.3100    98.4214    91.8533    61.4136   170.8453   269.5586     0.1115   -16.3983   276.3075     0.2103     6.7384     3.2114     0.0849     0.0000  4102.0000
   8714.5000     9.9324     9.8147     0.5488     0.9895     0.9686     1.1234     3.2060   104.2644    97.8782   101.5038    58.0570    99.6841    58.0570    58.0570    99.6841    97.8782    91.8254    75.6934   170.8496   269.4715     0.1114   -16.3987   275.9050     0.2286     6.4237     3.2060     0.0740     0.0000  4201.0000
   8715.0000     9.9468     9.8147     0.7610     0.9799     0.9615     1.1306     3.2052   106.8033   101.5647   104.8121    56.3819    99.9956    56.3819    56.3819    99.9956   101.5647    91.7976    78.8134   170.8539   269.4400     0.1114   -16.3991   276.4207     0.2773     6.9699     3.2052     0.0621     0.0000  4121.0000
   8715.5000     9.9468     9.7412     0.6731     0.9372     0.9272     1.0935     3.2092   106.3306   101.2844    97.3251    58.0262    95.9095    58.0262    58.0262    95.9095   101.2844    91.7697    77.3953   170.8582   269.4187     0.1114   -16.3995   276.9443     0.2557     7.5141     3.2092     0.0737     0.0000  4133.0000
   8716.0000     9.9343     9.7412     0.7178     0.9069     0.9391     1.0873     3.2020   101.5112   105.0513   101.2764    54.5122    96.7361    54.5122    54.5122    96.7361   105.0513    91.7418    64.5865   170.8625   269.3969     0.1113   -16.3999   277.9121     0.3158     8.5020     3.2020     0.0489     0.0000  4153.0000
   8716.5000     9.9324     9.7412     0.7962     0.9130     0.9700     1.0864     3.2003   101.0052   107.3084   100.3267    54.5760    98.0962    54.5760    54.5760    98.0962   107.3084    91.7139    68.1890   170.8668   269.3365     0.1113   -16.4003   278.8832     0.3255     9.5320     3.2003     0.0493     0.0000  4184.0000
   8717.0000     9.9324     9.7412     0.8242     0.8530     0.9764     1.0864     3.1990   100.9470   105.3244   100.7625    54.9393    98.3543    54.9393    54.9393    98.3543   105.3244    91.6860    70.9304   170.8711   269.2842     0.1113   -16.4006   278.9196     0.3131     9.6206     3.1990     0.0519     0.0000  4198.0000
   8717.5000    10.1353     9.7412     0.7786     0.8511     0.9659     1.1863     3.2011    97.8616   101.7830   102.7573    55.0046    99.5148    55.0046    55.0046    99.5148   101.7830    91.6581    76.3495   170.8754   269.2630     0.1113   -16.4010   278.8957     0.2937     9.6180     3.2011     0.0524     0.0000  4081.0000
   8718.0000    10.2594     9.6922     0.0000     0.7965     0.8112     1.2217     3.2025   115.3648    97.3793    95.2143    53.7035    97.7611    53.7035    53.7035    97.7611    97.3793    91.6302    73.7231   170.8796   269.2176     0.1112   -16.4014   278.4577     0.2815     9.2261     3.2025     0.0432     0.0000  4176.0000
   8718.5000    10.0330     9.7167     0.0000     0.9783     0.9497     1.1236     3.2008   104.2003    93.1700    98.5833    52.4024    97.9903    52.4024    52.4024    97.9903    93.1700    91.6023    73.8771   170.8839   269.1121     0.1112   -16.4017   277.7506     0.2686     8.6251     3.2008     0.0340     0.0000  4300.0000
   8719.0000     9.9343     9.6431     0.6183     0.9776     0.9914     1.0376     3.1950   104.0714    93.4993    99.4600    49.8333    91.6481    49.8333    49.8333    91.6481    93.4993    91.5743    73.2297   170.8882   269.1673     0.1112   -16.4021   277.5639     0.3016     8.3837     3.1950     0.0158     0.0000  4172.0000
   8719.5000     9.9343     9.6431     0.6143     0.9511     0.9914     1.0376     3.1937   102.9071    90.3944    99.5529    49.8003    94.3050    49.8003    49.8003    94.3050    90.3944    91.5463    69.2901   170.8925   269.1425     0.1112   -16.4024   278.0885     0.2821     8.9322     3.1937     0.0156     0.0000  4187.0000
   8720.0000     9.9343     9.6431     0.5611     0.9587     0.9511     1.0376     3.1943    94.5181    92.7819    98.6550    55.1122    96.9620    55.1122    55.1122    96.9620    92.7819    91.5183    56.4915   170.8968   269.0943     0.1111   -16.4028   280.9791     0.2274    11.8670     3.1943     0.0531     0.0000  4158.0000
