~Version Information
 VERS.                  2.0:   CWLS log ASCII Standard -VERSION 2.0
 WRAP.                   NO:   One line per depth step
~Well Information Block
#MNEM.UNIT     VALUE/NAME     DESCRIPTION
#---------     -----------    ---------------------------
 STRT.F              8830.0000: START DEPTH
 STOP.F             14230.0000: STOP DEPTH
 STEP.F                 0.5000: STEP DEPTH
 NULL.                 -999.25: NULL VALUE
 LOC .       API  42-109-33374Lat:  LOCATION
 FL1 .       API  42-109-33374Lat:  LOCATIONLINE1
 DMF .                      KB:  DRILL MEAS FROM
 PDAT.                      GL:  PERMANENT DATUM
 CTRY.                     USA:  COUNTRY NAME
 CNTY.               CULBERSON:  COUNTY NAME
 FLD .     FORD, WEST (WOLFCAMP):  FIELD NAME
 WELL.        MOTHER FEE 28 4H:  WELL NAME
 COMP.          CAPITAN ENERGY:  COMPANY
 DATE.             02-May-2019:  DATE
 SVCO.             Halliburton:  SERVICECONAME
 PROV.                   TEXAS:  PROVINCE
 STAT.                   TEXAS:  STATE NAME
 HIDE.                        :  WELLNAMEOPERAT
 BASI.                 PERMIAN:  BASIN
 UWI .            42-109-33374Lat:  UNIQUE WELL IDENTIFIER
 API .            42-109-33374Lat:  API NUMBER
 RANG.                     N/A:  RANGE
 TOWN.                     N/A:  TOWNSHIP
 SECT.                     N/A:  SECTION
 SON .               905631317:  JOB NUMBER
 SRVC.             Halliburton:  SERVICE COMPANY
 LMF .                      KB:  LOG MEASURED FROM
 BAP .ft                0.0000:  GL ELEV ONSHORE
 GVFD.g                 1.0000:  GRAVITY FIELD
~Curve Information Block
#MNEM.UNIT                 API CODE     Curve Description
#---------               -----------    ---------------------------
 DEPT.F                 00 000 000 000:  Depth
 CCL .V                 00 000 000 000:  Casing Collar Locator
 NPHI_OH.pu             00 000 000 000:  NPHI_OH
 NPHI_CHI.pu            00 000 000 000:  NPHI_CHI
 GR_OH.api              00 000 000 000:  GR_OH
 GR_CHI.api             00 000 000 000:  GR_CHI
 RHOB_OH.g/cc           00 000 000 000:  RHOB_OH
 RHOB_CHI.g/cc          00 000 000 000:  RHOB_CHI
 PE_OH.b/e              00 000 000 000:  PE_OH
 PE_CHI.b/e             00 000 000 000:  PE_CHI
 RT10_OH.ohmm           00 000 000 000:  RT10_OH
 RT10_CHI.ohmm          00 000 000 000:  RT10_CHI
 RT30_OH.ohmm           00 000 000 000:  RT30_OH
 RT30_CHI.ohmm          00 000 000 000:  RT30_CHI
 RT90_OH.ohmm           00 000 000 000:  RT90_OH
 RT90_CHI.ohmm          00 000 000 000:  RT90_CHI
 SPHI_CHI.pu            00 000 000 000:  SPHI_CHI
 DTC_CHI.uspf           00 000 000 000:  DTC_CHI
 DTC_OH.uspf            00 000 000 000:  DTC_OH
 SGF .cu                00 000 000 000:  Formation Sigma
 CRNF.NONE              00 000 000 000:  CM GrsCaptRatio
 RIN .NONE              00 000 000 000:  CM GrsInelRatio
#Other Information
#
#WARRANTY: Halliburton will use its best efforts to furnish customers with 
#accurate information and interpretations that are part of, and incident to, the services 
#provided.  However, Halliburton cannot and does not warrant the accuracy 
#or correctness of such information and interpretations.  Under no circumstances should any 
#such information or interpretation be relied upon as the sole basis for any drilling, 
#completion, production, or financial decision or any procedure involving any risk to the 
#safety of any drilling venture, drilling rig or its crew or any other third party.  The 
#Customer has full responsibility for all drilling, completion and production operation.  
#Halliburton makes no representations or warranties, either expressed or 
#implied, including, but not limited to, the implied warranties of merchantability or fitness 
#for a particular purpose, with respect to the services rendered.  In no event will 
#Halliburton be liable for failure to obtain any particular results or for 
#any damages, including, but not limited to, indirect, special or consequential damages, 
#resulting from the use of any information or interpretation provided by Halliburton.
#
~A    DEPT      CCL   NPHI_OH NPHI_CHI  GR_OH    GR_CHI  RHOB_OH RHOB_CHI  PE_OH  PE_CHI RT10_OH RT10_CHI RT30_OH RT30_CHI RT90_OH  RT90_CHI SPHI_CHI DTC_CHI DTC_OH    SGF    CRNF   RIN   
# ...
   13495.5000 17.3292 -999.25  11.6214  -999.25  54.5541 -999.25   2.5452 -999.25 3.6037 -999.25  81.3354 -999.25  83.5577  -999.25  88.8911  17.5000 72.3415 -999.25 20.7922 0.9821 1.0268
   13496.0000 17.4246 -999.25  11.5628  -999.25  51.7452 -999.25   2.5460 -999.25 3.6379 -999.25  82.9725 -999.25  85.2395  -999.25  90.6803  17.4500 72.2678 -999.25 20.2961 0.9723 1.0242
   13496.5000 17.4233 -999.25  11.3730  -999.25  51.2034 -999.25   2.5491 -999.25 3.6781 -999.25  85.3198 -999.25  87.6510  -999.25  93.2457  17.2300 71.9683 -999.25 19.7662 0.9623 1.0182
   13497.0000 17.4265 -999.25  11.0036  -999.25  52.9403 -999.25   2.5562 -999.25 3.7491 -999.25  87.9590 -999.25  90.3623  -999.25  96.1301  16.7800 71.3240 -999.25 19.3479 0.9620 1.0090
   13497.5000 17.4239 -999.25  10.5293  -999.25  55.3470 -999.25   2.5666 -999.25 3.8567 -999.25  90.8312 -999.25  93.3129  -999.25  99.2690  16.1700 70.4577 -999.25 19.0591 0.9592 0.9966
   13498.0000 17.4263 -999.25  10.0430  -999.25  56.1728 -999.25   2.5780 -999.25 3.9795 -999.25  93.8501 -999.25  96.4143  -999.25 102.5684  15.5200 69.5497 -999.25 18.8400 0.9531 0.9838
   13498.5000 17.4228 -999.25   9.5541  -999.25  54.6386 -999.25   2.5889 -999.25 4.0885 -999.25  96.3664 -999.25  98.9993  -999.25 105.3184  14.8800 68.6340 -999.25 18.6421 0.9464 0.9744
   13499.0000 17.4261 -999.25   9.2887  -999.25  52.0500 -999.25   2.5948 -999.25 4.1577 -999.25  98.3615 -999.25 101.0490  -999.25 107.4989  14.5300 68.1470 -999.25 18.4591 0.9337 0.9692
   13499.5000 17.4233 -999.25   9.1462  -999.25  50.1936 -999.25   2.5958 -999.25 4.1624 -999.25  99.8308 -999.25 102.5584  -999.25 109.1047  14.3800 67.9371 -999.25 18.4860 0.9258 0.9679
   13500.0000 17.4245 -999.25   9.0832  -999.25  49.4211 -999.25   2.5958 -999.25 4.1560 -999.25 100.4964 -999.25 103.2422  -999.25 109.8322  14.3200 67.8533 -999.25 18.7252 0.9203 0.9683
   13500.5000 17.4239 -999.25   8.8009  -999.25  49.1199 -999.25   2.5996 -999.25 4.1475 -999.25  99.9762 -999.25 102.7078  -999.25 109.2636  13.9600 67.3398 -999.25 19.2083 0.9202 0.9706
   13501.0000 17.4208 -999.25   8.5725  -999.25  48.5954 -999.25   2.6039 -999.25 4.1498 -999.25  98.1960 -999.25 100.8790  -999.25 107.3181  13.6300 66.8748 -999.25 19.6810 0.9259 0.9739
   13501.5000 17.4221 -999.25   8.4271  -999.25  48.1439 -999.25   2.6065 -999.25 4.1345 -999.25  95.6014 -999.25  98.2135  -999.25 104.4824  13.4000 66.5533 -999.25 19.9763 0.9314 0.9779
   13502.0000 17.4221 -999.25   8.3636  -999.25  48.0361 -999.25   2.6084 -999.25 4.1251 -999.25  93.0876 -999.25  95.6310  -999.25 101.7351  13.2800 66.3736 -999.25 20.1613 0.9387 0.9812
   13502.5000 17.4227 -999.25   8.4275  -999.25  48.5940 -999.25   2.6085 -999.25 4.1198 -999.25  91.1152 -999.25  93.6047  -999.25  99.5795  13.3200 66.4327 -999.25 20.2180 0.9485 0.9831
   13503.0000 17.4222 -999.25   8.4485  -999.25  49.6122 -999.25   2.6094 -999.25 4.1195 -999.25  89.4680 -999.25  91.9125  -999.25  97.7792  13.3100 66.4154 -999.25 20.3222 0.9622 0.9836
   13503.5000 17.4211 -999.25   8.4691  -999.25  50.9304 -999.25   2.6114 -999.25 4.1415 -999.25  88.1735 -999.25  90.5826  -999.25  96.3645  13.2800 66.3805 -999.25 20.5608 0.9789 0.9838
   13504.0000 17.4221 -999.25   8.4989  -999.25  52.0381 -999.25   2.6139 -999.25 4.1703 -999.25  86.7169 -999.25  89.0862  -999.25  94.7725  13.2600 66.3463 -999.25 21.0599 0.9947 0.9868
   13504.5000 17.4192 -999.25   8.6494  -999.25  52.2123 -999.25   2.6131 -999.25 4.1654 -999.25  84.5464 -999.25  86.8564  -999.25  92.4005  13.4000 66.5449 -999.25 21.6638 1.0117 0.9929
   13505.0000 17.4233 -999.25   8.8536  -999.25  50.6486 -999.25   2.6109 -999.25 4.1407 -999.25  81.3859 -999.25  83.6096  -999.25  88.9464  13.6000 66.8293 -999.25 22.3544 1.0373 1.0034
   13505.5000 17.4279 -999.25   9.2329  -999.25  48.5054 -999.25   2.6057 -999.25 4.0938 -999.25  77.5047 -999.25  79.6223  -999.25  84.7046  14.0200 67.4174 -999.25 23.0853 1.0680 1.0157
   13506.0000 17.4254 -999.25   9.5989  -999.25  47.1717 -999.25   2.5997 -999.25 4.0167 -999.25  73.2065 -999.25  75.2067  -999.25  80.0071  14.4200 67.9898 -999.25 24.0701 1.1028 1.0298
   13506.5000 17.4254 -999.25  10.1738  -999.25  47.4345 -999.25   2.5914 -999.25 3.9340 -999.25  68.6932 -999.25  70.5701  -999.25  75.0746  15.0600 68.9018 -999.25 25.0630 1.1161 1.0419
   13507.0000 17.4240 -999.25  11.1899  -999.25  48.9444 -999.25   2.5730 -999.25 3.7642 -999.25  64.1323 -999.25  65.8846  -999.25  70.0900  16.3200 70.6708 -999.25 25.9381 1.0989 1.0498
   13507.5000 17.4236 -999.25  12.2913  -999.25  50.5936 -999.25   2.5536 -999.25 3.5990 -999.25  60.3573 -999.25  62.0064  -999.25  65.9642  17.6700 72.5909 -999.25 26.4531 1.0755 1.0547
   13508.0000 17.4248 -999.25  12.8654  -999.25  51.4144 -999.25   2.5414 -999.25 3.4541 -999.25  56.9197 -999.25  58.4749  -999.25  62.2074  18.3900 73.5978 -999.25 26.7279 1.0501 1.0551
   13508.5000 17.4252 -999.25  12.9345  -999.25  51.5260 -999.25   2.5381 -999.25 3.3717 -999.25  54.4660 -999.25  55.9541  -999.25  59.5257  18.4600 73.7038 -999.25 26.8138 1.0474 1.0569
   13509.0000 17.4227 -999.25  12.6609  -999.25  51.2768 -999.25   2.5400 -999.25 3.3209 -999.25  53.0429 -999.25  54.4922  -999.25  57.9704  18.1300 73.2318 -999.25 26.6694 1.0477 1.0586
   13509.5000 17.4252 -999.25  12.2044  -999.25  51.1969 -999.25   2.5455 -999.25 3.3025 -999.25  52.5015 -999.25  53.9360  -999.25  57.3787  17.5700 72.4378 -999.25 26.3963 1.0475 1.0597
   13510.0000 17.4238 -999.25  11.9260  -999.25  51.1514 -999.25   2.5491 -999.25 3.3052 -999.25  52.7217 -999.25  54.1622  -999.25  57.6194  17.2300 71.9618 -999.25 26.1896 1.0455 1.0596
   13510.5000 17.4267 -999.25  11.9556  -999.25  51.2867 -999.25   2.5488 -999.25 3.3217 -999.25  53.4463 -999.25  54.9066  -999.25  58.4113  17.2800 72.0345 -999.25 26.0140 1.0386 1.0581
   13511.0000 17.3527 -999.25  11.9778  -999.25  51.6118 -999.25   2.5482 -999.25 3.3330 -999.25  54.3539 -999.25  55.8390  -999.25  59.4032  17.3300 72.1102 -999.25 25.7753 1.0379 1.0566
   13511.5000 17.4524 -999.25  11.9806  -999.25  52.4089 -999.25   2.5479 -999.25 3.3465 -999.25  55.3773 -999.25  56.8903  -999.25  60.5216  17.3600 72.1537 -999.25 25.3398 1.0357 1.0539
   13512.0000 17.4303 -999.25  11.9687  -999.25  53.6971 -999.25   2.5471 -999.25 3.3494 -999.25  56.5940 -999.25  58.1403  -999.25  61.8514  17.3900 72.1929 -999.25 24.9450 1.0300 1.0523
   13512.5000 17.4299 -999.25  12.0635  -999.25  54.9958 -999.25   2.5450 -999.25 3.3524 -999.25  57.8040 -999.25  59.3834  -999.25  63.1738  17.5500 72.4168 -999.25 24.7998 1.0172 1.0485
   13513.0000 17.4054 -999.25  12.1156  -999.25  56.0122 -999.25   2.5438 -999.25 3.3601 -999.25  58.8986 -999.25  60.5079  -999.25  64.3701  17.6500 72.5532 -999.25 24.9885 1.0089 1.0465
   13513.5000 17.4336 -999.25  12.1108  -999.25  56.5343 -999.25   2.5434 -999.25 3.3581 -999.25  59.3679 -999.25  60.9900  -999.25  64.8830  17.6600 72.5700 -999.25 25.3988 1.0138 1.0456
   13514.0000 17.3897 -999.25  11.8503  -999.25  56.2042 -999.25   2.5482 -999.25 3.3736 -999.25  58.8938 -999.25  60.5029  -999.25  64.3648  17.3100 72.0704 -999.25 25.8565 1.0280 1.0459
   13514.5000 17.4371 -999.25  11.4872  -999.25  54.5863 -999.25   2.5543 -999.25 3.3769 -999.25  57.6832 -999.25  59.2592  -999.25  63.0417  16.8100 71.3676 -999.25 26.1172 1.0432 1.0479
   13515.0000 17.4564 -999.25  11.2128  -999.25  52.1052 -999.25   2.5600 -999.25 3.3948 -999.25  56.2748 -999.25  57.8124  -999.25  61.5026  16.4000 70.7944 -999.25 26.2180 1.0492 1.0481
   13515.5000 17.4104 -999.25  11.3432  -999.25  49.7406 -999.25   2.5593 -999.25 3.4038 -999.25  55.1627 -999.25  56.6699  -999.25  60.2871  16.5200 70.9592 -999.25 26.3096 1.0571 1.0499
   13516.0000 17.4311 -999.25  11.4164  -999.25  48.1161 -999.25   2.5602 -999.25 3.4297 -999.25  54.4624 -999.25  55.9505  -999.25  59.5218  16.5600 71.0189 -999.25 26.2574 1.0657 1.0503
   13516.5000 17.4147 -999.25  11.4889  -999.25  47.6563 -999.25   2.5596 -999.25 3.4296 -999.25  54.1105 -999.25  55.5890  -999.25  59.1372  16.6400 71.1263 -999.25 26.2284 1.0719 1.0506
