~VERSION INFORMATION
VERS. 2.0 : CWLS Log ASCII Standard - version 2.0
WRAP.  NO : One line per depth step
#--------------------------------------------------#
#----------------DRILLING INFO, INC.---------------#
#---------------WWW.DRILLINGINFO.COM---------------#
#------------------COPYRIGHT 2015------------------#
#--------------------------------------------------#
#THIS FILE MAY BE USED ONLY IN ACCORDANCE WITH A CURRENT SUBSCRIPTION AGREEMENT BETWEEN
#THE USER AND DRILLING INFO, INC. NO PART OF THIS FILE MAY BE REPRODUCED, USED, COPIED,
#MODIFIED, PROPAGATED, OR DISTRIBUTED EXCEPT IN ACCORDANCE WITH THE SUBSCRIPTION
#AGREEMENT. UNAUTHORIZED USE OR DISTRIBUTION OF ALL OR ANY PART OF THIS FILE MAY VIOLATE
#COPYRIGHT, TRADEMARK, AND/OR OTHER LAWS AND IS SUBJECT TO CIVIL AS WELL AS CRIMINAL
#SANCTIONS.
#--------------------------------------------------#
#THIS FILE IS PROVIDED "AS-IS" AND ALL WARRANTIES ARE EXPRESSLY DISCLAIMED, WHETHER
#EXPRESS, ORAL, IMPLIED, STATUTORY OR OTHERWISE, INCLUDING ANY IMPLIED WARRANTY OF FITNESS
#FOR A PARTICULAR PURPOSE, MERCHANTABILITY, TITLE OR NON-INFRINGEMENT, AND ANY WARRANTIES
#ARISING BY VIRTUE OF CUSTOM OF TRADE OR COURSE OF DEALING.  FURTHER, DRILLING INFO,
#INC. AND ITS LICENSORS DO NOT REPRESENT OR WARRANT THAT THIS FILE WILL MEET USER'S
#REQUIREMENTS OR ARE SUITABLE FOR USER'S NEEDS OR THAT THE DATA OR RESULTS PROVIDED IN
#CONJUNCTION THEREWITH ARE CORRECT, ACCURATE, TIMELY OR RELIABLE. THESE DISCLAIMERS SHALL
#APPLY REGARDLESS OF ANY FAILURE OF ESSENTIAL PURPOSE OF ANY LIMITED REMEDY.  SOME
#JURISDICTIONS DO NOT ALLOW THE EXCLUSION OF CERTAIN WARRANTIES SO SOME OF THE ABOVE
#EXCLUSIONS MAY NOT APPLY. IN NO EVENT SHALL DRILLING INFO, INC. OR ANY OF ITS AFFILIATES
#BE LIABLE UNDER ANY LEGAL THEORY, WHETHER IN TORT (INCLUDING WITHOUT LIMITATION
#NEGLIGENCE), CONTRACT, STRICT LIABILITY, STATUTORY OR OTHERWISE, FOR ANY SPECIAL,
#INCIDENTAL, CONSEQUENTIAL, EXEMPLARY, PUNITIVE OR INDIRECT DAMAGE OF ANY KIND, INCLUDING
#WITHOUT LIMITATION LOSS OF REVENUE, PROFITS, GOODWILL, USE, AND/OR DATA OR THE COST OF
#PROCUREMENT OF SUBSTITUTE GOODS OR SERVICES, EVEN IF APPRISED OF THE POSSIBILITY OF SUCH
#DAMAGES IN ADVANCE.
#--------------------------------------------------#
~WELL INFORMATION
#MNEMONIC     .UNIT              VALUE :DESCRIPTION
#--------------------------------------------------#
STRT       .FT                0 :START DEPTH
STOP       .FT                10142 :STOP DEPTH
STEP       .FT                   0.500 :STEP
NULL       .                  -999.250 :NULL
API        .                421093138200 :API NUMBER
COMP       .         SHELL OIL COMPANY :COMPANY
WELL       .        SIBLEY  1 :WELL
DATE       .                08-Aug-1978 :LOG DATE
~CURVE INFORMATION
#MNEMONIC     .UNIT      API CODE :CURVE DESCRIPTION
#--------------------------------------------------#
DEPTH       .FT                      :Measured Depth
CAL.INCH        UNKNOWN   :CAL
DT.US/FT        UNKNOWN   :DT
GR.API        UNKNOWN   :GR
~A    DEPTH    CAL    DT    GR
# ...
 7943.5     9.784   71.82   73.68
 7944     9.8   69.341   72.798
 7944.5     9.815   66.862   71.181
 7945     9.83   64.383   69.564
 7945.5     9.838   61.904   67.521
 7946     9.834   59.425   63.227
 7946.5     9.829   59.393   58.932
 7947     9.825   60.621   54.638
 7947.5     9.82   61.85   50.343
 7948     9.816   62.712   46.105
 7948.5     9.811   62.84   52.126
 7949     9.806   62.967   58.147
 7949.5     9.802   63.095   61.753
 7950     9.797   63.223   61.325
 7950.5     9.793   63.35   60.897
 7951     9.788   63.478   60.984
 7951.5     9.784   63.606   63.21
 7952     9.779   63.225   65.437
 7952.5     9.775   61.856   64.906
 7953     9.77   60.487   61.704
 7953.5     9.766   59.117   58.502
 7954     9.761   59.608   55.3
 7954.5     9.756   61.905   52.098
 7955     9.752   63.938   51.376
 7955.5     9.747   64.272   57.477
 7956     9.743   64.606   63.578
 7956.5     9.738   64.94   66.377
 7957     9.734   65.274   68.635
 7957.5     9.729   65.432   70.893
 7958     9.725   65.371   73.151
 7958.5     9.72   65.373   72.116
 7959     9.722   65.609   70.929
 7959.5     9.727   65.844   69.742
 7960     9.733   65.797   69.281
 7960.5     9.739   65.155   69.809
 7961     9.745   64.512   70.337
 7961.5     9.751   63.87   70.865
 7962     9.757   63.228   71.319
 7962.5     9.763   62.705   70.389
 7963     9.768   63.043   69.459
 7963.5     9.774   63.381   68.53
 7964     9.78   63.719   67.6
 7964.5     9.786   64.057   66.956
 7965     9.792   64.395   67.44
 7965.5     9.798   64.732   67.924
 7966     9.804   64.459   68.408
 7966.5     9.809   63.887   68.892
 7967     9.815   63.347   69.376
 7967.5     9.821   63.407   69.86
 7968     9.827   63.467   70.344
 7968.5     9.833   63.527   70.829
 7969     9.839   63.587   69.232
 7969.5     9.844   63.439   67.55
 7970     9.85   63.102   65.868
 7970.5     9.853   62.765   64.789
 7971     9.853   62.943   69.446
 7971.5     9.853   64.397   74.102
 7972     9.854   65.851   78.759
 7972.5     9.854   67.305   83.416
 7973     9.854   68.759   88.073
 7973.5     9.854   70.213   92.729
 7974     9.924   70.236   96.259
 7974.5     10.012   69.913   96.335
 7975     10.101   69.591   96.41
 7975.5     10.189   69.268   96.486
 7976     10.105   68.945   96.418
 7976.5     10.02   69.302   94.47
 7977     9.934   69.698   92.523
 7977.5     9.921   70.093   90.575
 7978     9.921   70.489   88.628
 7978.5     9.921   69.415   86.56
 7979     9.905   68.005   82.68
 7979.5     9.873   66.595   78.8
 7980     9.841   65.184   74.92
 7980.5     9.809   63.834   70.808
 7981     9.777   64.451   65.744
 7981.5     9.745   65.067   66.335
 7982     9.734   65.683   70.068
 7982.5     9.737   65.746   73.801
 7983     9.741   64.917   76.67
 7983.5     9.745   64.088   73.753
 7984     9.749   63.259   70.835
 7984.5     9.753   62.43   69.688
 7985     9.758   62.465   68.906
 7985.5     9.764   64.66   68.124
 7986     9.771   66.855   67.341
 7986.5     9.777   69.05   71.652
 7987     9.783   71.245   80.297
 7987.5     9.796   73.44   88.943
 7988     9.841   75.034   86.467
 7988.5     9.887   72.916   82.156
 7989     9.932   70.797   77.845
 7989.5     9.978   68.678   73.534
 7990     9.883   66.56   69.223
 7990.5     9.647   64.441   64.912
 7991     9.57   62.322   63.621
 7991.5     9.562   61.318   62.975
 7992     9.554   61.682   62.329
 7992.5     9.546   62.046   61.98
 7993     9.538   62.41   64.66
 7993.5     9.53   62.461   67.34
 7994     9.522   61.886   68.456
 7994.5     9.514   61.311   62.99
 7995     9.5   60.736   60.765
 7995.5     9.475   60.75   60.542
 7996     9.449   61.071   60.318
 7996.5     9.423   61.391   60.094
 7997     9.397   61.712   59.588
 7997.5     9.372   62.032   58.669
 7998     9.346   62.353   57.751
 7998.5     9.32   62.673   56.833
 7999     9.294   62.598   62.092
 7999.5     9.268   62.304   70.849
 8000     9.243   62.011   75.818
 8000.5     9.238   61.718   74.452
 8001     9.235   61.425   73.086
 8001.5     9.233   61.8   71.72
 8002     9.23   62.384   70.353
 8002.5     9.244   62.969   70.669
 8003     9.264   63.553   72.947
 8003.5     9.283   64.137   75.226
 8004     9.303   64.721   75.993
 8004.5     9.323   65.15   72.948
 8005     9.343   64.384   69.904
 8005.5     9.362   63.618   66.859
 8006     9.382   62.853   63.815
 8006.5     9.402   62.087   60.771
 8007     9.422   61.863   60.115
 8007.5     9.441   62.212   61.837
 8008     9.461   62.56   65.396
 8008.5     9.455   62.909   68.955
 8009     9.444   63.257   70.717
 8009.5     9.432   63.606   72.282
 8010     9.42   63.955   73.848
 8010.5     9.409   64.303   75.413
 8011     9.397   64.652   77.703
 8011.5     9.385   65   81.043
 8012     9.374   65.349   84.384
 8012.5     9.362   65.698   87.724
 8013     9.351   66.046   87.755
 8013.5     9.339   66.395   85.651
 8014     9.327   66.166   83.548
 8014.5     9.316   65.132   83.25
 8015     9.312   64.098   83.36
 8015.5     9.322   63.065   83.47
 8016     9.332   62.031   72.835
 8016.5     9.342   60.997   70.247
 8017     9.352   60.814   70.371
 8017.5     9.362   61.819   70.496
 8018     9.372   62.823   71.941
 8018.5     9.381   63.827   75.593
 8019     9.391   64.831   79.244
 8019.5     9.401   65.836   82.896
 8020     9.411   66.802   84.148
 8020.5     9.421   66.85   84.944
 8021     9.423   66.898   85.74
 8021.5     9.426   67.215   86.536
 8022     9.429   68.516   93.412
 8022.5     9.431   69.422   96.139
 8023     9.434   68.961   92.986
 8023.5     9.436   68.5   90.981
 8024     9.439   68.392   89.298
 8024.5     9.441   68.558   87.616
 8025     9.444   68.725   83.928
 8025.5     9.447   67.32   78.041
 8026     9.449   65.233   72.154
 8026.5     9.452   63.146   66.267
 8027     9.454   61.06   60.38
 8027.5     9.457   59.656   58.38
 8028     9.46   61.172   62.255
 8028.5     9.462   62.688   66.13
 8029     9.465   64.203   70.005
 8029.5     9.467   65.122   73.88
 8030     9.47   65.866   77.754
 8030.5     9.472   66.609   81.629
 8031     9.475   67.353   85.504
 8031.5     9.478   67.374   85.633
 8032     9.48   66.565   85.336
 8032.5     9.483   65.755   81.934
 8033     9.485   64.946   77.693
 8033.5     9.488   64.136   73.451
 8034     9.491   63.327   72.22
 8034.5     9.493   64.182   74.029
 8035     9.496   65.396   75.838
 8035.5     9.498   66.611   77.648
 8036     9.501   67.826   79.457
 8036.5     9.503   68.227   81.266
 8037     9.506   68.533   82.721
 8037.5     9.509   68.839   83.315
 8038     9.511   69.145   83.909
 8038.5     9.514   69.451   88.422
 8039     9.516   69.757   97.339
 8039.5     9.519   70.063   97.101
 8040     9.522   69.801   94.282
 8040.5     9.524   68.364   90.348
 8041     9.527   66.927   86.414
 8041.5     9.529   65.49   82.479
 8042     9.532   66.327   82.687
 8042.5     9.534   67.265   83.579
 8043     9.537   68.202   84.472
 8043.5     9.54   69.088   89.559
 8044     9.542   69.733   95.701
 8044.5     9.545   70.379   96.626
 8045     9.547   70.144   93.746
 8045.5     9.55   69.616   90.866
 8046     9.553   69.088   88.317
 8046.5     9.555   68.56   87.589
 8047     9.557   68.031   86.601
 8047.5     9.558   67.761   84.957
 8048     9.559   67.795   83.314
 8048.5     9.559   67.83   83.515
 8049     9.56   67.864   85.296
 8049.5     9.561   67.72   86.38
 8050     9.562   67.405   85.834
 8050.5     9.562   67.448   85.287
 8051     9.563   68.171   84.741
 8051.5     9.564   68.894   84.681
 8052     9.565   68.377   84.71
 8052.5     9.565   67.713   84.739
 8053     9.566   67.048   84.074
 8053.5     9.567   66.384   80.37
 8054     9.568   65.72   78.907
 8054.5     9.568   65.056   80.418
 8055     9.569   65.103   81.929
 8055.5     9.57   65.562   83.44
 8056     9.571   66.022   84.951
 8056.5     9.571   66.482   86.462
 8057     9.572   67.115   89.343
 8057.5     9.573   67.932   92.915
 8058     9.574   68.75   96.487
 8058.5     9.575   69.567   96.328
