###############################################
##         ENVERUS                           ##
##         ESS - Open Hole                   ##
##         PERMIAN / DELAWARE                ##
##         Nov 03 2023  V4.0                 ##
##         42-109-33370-00-00                ##
###############################################
## Copyright 2017-2023  ENVERUS.  All Rights Reserved. 
## Confidential - Property of ENVERUS, use governed by terms and 
## conditions found within the existing Information Services Subscription Agreement 
## (as may be amended, the “ISSA”) between Customer and ENVERUS. 
## 
~VERSION INFORMATION
# MNEM.UNIT                               DATA : DESCRIPTION OF MNEMONIC
#-----.-----     ----------------------------- : -----------------------------
VERS.                                     2.00 : CWLS LOG ASCII STANDARD - VERSION 2.00
WRAP.                                       NO : MULTIPLE LINES PER DEPTH STEP
VEND.                                  ENVERUS : VENDOR
TYPE.                          ESS - OPEN HOLE : ENVERUS ESSENTIAL CURVES – ACCESSIBLE THROUGH ENVERUS PRISM(TM)
DOC.                                  52814434 : ENVERUS HEADER RAW DOCUMENT ID
#___________________________________________________________________________________________________ 
~WELL INFORMATION 
# 4wk/Fx8UuugU+iebl2dHJIcndKaYvWbTE+/Vf37HP7rynMiEVi3nAb6NYbehQO/VbM9PVY38flJCaeNisGRn4g== 
# MNEM.UNIT                                              DATA : DESCRIPTION OF MNEMONIC 
#-----.-----                    ----------------------------- : ----------------------------- 
CNTY.                                               CULBERSON : COUNTY 
STATE.                                                  TEXAS : STATE 
CNTRY.                                                    USA : COUNTRY 
API.                                             42-109-33370 : API (10 Digit) 
API_14.                                    42-109-33370-00-00 : API (14 Digits) 
API_14_std.                                 42-109-33370-0000 : API (14 Digits Standard) 
UWI.                                           42109333700000 : UNIQUE WELL ID 
WELL.                                       ROXANNE FEE 46 3H : WELL NAME
STRT.FT                                                8800.0 : START DEPTH
STOP.FT                                               14157.0 : STOP DEPTH
STEP.FT                                                   0.5 : STEP BETWEEN DEPTHS
NULL.                                                 -999.25 : NULL VALUE
LOC.                                        API  42-109-33370 : LOCATION 
FL1.                                        API  42-109-33370 : LOCATIONLINE1 
DMF.                                                       KB : DRILL MEAS FROM 
PDAT.                                                      GL : PERMANENT DATUM 
FLD.                                    FORD, WEST (WOLFCAMP) : FIELD NAME 
COMP.                                          CAPITAN ENERGY : COMPANY 
DATE.                                             29-APR-2019 : DATE 
SVCO.                                             HALLIBURTON : SERVICECONAME 
PROV.                                                   TEXAS : PROVINCE 
BASI.                                                 PERMIAN : BASIN 
RANG.                                                     N/A : RANGE 
TOWN.                                                     N/A : TOWNSHIP 
SECT.                                                     N/A : SECTION 
SON.                                                905631605 : JOB NUMBER 
SRVC.                                             HALLIBURTON : SERVICE COMPANY 
LMF.                                                       KB : LOG MEASURED FROM 
BAP.FT                                                 0.0000 : GL ELEV ONSHORE 
GVFD.G                                                 1.0000 : GRAVITY FIELD
#___________________________________________________________________________________________________ 
~CURVE INFORMATION 
# MNEM.UNIT           : CURVE DESCRIPTION 
#-----.-----          : ----------------------------- 
 DEPT.FT               : MEASURED DEPTH 
 GR.API                : GAMMA RAY (GR_CHI - GR_CHI) 
 GR__01.API            : GAMMA RAY (GR_OH - GR_OH) 
 DT.US/FT              : SONIC DELTA TRANSIT TIME (DTC_CHI - DTC_CHI) 
 DT__01.US/FT          : SONIC DELTA TRANSIT TIME (DTC_OH - DTC_OH) 
 PE.B/E                : PHOTOELECTRIC EFFECT/FACTOR (PE_CHI - PE_CHI) 
 PE__01.B/E            : PHOTOELECTRIC EFFECT/FACTOR (PE_OH - PE_OH) 
 RESS_10.OHMM          : 10 INCH SHALLOW INDUCTION RESISTIVITY (RT10_CHI - RT10_CHI) 
 RESS_10__01.OHMM      : 10 INCH SHALLOW INDUCTION RESISTIVITY (RT10_OH - RT10_OH) 
 RESM_30.OHMM          : 30 INCH MEDIUM INDUCTION RESISTIVITY (RT30_CHI - RT30_CHI) 
 RESM_30__01.OHMM      : 30 INCH MEDIUM INDUCTION RESISTIVITY (RT30_OH - RT30_OH) 
 RESD_90.OHMM          : 90 INCH DEEP INDUCTION RESISTIVITY (RT90_CHI - RT90_CHI) 
 RESD_90__01.OHMM      : 90 INCH DEEP INDUCTION RESISTIVITY (RT90_OH - RT90_OH) 
 NPHI.V/V              : NEUTRON POROSITY (NPHI_CHI - NPHI_CHI) 
 NPHI__01.V/V          : NEUTRON POROSITY (NPHI_OH - NPHI_OH) 
 SPHI.V/V              : SONIC POROSITY (SPHI_CHI - SPHI_CHI) 
 RHOB.G/CC             : BULK DENSITY (RHOB_CHI - RHOB_CHI) 
 RHOB__01.G/CC         : BULK DENSITY (RHOB_OH - RHOB_OH) 
 #___________________________________________________________________________________________________ 
~A         DEPT             GR         GR__01             DT         DT__01             PE         PE__01        RESS_10    RESS_10__01        RESM_30    RESM_30__01        RESD_90    RESD_90__01           NPHI       NPHI__01           SPHI           RHOB       RHOB__01
# ...
        10225.0         71.633       -999.250         71.095       -999.250         3.8271      -999.2500         71.712       -999.250         74.076       -999.250         78.805       -999.250        0.10700     -999.25000        0.16600         2.6033      -999.2500
        10225.5         73.933       -999.250         70.831       -999.250         3.9000      -999.2500         79.311       -999.250         81.926       -999.250         87.155       -999.250        0.10480     -999.25000        0.16400         2.6042      -999.2500
        10226.0         75.673       -999.250         70.468       -999.250         3.9694      -999.2500         85.843       -999.250         88.672       -999.250         94.332       -999.250        0.10240     -999.25000        0.16200         2.6059      -999.2500
        10226.5         75.557       -999.250         70.149       -999.250         4.0325      -999.2500         90.569       -999.250         93.555       -999.250         99.526       -999.250        0.10040     -999.25000        0.16040         2.6083      -999.2500
        10227.0         74.851       -999.250         69.941       -999.250         4.0716      -999.2500         93.060       -999.250         96.128       -999.250        102.263       -999.250        0.09920     -999.25000        0.15940         2.6101      -999.2500
        10227.5         75.161       -999.250         69.947       -999.250         4.0728      -999.2500         93.190       -999.250         96.262       -999.250        102.406       -999.250        0.09940     -999.25000        0.15940         2.6100      -999.2500
        10228.0         76.737       -999.250         70.151       -999.250         4.0336      -999.2500         91.057       -999.250         94.059       -999.250        100.063       -999.250        0.10090     -999.25000        0.16060         2.6078      -999.2500
        10228.5         78.780       -999.250         70.531       -999.250         3.9647      -999.2500         87.095       -999.250         89.966       -999.250         95.709       -999.250        0.10340     -999.25000        0.16270         2.6041      -999.2500
        10229.0         79.858       -999.250         70.930       -999.250         3.8864      -999.2500         81.605       -999.250         84.295       -999.250         89.676       -999.250        0.10600     -999.25000        0.16520         2.6007      -999.2500
        10229.5         80.230       -999.250         71.342       -999.250         3.8125      -999.2500         75.217       -999.250         77.697       -999.250         82.656       -999.250        0.10930     -999.25000        0.16800         2.5978      -999.2500
        10230.0         82.278       -999.250         71.748       -999.250         3.7485      -999.2500         68.712       -999.250         70.977       -999.250         75.508       -999.250        0.11370     -999.25000        0.17090         2.5945      -999.2500
        10230.5         86.962       -999.250         72.174       -999.250         3.6843      -999.2500         62.634       -999.250         64.698       -999.250         68.828       -999.250        0.11920     -999.25000        0.17390         2.5901      -999.2500
        10231.0         94.088       -999.250         72.634       -999.250         3.6148      -999.2500         57.424       -999.250         59.318       -999.250         63.104       -999.250        0.12560     -999.25000        0.17690         2.5843      -999.2500
        10231.5        100.552       -999.250         73.121       -999.250         3.5620      -999.2500         53.679       -999.250         55.449       -999.250         58.988       -999.250        0.13180     -999.25000        0.17960         2.5790      -999.2500
        10232.0        104.862       -999.250         73.480       -999.250         3.5367      -999.2500         51.744       -999.250         53.450       -999.250         56.861       -999.250        0.13650     -999.25000        0.18160         2.5756      -999.2500
        10232.5        105.210       -999.250         73.653       -999.250         3.5427      -999.2500         51.740       -999.250         53.446       -999.250         56.857       -999.250        0.13840     -999.25000        0.18250         2.5751      -999.2500
        10233.0        101.884       -999.250         73.575       -999.250         3.5764      -999.2500         53.656       -999.250         55.425       -999.250         58.963       -999.250        0.13690     -999.25000        0.18210         2.5775      -999.2500
        10233.5         95.862       -999.250         73.243       -999.250         3.6280      -999.2500         57.305       -999.250         59.195       -999.250         62.973       -999.250        0.13220     -999.25000        0.18050         2.5822      -999.2500
        10234.0         89.768       -999.250         72.843       -999.250         3.6907      -999.2500         62.401       -999.250         64.458       -999.250         68.572       -999.250        0.12620     -999.25000        0.17820         2.5871      -999.2500
        10234.5         85.472       -999.250         72.376       -999.250         3.7454      -999.2500         68.071       -999.250         70.315       -999.250         74.803       -999.250        0.11980     -999.25000        0.17570         2.5912      -999.2500
        10235.0         82.929       -999.250         71.967       -999.250         3.7853      -999.2500         73.331       -999.250         75.748       -999.250         80.583       -999.250        0.11440     -999.25000        0.17340         2.5940      -999.2500
        10235.5         81.844       -999.250         71.756       -999.250         3.7993      -999.2500         77.340       -999.250         79.890       -999.250         84.989       -999.250        0.11090     -999.25000        0.17190         2.5950      -999.2500
        10236.0         81.245       -999.250         71.723       -999.250         3.7982      -999.2500         79.781       -999.250         82.411       -999.250         87.671       -999.250        0.10920     -999.25000        0.17130         2.5950      -999.2500
        10236.5         81.315       -999.250         71.788       -999.250         3.7896      -999.2500         80.734       -999.250         83.395       -999.250         88.718       -999.250        0.10900     -999.25000        0.17110         2.5944      -999.2500
        10237.0         81.145       -999.250         71.825       -999.250         3.7878      -999.2500         80.584       -999.250         83.241       -999.250         88.554       -999.250        0.10940     -999.25000        0.17110         2.5944      -999.2500
        10237.5         80.638       -999.250         71.798       -999.250         3.7920      -999.2500         79.634       -999.250         82.260       -999.250         87.510       -999.250        0.10980     -999.25000        0.17090         2.5950      -999.2500
        10238.0         79.137       -999.250         71.726       -999.250         3.7988      -999.2500         78.121       -999.250         80.696       -999.250         85.847       -999.250        0.11000     -999.25000        0.17070         2.5963      -999.2500
        10238.5         77.539       -999.250         71.695       -999.250         3.7990      -999.2500         76.351       -999.250         78.868       -999.250         83.902       -999.250        0.11020     -999.25000        0.17040         2.5974      -999.2500
        10239.0         76.084       -999.250         71.681       -999.250         3.7902      -999.2500         74.708       -999.250         77.171       -999.250         82.097       -999.250        0.11030     -999.25000        0.17010         2.5981      -999.2500
        10239.5         74.764       -999.250         71.675       -999.250         3.7791      -999.2500         73.832       -999.250         76.266       -999.250         81.134       -999.250        0.11000     -999.25000        0.16960         2.5985      -999.2500
