###############################################
##         ENVERUS                           ##
##         ESS - Open Hole                   ##
##         PERMIAN / DELAWARE                ##
##         Nov 02 2023  V4.0                 ##
##         42-109-30915-00-00                ##
###############################################
## Copyright 2017-2023  ENVERUS.  All Rights Reserved. 
## Confidential - Property of ENVERUS, use governed by terms and 
## conditions found within the existing Information Services Subscription Agreement 
## (as may be amended, the “ISSA”) between Customer and ENVERUS. 
## 
~VERSION INFORMATION
# MNEM.UNIT                               DATA : DESCRIPTION OF MNEMONIC
#-----.-----     ----------------------------- : -----------------------------
VERS.                                     2.00 : CWLS LOG ASCII STANDARD - VERSION 2.00
WRAP.                                       NO : MULTIPLE LINES PER DEPTH STEP
VEND.                                  ENVERUS : VENDOR
TYPE.                          ESS - OPEN HOLE : ENVERUS ESSENTIAL CURVES – ACCESSIBLE THROUGH ENVERUS PRISM(TM)
DOC.                                  32305988 : ENVERUS HEADER RAW DOCUMENT ID
#___________________________________________________________________________________________________ 
~WELL INFORMATION 
# YiEbrulvYUtXh1D3opxUtnvhUVpPAvxlEBgV2kjbCTHvWrxGcz1+vOa1jEIuqGtoxi0rQ+ZQV9RU/rHAPCAAKQ== 
# MNEM.UNIT                                              DATA : DESCRIPTION OF MNEMONIC 
#-----.-----                    ----------------------------- : ----------------------------- 
CNTY.                                               CULBERSON : COUNTY 
STATE.                                                  TEXAS : STATE 
CNTRY.                                                    USA : COUNTRY 
API.                                             42-109-30915 : API (10 Digit) 
API_14.                                    42-109-30915-00-00 : API (14 Digits) 
API_14_std.                                 42-109-30915-0000 : API (14 Digits Standard) 
UWI.                                           42109309150000 : UNIQUE WELL ID 
WELL.                             VELMA CASEY ROUNSAVILLE A 1 : WELL NAME
STRT.FT                                                  82.0 : START DEPTH
STOP.FT                                               11225.0 : STOP DEPTH
STEP.FT                                                   0.5 : STEP BETWEEN DEPTHS
NULL.                                                 -999.25 : NULL VALUE
#___________________________________________________________________________________________________ 
~CURVE INFORMATION 
# MNEM.UNIT           : CURVE DESCRIPTION 
#-----.-----          : ----------------------------- 
 DEPT.FT               : MEASURED DEPTH 
 CALI.IN               : CALIPER (CAL - CAL) 
 GR.API                : GAMMA RAY (GR) 
 DT.US/FT              : SONIC DELTA TRANSIT TIME (DT) 
 NPHI.V/V              : NEUTRON POROSITY (NPHI) 
 RHOB.G/CC             : BULK DENSITY (RHOB) 
 #___________________________________________________________________________________________________ 
~A         DEPT           CALI             GR             DT           NPHI           RHOB
# ...
         8354.0          7.484         89.383         63.405        0.09645         2.5572
         8354.5          7.484         88.616         63.404        0.09400         2.5602
         8355.0          7.484         87.848         63.403        0.09155         2.5661
         8355.5          7.484         87.567         63.403        0.09087         2.5721
         8356.0          7.484         87.317         63.402        0.09066         2.5780
         8356.5          7.483         87.067         63.401        0.09046         2.5839
         8357.0          7.483         86.816         63.340        0.09026         2.5898
         8357.5          7.483         91.731         63.108        0.09302         2.6044
         8358.0          7.483         98.765         62.877        0.09730         2.6336
         8358.5          7.483        105.799         62.646        0.10158         2.6628
         8359.0          7.483        103.588         62.415        0.10586         2.6576
         8359.5          7.483        100.241         62.184        0.11014         2.6465
         8360.0          7.483        101.243         61.952        0.11442         2.6353
         8360.5          7.483        103.503         61.721        0.11112         2.6241
         8361.0          7.483        105.762         61.537        0.11078         2.6130
         8361.5          7.483        103.826         61.545        0.11664         2.6061
         8362.0          7.483        101.693         61.553        0.12249         2.6173
         8362.5          7.483         99.560         61.561        0.12834         2.6285
         8363.0          7.483         97.428         61.569        0.13191         2.6397
         8363.5          7.483         95.295         61.577        0.12412         2.6471
         8364.0          7.483         93.163         61.585        0.11634         2.6278
         8364.5          7.483         91.030         61.783        0.10856         2.6084
         8365.0          7.482         88.897         62.025        0.10077         2.5890
         8365.5          7.482         87.888         62.267        0.09299         2.5697
         8366.0          7.482         88.032         62.510        0.08521         2.5645
         8366.5          7.482         88.176         62.752        0.07957         2.5754
         8367.0          7.482         88.320         62.994        0.08760         2.5863
         8367.5          7.482         88.464         63.236        0.09563         2.5971
         8368.0          7.482         89.581         63.478        0.10098         2.6080
         8368.5          7.482         91.466         63.550        0.10346         2.6189
         8369.0          7.482         93.350         63.425        0.10595         2.6235
         8369.5          7.482         95.235         63.299        0.10843         2.6174
         8370.0          7.482         97.119         63.174        0.11091         2.6114
         8370.5          7.482         99.004         63.048        0.11339         2.6053
         8371.0          7.482        100.889         63.195        0.12439         2.5993
         8371.5          7.482        102.773         63.357        0.13807         2.6018
         8372.0          7.482        106.753         63.519        0.15175         2.6321
         8372.5          7.482        119.215         63.681        0.16544         2.6350
         8373.0          7.482        117.162         63.843        0.17069         2.6279
         8373.5          7.481        115.110         64.097        0.16453         2.6208
         8374.0          7.481        113.058         64.481        0.15837         2.6137
         8374.5          7.481        111.005         64.864        0.15221         2.6066
         8375.0          7.481        108.953         65.248        0.14605         2.5995
         8375.5          7.481        106.900         65.632        0.14053         2.5923
         8376.0          7.481        104.848         65.257        0.13510         2.5852
         8376.5          7.481        102.116         64.599        0.12966         2.5781
         8377.0          7.481         99.008         63.941        0.12423         2.5593
         8377.5          7.481         95.899         63.283        0.11879         2.5405
         8378.0          7.481         92.880         62.625        0.11336         2.5335
         8378.5          7.481         90.561         62.419        0.10792         2.5436
         8379.0          7.481         88.241         62.661        0.10249         2.5537
         8379.5          7.481         85.921         62.903        0.09705         2.5637
         8380.0          7.481         83.601         63.146        0.09360         2.5738
         8380.5          7.481         81.282         63.388        0.09552         2.5839
         8381.0          7.481         80.837         62.332        0.09744         2.5940
         8381.5          7.481         82.512         61.077        0.09935         2.6040
         8382.0          7.480         84.188         60.445        0.10127         2.6141
         8382.5          7.480         85.863         60.956        0.10319         2.6096
         8383.0          7.480         87.539         61.468        0.10511         2.6008
         8383.5          7.480         89.214         61.980        0.10356         2.5919
         8384.0          7.480         90.646         62.491        0.09878         2.5831
         8384.5          7.480         90.415         62.784        0.09399         2.5742
         8385.0          7.480         90.184         62.754        0.09698         2.5744
         8385.5          7.480         89.953         62.131        0.10011         2.5799
         8386.0          7.480         89.722         61.507        0.10323         2.5855
         8386.5          7.480         89.491         61.468        0.10635         2.5911
         8387.0          7.480         89.260         61.785        0.10947         2.5967
         8387.5          7.480         89.029         62.101        0.10908         2.6023
         8388.0          7.480         88.798         62.418        0.10762         2.6022
         8388.5          7.480         88.567         62.735        0.10615         2.5967
         8389.0          7.480         87.533         63.051        0.10468         2.5912
         8389.5          7.480         86.468         63.368        0.10321         2.5856
         8390.0          7.480         85.402         63.601        0.10175         2.5817
         8390.5          7.479         84.337         63.423        0.10028         2.5802
         8391.0          7.479         83.271         63.245        0.09878         2.5786
         8391.5          7.479         83.182         63.067        0.09685         2.5771
         8392.0          7.479         85.194         62.889        0.09493         2.5770
         8392.5          7.479         87.206         62.711        0.09301         2.5802
         8393.0          7.479         87.582         62.595        0.09108         2.5833
         8393.5          7.479         86.329         62.497        0.08916         2.5865
         8394.0          7.479         85.075         62.400        0.08723         2.5897
         8394.5          7.479         83.821         62.302        0.08531         2.6035
         8395.0          7.479         82.568         61.919        0.07775         2.6216
         8395.5          7.479         81.314         61.406        0.06960         2.6398
         8396.0          7.479         80.061         60.894        0.06145         2.6517
         8396.5          7.479         78.807         59.693        0.05330         2.6339
         8397.0          7.479         77.554         58.046        0.05672         2.6161
         8397.5          7.479         76.300         56.399        0.06133         2.5983
