###############################################
##         ENVERUS                           ##
##         ESS - Open Hole                   ##
##         PERMIAN / DELAWARE                ##
##         Nov 03 2023  V4.0                 ##
##         42-109-32572-90-00                ##
###############################################
## Copyright 2017-2023  ENVERUS.  All Rights Reserved. 
## Confidential - Property of ENVERUS, use governed by terms and 
## conditions found within the existing Information Services Subscription Agreement 
## (as may be amended, the “ISSA”) between Customer and ENVERUS. 
## 
~VERSION INFORMATION
# MNEM.UNIT                               DATA : DESCRIPTION OF MNEMONIC
#-----.-----     ----------------------------- : -----------------------------
VERS.                                     2.00 : CWLS LOG ASCII STANDARD - VERSION 2.00
WRAP.                                       NO : MULTIPLE LINES PER DEPTH STEP
VEND.                                  ENVERUS : VENDOR
TYPE.                          ESS - OPEN HOLE : ENVERUS ESSENTIAL CURVES – ACCESSIBLE THROUGH ENVERUS PRISM(TM)
DOC.                                  51093105 : ENVERUS HEADER RAW DOCUMENT ID
#___________________________________________________________________________________________________ 
~WELL INFORMATION 
# JLMmoJa/ja/TVcwAQvDk33OYEn4U2aLD16xKSNtVAxpK3Y/5Eg5lhKgsZNDQ5ZP0fRHfEZLFMAnipg5oeA7W3g== 
# MNEM.UNIT                                              DATA : DESCRIPTION OF MNEMONIC 
#-----.-----                    ----------------------------- : ----------------------------- 
CNTY.                                               CULBERSON : COUNTY 
STATE.                                                  TEXAS : STATE 
CNTRY.                                                    USA : COUNTRY 
API.                                             42-109-32572 : API (10 Digit) 
API_14.                                    42-109-32572-90-00 : API (14 Digits) 
API_14_std.                                 42-109-32572-9000 : API (14 Digits Standard) 
UWI.                                           42109325729000 : UNIQUE WELL ID 
WELL.                               42109325720000_PREV_API14 : WELL NAME
STRT.FT                                                2248.5 : START DEPTH
STOP.FT                                               10721.5 : STOP DEPTH
STEP.FT                                                   0.5 : STEP BETWEEN DEPTHS
NULL.                                                 -999.25 : NULL VALUE
PREV_APII.                                     42109325720000 : WELL IDENTIFIER
#___________________________________________________________________________________________________ 
~PARAMETER INFORMATION 
# MNEM.UNIT                                              DATA : DESCRIPTION OF MNEMONIC 
#-----.-----                    ----------------------------- : ----------------------------- 
EKB.FT                                                   3340 : ELEVATION ABOVE MSL
#___________________________________________________________________________________________________ 
~CURVE INFORMATION 
# MNEM.UNIT           : CURVE DESCRIPTION 
#-----.-----          : ----------------------------- 
 DEPT.FT               : MEASURED DEPTH 
 GR__A.API             : GAMMA RAY (GAMMA RAY) 
 DT__A.US/FT           : SONIC DELTA TRANSIT TIME (SONIC) 
 #___________________________________________________________________________________________________ 
~A         DEPT          GR__A          DT__A
# ...
         2770.5        121.167        119.436
         2771.0        121.770        122.538
         2771.5        122.114        124.260
         2772.0        118.825        125.782
         2772.5        126.417        126.523
         2773.0        131.542        127.401
         2773.5        133.224        126.231
         2774.0        132.681        125.900
         2774.5        136.351        124.912
         2775.0        141.683        123.187
         2775.5        130.328        121.929
         2776.0        127.593        121.871
         2776.5        140.990        121.801
         2777.0        153.963        121.870
         2777.5        156.367        122.065
         2778.0        149.378        122.748
         2778.5        137.116        123.122
         2779.0        133.727        120.925
         2779.5        133.337        119.103
         2780.0        129.034        118.680
         2780.5        122.020        118.754
         2781.0        133.071        120.901
         2781.5        150.375        122.589
         2782.0        152.526        125.497
         2782.5        145.483        125.497
         2783.0        143.137        125.497
         2783.5        132.352        124.291
         2784.0        133.180        122.227
         2784.5        146.591        121.028
         2785.0        148.233        119.722
         2785.5        146.140        120.232
         2786.0        150.002        121.824
         2786.5        166.438        120.933
         2787.0        152.901        120.566
         2787.5        147.069        120.350
         2788.0        149.602        119.567
         2788.5        157.036        118.438
         2789.0        151.143        117.658
         2789.5        141.471        119.294
         2790.0        138.861        121.173
         2790.5        146.437        122.475
         2791.0        161.763        118.466
         2791.5        176.039        113.015
         2792.0        182.404        105.970
         2792.5        210.954        108.167
         2793.0        208.897        117.212
         2793.5        177.431        124.507
         2794.0        158.736        125.920
         2794.5        132.226        120.637
         2795.0        132.310        115.905
         2795.5        144.117        117.597
         2796.0        152.308        120.776
         2796.5        159.853        123.873
         2797.0        161.252        124.486
         2797.5        151.789        125.382
         2798.0        143.591        127.421
         2798.5        137.769        128.184
         2799.0        141.013        129.074
         2799.5        149.205        130.147
         2800.0        150.644        126.806
         2800.5        144.345        122.803
         2801.0        139.433        124.189
         2801.5        129.124        126.640
         2802.0        128.376        140.362
         2802.5        146.879        126.951
         2803.0        156.598        124.653
         2803.5        156.712        129.173
         2804.0        155.351        129.769
         2804.5        175.364        120.952
         2805.0        169.439        115.747
         2805.5        143.560        107.765
         2806.0        138.912        107.983
         2806.5        143.289        118.390
         2807.0        153.862        120.566
         2807.5        159.944        121.499
         2808.0        162.427        120.696
         2808.5        165.775        118.607
         2809.0        171.040        116.755
         2809.5        164.963        120.227
         2810.0        159.688        121.543
         2810.5        146.797        120.860
         2811.0        144.819        115.980
         2811.5        156.316        113.537
         2812.0        167.114        113.855
         2812.5        174.214        119.280
         2813.0        159.336        121.833
         2813.5        152.598        125.150
         2814.0        160.007        122.770
         2814.5        165.558        114.676
         2815.0        159.677        107.795
         2815.5        151.344        109.465
         2816.0        147.606        110.485
         2816.5        143.291        113.165
         2817.0        144.001        113.918
         2817.5        151.094        114.308
         2818.0        160.044        117.743
         2818.5        153.422        108.953
         2819.0        145.244        106.382
         2819.5        150.685        106.034
         2820.0        150.685        107.438
         2820.5        145.882        109.325
         2821.0        142.904        109.336
         2821.5        144.374        109.153
         2822.0        146.720        108.945
         2822.5        161.459        109.927
         2823.0        173.498        110.102
         2823.5        173.443        107.022
         2824.0        171.097        105.933
         2824.5        143.319        105.640
         2825.0        144.459        103.427
         2825.5        154.204        101.118
         2826.0        158.053         99.386
         2826.5        161.574         98.594
         2827.0        184.597         99.162
         2827.5        217.841         96.337
         2828.0        229.131         95.585
         2828.5        231.703         94.492
         2829.0        239.353         94.590
         2829.5        259.294         94.102
         2830.0        266.113         94.297
         2830.5        247.855         94.666
         2831.0        232.990         95.469
         2831.5        228.070         95.469
         2832.0        231.218         95.148
         2832.5        235.446         94.235
         2833.0        223.432         93.809
         2833.5        203.140         93.175
         2834.0        189.983         92.224
         2834.5        188.502         90.684
         2835.0        213.140         88.837
         2835.5        238.636         91.178
         2836.0        253.447         92.801
         2836.5        320.465        100.296
         2837.0        374.342        105.982
         2837.5        466.710        106.526
         2838.0        499.112        105.216
         2838.5        449.533         95.979
         2839.0        386.823         91.639
         2839.5        317.175         91.824
         2840.0        316.899         92.312
         2840.5        318.328         92.506
         2841.0        311.025         90.814
         2841.5        287.900         89.188
         2842.0        269.802         87.919
         2842.5        210.134         85.706
         2843.0        184.339         84.912
         2843.5        172.823         86.920
         2844.0        177.548         87.056
         2844.5        198.791         86.987
         2845.0        196.088         89.182
         2845.5        189.582         90.479
         2846.0        188.258         91.818
         2846.5        192.648         91.796
         2847.0        195.930         91.856
         2847.5        191.980         92.401
         2848.0        186.461         93.085
         2848.5        185.910         93.125
         2849.0        184.085         92.341
         2849.5        178.913         88.911
         2850.0        175.176         85.509
         2850.5        157.204         85.960
         2851.0        143.593         89.176
         2851.5        142.704         92.707
         2852.0        146.406         93.681
         2852.5        154.063         94.057
         2853.0        158.151         96.565
         2853.5        161.852         98.594
         2854.0        164.405         98.249
         2854.5        173.922         96.199
         2855.0        187.502         97.945
         2855.5        178.994        103.686
         2856.0        171.410        105.434
         2856.5        140.506        109.049
         2857.0        123.749        100.261
