###############################################
##         ENVERUS                           ##
##         ESS - Open Hole                   ##
##         PERMIAN / DELAWARE                ##
##         Nov 02 2023  V4.0                 ##
##         42-109-31408-00-00                ##
###############################################
## Copyright 2017-2023  ENVERUS.  All Rights Reserved. 
## Confidential - Property of ENVERUS, use governed by terms and 
## conditions found within the existing Information Services Subscription Agreement 
## (as may be amended, the “ISSA”) between Customer and ENVERUS. 
## 
~VERSION INFORMATION
# MNEM.UNIT                               DATA : DESCRIPTION OF MNEMONIC
#-----.-----     ----------------------------- : -----------------------------
VERS.                                     2.00 : CWLS LOG ASCII STANDARD - VERSION 2.00
WRAP.                                       NO : MULTIPLE LINES PER DEPTH STEP
VEND.                                  ENVERUS : VENDOR
TYPE.                          ESS - OPEN HOLE : ENVERUS ESSENTIAL CURVES – ACCESSIBLE THROUGH ENVERUS PRISM(TM)
DOC.                                  31850517 : ENVERUS HEADER RAW DOCUMENT ID
#___________________________________________________________________________________________________ 
~WELL INFORMATION 
# bqLd+XSZJOn45CI61XVoQu+UOVndmKoY6sdO6/bnbKn7IExcVbobTFa2ZjWyWmdO1mIol927X6bTh1nHm93KmQ== 
# MNEM.UNIT                                              DATA : DESCRIPTION OF MNEMONIC 
#-----.-----                    ----------------------------- : ----------------------------- 
CNTY.                                               CULBERSON : COUNTY 
STATE.                                                  TEXAS : STATE 
CNTRY.                                                    USA : COUNTRY 
API.                                             42-109-31408 : API (10 Digit) 
API_14.                                    42-109-31408-00-00 : API (14 Digits) 
API_14_std.                                 42-109-31408-0000 : API (14 Digits Standard) 
UWI.                                           42109314080000 : UNIQUE WELL ID 
WELL.                                           CASTILE 48  1 : WELL NAME
STRT.FT                                                2207.0 : START DEPTH
STOP.FT                                               11710.0 : STOP DEPTH
STEP.FT                                                   0.5 : STEP BETWEEN DEPTHS
NULL.                                                 -999.25 : NULL VALUE
COMP.                                         TENNECO OIL CO. : COMPANY 
DATE.                                             28-APR-1980 : LOG DATE
#___________________________________________________________________________________________________ 
~CURVE INFORMATION 
# MNEM.UNIT           : CURVE DESCRIPTION 
#-----.-----          : ----------------------------- 
 DEPT.FT               : MEASURED DEPTH 
 CALI.IN               : CALIPER (CAL - CAL) 
 GR.API                : GAMMA RAY (GR) 
 DT.US/FT              : SONIC DELTA TRANSIT TIME (DT) 
 RESS.OHMM             : SHALLOW INDUCTION RESISTIVITY (ILS - ILS) 
 RESD.OHMM             : DEEP INDUCTION RESISTIVITY (ILD - ILD) 
 #___________________________________________________________________________________________________ 
~A         DEPT           CALI             GR             DT           RESS           RESD
# ...
         5375.0         10.653         35.473         62.629        202.355        227.784
         5375.5         10.659         32.085         61.845        200.100        226.083
         5376.0         10.665         28.697         61.657        197.844        224.381
         5376.5         10.671         27.013         61.817        195.589        224.417
         5377.0         10.678         27.015         61.976        202.077        224.463
         5377.5         10.684         27.016         62.136        209.682        225.070
         5378.0         10.690         27.018         62.296        217.287        235.177
         5378.5         10.696         27.020         62.272        224.892        245.284
         5379.0         10.703         27.021         61.707        229.180        254.379
         5379.5         10.709         28.436         61.141        216.137        261.809
         5380.0         10.715         33.018         60.576        203.094        269.240
         5380.5         10.721         37.599         60.011        194.032        276.670
         5381.0         10.728         43.051         59.875        187.393        275.596
         5381.5         10.734         49.945         59.944        180.753        271.185
         5382.0         10.740         56.839         60.013        174.113        266.774
         5382.5         10.746         63.733         60.082        167.473        257.276
         5383.0         10.753         67.171         60.947        160.833        234.738
         5383.5         10.746         54.543         64.157        152.945        212.200
         5384.0         10.735         41.914         67.367        138.388        189.662
         5384.5         10.724         36.183         77.533        123.832        161.023
         5385.0         10.713         34.213         75.023        109.276        127.380
         5385.5         10.703         32.243         72.513         96.333         93.736
         5386.0         10.692         30.274         70.002         85.278         81.540
         5386.5         10.681         31.383         67.492         87.915         77.352
         5387.0         10.670         33.405         64.981        107.272        122.851
         5387.5         10.659         35.426         62.471        135.457        168.349
         5388.0         10.650         37.448         59.961        157.290        213.848
         5388.5         10.667         39.470         59.400        156.120        236.124
         5389.0         10.684         40.035         59.129        153.011        248.990
         5389.5         10.701         39.683         59.183        148.239        232.135
         5390.0         10.719         39.331         59.789        143.467        215.281
         5390.5         10.736         38.979         60.396        138.695        202.573
         5391.0         10.753         38.627         61.002        133.923        198.659
         5391.5         10.770         38.275         61.609        129.151        194.746
         5392.0         10.787         37.924         62.215        124.379        190.832
         5392.5         10.804         37.572         62.822        119.607        186.563
         5393.0         10.822         38.128         63.018        114.835        181.735
         5393.5         10.839         38.977         63.017        110.063        176.907
         5394.0         10.856         39.827         62.885        111.294        176.080
         5394.5         10.873         40.677         62.257        112.632        180.397
         5395.0         10.890         41.527         61.629        113.971        184.714
         5395.5         10.907         42.376         61.619        115.309        189.031
         5396.0         10.925         43.226         61.928        116.648        193.348
         5396.5         10.942         43.160         62.236        117.986        194.062
         5397.0         10.959         41.626         62.545        119.325        191.900
         5397.5         10.972         40.092         62.853        120.663        189.738
         5398.0         10.972         38.558         63.162        122.002        187.575
         5398.5         10.973         37.024         63.470        123.340        185.698
         5399.0         10.973         35.490         63.779        123.387        183.988
         5399.5         10.973         33.956         63.389        122.765        182.278
         5400.0         10.973         32.422         62.913        122.143        180.568
         5400.5         10.973         30.888         62.438        121.520        178.858
         5401.0         10.973         30.077         61.962        120.898        177.148
         5401.5         10.974         30.019         61.487        120.276        182.603
         5402.0         10.974         29.962         61.011        119.654        190.561
         5402.5         10.974         29.905         60.536        122.631        198.441
         5403.0         10.974         32.623         60.060        131.347        205.187
         5403.5         10.974         37.621         59.585        140.063        211.932
         5404.0         10.974         43.343         59.109        148.779        205.845
         5404.5         10.975         49.259         59.722        142.922        192.154
         5405.0         10.975         55.175         60.635        133.166        178.464
         5405.5         10.975         61.091         62.430        123.410        164.773
         5406.0         10.975         66.535         65.410        113.654        149.415
         5406.5         10.975         63.227         68.389         90.500        133.893
         5407.0         10.975         59.919         71.369         74.954        118.370
         5407.5         10.976         56.611         73.953         77.317        102.848
         5408.0         10.976         53.303         73.890         79.680         93.055
         5408.5         10.976         49.995         73.828         82.043        113.072
         5409.0         10.976         46.688         73.423         88.949        133.089
         5409.5         10.976         47.868         71.211        100.950        153.106
         5410.0         10.976         54.012         68.999        112.951        173.123
         5410.5         10.977         60.155         66.787        124.952        194.297
         5411.0         10.977         66.298         64.576        134.774        217.390
         5411.5         10.977         72.441         62.364        140.594        240.483
         5412.0         10.977         78.585         61.585        146.413        247.435
         5412.5         10.977         84.728         61.685        135.133        204.661
         5413.0         10.977         81.612         66.039        113.363        161.887
         5413.5         10.978         78.037         83.857         88.611        132.264
         5414.0         10.978         74.462         82.141         66.150        118.608
         5414.5         10.978         70.887         80.425         66.163        104.953
         5415.0         10.978         67.579         78.709         66.177        106.394
         5415.5         10.978         72.217         76.992         66.346        110.948
         5416.0         10.979         76.856         76.709         74.709        122.858
         5416.5         10.979         81.494         78.187         83.071        131.642
         5417.0         10.979         86.132         79.665         84.280        133.731
         5417.5         10.979         81.136         81.143         79.537        135.834
         5418.0         10.968         75.497         82.621         74.793        138.044
         5418.5         10.938         69.859         84.099         76.054        140.253
