###############################################
##         ENVERUS                           ##
##         ESS - Open Hole                   ##
##         PERMIAN / DELAWARE                ##
##         Nov 03 2023  V4.0                 ##
##         42-109-32620-90-00                ##
###############################################
## Copyright 2017-2023  ENVERUS.  All Rights Reserved. 
## Confidential - Property of ENVERUS, use governed by terms and 
## conditions found within the existing Information Services Subscription Agreement 
## (as may be amended, the “ISSA”) between Customer and ENVERUS. 
## 
~VERSION INFORMATION
# MNEM.UNIT                               DATA : DESCRIPTION OF MNEMONIC
#-----.-----     ----------------------------- : -----------------------------
VERS.                                     2.00 : CWLS LOG ASCII STANDARD - VERSION 2.00
WRAP.                                       NO : MULTIPLE LINES PER DEPTH STEP
VEND.                                  ENVERUS : VENDOR
TYPE.                          ESS - OPEN HOLE : ENVERUS ESSENTIAL CURVES – ACCESSIBLE THROUGH ENVERUS PRISM(TM)
DOC.                                  51092896 : ENVERUS HEADER RAW DOCUMENT ID
#___________________________________________________________________________________________________ 
~WELL INFORMATION 
# mS4wxE9S4ErBCd3MEwtzWWb7vaBLyBp2a6hoNdhJ+t1pinRta8/5SsS3wr5CrR4pTncMCKeAGTUU45xlgh6yRQ== 
# MNEM.UNIT                                              DATA : DESCRIPTION OF MNEMONIC 
#-----.-----                    ----------------------------- : ----------------------------- 
CNTY.                                               CULBERSON : COUNTY 
STATE.                                                  TEXAS : STATE 
CNTRY.                                                    USA : COUNTRY 
API.                                             42-109-32620 : API (10 Digit) 
API_14.                                    42-109-32620-90-00 : API (14 Digits) 
API_14_std.                                 42-109-32620-9000 : API (14 Digits Standard) 
UWI.                                           42109326209000 : UNIQUE WELL ID 
WELL.                               42109326200000_PREV_API14 : WELL NAME
STRT.FT                                                2338.5 : START DEPTH
STOP.FT                                               10866.0 : STOP DEPTH
STEP.FT                                                   0.5 : STEP BETWEEN DEPTHS
NULL.                                                 -999.25 : NULL VALUE
PREV_APII.                                     42109326200000 : WELL IDENTIFIER
#___________________________________________________________________________________________________ 
~PARAMETER INFORMATION 
# MNEM.UNIT                                              DATA : DESCRIPTION OF MNEMONIC 
#-----.-----                    ----------------------------- : ----------------------------- 
EKB.FT                                                   3330 : ELEVATION ABOVE MSL
#___________________________________________________________________________________________________ 
~CURVE INFORMATION 
# MNEM.UNIT           : CURVE DESCRIPTION 
#-----.-----          : ----------------------------- 
 DEPT.FT               : MEASURED DEPTH 
 CALI.IN               : CALIPER (CAL - CALIPER) 
 GR.API                : GAMMA RAY (GAMMA RAY) 
 DT.US/FT              : SONIC DELTA TRANSIT TIME (PRESSURE WAVE SONIC) 
 #___________________________________________________________________________________________________ 
~A         DEPT           CALI             GR             DT
# ...
        10192.5          9.154         58.027         68.033
        10193.0          9.154         68.473         70.712
        10193.5          9.114         70.809         73.751
        10194.0          9.150         73.144         75.014
        10194.5          9.154         88.062         80.156
        10195.0          9.154         99.834         80.742
        10195.5          9.173        105.069         81.637
        10196.0          9.194        107.794         83.027
        10196.5          9.194        108.383         84.057
        10197.0          9.194        109.210         85.789
        10197.5          9.194        108.564         80.744
        10198.0          9.194        107.385         83.805
        10198.5          9.214        115.338         88.623
        10199.0          9.221        125.089         94.654
        10199.5          9.234        131.905         96.335
        10200.0          9.234        136.665         96.842
        10200.5          9.234        134.173         95.202
        10201.0          9.214        125.291         92.534
        10201.5          9.214        120.601         91.536
        10202.0          9.214        120.898         90.750
        10202.5          9.214        121.907         88.322
        10203.0          9.194        120.815         87.892
        10203.5          9.194        118.789         88.171
        10204.0          9.194        121.311         93.014
        10204.5          9.194        127.421         96.625
        10205.0          9.214        128.017         96.455
        10205.5          9.214        121.750         91.964
        10206.0          9.194        107.311         89.335
        10206.5          9.174         93.573         84.973
        10207.0          9.154         92.868         83.586
        10207.5          9.154         96.232         83.539
        10208.0          9.154         97.878         84.014
        10208.5          9.154         97.678         84.011
        10209.0          9.134         93.587         82.731
        10209.5          9.134         88.389         80.529
        10210.0          9.114         81.366         76.255
        10210.5          9.114         74.406         73.789
        10211.0          9.114         71.846         71.947
        10211.5          9.094         72.584         71.626
        10212.0          9.074         76.091         73.398
        10212.5          9.074         80.857         72.024
        10213.0          9.074         72.033         69.521
        10213.5          9.054         53.600         65.264
        10214.0          9.053         42.529         57.894
        10214.5          9.034         55.332         63.734
        10215.0          9.034         78.465         71.580
        10215.5          9.034         88.124         73.659
        10216.0          9.034         82.658         75.883
        10216.5          9.034         89.876         77.291
        10217.0          9.034        105.790         86.189
        10217.5          9.034        118.248         90.525
        10218.0          9.034        113.675         90.439
        10218.5          9.054        107.464         91.667
        10219.0          9.034        107.304         85.242
        10219.5          9.034        109.527         84.172
        10220.0          9.034        112.086         87.836
        10220.5          9.034        108.469         85.963
        10221.0          9.034         96.724         80.198
        10221.5          9.034         85.466         84.002
        10222.0          9.034         78.259         74.428
        10222.5          9.034         76.846         72.924
        10223.0          9.034         74.801         70.547
        10223.5          9.034         68.550         72.027
        10224.0          9.034         73.974         74.011
        10224.5          9.038         94.417         74.315
        10225.0          9.059        101.771         87.338
        10225.5          9.074         98.341         83.258
        10226.0          9.074        100.316         85.699
        10226.5          9.074        103.832         87.965
        10227.0          9.094        105.685         84.765
        10227.5          9.094        106.280         88.876
        10228.0          9.094        104.736         86.390
        10228.5          9.094        103.522         90.162
        10229.0          9.094        107.569         90.690
        10229.5          9.094        112.375         90.691
        10230.0          9.094        111.414         90.081
        10230.5          9.094         95.293         84.454
        10231.0          9.094         81.253         73.693
        10231.5          9.094         92.348         76.756
        10232.0          9.094        109.817         85.483
        10232.5          9.094        107.094         79.943
        10233.0          9.114        106.464         83.158
        10233.5          9.134        112.135         83.913
        10234.0          9.154        111.776         90.119
        10234.5          9.154        103.085         82.950
        10235.0          9.154        101.508         84.014
        10235.5          9.174        103.820         88.263
        10236.0          9.174        104.591         86.279
        10236.5          9.194        108.863         88.865
        10237.0          9.194        128.043         90.713
        10237.5          9.194        139.005         93.215
        10238.0          9.194        137.813         96.302
        10238.5          9.194        138.551         93.477
        10239.0          9.194        132.442         88.627
        10239.5          9.194        122.228         86.958
        10240.0          9.194        124.292         86.302
        10240.5          9.194        134.117         90.456
        10241.0          9.194        131.946         89.497
        10241.5          9.194        119.846         90.203
        10242.0          9.194        107.779         87.641
        10242.5          9.190         83.031         77.128
        10243.0          9.174         59.755         69.852
        10243.5          9.174         45.383         64.686
        10244.0          9.174         50.573         54.455
        10244.5          9.194         94.197         76.309
        10245.0          9.194        113.372         86.464
        10245.5          9.214        120.866         87.904
        10246.0          9.214        118.526         88.481
        10246.5          9.214        117.964         88.587
        10247.0          9.214        119.500         88.506
        10247.5          9.214        127.425         89.678
        10248.0          9.214        125.551         91.613
        10248.5          9.194        112.361         92.069
        10249.0          9.174        110.002         89.845
        10249.5          9.174        108.295         89.229
        10250.0          9.174        105.190         88.804
        10250.5          9.172         85.232         85.280
        10251.0          9.154         80.174         78.182
        10251.5          9.154         93.271         80.124
        10252.0          9.154        108.010         81.451
        10252.5          9.134        117.765         86.747
        10253.0          9.134        117.890         89.099
        10253.5          9.134        113.290         88.090
        10254.0          9.134        106.613         85.550
        10254.5          9.134         97.328         82.756
        10255.0          9.134         97.923         82.422
        10255.5          9.154         98.204         86.226
        10256.0          9.154         97.863         83.348
        10256.5          9.154         88.048         81.281
        10257.0          9.154        105.356         56.979
        10257.5          9.154        126.385         91.604
        10258.0          9.154        126.348         92.110
