# Exported from Transform Software 5.2.0 on 30-Oct-2019 by user kathryn.gehrke
# DI Transform - A Product of Drillinginfo, Inc. - www.drillinginfo.com
#
~VERSION INFORMATION
 VERS.        2.0 : LAS ASCII STANDARD - VERSION 2.0
 WRAP.         NO : ONE LINE PER DEPTH STEP

~WELL INFORMATION
#MNEM.UNIT       DATA TYPE       INFORMATION
#---------       ---------       -----------
 STRT.ft                  40 : Start Depth
 STOP.ft                9358 : Stop Depth
 STEP.ft                 0.5 : Step Length
 NULL.               -999.25 : Null Value
 COMP.                       : Company
 WELL.  42109330610000_API14 : Well Name
 FLD.                        : Field Name
 LOC.                        : Well Location
 CNTY.                       : County
 STAT.                       : State or Province
 CTRY.                       : Country
 SRVC.                       : Service Company
 DATE.                       : Date
 API.         42109330610000 : Well Identifier

~CURVE INFORMATION
#MNEM.UNIT       API CODE       CURVE DESCRIPTION
#---------       --------       -----------------
 DEPT.ft        : <Measured Depth>
 DT.us/ft       : Sonic
 GR.gAPI        : Gamma Ray

~PARAMETER INFORMATION
#MNEM.UNIT       VALUE       DESCRIPTION
#---------       -----       -----------
 EKB.ft      3200.5 : Elevation above MSL

~A      DEPT          DT          GR
# ...
        8069    241.0822     43.1876
      8069.5    241.0822     40.6083
        8070    241.0822     39.0239
      8070.5    241.8838     40.2262
        8071    241.8838     41.8766
      8071.5    241.8838     43.4941
        8072    241.8838     40.2691
      8072.5    242.6854     31.9612
        8073    242.6854      25.491
      8073.5    242.6854     27.8197
        8074    242.6854     33.7988
      8074.5     243.487     36.0393
        8075    245.0902     36.2364
      8075.5    245.0902     40.1825
        8076    245.0902     44.5218
      8076.5    244.2886     46.4456
        8077    244.2886     50.6322
      8077.5    244.2886     55.6167
        8078     243.487     54.6986
      8078.5    242.6854     48.4789
        8079    242.6854     44.4562
      8079.5    242.6854     46.8497
        8080    242.6854     53.5504
      8080.5    242.6854     55.7916
        8081    241.8838     53.2887
      8081.5    241.8838      47.627
        8082    241.8838      41.615
      8082.5    241.8838     34.2908
        8083    241.8838      31.984
      8083.5    241.8838     32.0492
        8084    241.0822     35.9295
      8084.5    241.0822     38.3343
        8085    240.2806     43.6248
      8085.5    240.2806     43.9103
        8086    240.2806     40.8166
      8086.5    240.2806     39.5691
        8087    240.2806     43.3191
      8087.5    240.2806     41.2326
        8088    240.2806     34.9477
      8088.5    241.0822     27.8308
        8089    240.2806     23.5022
      8089.5    240.2806     23.6321
        8090    240.2806     29.7414
      8090.5    241.0822       35.24
        8091    241.0822     35.2858
      8091.5    241.8838      35.448
        8092    241.8838     38.5094
      8092.5    241.0822     38.9903
        8093    241.0822      41.187
      8093.5    240.2806     43.1108
        8094    240.2806      41.298
      8094.5    240.2806     38.5093
        8095    240.2806     40.4655
      8095.5    240.2806     41.5709
        8096    240.2806     41.0899
      8096.5    241.0822     43.1107
        8097    241.0822     50.3896
      8097.5    241.0822     53.8355
        8098    241.0822     51.3339
      8098.5    241.8838     46.6211
        8099    241.8838     45.0344
      8099.5    241.8838     47.9201
        8100    241.8838     49.0259
      8100.5    241.0822      46.765
        8101    241.0822     40.2721
      8101.5    241.0822     36.6006
        8102    241.8838     35.6555
      8102.5    241.8838     40.7056
        8103    241.8838     43.7997
      8103.5    241.8838     43.4628
        8104    241.8838     39.1021
      8104.5    241.8838      37.515
        8105    241.0822     41.6673
      8105.5    241.0822     43.2866
        8106    241.1906     39.6635
      8106.5    241.8838     33.6516
        8107    241.7754     26.3569
      8107.5    241.0822     21.6113
        8108    241.0822     21.4348
      8108.5    241.8838     23.8396
        8109    241.8838     25.7315
      8109.5    241.8838     25.7315
        8110    241.9918     26.5487
      8110.5    242.6854     32.1436
        8111    242.6854     38.3322
      8111.5    242.6854     39.9198
        8112    242.6854     40.1922
      8112.5    242.6854     41.3627
        8113    242.6854     41.0585
      8113.5    242.6854     40.4645
        8114    242.6854     44.5845
      8114.5    242.6854     47.1661
        8115    242.6854     48.6408
      8115.5    242.6854     51.5583
        8116    242.6854     54.3487
      8116.5    242.6854     52.9874
        8117    242.6854     48.5636
      8117.5     243.487     44.7612
        8118    244.2886     47.9826
      8118.5    245.0902     50.1971
        8119    245.0902     43.7226
      8119.5    245.8918     38.5086
        8120    245.8918     43.3816
      8120.5    245.0902     43.8813
        8121    244.1815     41.0589
      8121.5    242.6854     40.3502
        8122    242.6854      42.293
      8122.5     243.487     39.0719
        8123     243.487     38.0276
      8123.5     243.487     39.0527
        8124     243.487     42.6914
      8124.5     243.487     49.8743
        8125     243.487     52.6022
      8125.5     243.487     49.2355
        8126     243.487     47.4378
      8126.5     243.487     51.2855
        8127     243.487     53.1463
      8127.5    244.2886     51.3685
        8128    244.2886      45.325
      8128.5     243.487     38.8635
        8129     243.487     37.6408
      8129.5     243.487     44.6776
        8130     243.487     49.7796
      8130.5     243.487     45.5657
        8131    243.3807     36.9085
      8131.5    242.6854      35.173
        8132    242.6854     40.2231
      8132.5    242.6854     44.1021
        8133    242.6854      42.262
      8133.5    242.6854     40.1603
        8134    242.6854     43.4432
      8134.5    242.6854     48.8802
        8135    242.6854     49.6544
      8135.5    242.6854     46.0472
        8136    242.6854     40.7254
      8136.5    242.6854     37.4838
        8137    242.6854     38.0272
      8137.5    242.6854     39.4701
        8138     242.791     39.1047
      8138.5     243.487     35.2571
        8139     243.487     30.5099
      8139.5     243.487     27.8646
        8140     243.487     27.4148
      8140.5     243.487     29.1605
        8141     243.487      33.823
      8141.5     243.487     41.5184
        8142     243.487     44.7295
      8142.5    243.3817     41.6882
        8143    242.6854     39.1984
      8143.5    242.6854     41.1533
        8144     243.487     41.8126
      8144.5     243.487     38.3838
        8145     243.487     35.0792
      8145.5     243.487     36.5841
        8146     243.487     39.7104
      8146.5     243.487     41.3627
        8147     243.487     39.9434
      8147.5     243.487     32.6672
        8148    244.2886     29.7339
      8148.5    244.2886      35.303
        8149    244.2886     41.8746
      8149.5    244.2886     40.0985
        8150    244.2886     35.4367
      8150.5    244.2886     31.4721
        8151    244.2886     32.7363
      8151.5    244.1841     35.9243
        8152     243.487     38.8409
      8152.5     243.487      43.262
        8153     243.487     49.7549
      8153.5     243.487     54.9898
        8154     243.487      61.113
      8154.5     243.487     59.1217
        8155     243.487     50.8896
      8155.5     243.487     50.8338
        8156     243.487     53.6273
      8156.5     243.487      50.378
        8157     243.487     42.5291
      8157.5     243.487     37.7555
        8158    244.2886     40.3752
      8158.5    244.2886     42.9847
        8159    244.2886     38.3849
      8159.5    244.2886     35.1102
        8160    245.1939     36.0721
      8160.5    245.9955     37.5457
        8161     247.495     40.2522
      8161.5     247.495     43.0767
        8162    246.6934     41.7213
      8162.5    246.6934     38.1753
        8163    246.6934     37.5456
      8163.5    246.6934      39.771
        8164    245.8918     40.1298
      8164.5    245.0902     36.2516
        8165    244.2886     33.6368
      8165.5    244.1853     32.1939
        8166     243.487     30.7816
      8166.5     243.487     32.2854
        8167     243.487     34.6293
      8167.5     243.487     32.4345
        8168     243.487      31.022
      8168.5     243.487     33.9687
        8169    242.6854     34.3279
      8169.5    242.6854     32.2244
        8170    242.6854      33.518
      8170.5    242.6854     36.8543
        8171    241.9865      38.477
      8171.5    242.5826     41.6943
        8172    241.8838     48.1872
      8172.5    241.8838      48.757
        8173    241.8838     41.9023
      8173.5    241.8838     38.2365
        8174    241.8838     41.4839
      8174.5    241.8838     41.9933
        8175    241.7813     38.4467
      8175.5    241.0822     38.0262
        8176    241.8838     39.9501
      8176.5    241.8838     41.1222
        8177    241.8838     40.3404
