~VERSION INFORMATION
VERS. 2.0 : CWLS Log ASCII Standard - version 2.0
WRAP.  NO : One line per depth step
#--------------------------------------------------#
#----------------DRILLING INFO, INC.---------------#
#---------------WWW.DRILLINGINFO.COM---------------#
#------------------COPYRIGHT 2015------------------#
#--------------------------------------------------#
#THIS FILE MAY BE USED ONLY IN ACCORDANCE WITH A CURRENT SUBSCRIPTION AGREEMENT BETWEEN
#THE USER AND DRILLING INFO, INC. NO PART OF THIS FILE MAY BE REPRODUCED, USED, COPIED,
#MODIFIED, PROPAGATED, OR DISTRIBUTED EXCEPT IN ACCORDANCE WITH THE SUBSCRIPTION
#AGREEMENT. UNAUTHORIZED USE OR DISTRIBUTION OF ALL OR ANY PART OF THIS FILE MAY VIOLATE
#COPYRIGHT, TRADEMARK, AND/OR OTHER LAWS AND IS SUBJECT TO CIVIL AS WELL AS CRIMINAL
#SANCTIONS.
#--------------------------------------------------#
#THIS FILE IS PROVIDED "AS-IS" AND ALL WARRANTIES ARE EXPRESSLY DISCLAIMED, WHETHER
#EXPRESS, ORAL, IMPLIED, STATUTORY OR OTHERWISE, INCLUDING ANY IMPLIED WARRANTY OF FITNESS
#FOR A PARTICULAR PURPOSE, MERCHANTABILITY, TITLE OR NON-INFRINGEMENT, AND ANY WARRANTIES
#ARISING BY VIRTUE OF CUSTOM OF TRADE OR COURSE OF DEALING.  FURTHER, DRILLING INFO,
#INC. AND ITS LICENSORS DO NOT REPRESENT OR WARRANT THAT THIS FILE WILL MEET USER'S
#REQUIREMENTS OR ARE SUITABLE FOR USER'S NEEDS OR THAT THE DATA OR RESULTS PROVIDED IN
#CONJUNCTION THEREWITH ARE CORRECT, ACCURATE, TIMELY OR RELIABLE. THESE DISCLAIMERS SHALL
#APPLY REGARDLESS OF ANY FAILURE OF ESSENTIAL PURPOSE OF ANY LIMITED REMEDY.  SOME
#JURISDICTIONS DO NOT ALLOW THE EXCLUSION OF CERTAIN WARRANTIES SO SOME OF THE ABOVE
#EXCLUSIONS MAY NOT APPLY. IN NO EVENT SHALL DRILLING INFO, INC. OR ANY OF ITS AFFILIATES
#BE LIABLE UNDER ANY LEGAL THEORY, WHETHER IN TORT (INCLUDING WITHOUT LIMITATION
#NEGLIGENCE), CONTRACT, STRICT LIABILITY, STATUTORY OR OTHERWISE, FOR ANY SPECIAL,
#INCIDENTAL, CONSEQUENTIAL, EXEMPLARY, PUNITIVE OR INDIRECT DAMAGE OF ANY KIND, INCLUDING
#WITHOUT LIMITATION LOSS OF REVENUE, PROFITS, GOODWILL, USE, AND/OR DATA OR THE COST OF
#PROCUREMENT OF SUBSTITUTE GOODS OR SERVICES, EVEN IF APPRISED OF THE POSSIBILITY OF SUCH
#DAMAGES IN ADVANCE.
#--------------------------------------------------#
~WELL INFORMATION
#MNEMONIC     .UNIT              VALUE :DESCRIPTION
#--------------------------------------------------#
STRT       .FT                4 :START DEPTH
STOP       .FT                10042 :STOP DEPTH
STEP       .FT                   0.500 :STEP
NULL       .                  -999.250 :NULL
API        .                421093139500 :API NUMBER
COMP       .         MOBIL OIL CORPORATION :COMPANY
WELL       .        MADERA-BROMAN  1 :WELL
DATE       .                27-Jun-1979 :LOG DATE
~CURVE INFORMATION
#MNEMONIC     .UNIT      API CODE :CURVE DESCRIPTION
#--------------------------------------------------#
DEPTH       .FT                      :Measured Depth
DT.US/FT        UNKNOWN   :DT
GR.API        UNKNOWN   :GR
CAL.INCH        UNKNOWN   :CAL
~A    DEPTH    DT    GR    CAL
# ...
 5198.5     64.161   59.106   13.154
 5199     65.572   58.31   13.157
 5199.5     66.983   58.889   13.16
 5200     67.035   62.223   13.162
 5200.5     65.742   65.557   13.165
 5201     64.448   67.894   13.168
 5201.5     63.155   66.046   13.171
 5202     61.861   62.653   13.173
 5202.5     61.724   59.26   13.176
 5203     63.293   55.867   13.179
 5203.5     64.863   55.542   13.182
 5204     64.61   57.603   13.184
 5204.5     64.183   59.664   13.187
 5205     63.832   61.726   13.19
 5205.5     63.676   63.787   13.193
 5206     62.778   62.192   13.195
 5206.5     61.599   59.467   13.198
 5207     60.42   56.742   13.201
 5207.5     60.543   54.017   13.203
 5208     63.912   51.292   13.203
 5208.5     66.686   52.819   13.203
 5209     66.534   57.468   13.202
 5209.5     66.383   62.116   13.202
 5210     66.231   66.765   13.202
 5210.5     66.079   68.02   13.201
 5211     65.927   68.347   13.201
 5211.5     65.776   67.139   13.2
 5212     65.624   65.932   13.2
 5212.5     66.432   64.724   13.199
 5213     67.517   63.516   13.199
 5213.5     66.149   62.308   13.198
 5214     64.595   60.24   13.198
 5214.5     63.041   57.881   13.198
 5215     61.487   55.523   13.197
 5215.5     62.084   53.164   13.197
 5216     62.751   50.806   13.196
 5216.5     63.417   51.19   13.196
 5217     64.083   53.449   13.195
 5217.5     64.75   54.991   13.195
 5218     65.945   55.717   13.195
 5218.5     68.255   56.443   13.194
 5219     70.431   59.039   13.194
 5219.5     70.456   62.279   13.193
 5220     70.409   65.153   13.193
 5220.5     69.386   67.829   13.192
 5221     68.364   68.994   13.192
 5221.5     67.342   68.866   13.192
 5222     66.32   67.84   13.191
 5222.5     65.665   65.001   13.189
 5223     65.193   62.161   13.185
 5223.5     64.917   60.525   13.181
 5224     64.59   60.396   13.177
 5224.5     63.772   60.268   13.174
 5225     62.954   60.139   13.17
 5225.5     64.381   60.011   13.166
 5226     65.939   59.882   13.162
 5226.5     67.496   59.754   13.158
 5227     67.954   60.383   13.154
 5227.5     67.137   61.179   13.15
 5228     66.732   61.976   13.146
 5228.5     67.239   62.773   13.142
 5229     67.745   63.569   13.139
 5229.5     68.251   64.366   13.135
 5230     68.722   65.162   13.131
 5230.5     68.681   65.959   13.127
 5231     68.64   65.047   13.123
 5231.5     68.664   63.267   13.119
 5232     68.717   61.487   13.115
 5232.5     68.77   59.707   13.111
 5233     67.522   60.36   13.107
 5233.5     66.134   62.093   13.104
 5234     64.746   63.825   13.1
 5234.5     63.359   65.558   13.096
 5235     64.14   58.334   13.092
 5235.5     66.78   51.156   13.088
 5236     69.42   54.912   13.084
 5236.5     72.06   58.669   13.08
 5237     68.083   62.425   13.076
 5237.5     64.495   66.182   13.072
 5238     65.691   69.938   13.068
 5238.5     66.886   65.639   13.065
 5239     66.8   65.966   13.061
 5239.5     64.415   69.494   13.057
 5240     62.03   73.022   13.053
 5240.5     59.645   70.355   13.049
 5241     57.26   62.091   13.045
 5241.5     52.791   53.826   13.041
 5242     54.243   46.014   13.037
 5242.5     56.615   39.061   13.033
 5243     58.987   32.108   13.03
 5243.5     61.36   36.951   13.026
 5244     60.779   43.627   13.022
 5244.5     59.535   50.302   13.018
 5245     58.29   56.978   13.014
 5245.5     57.046   54.674   13.01
 5246     55.802   51.22   13.006
 5246.5     56.809   47.767   13.002
 5247     58.718   44.313   12.998
 5247.5     60.627   42.524   12.995
 5248     62.536   46.57   12.991
 5248.5     63.166   50.615   12.987
 5249     62.33   54.661   12.983
 5249.5     61.494   58.706   12.979
 5250     60.983   62.086   12.975
 5250.5     61.43   57.319   12.975
 5251     61.877   57.687   12.976
 5251.5     63.32   58.055   12.978
 5252     67.05   58.424   12.979
 5252.5     66.214   59.656   12.98
 5253     63.814   61.506   12.981
 5253.5     61.414   63.356   12.982
 5254     59.328   62.787   12.983
 5254.5     57.358   58.212   12.984
 5255     58.423   53.637   12.985
 5255.5     60.022   49.062   12.986
 5256     61.622   44.487   12.987
 5256.5     61.625   44.642   12.988
 5257     61.294   47.693   12.989
 5257.5     61.08   50.743   12.99
 5258     61.432   53.794   12.991
 5258.5     59.911   56.844   12.992
 5259     58.231   52.908   12.994
 5259.5     58.001   48.168   12.995
 5260     58.735   46.602   12.996
 5260.5     59.803   48.062   12.997
 5261     60.871   49.521   12.998
 5261.5     61.939   50.98   12.999
 5262     63.007   52.439   13
 5262.5     62.975   53.898   13.001
 5263     62.587   55.357   13.002
 5263.5     62.198   56.816   13.003
 5264     61.81   58.275   13.004
 5264.5     61.421   59.734   13.005
 5265     62.337   58.934   13.006
 5265.5     63.473   57.676   13.01
 5266     64.609   56.418   13.014
 5266.5     65.451   57.144   13.019
 5267     66.086   60.194   13.023
 5267.5     66.721   62.101   13.028
 5268     67.012   63.861   13.032
 5268.5     64.911   65.621   13.037
 5269     62.81   67.381   13.041
 5269.5     61.416   68.107   13.046
 5270     61.417   59.667   13.051
 5270.5     61.417   58.838   13.055
 5271     62.042   58.008   13.06
 5271.5     63.154   57.179   13.064
 5272     64.266   56.35   13.069
 5272.5     65.377   55.521   13.073
 5273     66.489   55.717   13.078
 5273.5     67.601   59.244   13.083
 5274     64.414   62.772   13.087
 5274.5     61.152   66.299   13.092
 5275     57.89   69.078   13.096
 5275.5     58.53   61.992   13.096
 5276     59.401   54.905   13.096
 5276.5     60.272   47.819   13.096
 5277     61.143   50.651   13.096
 5277.5     60.538   53.893   13.096
 5278     58.186   57.135   13.096
 5278.5     55.834   53.551   13.095
 5279     55.533   48.498   13.095
 5279.5     57.76   43.445   13.095
 5280     59.987   38.392   13.095
 5280.5     60.664   38.606   13.095
 5281     60.387   41.928   13.095
 5281.5     61.204   45.249   13.095
 5282     64.269   48.571   13.095
 5282.5     67.334   54.702   13.095
 5283     70.399   60.915   13.095
 5283.5     71.641   63.388   13.095
 5284     70.318   65.749   13.095
 5284.5     68.996   68.11   13.095
 5285     67.673   69.432   13.095
 5285.5     66.351   67.832   13.095
 5286     65.029   66.232   13.095
 5286.5     66.329   64.631   13.095
 5287     67.71   63.031   13.095
 5287.5     69.092   61.43   13.095
 5288     70.474   61.643   13.095
 5288.5     71.855   63.008   13.095
 5289     70.991   64.372   13.095
 5289.5     68.825   70.354   13.095
 5290     68.556   76.736   13.094
 5290.5     68.806   73.414   13.094
 5291     69.056   69.342   13.093
 5291.5     69.307   65.271   13.092
 5292     67.759   62.783   13.091
 5292.5     65.387   62.783   13.09
 5293     63.015   62.783   13.089
 5293.5     60.642   61.735   13.087
 5294     60.759   60.092   13.086
 5294.5     61.598   58.45   13.085
 5295     62.289   56.808   13.084
 5295.5     61.599   56.814   13.083
 5296     60.909   57.594   13.081
 5296.5     60.355   57.215   13.08
 5297     60.355   55.712   13.079
 5297.5     60.355   54.209   13.078
 5298     61.227   52.706   13.077
 5298.5     62.29   51.202   13.075
 5299     63.353   51.582   13.074
 5299.5     64.416   51.969   13.073
 5300     65.479   53.582   13.072
 5300.5     66.543   55.488   13.071
 5301     67.606   57.394   13.069
 5301.5     68.669   59.299   13.068
 5302     67.719   61.205   13.067
 5302.5     66.696   63.111   13.066
 5303     65.674   65.017   13.064
 5303.5     64.727   66.922   13.063
 5304     63.862   64.631   13.062
 5304.5     62.998   61.319   13.061
 5305     62.133   58.006   13.06
 5305.5     61.268   54.694   13.058
 5306     62.415   51.382   13.057
 5306.5     65.474   48.07   13.056
 5307     68.532   47.121   13.055
 5307.5     71.591   49.614   13.054
 5308     74.65   52.107   13.052
 5308.5     77.708   56.198   13.051
 5309     78.29   65.502   13.05
 5309.5     76.343   74.807   13.049
 5310     74.396   84.111   13.048
 5310.5     72.449   78.169   13.046
