###############################################
##         ENVERUS                           ##
##         ESS - Open Hole                   ##
##         PERMIAN / DELAWARE                ##
##         Nov 03 2023  V4.0                 ##
##         42-109-32620-90-00                ##
###############################################
## Copyright 2017-2023  ENVERUS.  All Rights Reserved. 
## Confidential - Property of ENVERUS, use governed by terms and 
## conditions found within the existing Information Services Subscription Agreement 
## (as may be amended, the “ISSA”) between Customer and ENVERUS. 
## 
~VERSION INFORMATION
# MNEM.UNIT                               DATA : DESCRIPTION OF MNEMONIC
#-----.-----     ----------------------------- : -----------------------------
VERS.                                     2.00 : CWLS LOG ASCII STANDARD - VERSION 2.00
WRAP.                                       NO : MULTIPLE LINES PER DEPTH STEP
VEND.                                  ENVERUS : VENDOR
TYPE.                          ESS - OPEN HOLE : ENVERUS ESSENTIAL CURVES – ACCESSIBLE THROUGH ENVERUS PRISM(TM)
DOC.                                  51092896 : ENVERUS HEADER RAW DOCUMENT ID
#___________________________________________________________________________________________________ 
~WELL INFORMATION 
# mS4wxE9S4ErBCd3MEwtzWWb7vaBLyBp2a6hoNdhJ+t1pinRta8/5SsS3wr5CrR4pTncMCKeAGTUU45xlgh6yRQ== 
# MNEM.UNIT                                              DATA : DESCRIPTION OF MNEMONIC 
#-----.-----                    ----------------------------- : ----------------------------- 
CNTY.                                               CULBERSON : COUNTY 
STATE.                                                  TEXAS : STATE 
CNTRY.                                                    USA : COUNTRY 
API.                                             42-109-32620 : API (10 Digit) 
API_14.                                    42-109-32620-90-00 : API (14 Digits) 
API_14_std.                                 42-109-32620-9000 : API (14 Digits Standard) 
UWI.                                           42109326209000 : UNIQUE WELL ID 
WELL.                               42109326200000_PREV_API14 : WELL NAME
STRT.FT                                                2338.5 : START DEPTH
STOP.FT                                               10866.0 : STOP DEPTH
STEP.FT                                                   0.5 : STEP BETWEEN DEPTHS
NULL.                                                 -999.25 : NULL VALUE
PREV_APII.                                     42109326200000 : WELL IDENTIFIER
#___________________________________________________________________________________________________ 
~PARAMETER INFORMATION 
# MNEM.UNIT                                              DATA : DESCRIPTION OF MNEMONIC 
#-----.-----                    ----------------------------- : ----------------------------- 
EKB.FT                                                   3330 : ELEVATION ABOVE MSL
#___________________________________________________________________________________________________ 
~CURVE INFORMATION 
# MNEM.UNIT           : CURVE DESCRIPTION 
#-----.-----          : ----------------------------- 
 DEPT.FT               : MEASURED DEPTH 
 CALI.IN               : CALIPER (CAL - CALIPER) 
 GR.API                : GAMMA RAY (GAMMA RAY) 
 DT.US/FT              : SONIC DELTA TRANSIT TIME (PRESSURE WAVE SONIC) 
 #___________________________________________________________________________________________________ 
~A         DEPT           CALI             GR             DT
         2338.5          9.240       -999.250       -999.250
         2339.0          9.242         15.502       -999.250
         2339.5          9.354         12.542         51.413
         2340.0          9.497         12.442         51.634
         2340.5          9.578         14.139       -999.250
         2341.0          9.659         16.035       -999.250
         2341.5          9.746         16.090         50.532
         2342.0          9.831         15.769         49.903
         2342.5          9.832         16.467         48.967
         2343.0          9.792         16.656         48.786
         2343.5          9.753         13.689         49.485
         2344.0          9.753         12.708         49.729
         2344.5          9.753         13.789         49.990
         2345.0          9.773         18.319         49.990
         2345.5          9.773         19.727         50.050
         2346.0          9.773         18.696         50.224
         2346.5          9.773         14.469         50.227
         2347.0          9.773         13.773         50.291
         2347.5          9.771         17.576         50.171
         2348.0          9.713         18.885         49.983
         2348.5          9.649         19.927         49.809
         2349.0          9.608         18.918         49.615
         2349.5          9.593         18.619         49.586
         2350.0          9.593         14.567         49.569
         2350.5          9.613         12.297         49.629
         2351.0          9.633         13.052         49.569
         2351.5          9.593         18.314         49.418
         2352.0          9.573         22.224         49.388
         2352.5          9.553         27.114         49.448
         2353.0          9.553         23.717         49.609
         2353.5          9.538         19.017         49.913
         2354.0          9.533         19.906         49.930
         2354.5          9.513         20.791         49.819
         2355.0          9.513         20.936         49.395
         2355.5          9.513         24.015         49.268
         2356.0          9.553         26.747         49.268
         2356.5          9.553         26.958         49.271
         2357.0          9.553         27.944         49.328
         2357.5          9.553         26.295         49.328
         2358.0          9.553         22.543         49.268
         2358.5          9.573         19.964         49.345
         2359.0          9.580         18.496         49.529
         2359.5          9.633         18.242         49.749
         2360.0          9.633         19.251         49.689
         2360.5          9.633         19.761         49.689
         2361.0          9.644         20.471         49.689
         2361.5          9.653         20.958         49.749
         2362.0          9.673         18.762         49.930
         2362.5          9.713         14.611         50.335
         2363.0          9.713         13.217         50.471
         2363.5          9.713         11.143         50.471
         2364.0          9.713         10.401         50.471
         2364.5          9.713         11.262         50.294
         2365.0          9.713         12.176         50.291
         2365.5          9.713         11.459         50.231
         2366.0          9.713          9.581         50.110
         2366.5          9.733         11.428         50.100
         2367.0          9.753         13.174         50.110
         2367.5          9.753         13.373         50.171
         2368.0          9.753         13.972         50.150
         2368.5          9.753         13.655         50.087
         2369.0          9.753         12.086         50.083
         2369.5          9.733         11.976         49.930
         2370.0          9.721         12.375         49.870
         2370.5          9.693         12.498         49.930
         2371.0          9.706         13.574         49.930
         2371.5          9.713         14.226         50.050
         2372.0          9.733         12.462         50.110
         2372.5          9.733         10.811         50.035
         2373.0          9.733         12.522         49.809
         2373.5          9.752         14.356         49.689
         2374.0          9.812         13.272         49.840
         2374.5          9.872         11.964         50.387
         2375.0          9.912         10.755         50.779
         2375.5          9.912          9.381         51.013
         2376.0          9.912         10.892         51.013
         2376.5          9.864         16.746         50.833
         2377.0          9.726         25.588         50.632
         2377.5          9.653         29.768         50.471
         2378.0          9.653         28.274         50.679
         2378.5          9.713         25.650         50.712
         2379.0          9.666         28.236         50.739
         2379.5          9.492         32.129         50.495
         2380.0          9.380         34.470         51.888
         2380.5          9.279         50.689         68.569
         2381.0          9.198         69.909         73.160
         2381.5          9.154         79.582         74.775
         2382.0          9.154         85.408         71.430
         2382.5          9.154        105.394         68.947
         2383.0          9.174        111.479         67.772
         2383.5          9.194        110.999         66.674
         2384.0          9.194        106.693         65.871
         2384.5          9.194        111.046         66.511
         2385.0          9.194        134.805         68.989
         2385.5          9.174        153.490         70.614
         2386.0          9.174        156.159         70.993
         2386.5          9.214        142.744         70.729
         2387.0          9.223        124.491         70.424
         2387.5          9.284        111.424         68.373
         2388.0          9.293        102.978         66.909
         2388.5          9.313         92.199         65.792
         2389.0          9.333         92.240         65.989
         2389.5          9.353        107.777         67.027
         2390.0          9.353        115.151         68.751
         2390.5          9.373        116.168         70.232
         2391.0          9.413        113.447         70.271
         2391.5          9.413        105.921         69.615
         2392.0          9.413         99.486         68.703
         2392.5          9.393         91.779         66.777
         2393.0          9.393         84.778         66.345
         2393.5          9.393         81.836         65.952
         2394.0          9.393         82.703         65.959
         2394.5          9.393         84.515         66.565
         2395.0          9.393         93.763         67.917
         2395.5          9.413        109.809         69.633
         2396.0          9.413        119.621         70.670
         2396.5          9.413        125.451         71.505
         2397.0          9.433        121.445         71.128
         2397.5          9.433        116.311         69.767
         2398.0          9.413        107.772         67.851
         2398.5          9.393        102.031         66.181
         2399.0          9.393         98.133         65.878
         2399.5          9.357         91.409         66.049
         2400.0          9.353         91.197         66.353
         2400.5          9.333        107.997         67.457
         2401.0          9.313        118.181         69.011
         2401.5          9.274        136.635         70.801
         2402.0          9.214        144.687         71.861
         2402.5          9.214        138.865         71.516
         2403.0          9.209        123.986         67.748
         2403.5          9.148        110.046         64.549
         2404.0          9.134        112.244         64.342
