###############################################
##         ENVERUS                           ##
##         ESS - Open Hole                   ##
##         PERMIAN / DELAWARE                ##
##         Nov 03 2023  V4.0                 ##
##         42-109-32538-90-00                ##
###############################################
## Copyright 2017-2023  ENVERUS.  All Rights Reserved. 
## Confidential - Property of ENVERUS, use governed by terms and 
## conditions found within the existing Information Services Subscription Agreement 
## (as may be amended, the “ISSA”) between Customer and ENVERUS. 
## 
~VERSION INFORMATION
# MNEM.UNIT                               DATA : DESCRIPTION OF MNEMONIC
#-----.-----     ----------------------------- : -----------------------------
VERS.                                     2.00 : CWLS LOG ASCII STANDARD - VERSION 2.00
WRAP.                                       NO : MULTIPLE LINES PER DEPTH STEP
VEND.                                  ENVERUS : VENDOR
TYPE.                          ESS - OPEN HOLE : ENVERUS ESSENTIAL CURVES – ACCESSIBLE THROUGH ENVERUS PRISM(TM)
DOC.                                  51093252 : ENVERUS HEADER RAW DOCUMENT ID
#___________________________________________________________________________________________________ 
~WELL INFORMATION 
# oCCetX3e+0pvkDd8h//i1tmWwvIHyfHqsQII3M49Y6eU5HggNAlLoqtwY+vCuZvzOG9Fr+Tv1xe2vto6NUMufQ== 
# MNEM.UNIT                                              DATA : DESCRIPTION OF MNEMONIC 
#-----.-----                    ----------------------------- : ----------------------------- 
CNTY.                                               CULBERSON : COUNTY 
STATE.                                                  TEXAS : STATE 
CNTRY.                                                    USA : COUNTRY 
API.                                             42-109-32538 : API (10 Digit) 
API_14.                                    42-109-32538-90-00 : API (14 Digits) 
API_14_std.                                 42-109-32538-9000 : API (14 Digits Standard) 
UWI.                                           42109325389000 : UNIQUE WELL ID 
WELL.                                                  DRD_55 : WELL NAME
STRT.FT                                                2546.5 : START DEPTH
STOP.FT                                               11260.0 : STOP DEPTH
STEP.FT                                                   0.5 : STEP BETWEEN DEPTHS
NULL.                                                 -999.25 : NULL VALUE
PREV_APII.                                     42109325380000 : WELL IDENTIFIER
#___________________________________________________________________________________________________ 
~PARAMETER INFORMATION 
# MNEM.UNIT                                              DATA : DESCRIPTION OF MNEMONIC 
#-----.-----                    ----------------------------- : ----------------------------- 
EKB.FT                                                   3182 : ELEVATION ABOVE MSL
#___________________________________________________________________________________________________ 
~CURVE INFORMATION 
# MNEM.UNIT           : CURVE DESCRIPTION 
#-----.-----          : ----------------------------- 
 DEPT.FT               : MEASURED DEPTH 
 CALI.IN               : CALIPER (CAL - CALIPER) 
 GR.API                : GAMMA RAY (GAMMA RAY) 
 DT.US/FT              : SONIC DELTA TRANSIT TIME (SONIC) 
 RESS.OHMM             : SHALLOW INDUCTION RESISTIVITY (ILS - SHALLOW RESISTIVITY) 
 RESD.OHMM             : DEEP INDUCTION RESISTIVITY (ILD - DEEP RESISTIVITY) 
 DPHI.V/V              : DENSITY POROSITY (DENSITY POROSITY) 
 NPHI.V/V              : NEUTRON POROSITY (NEUTRON POROSITY) 
 RHOB.G/CC             : BULK DENSITY (DENSITY) 
 #___________________________________________________________________________________________________ 
~A         DEPT           CALI             GR             DT           RESS           RESD           DPHI           NPHI           RHOB
# ...
         9803.5          6.388         85.607         78.001         11.636         10.772        0.10316        0.18468         2.5802
         9804.0          6.388         82.280         76.972          9.458          8.197        0.06245        0.16154         2.6087
         9804.5          6.388         83.159         75.943          8.651          8.599        0.06648        0.13364         2.5820
         9805.0          6.388         85.961         75.174         10.027         10.386        0.09735        0.12974         2.5317
         9805.5          6.406         86.449         74.765         10.960         11.682        0.12177        0.15241         2.5026
         9806.0          6.415         85.961         74.356         12.291         17.335        0.13171        0.16636         2.4873
         9806.5          6.415         90.253         74.765         15.554         19.725        0.13948        0.16855         2.4824
         9807.0          6.415         97.809         75.174         14.851         18.699        0.13721        0.17224         2.4930
         9807.5          6.415        100.153         75.992         14.757         18.149        0.13116        0.17862         2.4965
         9808.0          6.415        101.230         76.701         14.535         17.747        0.13394        0.17862         2.4871
         9808.5          6.416        100.734         77.730         14.388         17.713        0.13782        0.17839         2.4774
         9809.0          6.433         98.409         78.351         14.734         17.853        0.14641        0.18099         2.4783
         9809.5          6.433         96.567         78.470         14.808         18.356        0.14441        0.18015         2.4854
         9810.0          6.427         96.913         78.533         14.674         18.661        0.13762        0.17707         2.4983
         9810.5          6.415         96.018         78.446         14.674         18.661        0.12822        0.17511         2.5146
         9811.0          6.406         95.028         77.696         14.349         18.811        0.12096        0.18458         2.5048
         9811.5          6.406         93.515         76.667         14.785         20.071        0.13441        0.18244         2.4841
         9812.0          6.406         83.476         75.461         15.505         22.592        0.14498        0.17720         2.4970
         9812.5          6.406         77.816         74.200         17.066         25.745        0.13186        0.17394         2.5358
         9813.0          6.415         77.685         73.170         20.951         31.881        0.10308        0.17086         2.5777
         9813.5          6.415         68.739         72.311         26.067         38.805        0.07013        0.15383         2.6015
         9814.0          6.415         70.006         71.521         25.292         38.046        0.07600        0.12149         2.5780
         9814.5          6.424         77.837         71.493         22.483         29.727        0.09083        0.11625         2.5450
         9815.0          6.424         80.117         71.084         18.735         23.266        0.10983        0.12090         2.5310
         9815.5          6.424         81.313         70.675         17.526         20.806        0.10560        0.14011         2.5434
         9816.0          6.416         76.161         69.858         16.772         19.236        0.09823        0.15194         2.5650
         9816.5          6.415         73.211         69.448         15.543         15.596        0.09020        0.15502         2.5917
         9817.0          6.423         72.988         69.448         10.764         11.409        0.07076        0.14856         2.6371
         9817.5          6.442         63.212         69.671          9.889         10.371        0.00968        0.15312         2.7064
         9818.0          6.451         52.910         70.700         10.013         10.664        0.00000        0.17269         2.7605
         9818.5          6.469         46.293         72.171         10.750         11.053        0.00000        0.16469         2.7783
         9819.0          6.486         59.931         74.638         10.444         10.764        0.00000        0.13847         2.6773
         9819.5          6.508         72.293         76.901          8.544          8.658        0.06000        0.11041         2.5925
         9820.0          6.540         81.966         79.547          7.074          6.247        0.08200        0.12244         2.5737
         9820.5          6.540         93.210         80.754          6.113          5.544        0.08456        0.17833         2.5723
         9821.0          6.531         95.509         81.784          5.619          5.270        0.08174        0.23422         2.5836
         9821.5          6.518         93.101         82.127          5.382          5.126        0.07684        0.24056         2.5862
         9822.0          6.478         90.863         82.048          5.278          5.084        0.07740        0.22648         2.5820
         9822.5          6.442         89.321         81.019          5.343          5.180        0.08128        0.21100         2.5761
         9823.0          6.433         91.999         79.739          5.543          5.604        0.08574        0.21531         2.5674
         9823.5          6.433         89.457         78.551          6.723          7.162        0.08980        0.20566         2.5598
         9824.0          6.433         88.780         76.856          8.955         10.933        0.09662        0.18664         2.5443
         9824.5          6.410         82.067         75.675         12.386         17.921        0.10822        0.19579         2.5243
         9825.0          6.406         80.825         74.765         20.839         29.250        0.11977        0.20758         2.5088
         9825.5          6.388         83.756         74.356         35.249         47.966        0.12672        0.17820         2.4977
         9826.0          6.352         89.212         74.356         44.418         56.849        0.13303        0.16062         2.4968
         9826.5          6.374         92.101         74.356         41.472         54.403        0.12935        0.15753         2.5271
         9827.0          6.401         86.648         74.502         40.674         57.656        0.11526        0.15314         2.5374
         9827.5          6.417         83.497         74.765         41.874         56.913        0.10801        0.14267         2.5383
         9828.0          6.433         85.476         75.583         38.329         52.617        0.10842        0.14460         2.5273
         9828.5          6.449         91.870         76.363         34.649         44.943        0.11764        0.14805         2.5167
         9829.0          6.451        104.364         76.983         22.543         33.919        0.12477        0.16814         2.5100
         9829.5          6.451        110.258         77.628         14.738         22.482        0.12688        0.18037         2.5075
         9830.0          6.451        105.906         78.037         14.840         22.291        0.12133        0.20483         2.5265
         9830.5          6.457         96.617         78.037         17.662         24.945        0.10909        0.21772         2.5472
         9831.0          6.471         98.710         78.037         21.447         28.940        0.10208        0.18927         2.5333
         9831.5          6.484        102.283         78.039         20.718         26.607        0.11532        0.18463         2.5121
         9832.0          6.496        103.249         78.642         16.454         18.880        0.12779        0.17219         2.4990
         9832.5          6.489        102.190         78.446         13.862         18.006        0.13245        0.18157         2.5057
