# Exported from Transform Software 5.2.0 on 30-Oct-2019 by user kathryn.gehrke
# DI Transform - A Product of Drillinginfo, Inc. - www.drillinginfo.com
#
~VERSION INFORMATION
 VERS.        2.0 : LAS ASCII STANDARD - VERSION 2.0
 WRAP.         NO : ONE LINE PER DEPTH STEP

~WELL INFORMATION
#MNEM.UNIT       DATA TYPE       INFORMATION
#---------       ---------       -----------
 STRT.ft                  40 : Start Depth
 STOP.ft                9358 : Stop Depth
 STEP.ft                 0.5 : Step Length
 NULL.               -999.25 : Null Value
 COMP.                       : Company
 WELL.  42109330610000_API14 : Well Name
 FLD.                        : Field Name
 LOC.                        : Well Location
 CNTY.                       : County
 STAT.                       : State or Province
 CTRY.                       : Country
 SRVC.                       : Service Company
 DATE.                       : Date
 API.         42109330610000 : Well Identifier

~CURVE INFORMATION
#MNEM.UNIT       API CODE       CURVE DESCRIPTION
#---------       --------       -----------------
 DEPT.ft        : <Measured Depth>
 DT.us/ft       : Sonic
 GR.gAPI        : Gamma Ray

~PARAMETER INFORMATION
#MNEM.UNIT       VALUE       DESCRIPTION
#---------       -----       -----------
 EKB.ft      3200.5 : Elevation above MSL

~A      DEPT          DT          GR
# ...
      2535.5    242.6854     33.5558
        2536    244.2886     31.7435
      2536.5    244.2886     32.6409
        2537     243.487     34.8052
      2537.5    242.6854     35.5912
        2538    241.8838     36.3126
      2538.5    241.0822     36.7936
        2539    241.0822     34.8876
      2539.5    241.0822     29.7083
        2540    241.0822     24.7229
      2540.5    241.0822     22.4293
        2541    240.4919     22.7811
      2541.5    240.2806     24.4644
        2542    240.2806     25.2505
      2542.5     239.479     24.1774
        2543     239.479     23.1509
      2543.5     239.479     22.8457
        2544    238.6774     23.9834
      2544.5    237.8758     25.7315
        2545    236.2725     26.2124
      2545.5    236.2725     25.0748
        2546    236.8624     25.1857
      2546.5    237.0741     25.9072
        2547    235.6828     29.3848
      2547.5    235.4709     34.1944
        2548    236.2725     37.1449
      2548.5    237.0741     38.8931
        2549    238.6774     39.1984
      2549.5    238.6774     37.7096
        2550    238.6774     35.8965
      2550.5    239.2668     35.5912
        2551     239.479     35.7668
      2551.5     239.479     36.0721
        2552    240.2806     37.2096
      2552.5    240.2806     39.1335
        2553    241.0822     40.1603
      2553.5    241.0822     39.9198
        2554    241.0822     39.6794
      2554.5    241.0822     39.0229
        2555    241.0822     38.3015
      2555.5    241.0822     38.6524
        2556    241.0822     40.8818
      2556.5    241.0822      38.672
        2557    241.0822     34.0379
      2557.5    241.0822     34.1936
        2558    241.0822     40.2961
      2558.5    241.8838     45.7168
        2559    241.8838     51.6184
      2559.5    241.8838     52.0741
        2560    241.8838     47.8757
      2560.5    240.4936     43.1112
        2561     239.479     42.3898
      2561.5    238.6774     42.6753
        2562    238.6774     50.4899
      2562.5    240.2806     55.6859
        2563    241.0822     58.2616
      2563.5    241.8838     50.4765
        2564    241.8838     40.7473
      2564.5    241.8838     35.9621
        2565    241.8838     36.0069
      2565.5    241.8838     38.8274
        2566    242.6854     40.1603
      2566.5    242.6854     37.5357
        2567    242.6854     33.1418
      2567.5    241.8838     30.4312
        2568    241.0822     27.5455
      2568.5      241.67     24.4193
        2569    241.8838     24.2886
      2569.5    242.6854     28.2904
        2570    242.6854     30.0601
      2570.5    242.6854     27.0647
        2571    242.6854     25.3159
      2571.5    241.8838     25.9065
        2572    241.8838     27.6553
      2572.5    241.8838     28.4863
        2573    241.8838     30.9566
      2573.5    241.8838     32.2899
        2574    242.6854     30.2566
      2574.5    242.6854     28.1363
        2575    242.6854     30.6945
      2575.5    242.6854     32.6399
        2576     243.487     31.3281
      2576.5    245.0902     28.9233
        2577    245.8918     28.4423
      2577.5    246.6934     27.4148
        2578    245.8918     27.3492
      2578.5    245.8918     29.5792
        2579    244.2886      30.716
      2579.5     243.487     30.6067
        2580    242.6854      28.508
      2580.5    242.6854     27.6553
        2581    242.6854     29.5135
      2581.5    242.6854     31.2625
        2582    242.6854     29.4044
      2582.5    242.6854     29.0982
        2583    242.6854     30.9563
      2583.5    242.6854     32.1587
        2584    242.6854      31.984
      2584.5    242.6854      31.984
        2585    242.6854      31.984
      2585.5    242.6854     29.2955
        2586    242.6854     26.7161
      2586.5    242.6854     27.5895
        2587    241.8838     29.7538
      2587.5    241.8838      31.022
        2588    242.6854      31.503
      2588.5    242.6854      30.126
        2589    242.6854     29.3387
      2589.5    242.6854     29.9942
        2590    241.8838     30.2347
      2590.5    241.8838     30.0601
        2591    241.8838     31.2625
      2591.5    241.8838      31.503
        2592    242.6854     28.6832
      2592.5    242.6854     28.0703
        2593    242.6854     31.7201
      2593.5    242.6854     34.4973
        2594    242.6854     36.4871
      2594.5    242.6854     39.2408
        2595    242.6854     41.7116
      2595.5    242.6854      39.703
        2596    242.6854        35.2
      2596.5    242.6854      31.984
        2597    242.6854     32.8798
      2597.5    242.6854      32.531
        2598    242.6854     28.7494
      2598.5    242.6854     27.8958
        2599    242.6854     29.2725
      2599.5    242.6854     30.2345
        2600    242.6854      31.022
      2600.5    242.6854     30.7816
        2601    242.6854     28.9901
      2601.5    242.6854     26.7596
        2602    242.6854     26.1462
      2602.5    242.6854     25.7315
        2603    242.6854     26.1462
      2603.5    242.6854     28.3105
        2604    242.6854     30.2343
      2604.5    242.6854     29.2307
        2605    242.6854     27.8958
      2605.5    242.6854     27.4811
        2606    242.6854     26.2787
      2606.5    242.6854     27.9373
        2607    242.6854     33.2278
      2607.5    242.6854     36.0058
        2608    242.6854     35.0025
      2608.5    242.6854     32.7718
        2609    242.6854      33.775
      2609.5    242.6854     34.6293
        2610    242.6854     33.3192
      2610.5    242.6854     29.8449
        2611    242.6854     27.0003
      2611.5    242.6854     27.3895
        2612    242.6854     30.4082
      2612.5    243.2694      30.674
        2613     243.487     28.6837
      2613.5    242.6854     28.0033
        2614    242.6854     27.4148
      2614.5    242.6854     27.8293
        2615    242.6854     28.7912
      2615.5    242.6854     31.6104
        2616    242.6854     34.0817
      2616.5     243.487     36.6604
        2617    245.0902      37.996
      2617.5    245.0902     37.3412
        2618    245.0902     34.3482
      2618.5    245.0902     33.1197
        2619    245.8918     34.8031
      2619.5    245.0902     37.7555
        2620    244.5068     36.0983
      2620.5    242.6854     30.7007
        2621    241.8838     29.5529
      2621.5    241.8838      31.022
        2622    241.8838     31.4363
      2622.5    241.8838     33.2266
        2623    241.3006     36.0054
      2623.5    241.0822     36.3126
        2624    240.2806     36.3126
      2624.5     239.479     36.7936
        2625    240.2806     37.2745
      2625.5    241.0822      35.137
        2626    241.8838     32.7722
      2626.5    241.8838      31.984
        2627    241.0822      31.984
      2627.5    241.0822      31.984
        2628    240.8633     32.6385
      2628.5    241.0822     32.4649
        2629    241.0822      31.984
      2629.5    241.0822     33.1195
        2630    241.8838     34.3218
      2630.5    241.8838     32.8393
        2631    241.8838     28.9916
      2631.5    241.8838     29.2047
        2632    241.8838      31.436
      2632.5    241.8838     30.4346
        2633    241.8838     28.6172
      2633.5    241.8838     29.9261
        2634    241.8838     33.0523
      2634.5    241.8838     35.0432
        2635    241.8838     35.5912
      2635.5    241.8838     34.4558
        2636    242.6854     31.2904
      2636.5    242.6854      28.578
        2637    242.6854      28.964
      2637.5    242.6854     31.1283
        2638    242.6854     32.4259
      2638.5    242.6854     31.5702
        2639    242.6854     31.4358
      2639.5    242.6854      31.503
        2640    242.6854     30.6755
      2640.5    242.6854     30.2334
        2641    242.6854       32.09
      2641.5    242.6854     32.7054
        2642    242.6854     32.9459
      2642.5    242.6854     36.6306
        2643    242.6854      38.477
      2643.5    242.6854     35.0043
