~VERSION INFORMATION
VERS. 2.0 : CWLS Log ASCII Standard - Version 2.0
WRAP. NO : One line per depth step
#--------------------------------------------------#
#----------------DRILLING INFO, INC.---------------#
#---------------WWW.DRILLINGINFO.COM---------------#
#------------------COPYRIGHT 2015------------------#
#--------------------------------------------------#
#THIS FILE MAY BE USED ONLY IN ACCORDANCE WITH A CURRENT SUBSCRIPTION AGREEMENT BETWEEN
#THE USER AND DRILLING INFO, INC. NO PART OF THIS FILE MAY BE REPRODUCED, USED, COPIED,
#MODIFIED, PROPAGATED, OR DISTRIBUTED EXCEPT IN ACCORDANCE WITH THE SUBSCRIPTION
#AGREEMENT. UNAUTHORIZED USE OR DISTRIBUTION OF ALL OR ANY PART OF THIS FILE MAY VIOLATE
#COPYRIGHT, TRADEMARK, AND/OR OTHER LAWS AND IS SUBJECT TO CIVIL AS WELL AS CRIMINAL
#SANCTIONS.
#--------------------------------------------------#
#THIS FILE IS PROVIDED "AS-IS" AND ALL WARRANTIES ARE EXPRESSLY DISCLAIMED, WHETHER
#EXPRESS, ORAL, IMPLIED, STATUTORY OR OTHERWISE, INCLUDING ANY IMPLIED WARRANTY OF FITNESS
#FOR A PARTICULAR PURPOSE, MERCHANTABILITY, TITLE OR NON-INFRINGEMENT, AND ANY WARRANTIES
#ARISING BY VIRTUE OF CUSTOM OF TRADE OR COURSE OF DEALING.  FURTHER, DRILLING INFO,
#INC. AND ITS LICENSORS DO NOT REPRESENT OR WARRANT THAT THIS FILE WILL MEET USER'S
#REQUIREMENTS OR ARE SUITABLE FOR USER'S NEEDS OR THAT THE DATA OR RESULTS PROVIDED IN
#CONJUNCTION THEREWITH ARE CORRECT, ACCURATE, TIMELY OR RELIABLE. THESE DISCLAIMERS SHALL
#APPLY REGARDLESS OF ANY FAILURE OF ESSENTIAL PURPOSE OF ANY LIMITED REMEDY.  SOME
#JURISDICTIONS DO NOT ALLOW THE EXCLUSION OF CERTAIN WARRANTIES SO SOME OF THE ABOVE
#EXCLUSIONS MAY NOT APPLY. IN NO EVENT SHALL DRILLING INFO, INC. OR ANY OF ITS AFFILIATES
#BE LIABLE UNDER ANY LEGAL THEORY, WHETHER IN TORT (INCLUDING WITHOUT LIMITATION
#NEGLIGENCE), CONTRACT, STRICT LIABILITY, STATUTORY OR OTHERWISE, FOR ANY SPECIAL,
#INCIDENTAL, CONSEQUENTIAL, EXEMPLARY, PUNITIVE OR INDIRECT DAMAGE OF ANY KIND, INCLUDING
#WITHOUT LIMITATION LOSS OF REVENUE, PROFITS, GOODWILL, USE, AND/OR DATA OR THE COST OF
#PROCUREMENT OF SUBSTITUTE GOODS OR SERVICES, EVEN IF APPRISED OF THE POSSIBILITY OF SUCH
#DAMAGES IN ADVANCE.
#--------------------------------------------------#
~WELL INFORMATION
#MNEMONIC     .UNIT              VALUE :DESCRIPTION
#--------------------------------------------------#
STRT       .ft                52.00000 :START DEPTH
STOP       .ft                8797.00000 :STOP DEPTH
STEP       .ft                0.50000 :STEP
NULL       .                -999.25000 :NULL VALUE
COMP       .                 :COMPANY
WELL       .                 :WELL
FLD       .                 :FIELD
LOC       .                 :LOCATION
CNTY       .                 :COUNTY
STAT       .                 :STATE
CTRY       .                 :COUNTRY
SRVC       .                 :SERVICE COMPANY
DATE       .                 :DATE
API       .                42109700290000 :API NUMBER
~CURVE INFORMATION
#MNEMONIC     .UNIT      API CODE :CURVE DESCRIPTION
#--------------------------------------------------#
DEPTH       .ft                      :Measured Depth
DT       .us/ft        UNKNOWN   :DT
GR       .gAPI        UNKNOWN   :GR
ILD       .ohmm        UNKNOWN   :ILD
ILS       .ohmm        UNKNOWN   :ILS
SP       .mV        UNKNOWN   :SP
~A    DEPTH    DT    GR    ILD    ILS    SP
# ...
1889.50000    61.34475    52.48115    738.30282    524.68868    -109.59696
1890.00000    62.69687    54.35986    738.35424    527.25084    -109.18436
1890.50000    64.04899    53.16226    738.40566    528.13967    -108.77175
1891.00000    65.40110    51.66108    738.45707    527.01097    -108.35914
1891.50000    65.03282    53.23602    738.50849    525.88226    -107.94653
1892.00000    64.65902    54.81096    738.55991    524.75355    -107.53391
1892.50000    64.02642    56.38589    738.61133    523.62485    -107.12129
1893.00000    60.36108    57.96083    738.66275    522.49614    -106.70867
1893.50000    56.69574    59.53577    738.71416    521.36744    -106.29606
1894.00000    56.71024    56.51199    738.76558    520.23873    -105.88344
1894.50000    57.35691    49.64369    738.81700    519.11003    -105.47082
1895.00000    57.84857    42.77538    738.86842    518.60733    -105.05820
1895.50000    59.38348    35.90708    738.91984    523.31549    -104.64558
1896.00000    61.18988    29.74445    738.97126    528.02364    -104.23296
1896.50000    62.99629    33.82976    739.02267    532.73179    -103.82034
1897.00000    64.49168    37.91507    739.07409    537.43995    -103.40772
1897.50000    65.14513    42.00038    739.12551    542.14810    -102.99511
1898.00000    65.94105    47.81017    739.17693    546.85626    -102.58249
1898.50000    66.77590    56.54679    739.22835    551.56441    -102.16987
1899.00000    67.61076    65.28341    739.27977    556.27256    -101.75725
1899.50000    65.82544    74.02003    739.33118    560.98072    -101.34463
1900.00000    63.41839    81.16844    739.38260    565.68887    -100.93201
1900.50000    61.01134    78.40279    739.43402    570.39702    -100.51939
1901.00000    58.54044    75.63714    739.48544    575.10518    -100.10677
1901.50000    56.80906    72.87149    739.53686    579.81333    -99.69416
1902.00000    57.14514    67.77771    739.58827    584.52149    -99.28154
1902.50000    57.48122    60.51671    739.63969    589.22964    -98.86892
1903.00000    57.81730    53.25570    739.69111    593.93779    -98.59861
1903.50000    58.15339    45.99470    739.74253    596.34269    -98.85752
1904.00000    58.26292    38.73369    739.79395    596.35822    -99.11643
1904.50000    57.16392    32.80479    739.84537    596.37376    -99.37534
1905.00000    56.06492    33.68599    739.89678    596.38930    -99.63425
1905.50000    54.96592    34.56719    739.94820    596.40484    -99.89317
1906.00000    54.58944    35.44839    739.99962    596.42037    -100.15208
1906.50000    56.13434    30.43053    740.05104    596.43591    -100.41099
1907.00000    58.16466    25.16083    740.10246    592.49785    -100.66990
1907.50000    60.19498    19.89114    740.15388    587.44336    -100.92881
1908.00000    62.22531    23.38765    740.20529    582.38887    -101.18772
1908.50000    62.25049    28.96228    740.25671    577.33439    -101.44663
1909.00000    61.69629    34.53691    740.30813    572.27990    -101.70554
1909.50000    61.14208    42.47194    740.35955    567.22541    -101.96445
1910.00000    60.58788    52.25180    740.41097    562.17092    -102.22336
1910.50000    60.16193    56.19762    740.46238    557.11643    -102.48228
1911.00000    59.92742    57.29211    740.51380    552.06194    -102.74119
1911.50000    59.69290    58.38659    740.56522    547.00745    -103.00010
1912.00000    59.45837    54.32018    740.61664    541.95296    -103.23452
1912.50000    59.21201    50.16221    740.66806    536.89847    -103.27442
1913.00000    57.41989    48.55159    740.71948    531.84398    -103.31432
1913.50000    55.62778    46.94098    740.77089    526.78949    -103.35423
1914.00000    54.03147    45.33037    740.82231    521.73500    -103.39413
1914.50000    53.72101    42.50499    740.87373    518.89269    -103.43404
1915.00000    53.41055    38.41159    740.92515    516.98770    -103.47394
1915.50000    53.37209    34.31819    740.97657    515.08270    -103.51384
1916.00000    54.39873    30.22479    741.02798    513.17771    -103.55375
1916.50000    55.42538    26.09354    741.07940    511.27272    -103.59365
1917.00000    56.21281    21.91296    741.13082    509.36772    -103.63356
1917.50000    56.90861    21.91051    741.18224    505.80475    -103.67346
1918.00000    57.60440    24.36762    741.23366    498.94159    -103.71336
1918.50000    58.30019    26.82472    741.28508    492.07843    -103.78972
1919.00000    59.08596    29.28183    741.33649    485.21528    -103.87262
1919.50000    60.10468    40.12313    741.38791    478.35212    -103.95552
1920.00000    60.68303    50.83860    725.22751    471.48897    -104.03841
1920.50000    61.14489    49.59300    707.42414    464.62581    -104.12131
1921.00000    61.60674    48.34741    689.62077    457.76266    -104.20420
1921.50000    62.06860    47.10181    671.81740    450.89950    -104.28710
1922.00000    60.96745    46.86724    654.01403    444.03635    -104.37000
1922.50000    59.59563    48.09719    636.21066    437.17319    -104.45289
1923.00000    58.22380    49.32714    656.23695    430.31004    -104.53579
1923.50000    56.85198    50.55709    676.68310    423.44688    -104.61868
1924.00000    55.48016    49.90266    697.12925    416.58373    -104.70158
1924.50000    54.26409    44.33132    717.57539    411.31423    -104.94690
1925.00000    56.06872    38.75999    738.02154    409.28689    -105.31160
1925.50000    58.41294    33.18865    717.62294    407.25954    -105.67630
1926.00000    60.75717    29.36188    695.30628    405.23220    -106.04100
1926.50000    63.10140    30.76790    672.98962    403.20485    -106.40570
1927.00000    65.38818    32.17391    620.47253    400.88243    -106.77040
1927.50000    66.31802    33.76879    551.64717    395.33003    -107.13510
1928.00000    67.24786    40.30976    482.82182    389.77764    -107.49979
1928.50000    64.72076    46.85074    413.99646    384.22524    -107.86449
1929.00000    60.31778    53.39172    345.17110    378.67285    -108.22919
1929.50000    59.63223    59.93270    305.55224    373.12045    -108.59389
1930.00000    59.06306    63.35185    327.88405    367.87930    -108.95859
1930.50000    58.87714    60.75485    424.72204    369.95682    -109.32328
1931.00000    58.69122    58.15785    521.56003    372.03434    -109.68798
1931.50000    58.63478    55.56085    618.39802    388.38838    -110.05268
1932.00000    58.88169    53.19120    715.23600    407.98982    -110.41738
1932.50000    59.12861    51.42234    736.64183    427.59125    -110.78208
1933.00000    59.37552    51.59789    736.75681    447.19269    -111.14678
1933.50000    58.26249    54.04224    736.87179    466.79413    -111.51148
1934.00000    56.92951    56.48660    736.98678    486.39557    -111.87617
1934.50000    55.59653    58.93095    737.10176    505.99701    -111.84170
1935.00000    54.26356    58.36386    737.21675    525.59845    -111.42957
1935.50000    52.93058    50.84411    737.33173    542.58103    -111.01745
1936.00000    52.55208    43.32436    737.44672    550.65912    -110.60532
1936.50000    52.99014    35.80461    737.56170    558.73722    -110.81265
1937.00000    53.42820    28.06626    737.67669    566.81531    -111.35166
1937.50000    53.86625    19.85842    737.79167    574.89340    -111.89067
1938.00000    54.27142    19.54090    737.90666    582.97150    -112.42968
1938.50000    54.40877    19.33325    738.02164    585.55233    -112.55515
1939.00000    54.54613    19.12561    738.13663    586.09318    -112.55212
1939.50000    54.68348    19.72736    738.25161    586.63402    -112.54909
1940.00000    54.82083    21.93483    738.36660    587.17487    -112.54605
1940.50000    55.71201    24.14231    738.48158    587.71571    -112.54302
1941.00000    56.93602    26.34978    738.59657    588.25656    -112.53999
1941.50000    58.16003    28.55725    738.71155    588.79740    -112.53696
1942.00000    58.73829    33.54411    738.82654    589.33825    -112.53393
1942.50000    57.26755    39.55820    738.94152    589.87909    -112.53089
