~Version Information
 VERS.                  2.0:   CWLS log ASCII Standard -VERSION 2.0
 WRAP.                   NO:   One line per depth step
~Well Information Block
#MNEM.UNIT     VALUE/NAME     DESCRIPTION
#---------     -----------    ---------------------------
 STRT.F              8580.0000: START DEPTH
 STOP.F             14491.0000: STOP DEPTH
 STEP.F                 0.5000: STEP DEPTH
 NULL.               -999.2500: NULL VALUE
 LOC .     1072' FWL & 424' FNL:  LOCATION
 FL2 .     A2085 SEC 12 BLK 113:  LOCATIONLINE2
 FL1 .     1072' FWL & 424' FNL:  LOCATIONLINE1
 CNTY.               CULBERSON:  COUNTY NAME
 FLD .              WOLFCAMP B:  FIELD NAME
 WELL.           DALE STATE 2H:  WELL NAME
 COMP.     CAPITAN ENERGY INC.:  COMPANY
 DMF .                      KB:  DRILL MEAS FROM
 PDAT.                      GL:  PERMANENT DATUM
 DATE.             11-Feb-2020:  DATE
 SVCO.             Halliburton:  SERVICECONAME
 PROV.                      TX:  PROVINCE
 STAT.                      TX:  STATE NAME
 CTRY.                     USA:  COUNTRY NAME
 HIDE.                        :  WELLNAMEOPERAT
 UWI .            42-109-33544:  UNIQUE WELL IDENTIFIER
 API .            42-109-33544:  API NUMBER
 RANG.                     N/A:  RANGE
 TOWN.                     N/A:  TOWNSHIP
 SECT.                     N/A:  SECTION
 SON .               906290231:  JOB NUMBER
 SRVC.             Halliburton:  SERVICE COMPANY
 LMF .                      KB:  LOG MEASURED FROM
 TVDS.ft           3291.000000:  TVDSS CORRECTN
 EGL .ft           3266.000000:  GROUND ELEVATION
 APD .ft             25.000000:  DEPTH ABOVE PD
 EPD .ft           3266.000000:  ELEVATION
 BAP .ft              0.000000:  GL ELEV ONSHORE
 GVFD.g               1.000000:  GRAVITY FIELD
 EKB .ft           3291.000000:  KB ELEVATION
 EDF .ft           3291.000000:  DF ELEVATION
~Parameter Information Block
#MNEM.UNIT       Value        Description
#---------     -----------    ---------------------------
 BARI.                     OFF:  BARITE CORR 
 BRMP.                      No:  BromidePresent 
 CSF5.        Conductor Casing:  Casing Func5 
 CSF6.        Conductor Casing:  Casing Func6 
 DATE.               07-Feb-20:  Run Date 
 DCS .               07-Feb-20:  DateCircEndT 
 DLAB.               07-Feb-20:  LogStartDateT 
 ENGI.                John Doe:  Engineer Name 
 LSRV.             OH WIRELINE:  NameOfService 
 LSTM.ucts  09.26.51 07-Feb-20:  Log Start Time 
 LTYP.                     RAW:  LogDataType 
 LUL .                  ODESSA:  LoggingUnitLoc 
 LUN .                12100315:  LoggingUnitNum 
 SCT1.               07-Feb-20:  StartDateRun1 
 TCS .                   09 26:  Time Ciculation Ended 
 TDCE.ucts  09.26.51 07-Feb-20:  Time Circ End 
 TLAB.                   09 26:  LogStartTimeT 
~Curve Information Block
#MNEM.UNIT                 API CODE     Curve Description
#---------               -----------    ---------------------------
 DEPT.F                 00 000 000 000:  Depth
 CCL .V                 00 000 000 000:  Casing Collar Locator
 NPHI_OH.pu             00 000 000 000:  NPHI_OH
 NPHI_CHI.decp          00 000 000 000:  NPHI_CHI
 GR  .api               00 000 000 000:  Gamma API
 GR_CHI.api             00 000 000 000:  GR_CHI
 RHOB_OH.g/cc           00 000 000 000:  RHOB_OH
 RHOB_CHI.g/cc          00 000 000 000:  RHOB_CHI
 PE_OH.b/e              00 000 000 000:  PE_OH
 PE_CHI.b/e             00 000 000 000:  PE_CHI
 LLS_CHI.ohmm           00 000 000 000:  LLS_CHI
 LLS_OH.ohmm            00 000 000 000:  LLS_OH
 LLD_OH.ohmm            00 000 000 000:  LLD_OH
 LLD_CHI.ohmm           00 000 000 000:  LLD_CHI
 DTC_OH.uspf            00 000 000 000:  DTC_OH
 DTC_CHI.uspf           00 000 000 000:  DTC_CHI
 SPHW_CHI.decp          00 000 000 000:  SPHW_CHI
#Other Information
#
#WARRANTY: Halliburton will use its best efforts to furnish customers with 
#accurate information and interpretations that are part of, and incident to, the services 
#provided.  However, Halliburton cannot and does not warrant the accuracy 
#or correctness of such information and interpretations.  Under no circumstances should any 
#such information or interpretation be relied upon as the sole basis for any drilling, 
#completion, production, or financial decision or any procedure involving any risk to the 
#safety of any drilling venture, drilling rig or its crew or any other third party.  The 
#Customer has full responsibility for all drilling, completion and production operation.  
#Halliburton makes no representations or warranties, either expressed or 
#implied, including, but not limited to, the implied warranties of merchantability or fitness 
#for a particular purpose, with respect to the services rendered.  In no event will 
#Halliburton be liable for failure to obtain any particular results or for 
#any damages, including, but not limited to, indirect, special or consequential damages, 
#resulting from the use of any information or interpretation provided by Halliburton.
#
~A    DEPT       CCL     NPHI_OH  NPHI_CHI    GR      GR_CHI   RHOB_OH  RHOB_CHI   PE_OH   PE_CHI LLS_CHI   LLS_OH     LLD_OH   LLD_CHI   DTC_OH   DTC_CHI SPHW_CHI 
# ...
   12105.0000    0.0000 -999.2500   0.1093 -999.2500 120.1231 -999.2500   2.5860 -999.2500 3.1943  20.6575 -999.2500  -999.2500  24.2366 -999.2500 76.5516 0.2047
   12105.5000    0.0000 -999.2500   0.1089 -999.2500 117.0817 -999.2500   2.5867 -999.2500 3.2114  21.7437 -999.2500  -999.2500  25.4950 -999.2500 76.3292 0.2032
   12106.0000   52.2653 -999.2500   0.0983 -999.2500  87.2326 -999.2500   2.6058 -999.2500 3.1005  11.1264 -999.2500  -999.2500  13.1232 -999.2500 73.9246 0.1862
   12106.5000  -37.2080 -999.2500   0.1048 -999.2500 102.9355 -999.2500   2.5947 -999.2500 3.1713  16.3900 -999.2500  -999.2500  19.2510 -999.2500 75.2627 0.1956
   12107.0000    0.0000 -999.2500   0.1122 -999.2500 120.6056 -999.2500   2.5821 -999.2500 3.2399  24.3573 -999.2500  -999.2500  28.5025 -999.2500 76.6812 0.2057
   12107.5000    0.0000 -999.2500   0.1189 -999.2500 135.6772 -999.2500   2.5713 -999.2500 3.2828  32.3763 -999.2500  -999.2500  37.8356 -999.2500 77.8255 0.2138
   12108.0000  -49.2732 -999.2500   0.1083 -999.2500 108.7272 -999.2500   2.5910 -999.2500 3.1885  16.2110 -999.2500  -999.2500  18.9370 -999.2500 76.0597 0.2013
   12108.5000   53.3301 -999.2500   0.1120 -999.2500 112.3922 -999.2500   2.5864 -999.2500 3.1827  16.3732 -999.2500  -999.2500  19.1561 -999.2500 76.4408 0.2040
   12109.0000    0.0000 -999.2500   0.1110 -999.2500 107.8386 -999.2500   2.5889 -999.2500 3.1847  15.4451 -999.2500  -999.2500  18.0333 -999.2500 76.1878 0.2022
   12109.5000    0.0000 -999.2500   0.1146 -999.2500 114.1682 -999.2500   2.5830 -999.2500 3.2308  19.4424 -999.2500  -999.2500  22.6384 -999.2500 76.7213 0.2059
   12110.0000  -15.2088 -999.2500   0.1211 -999.2500 131.3347 -999.2500   2.5714 -999.2500 3.3087  30.6259 -999.2500  -999.2500  35.5529 -999.2500 77.9354 0.2145
   12110.5000    0.0000 -999.2500   0.1178 -999.2500 125.0087 -999.2500   2.5766 -999.2500 3.2902  26.5372 -999.2500  -999.2500  30.7838 -999.2500 77.4926 0.2114
   12111.0000    0.0000 -999.2500   0.1112 -999.2500 111.3761 -999.2500   2.5873 -999.2500 3.2266  18.9188 -999.2500  -999.2500  22.0243 -999.2500 76.3925 0.2036
   12111.5000    0.0000 -999.2500   0.1163 -999.2500 123.2302 -999.2500   2.5784 -999.2500 3.2493  24.5443 -999.2500  -999.2500  28.6726 -999.2500 77.1791 0.2092
   12112.0000   69.8507 -999.2500   0.1138 -999.2500 117.8670 -999.2500   2.5825 -999.2500 3.2374  23.1403 -999.2500  -999.2500  27.0553 -999.2500 76.7401 0.2061
   12112.5000   47.2875 -999.2500   0.1116 -999.2500 113.5212 -999.2500   2.5863 -999.2500 3.2075  20.7830 -999.2500  -999.2500  24.3699 -999.2500 76.3848 0.2036
   12113.0000    0.0000 -999.2500   0.1132 -999.2500 117.9589 -999.2500   2.5837 -999.2500 3.2304  23.5049 -999.2500  -999.2500  27.5137 -999.2500 76.7534 0.2062
   12113.5000    0.0000 -999.2500   0.1094 -999.2500 108.4160 -999.2500   2.5909 -999.2500 3.1862  17.7440 -999.2500  -999.2500  20.7820 -999.2500 76.0976 0.2015
   12114.0000    0.0000 -999.2500   0.1167 -999.2500 124.5992 -999.2500   2.5787 -999.2500 3.2549  25.6960 -999.2500  -999.2500  29.9959 -999.2500 77.3744 0.2106
   12114.5000    0.0000 -999.2500   0.1116 -999.2500 109.9954 -999.2500   2.5878 -999.2500 3.2135  18.2793 -999.2500  -999.2500  21.3075 -999.2500 76.3590 0.2034
   12115.0000    0.0000 -999.2500   0.1156 -999.2500 115.2747 -999.2500   2.5818 -999.2500 3.2239  20.8076 -999.2500  -999.2500  24.3189 -999.2500 76.7467 0.2061
   12115.5000   63.2217 -999.2500   0.1179 -999.2500 114.2535 -999.2500   2.5793 -999.2500 3.1974  20.4112 -999.2500  -999.2500  24.0068 -999.2500 76.6182 0.2052
   12116.0000  -89.8901 -999.2500   0.1202 -999.2500 114.9999 -999.2500   2.5762 -999.2500 3.1816  21.5557 -999.2500  -999.2500  25.5059 -999.2500 76.5872 0.2050
   12116.5000    0.0000 -999.2500   0.1254 -999.2500 124.4376 -999.2500   2.5681 -999.2500 3.2107  28.4121 -999.2500  -999.2500  33.7028 -999.2500 77.2447 0.2097
   12117.0000   88.9502 -999.2500   0.1276 -999.2500 133.2737 -999.2500   2.5632 -999.2500 3.2694  37.9931 -999.2500  -999.2500  44.8864 -999.2500 77.8479 0.2139
   12117.5000  -55.2522 -999.2500   0.1199 -999.2500 119.0734 -999.2500   2.5756 -999.2500 3.2271  27.0505 -999.2500  -999.2500  31.9043 -999.2500 76.8486 0.2068
   12118.0000   19.5738 -999.2500   0.1196 -999.2500 121.9919 -999.2500   2.5756 -999.2500 3.2115  24.8929 -999.2500  -999.2500  29.3570 -999.2500 77.0783 0.2085
   12118.5000   15.5090 -999.2500   0.1222 -999.2500 128.0283 -999.2500   2.5720 -999.2500 3.1960  22.5996 -999.2500  -999.2500  26.6365 -999.2500 77.6269 0.2124
   12119.0000  -12.8466 -999.2500   0.1281 -999.2500 137.1798 -999.2500   2.5636 -999.2500 3.1869  23.0316 -999.2500  -999.2500  27.1736 -999.2500 78.3572 0.2175
   12119.5000  -29.8602 -999.2500   0.1178 -999.2500 107.6138 -999.2500   2.5828 -999.2500 3.0687  10.7096 -999.2500  -999.2500  12.6534 -999.2500 76.3979 0.2037
   12120.0000  -33.2364 -999.2500   0.1305 -999.2500 132.5054 -999.2500   2.5621 -999.2500 3.1637  20.2123 -999.2500  -999.2500  23.8564 -999.2500 78.2009 0.2164
   12120.5000   18.3686 -999.2500   0.1247 -999.2500 121.6745 -999.2500   2.5709 -999.2500 3.1740  18.5809 -999.2500  -999.2500  21.8747 -999.2500 77.4295 0.2110
   12121.0000   13.9064 -999.2500   0.1169 -999.2500 111.3545 -999.2500   2.5815 -999.2500 3.1925  18.2893 -999.2500  -999.2500  21.4530 -999.2500 76.5054 0.2044
   12121.5000    0.0000 -999.2500   0.1173 -999.2500 120.1313 -999.2500   2.5779 -999.2500 3.2668  27.6068 -999.2500  -999.2500  32.2597 -999.2500 76.9759 0.2078
   12122.0000  -83.1485 -999.2500   0.1226 -999.2500 135.3418 -999.2500   2.5680 -999.2500 3.3210  40.7385 -999.2500  -999.2500  47.6018 -999.2500 77.9588 0.2147
   12122.5000    0.0000 -999.2500   0.1256 -999.2500 141.9355 -999.2500   2.5635 -999.2500 3.3340  45.4223 -999.2500  -999.2500  53.0851 -999.2500 78.4345 0.2181
   12123.0000    0.0000 -999.2500   0.1213 -999.2500 128.5860 -999.2500   2.5721 -999.2500 3.2918  32.9936 -999.2500  -999.2500  38.5215 -999.2500 77.6609 0.2126
   12123.5000   34.2662 -999.2500   0.1194 -999.2500 122.6558 -999.2500   2.5761 -999.2500 3.2945  30.0782 -999.2500  -999.2500  34.9316 -999.2500 77.3840 0.2106
   12124.0000   23.4376 -999.2500   0.1232 -999.2500 131.5411 -999.2500   2.5694 -999.2500 3.3394  38.6644 -999.2500  -999.2500  44.7971 -999.2500 78.0170 0.2151
   12124.5000    0.0000 -999.2500   0.1226 -999.2500 127.2194 -999.2500   2.5712 -999.2500 3.3349  36.3402 -999.2500  -999.2500  42.0499 -999.2500 77.7746 0.2134
   12125.0000   11.4918 -999.2500   0.1203 -999.2500 119.0068 -999.2500   2.5755 -999.2500 3.3167  32.0657 -999.2500  -999.2500  37.1221 -999.2500 77.1909 0.2093
   12125.5000   13.4079 -999.2500   0.1256 -999.2500 128.3634 -999.2500   2.5677 -999.2500 3.3360  38.2103 -999.2500  -999.2500  44.3000 -999.2500 77.9099 0.2144
   12126.0000  -28.1176 -999.2500   0.1292 -999.2500 134.8085 -999.2500   2.5632 -999.2500 3.3347  39.9641 -999.2500  -999.2500  46.3785 -999.2500 78.4648 0.2183
   12126.5000    0.0000 -999.2500   0.1283 -999.2500 133.8635 -999.2500   2.5654 -999.2500 3.3103  35.4724 -999.2500  -999.2500  41.2052 -999.2500 78.4785 0.2184
   12127.0000  -46.9068 -999.2500   0.1276 -999.2500 133.9939 -999.2500   2.5670 -999.2500 3.2977  31.9989 -999.2500  -999.2500  37.1377 -999.2500 78.5889 0.2192
   12127.5000  -18.0332 -999.2500   0.1221 -999.2500 123.5134 -999.2500   2.5758 -999.2500 3.2750  25.1767 -999.2500  -999.2500  29.0899 -999.2500 77.9294 0.2145
   12128.0000   25.1007 -999.2500   0.1180 -999.2500 117.1324 -999.2500   2.5813 -999.2500 3.2674  22.7887 -999.2500  -999.2500  26.2730 -999.2500 77.3969 0.2107
   12128.5000    0.0000 -999.2500   0.1162 -999.2500 112.1807 -999.2500   2.5840 -999.2500 3.2357  19.6180 -999.2500  -999.2500  22.7245 -999.2500 76.9326 0.2074
   12129.0000    0.0000 -999.2500   0.1171 -999.2500 113.5145 -999.2500   2.5820 -999.2500 3.2080  19.6653 -999.2500  -999.2500  22.9979 -999.2500 76.8039 0.2065
   12129.5000  -18.0332 -999.2500   0.1219 -999.2500 119.9392 -999.2500   2.5745 -999.2500 3.1781  21.6464 -999.2500  -999.2500  25.6056 -999.2500 77.0904 0.2086
