~VERSION INFORMATION
VERS.           1.2   :CWLS Log ASCII Standard - VERSION 1.2
WRAP.           NO    :One Line per depth step
PROD.  Schlumberger   :LAS Producer
PROG.  DLIS to ASCII 10C0-306                          :LAS Program name and version
CREA.        2007/06/08 22:43                          :LAS Creation date {YYYY/MM/DD hh:mm}
SOURCE.     294b92a6-1e54-4f75-8d20-4493e48002f1       :DLIS File Name
#--------------------------------------------------
~WELL INFORMATION
#MNEM.UNIT      DATA             DESCRIPTION
#---- ------ --------------   -----------------------------
STRT .F      4145.5000       :START DEPTH     
STOP .F      10380.0000      :STOP DEPTH     
STEP .F       0.5000         :STEP       
NULL .          -999.25      :NULL VALUE
COMP .                 COMPANY:  Chesapeake Operating Inc.          
WELL .                    WELL:  University Lands 4627-1            
FLD  .                   FIELD:  Wildcat                            
LOC  .                LOCATION:  1200' FNL & 1995; FEL              
CNTY .                  COUNTY:  Culberson                          
STAT .                   STATE:  Texas                              
CTRY .                 COUNTRY:                                     
SRVC .         SERVICE COMPANY:  Schlumberger                       
API  .              API NUMBER:  42-109-32287                       
DATE .                LOG DATE:  7-Jun-2007
UWI  .          UNIQUE WELL ID:  42-109-32287-0000                  
#-----------------------------------------------------------------------------
~PARAMETER INFORMATION
#MNEM.UNIT    VALUE                      DESCRIPTION
#---- -----   --------------------       ------------------------
CN   .        Chesapeake Operating Inc.  :Company Name
WN   .        University Lands 4627-1    :Well Name
FN   .        Wildcat                    :Field Name
FL   .        1200' FNL & 1995  FEL      :Field Location
FL1  .        Secion  27  Block  46  Abstract  2860 :Field Location Line 1
COUN .        Culberson                  :County or Rig Name
STAT .        Texas                      :State or Province
NATI .                                   :Nation
DATE .        7-Jun-2007                 :Date as Month-Day-Year
APIN .        42-109-32287               :API Serial Number
SECT .        27                         :Section
TOWN .        46                         :Township
RANG .        2860                       :Range
DMF  .        Kelly Bushing              :Drilling Measured From
LMF  .        Kelly Bushing              :Log Measured From
PDAT .        Ground Level               :Permanent Datum
ENGI .        Tarek Sheira               :Engineer's Name
WITN .        Wiley Tisdale /Jud Walker  :Witness's Name
LATI .                                   :Latitude
LONG .                                   :Longitude
LUL  .        Midland  TX                :Logging Unit Location
LUN  .              2365                 :Logging Unit Number
RUN  .        2                          :Run Number
SON  .        11592406                   :Service Order Number
BHT  .DEGF     185.00000                 :Bottom Hole Temperature (used in calculations)
BS   .IN         8.75000                 :Bit Size
DFD  .LB/G       8.60000                 :Drilling Fluid Density
DFV  .S         39.00000                 :Drilling Fluid Viscosity
DFL  .C3         8.00000                 :Drilling Fluid Loss
RMFS .OHMM       0.42100                 :Resistivity of Mud Filtrate Sample
EKB  .F       4323.00000                 :Elevation of Kelly Bushing
EGL  .F       4283.00000                 :Elevation of Ground Level
BLI  .F       10360.70020                :Bottom Log Interval
BSAL .PPM      500.00000                 :Borehole Salinity
FLEV .                                   :Fluid Level
MCST .                                   :Mud Cake Sample Temperature
MFST .DEGF      96.90000                 :Mud Filtrate Sample Temperature
MRT  .DEGF     185.00000                 :Maximum Recorded Temperature
MST  .DEGF      96.90000                 :Mud Sample Temperature
RMCS .                                   :Resistivity of Mud Cake Sample
RMS  .OHMM       0.42100                 :Resistivity of Mud Sample
RW   .OHMM       1.00000                 :Resistivity of Connate Water
TDD  .F       10350.00000                :Total Depth - Driller
TDL  .F       10362.00000                :Total Depth - Logger
TLI  .F       4200.00000                 :Top Log Interval
HIDE .        Formation Micro Imager     :Header Identifier
MATR .        LIME                       :Rock Matrix for Neutron Porosity Corrections
FNUM .           1.00000                 :Form Factor Numerator
FEXP .           2.00000                 :Form Factor Exponent
DFT  .        Fresh Mud                  :Drilling Fluid Type
DFPH .           9.00000                 :Drilling Fluid PH
MCSS .        Calculated                 :Mud Cake Sample Source
MFSS .        Calculated                 :Mud Filtrate Sample Source
MSS  .        Circulation Tank           :Mud Sample Source
OS1  .        TLD-APS-HNGS               :Other Services Line 1
OS2  .        HRLA-HNGS                  :Other Services Line 2
OS3  .        FMI-GR                     :Other Services Line 3
OS4  .        DSI-GR                     :Other Services Line 4
OS5  .        HNGS                       :Other Services Line 5
R1   .        -Tool ran as per tool sketch. :Remark Line 1
R2   .        -Hole size & standoff corrections applied to APS porosity. :Remark Line 2
R3   .        -Log performed on a limestone matrix (MDEN = 2.71 g/cc  DTM = 47.6 us/ft) :Remark Line 3
R4   .        -Hole & cement volumes computed using FCD = 7 . :Remark Line 4
R5   .        -Source of max. hole temperature is CTEM = 185 DegF. :Remark Line 5
R6   .        -Source of max. hole deviation is company man = 3 Deg. :Remark Line 6
R7   .        -Repeat performed off bottom for 300' as per client request. :Remark Line 7
R8   .        -Density measurment is affected by washouts. :Remark Line 8
TCS  .        9 00                       :Time Circulation Stopped
TLAB .        22 15                      :Time Logger At Bottom
EPD  .F         4283.000000              :Elevation of Permanent Datum above Mean Sea Level
APD  .F          40.000000               :Elevation of Depth Reference (LMF) above Permanent Datum
#-----------------------------------------------------------------------------
~CURVE INFORMATION
#MNEM.UNIT   API CODE                                  DESCRIPTION
#---- -----  --------                                  -----------------------
DEPT .F                                                :DEPTH (BOREHOLE) {F12.4}
C1   .IN                                               :Caliper 1 {F11.4}
C2   .IN                                               :Caliper 2 {F11.4}
CHRP .                                                 :Label Peak Coherence, Receiver Array, Compressional - Monopole P&S {F11.4}
CHR1 .                                                 :Label Peak Coherence, Receiver Array - Lower Dipole {F11.4}
CHR2 .                                                 :Label Peak Coherence, Receiver Array - Upper Dipole {F11.4}
DCAL .IN                                               :Differential Caliper {F11.4}
DEVI .DEG                                              :Hole Deviation {F11.4}
DT1R .US/F                                             :Delta-T Shear, Receiver Array - Lower Dipole {F11.4}
DT2  .US/F                                             :Delta-T Shear - Upper Dipole {F11.4}
DT2R .US/F                                             :Delta-T Shear, Receiver Array - Upper Dipole {F11.4}
DT4P .US/F                                             :Delta-T Compressional - Monopole P&S {F11.4}
DT4S .US/F                                             :Delta-T Shear - Monopole P&S {F11.4}
DTCO .US/F                                             :Delta-T Compressional {F11.4}
DTRP .US/F                                             :Delta-T Compressional, Receiver Array - Monopole P&S {F11.4}
DTRS .US/F                                             :Delta-T Shear, Receiver Array - Monopole P&S {F11.4}
DTSM .US/F                                             :Delta-T Shear {F11.4}
ED   .F                                                :East Departure {F11.4}
GR_EDTC.GAPI                                           :Gamma Ray {F11.4}
GTEM .DEGF                                             :Generalized Borehole Temperature {F11.4}
HAZI .DEG                                              :Hole Azimuth {F11.4}
ITT  .S                                                :Integrated Transit Time {F11.4}
ND   .F                                                :North Departure {F11.4}
P1AZ .DEG                                              :Pad 1 Azimuth {F11.4}
PR   .                                                 :Poisson's Ratio {F11.4}
RB   .DEG                                              :Relative Bearing {F11.4}
SDEV .DEG                                              :Sonde Deviation {F11.4}
SPHI .CFCF                                             :Sonic Porosity {F11.4}
STIT .F                                                :Stuck Tool Indicator, Total {F11.4}
TENS .LBF                                              :Cable Tension {F11.4}
#-----------------------------------------------------------------------------
# 
#      DEPT         C1         C2        CHRP       CHR1       CHR2       DCAL       DEVI       DT1R       DT2        DT2R       DT4P       DT4S       DTCO       DTRP       DTRS       DTSM        ED      GR_EDTC      GTEM       HAZI       ITT         ND        P1AZ        PR         RB        SDEV       SPHI       STIT       TENS
#
~A  
# ...
   7045.5000     8.9737     9.5428     0.6279     0.9821     0.8514     0.5039     3.3377   118.8704   118.2999   111.2975    67.9149   112.2497    67.9149    67.9149   112.2497   118.2999   162.1120    84.2487   156.5144   246.9092     0.2181    -8.3440   157.6542     0.2542   270.7463     3.3377     0.1437     0.0000  3479.0000
   7046.0000     8.9737     9.5550     0.7777     0.9928     0.9185     0.5098     3.3313   118.8405   113.3184   106.9475    68.5737   114.1353    68.5737    68.5737   114.1353   113.3184   162.0864    86.4796   156.5187   246.8826     0.2181    -8.3553   157.2029     0.2111   270.3210     3.3313     0.1483     0.0000  3440.0000
   7046.5000     8.9485     9.5405     0.6754     0.9953     0.9712     0.4898     3.3266   118.0483   111.6454   110.6219    68.0415   111.5317    68.0415    68.0415   111.5317   111.6454   162.0609    84.9322   156.5230   246.8661     0.2181    -8.3665   156.0162     0.2046   269.1486     3.3266     0.1446     0.0000  3535.0000
   7047.0000     8.9737     9.5428     0.7859     0.9885     0.9375     0.5039     3.3230   118.4299   112.7827   111.4626    67.7296   111.0833    67.7296    67.7296   111.0833   112.7827   162.0354    88.3968   156.5273   246.8552     0.2180    -8.3777   154.4417     0.2180   267.5824     3.3230     0.1424     0.0000  3486.0000
   7047.5000     8.9737     9.5428     0.6561     0.9934     0.9662     0.5039     3.3164   118.2263   111.3366   111.2596    68.8523   110.4842    68.8523    68.8523   110.4842   111.3366   162.0100    85.9716   156.5316   246.8263     0.2180    -8.3889   153.3070     0.1904   266.4748     3.3164     0.1503     0.0000  3456.0000
   7048.0000     8.9737     9.5428     0.7279     0.9911     0.9494     0.5039     3.3101   118.3441   111.9436   112.9483    71.4274   114.0015    71.4274    71.4274   114.0015   111.9436   161.9846    79.5322   156.5359   246.7861     0.2180    -8.4001   152.1996     0.1566   265.4058     3.3101     0.1685     0.0000  3470.0000
   7048.5000     8.9737     9.5428     0.8072     0.9952     0.9617     0.5039     3.3066   118.1698   112.1781   117.7262    71.7513   113.0190    71.7513    71.7513   113.0190   112.1781   161.9593    80.1902   156.5402   246.7724     0.2179    -8.4113   150.6593     0.1538   263.8769     3.3066     0.1708     0.0000  3488.0000
   7049.0000     8.9737     9.5405     0.7298     0.9941     0.9617     0.5028     3.2993   119.2651   113.7255   118.1341    70.1747   112.2042    70.1747    70.1747   112.2042   113.7255   161.9340    88.8518   156.5445   246.7398     0.2179    -8.4225   149.5347     0.1926   262.7832     3.2993     0.1597     0.0000  3446.0000
   7049.5000     8.9737     9.5428     0.6894     0.9920     0.9627     0.5039     3.2937   119.8440   112.9862   118.3198    68.9654   113.6558    68.9654    68.9654   113.6558   112.9862   161.9088   107.0563   156.5488   246.7226     0.2179    -8.4337   148.8064     0.2031   262.0708     3.2937     0.1511     0.0000  3471.0000
   7050.0000     8.9737     9.5573     0.7079     0.9892     0.9691     0.5109     3.2887   119.4700   116.0215   122.9587    71.4515   112.3091    71.4515    71.4515   112.3091   116.0215   161.8836   109.8629   156.5531   246.7087     0.2178    -8.4449   146.6984     0.1945   259.9734     3.2887     0.1687     0.0000  3457.0000
   7050.5000     8.9737     9.4668     0.7910     0.9867     0.9651     0.4669     3.2826   121.3517   116.4318   123.9740    69.5167   118.5460    69.5167    69.5167   118.5460   116.4318   161.8584   110.0645   156.5574   246.6742     0.2178    -8.4561   144.4030     0.2230   257.7092     3.2826     0.1550     0.0000  3453.0000
   7051.0000     9.0744     9.4422     0.7724     0.9894     0.9870     0.5065     3.2764   121.7059   119.1771   124.8181    72.6483   117.1736    72.6483    72.6483   117.1736   119.1771   161.8334   103.6237   156.5617   246.6512     0.2178    -8.4672   142.0426     0.2043   255.3684     3.2764     0.1771     0.0000  3468.0000
   7051.5000     9.0240     9.3464     0.7959     0.9619     0.6979     0.4338     3.2715   122.0952   115.1916   114.7874    72.8409   118.6759    72.8409    72.8409   118.6759   115.1916   161.8083   110.9346   156.5659   246.6108     0.2177    -8.4784   138.9926     0.1669   252.3547     3.2715     0.1785     0.0000  3462.0000
   7052.0000     9.0492     9.2876     0.8561     0.9899     0.9858     0.4176     3.2662   120.9150   118.6501   123.4579    74.6028   119.4683    74.6028    74.6028   119.4683   118.6501   161.7833   115.5836   156.5702   246.5617     0.2177    -8.4896   136.7849     0.1731   250.1935     3.2662     0.1910     0.0000  3494.0000
   7052.5000     9.0744     9.3024     0.7222     0.9829     0.9516     0.4377     3.2605   121.7438   117.0308   121.0761    71.6342   115.9382    71.6342    71.6342   115.9382   117.0308   161.7583   110.1645   156.5745   246.5736     0.2176    -8.5007   134.8711     0.2004   248.2655     3.2605     0.1700     0.0000  3464.0000
   7053.0000     9.0744     9.2875     0.6313     0.9847     0.9520     0.4304     3.2550   119.3459   110.8448   114.8090    68.4394   111.0812    68.4394    68.4394   111.0812   110.8448   161.7334    99.2321   156.5788   246.5554     0.2176    -8.5119   132.6746     0.1920   246.0848     3.2550     0.1474     0.0000  3486.0000
   7053.5000     9.0744     9.2702     0.6257     0.8749     0.8947     0.4218     3.2495   109.3582   111.0127   113.2209    65.4963   110.6357    65.4963    65.4963   110.6357   111.0127   161.7086    83.4273   156.5831   246.5242     0.2176    -8.5230   131.0454     0.2330   244.4854     3.2495     0.1266     0.0000  3460.0000
   7054.0000     9.0744     9.2702     0.8625     0.9793     0.9242     0.4218     3.2429   112.6893   114.1318   115.7723    64.4073   106.9885    64.4073    64.4073   106.9885   114.1318   161.6838    73.6151   156.5874   246.4922     0.2175    -8.5342   129.4829     0.2664   242.9536     3.2429     0.1189     0.0000  3447.0000
   7054.5000     9.0744     9.2901     0.8106     0.9851     0.9828     0.4316     3.2369   111.8334   110.6716   113.0328    65.4021   110.5591    65.4021    65.4021   110.5591   110.6716   161.6590    62.1655   156.5917   246.4699     0.2175    -8.5453   127.9350     0.2317   241.4265     3.2369     0.1259     0.0000  3508.0000
   7055.0000     9.0744     9.2727     0.7949     0.9869     0.9766     0.4230     3.2308   112.3660   109.6039   113.4695    64.2787   110.7642    64.2787    64.2787   110.7642   109.6039   161.6343    65.1726   156.5960   246.4307     0.2175    -8.5564   126.9980     0.2379   240.5284     3.2308     0.1180     0.0000  3468.0000
   7055.5000     9.1751     9.2850     0.7646     0.9932     0.9791     0.4799     3.2258   112.1150   106.2787   112.7846    66.7738   111.5506    66.7738    66.7738   111.5506   106.2787   161.6097    79.7362   156.6003   246.4186     0.2174    -8.5675   125.6865     0.1739   239.2280     3.2258     0.1356     0.0000  3464.0000
   7056.0000     9.1751     9.2727     0.7638     0.9944     0.9822     0.4738     3.2185   111.0302   106.3721   112.9205    65.0975   112.1467    65.0975    65.0975   112.1467   106.3721   161.5851    90.8230   156.6046   246.4052     0.2174    -8.5785   124.3286     0.2006   237.8827     3.2185     0.1237     0.0000  3484.0000
   7056.5000     9.1751     9.3218     0.6226     0.9881     0.9817     0.4982     3.2146   109.2783   108.0358   110.9041    62.1349   107.8313    62.1349    62.1349   107.8313   108.0358   161.5606    97.0379   156.6089   246.3646     0.2174    -8.5896   123.7982     0.2529   237.3928     3.2146     0.1028     0.0000  3523.0000
   7057.0000     9.1751     9.3439     0.6091     0.9831     0.9770     0.5091     3.2081   105.5167   100.7734   104.9743    53.4248   102.1949    53.4248    53.4248   102.1949   100.7734   161.5362    81.6074   156.6132   246.3177     0.2174    -8.6006   122.8526     0.3045   236.4937     3.2081     0.0412     0.0000  3534.0000
   7057.5000     9.1751     9.3489     0.7150     0.9886     0.9880     0.5116     3.2040    99.6035    97.0397   100.7203    49.7827    99.5573    49.7827    49.7827    99.5573    97.0397   161.5118    59.9612   156.6175   246.3050     0.2173    -8.6116   121.0680     0.3214   234.7209     3.2040     0.0154     0.0000  3537.0000
