~VERSION INFORMATION
VERS. 2.0 : CWLS Log ASCII Standard - version 2.0
WRAP.  NO : One line per depth step
#--------------------------------------------------#
#----------------DRILLING INFO, INC.---------------#
#---------------WWW.DRILLINGINFO.COM---------------#
#------------------COPYRIGHT 2015------------------#
#--------------------------------------------------#
#THIS FILE MAY BE USED ONLY IN ACCORDANCE WITH A CURRENT SUBSCRIPTION AGREEMENT BETWEEN
#THE USER AND DRILLING INFO, INC. NO PART OF THIS FILE MAY BE REPRODUCED, USED, COPIED,
#MODIFIED, PROPAGATED, OR DISTRIBUTED EXCEPT IN ACCORDANCE WITH THE SUBSCRIPTION
#AGREEMENT. UNAUTHORIZED USE OR DISTRIBUTION OF ALL OR ANY PART OF THIS FILE MAY VIOLATE
#COPYRIGHT, TRADEMARK, AND/OR OTHER LAWS AND IS SUBJECT TO CIVIL AS WELL AS CRIMINAL
#SANCTIONS.
#--------------------------------------------------#
#THIS FILE IS PROVIDED "AS-IS" AND ALL WARRANTIES ARE EXPRESSLY DISCLAIMED, WHETHER
#EXPRESS, ORAL, IMPLIED, STATUTORY OR OTHERWISE, INCLUDING ANY IMPLIED WARRANTY OF FITNESS
#FOR A PARTICULAR PURPOSE, MERCHANTABILITY, TITLE OR NON-INFRINGEMENT, AND ANY WARRANTIES
#ARISING BY VIRTUE OF CUSTOM OF TRADE OR COURSE OF DEALING.  FURTHER, DRILLING INFO,
#INC. AND ITS LICENSORS DO NOT REPRESENT OR WARRANT THAT THIS FILE WILL MEET USER'S
#REQUIREMENTS OR ARE SUITABLE FOR USER'S NEEDS OR THAT THE DATA OR RESULTS PROVIDED IN
#CONJUNCTION THEREWITH ARE CORRECT, ACCURATE, TIMELY OR RELIABLE. THESE DISCLAIMERS SHALL
#APPLY REGARDLESS OF ANY FAILURE OF ESSENTIAL PURPOSE OF ANY LIMITED REMEDY.  SOME
#JURISDICTIONS DO NOT ALLOW THE EXCLUSION OF CERTAIN WARRANTIES SO SOME OF THE ABOVE
#EXCLUSIONS MAY NOT APPLY. IN NO EVENT SHALL DRILLING INFO, INC. OR ANY OF ITS AFFILIATES
#BE LIABLE UNDER ANY LEGAL THEORY, WHETHER IN TORT (INCLUDING WITHOUT LIMITATION
#NEGLIGENCE), CONTRACT, STRICT LIABILITY, STATUTORY OR OTHERWISE, FOR ANY SPECIAL,
#INCIDENTAL, CONSEQUENTIAL, EXEMPLARY, PUNITIVE OR INDIRECT DAMAGE OF ANY KIND, INCLUDING
#WITHOUT LIMITATION LOSS OF REVENUE, PROFITS, GOODWILL, USE, AND/OR DATA OR THE COST OF
#PROCUREMENT OF SUBSTITUTE GOODS OR SERVICES, EVEN IF APPRISED OF THE POSSIBILITY OF SUCH
#DAMAGES IN ADVANCE.
#--------------------------------------------------#
~WELL INFORMATION
#MNEMONIC     .UNIT              VALUE :DESCRIPTION
#--------------------------------------------------#
STRT       .FT                4 :START DEPTH
STOP       .FT                10042 :STOP DEPTH
STEP       .FT                   0.500 :STEP
NULL       .                  -999.250 :NULL
API        .                421093139500 :API NUMBER
COMP       .         MOBIL OIL CORPORATION :COMPANY
WELL       .        MADERA-BROMAN  1 :WELL
DATE       .                27-Jun-1979 :LOG DATE
~CURVE INFORMATION
#MNEMONIC     .UNIT      API CODE :CURVE DESCRIPTION
#--------------------------------------------------#
DEPTH       .FT                      :Measured Depth
DT.US/FT        UNKNOWN   :DT
GR.API        UNKNOWN   :GR
CAL.INCH        UNKNOWN   :CAL
~A    DEPTH    DT    GR    CAL
# ...
 9885     45.221   21.13   6.591
 9885.5     45.168   20.041   6.591
 9886     45.036   18.629   6.592
 9886.5     44.904   17.217   6.592
 9887     44.772   16.271   6.592
 9887.5     44.853   16.663   6.593
 9888     45.045   17.056   6.593
 9888.5     45.166   17.449   6.593
 9889     45.085   17.841   6.593
 9889.5     45.005   18.234   6.594
 9890     44.924   17.885   6.594
 9890.5     44.843   17.48   6.594
 9891     44.834   17.075   6.595
 9891.5     45.242   18.432   6.595
 9892     45.65   19.899   6.595
 9892.5     46.058   21.367   6.595
 9893     46.466   22.835   6.596
 9893.5     46.874   28.352   6.596
 9894     47.011   34.592   6.596
 9894.5     46.534   40.831   6.597
 9895     46.057   47.071   6.597
 9895.5     45.58   47.7   6.597
 9896     45.103   40.428   6.597
 9896.5     44.626   33.156   6.598
 9897     44.814   25.885   6.598
 9897.5     45.084   18.613   6.598
 9898     45.354   17.182   6.599
 9898.5     45.624   16.677   6.599
 9899     45.852   17.354   6.599
 9899.5     45.648   19.365   6.599
 9900     45.445   21.375   6.6
 9900.5     45.241   23.385   6.6
 9901     45.037   25.396   6.6
 9901.5     44.833   26.366   6.601
 9902     44.799   24.038   6.601
 9902.5     44.766   21.71   6.601
 9903     44.734   19.382   6.601
 9903.5     44.701   17.053   6.602
 9904     44.669   14.725   6.595
 9904.5     44.636   12.397   6.577
 9905     44.604   12.306   6.558
 9905.5     44.571   14.331   6.54
 9906     44.539   16.356   6.521
 9906.5     44.506   18.382   6.503
 9907     44.474   20.407   6.488
 9907.5     44.442   22.432   6.489
 9908     44.409   24.458   6.49
 9908.5     44.377   24.238   6.491
 9909     44.344   22.122   6.492
 9909.5     44.312   20.007   6.492
 9910     44.279   17.891   6.493
 9910.5     44.247   16.322   6.494
 9911     44.214   16.218   6.495
 9911.5     44.182   16.114   6.496
 9912     44.652   17.636   6.496
 9912.5     45.203   23.067   6.497
 9913     45.753   28.498   6.498
 9913.5     46.304   33.929   6.499
 9914     46.406   39.359   6.5
 9914.5     45.789   44.79   6.5
 9915     45.172   48.271   6.501
 9915.5     44.554   40.589   6.502
 9916     44.489   32.907   6.503
 9916.5     44.696   25.225   6.504
 9917     44.903   17.543   6.504
 9917.5     45.109   14.662   6.505
 9918     45.222   15.461   6.506
 9918.5     44.994   16.261   6.507
 9919     44.765   17.06   6.508
 9919.5     44.537   17.192   6.508
 9920     44.308   16.48   6.509
 9920.5     44.105   15.767   6.51
 9921     44.091   15.054   6.511
 9921.5     44.078   14.341   6.512
 9922     44.064   13.628   6.512
 9922.5     44.05   12.915   6.513
 9923     44.037   12.422   6.514
 9923.5     44.066   12.617   6.515
 9924     44.189   12.811   6.516
 9924.5     44.312   13.006   6.516
 9925     44.434   13.2   6.517
 9925.5     44.505   13.395   6.518
 9926     44.383   13.589   6.519
 9926.5     44.262   13.784   6.52
 9927     44.14   13.978   6.52
 9927.5     44.018   14.173   6.521
 9928     43.913   14.367   6.522
 9928.5     43.951   14.901   6.523
 9929     43.989   15.701   6.524
 9929.5     44.028   16.501   6.524
 9930     44.066   17.301   6.525
 9930.5     44.104   12.717   6.526
 9931     44.143   13.738   6.527
 9931.5     44.181   14.759   6.528
 9932     44.219   15.78   6.528
 9932.5     44.255   16.801   6.529
 9933     44.28   16.044   6.53
 9933.5     44.375   14.412   6.531
 9934     44.536   12.78   6.532
 9934.5     44.696   11.147   6.532
 9935     44.857   10.577   6.533
 9935.5     45.018   11.446   6.534
 9936     45.168   12.315   6.535
 9936.5     45.059   13.184   6.536
 9937     44.949   14.053   6.536
 9937.5     44.839   14.922   6.537
 9938     44.73   15.791   6.538
 9938.5     44.62   16.66   6.539
 9939     44.511   17.529   6.54
 9939.5     44.463   18.398   6.54
 9940     44.629   18.285   6.541
 9940.5     44.795   16.792   6.542
 9941     44.962   15.3   6.543
 9941.5     45.128   13.807   6.544
 9942     45.095   13.778   6.544
 9942.5     44.801   14.156   6.545
 9943     44.507   14.535   6.546
 9943.5     44.212   14.913   6.547
 9944     43.918   15.267   6.548
 9944.5     43.787   15.096   6.548
 9945     43.973   14.925   6.549
 9945.5     44.16   14.754   6.55
 9946     44.347   14.583   6.551
 9946.5     44.533   14.412   6.552
 9947     44.72   15.723   6.552
 9947.5     44.907   17.726   6.553
 9948     44.862   19.73   6.554
 9948.5     44.769   21.734   6.555
 9949     44.677   23.685   6.556
 9949.5     44.585   24.118   6.556
 9950     44.492   24.551   6.557
 9950.5     44.4   24.984   6.558
 9951     44.307   25.418   6.559
 9951.5     44.215   23.443   6.56
 9952     44.163   21.178   6.56
 9952.5     44.2   18.914   6.561
 9953     44.238   16.649   6.562
 9953.5     44.275   14.384   6.563
 9954     44.443   12.119   6.564
 9954.5     44.627   11.829   6.564
 9955     44.81   12.109   6.565
 9955.5     44.993   12.388   6.566
 9956     45.177   12.667   6.567
 9956.5     45.278   12.946   6.568
 9957     45.264   16.251   6.568
 9957.5     45.249   23.39   6.567
 9958     45.235   25.291   6.566
 9958.5     45.22   25.871   6.565
 9959     45.206   26.45   6.564
 9959.5     45.486   27.029   6.563
 9960     45.782   23.4   6.562
 9960.5     46.078   17.634   6.561
 9961     46.374   12.833   6.56
 9961.5     46.669   16.163   6.559
 9962     46.965   23.284   6.558
 9962.5     47.261   36.309   6.557
 9963     46.602   49.334   6.556
 9963.5     45.66   62.359   6.555
 9964     45.507   75.384   6.554
 9964.5     45.355   30.065   6.553
 9965     44.912   26.139   6.552
 9965.5     43.914   22.214   6.551
 9966     44.141   18.289   6.55
 9966.5     44.965   14.364   6.549
 9967     45.79   15.349   6.548
 9967.5     46.614   17.42   6.547
 9968     47.439   19.49   6.546
 9968.5     48.263   25.54   6.545
 9969     49.088   39.419   6.544
 9969.5     49.87   53.298   6.543
 9970     48.882   67.177   6.542
 9970.5     47.894   81.056   6.541
 9971     46.905   80.155   6.539
 9971.5     45.929   63.628   6.538
 9972     45.775   35.519   6.537
 9972.5     45.62   23.213   6.536
 9973     45.466   18.673   6.535
 9973.5     45.311   14.945   6.534
 9974     45.156   15.759   6.533
 9974.5     45.178   16.573   6.532
 9975     45.217   17.388   6.531
 9975.5     45.256   18.202   6.53
 9976     45.294   19.017   6.529
 9976.5     45.333   19.831   6.528
 9977     45.192   20.645   6.527
 9977.5     44.823   21.46   6.526
 9978     44.641   21.762   6.525
 9978.5     44.729   20.958   6.524
 9979     44.817   20.154   6.523
 9979.5     44.905   19.51   6.522
 9980     44.993   19.213   6.521
 9980.5     45.08   18.917   6.52
 9981     45.168   18.62   6.519
 9981.5     45.202   18.323   6.518
 9982     45.049   18.027   6.517
 9982.5     44.896   17.73   6.516
 9983     44.744   17.21   6.515
 9983.5     44.609   15.426   6.514
 9984     44.579   13.643   6.513
 9984.5     44.549   12.083   6.512
 9985     44.519   12.314   6.511
 9985.5     44.483   12.545   6.51
 9986     44.314   12.777   6.509
 9986.5     44.144   13.008   6.508
 9987     43.975   13.24   6.507
 9987.5     43.806   13.471   6.506
 9988     43.878   13.703   6.505
 9988.5     44.093   13.59   6.504
 9989     44.308   12.96   6.502
 9989.5     44.524   12.335   6.501
 9990     44.739   13.936   6.5
 9990.5     44.954   15.537   6.499
 9991     45.038   17.138   6.498
 9991.5     45.088   18.74   6.497
 9992     45.137   20.341   6.496
 9992.5     45.187   19.526   6.495
 9993     45.236   17.912   6.494
 9993.5     45.177   17.05   6.493
 9994     45.064   17.748   6.492
 9994.5     44.951   18.447   6.491
 9995     44.838   19.145   6.49
 9995.5     44.725   19.844   6.489
 9996     44.732   19.333   6.488
 9996.5     44.753   18.037   6.487
 9997     45.183   16.74   6.486
 9997.5     45.687   15.444   6.485
 9998     46.191   14.147   6.484
 9998.5     46.695   12.851   6.483
 9999     46.541   12.606   6.482
 9999.5     46.105   13.181   6.481
 10000     45.67   13.755   6.48
