###############################################
##         ENVERUS                           ##
##         ESS - Open Hole                   ##
##         PERMIAN / DELAWARE                ##
##         Nov 03 2023  V4.0                 ##
##         42-109-32620-90-00                ##
###############################################
## Copyright 2017-2023  ENVERUS.  All Rights Reserved. 
## Confidential - Property of ENVERUS, use governed by terms and 
## conditions found within the existing Information Services Subscription Agreement 
## (as may be amended, the “ISSA”) between Customer and ENVERUS. 
## 
~VERSION INFORMATION
# MNEM.UNIT                               DATA : DESCRIPTION OF MNEMONIC
#-----.-----     ----------------------------- : -----------------------------
VERS.                                     2.00 : CWLS LOG ASCII STANDARD - VERSION 2.00
WRAP.                                       NO : MULTIPLE LINES PER DEPTH STEP
VEND.                                  ENVERUS : VENDOR
TYPE.                          ESS - OPEN HOLE : ENVERUS ESSENTIAL CURVES – ACCESSIBLE THROUGH ENVERUS PRISM(TM)
DOC.                                  51092952 : ENVERUS HEADER RAW DOCUMENT ID
#___________________________________________________________________________________________________ 
~WELL INFORMATION 
# LYPeWtxrle9FodilXqet+3VuPRh8A73lGXm1Q3+VPjdIM+tEhu367IfA47DlYFnVF+yDwY76OrXOyADpoj01xA== 
# MNEM.UNIT                                              DATA : DESCRIPTION OF MNEMONIC 
#-----.-----                    ----------------------------- : ----------------------------- 
CNTY.                                               CULBERSON : COUNTY 
STATE.                                                  TEXAS : STATE 
CNTRY.                                                    USA : COUNTRY 
API.                                             42-109-32620 : API (10 Digit) 
API_14.                                    42-109-32620-90-00 : API (14 Digits) 
API_14_std.                                 42-109-32620-9000 : API (14 Digits Standard) 
UWI.                                           42109326209000 : UNIQUE WELL ID 
WELL.                               42109326200000_PREV_API14 : WELL NAME
STRT.FT                                                2339.0 : START DEPTH
STOP.FT                                               10866.0 : STOP DEPTH
STEP.FT                                                   0.5 : STEP BETWEEN DEPTHS
NULL.                                                 -999.25 : NULL VALUE
PREV_APII.                                     42109326200000 : WELL IDENTIFIER
#___________________________________________________________________________________________________ 
~PARAMETER INFORMATION 
# MNEM.UNIT                                              DATA : DESCRIPTION OF MNEMONIC 
#-----.-----                    ----------------------------- : ----------------------------- 
EKB.FT                                                   3330 : ELEVATION ABOVE MSL
#___________________________________________________________________________________________________ 
~CURVE INFORMATION 
# MNEM.UNIT           : CURVE DESCRIPTION 
#-----.-----          : ----------------------------- 
 DEPT.FT               : MEASURED DEPTH 
 GR__A.API             : GAMMA RAY (GAMMA RAY) 
 DT__A.US/FT           : SONIC DELTA TRANSIT TIME (SONIC) 
 #___________________________________________________________________________________________________ 
~A         DEPT          GR__A          DT__A
# ...
         8516.0         68.234        141.391
         8516.5         81.437        140.622
         8517.0         76.934        138.616
         8517.5         75.184        141.795
         8518.0         78.000        144.433
         8518.5         76.978        145.127
         8519.0         73.152        148.546
         8519.5         69.215        150.744
         8520.0         70.504        146.116
         8520.5         88.300        143.329
         8521.0         97.585        141.708
         8521.5         96.339        142.496
         8522.0         92.579        143.882
         8522.5         89.065        145.436
         8523.0         87.824        146.239
         8523.5         84.629        145.034
         8524.0         81.038        144.646
         8524.5         82.236        145.637
         8525.0         80.767        147.410
         8525.5         74.626        148.200
         8526.0         72.767        146.499
         8526.5         73.718        144.265
         8527.0         71.301        139.051
         8527.5         74.037        131.836
         8528.0         84.832        117.853
         8528.5        127.933         94.044
         8529.0        165.248         82.881
         8529.5        172.459         89.586
         8530.0        149.852        118.192
         8530.5        122.330        115.913
         8531.0        114.970        115.145
         8531.5        124.749        114.074
         8532.0        130.587        112.723
         8532.5        111.366        116.187
         8533.0        112.905         98.730
         8533.5        149.766         78.895
         8534.0        208.782         70.782
         8534.5        205.781         79.785
         8535.0        173.491        108.628
         8535.5        135.764        120.875
         8536.0        115.141        129.181
         8536.5        102.835        134.974
         8537.0        101.599        136.109
         8537.5        107.465        124.618
         8538.0        119.239        110.670
         8538.5        178.191         91.905
         8539.0        221.592         85.239
         8539.5        203.918         89.036
         8540.0        156.799        107.691
         8540.5        122.652        107.576
         8541.0        121.736        101.977
         8541.5        142.579         92.060
         8542.0        172.213         76.107
         8542.5        187.204         66.600
         8543.0        176.042         66.153
         8543.5        169.987         76.949
         8544.0        163.447         94.741
         8544.5        129.651        118.429
         8545.0        104.923        121.781
         8545.5        114.301        112.949
         8546.0        145.612         95.786
         8546.5        196.724         69.357
         8547.0        207.445         71.508
         8547.5        176.380         97.631
         8548.0        123.861        103.657
         8548.5        118.826        101.730
         8549.0        161.372         75.075
         8549.5        202.437         51.238
         8550.0        234.473         54.754
         8550.5        235.129         60.809
         8551.0        218.145         77.175
         8551.5        183.169         90.882
         8552.0        154.250        102.272
         8552.5        143.005         96.633
         8553.0        150.866         96.145
         8553.5        157.289         97.195
         8554.0        160.317         98.372
         8554.5        168.236         92.531
         8555.0        187.358         72.057
         8555.5        220.307         65.773
         8556.0        223.952         60.074
         8556.5        211.114         80.400
         8557.0        158.174        107.440
         8557.5        113.012        120.875
         8558.0        104.128        120.794
         8558.5        141.454        101.325
         8559.0        194.539         66.538
         8559.5        224.753         55.203
         8560.0        222.205         65.810
         8560.5        177.570         96.101
         8561.0        149.545        101.423
         8561.5        155.211         92.966
         8562.0        160.026         87.435
         8562.5        148.018         87.866
         8563.0        137.167        101.995
         8563.5        141.054         95.682
         8564.0        155.638         83.247
         8564.5        205.019         70.844
         8565.0        216.680         83.616
         8565.5        186.196         99.921
         8566.0        160.693        105.520
         8566.5        170.843         94.613
         8567.0        211.788         73.688
         8567.5        226.864         70.433
         8568.0        213.345         81.234
         8568.5        162.393         99.925
         8569.0        122.339        113.788
         8569.5        109.790        124.335
         8570.0        105.085        123.134
         8570.5        114.079        111.142
         8571.0        150.415         95.039
         8571.5        181.005         64.232
         8572.0        186.826         57.872
         8572.5        175.750         70.185
         8573.0        140.139         87.966
         8573.5         91.760        125.366
         8574.0         72.252        137.981
         8574.5         69.202        132.015
         8575.0         76.432        125.364
         8575.5         82.236        123.614
         8576.0         82.173        124.342
         8576.5         94.822        121.456
         8577.0        125.493        111.367
         8577.5        159.300         96.681
         8578.0        158.888         91.987
         8578.5        145.541         95.780
         8579.0        141.317        103.687
         8579.5        147.875         93.239
         8580.0        160.495         87.847
         8580.5        195.426         75.567
         8581.0        222.029         61.948
         8581.5        223.846         72.223
         8582.0        191.456         85.192
         8582.5        137.586        116.205
         8583.0        109.594        134.985
         8583.5        105.131        131.421
         8584.0        120.066        124.253
         8584.5        164.295         95.500
         8585.0        197.912         72.362
         8585.5        219.359         74.240
         8586.0        209.871         82.479
         8586.5        163.801         91.979
         8587.0        143.287         91.862
         8587.5        161.066         84.714
         8588.0        180.125         70.677
         8588.5        191.343         75.907
         8589.0        195.724         83.010
         8589.5        179.110        103.210
         8590.0        159.526        114.102
         8590.5        114.516        117.735
         8591.0        115.972        118.048
         8591.5        129.500        109.259
         8592.0        135.999         97.199
         8592.5        150.255         98.333
         8593.0        156.381         98.041
         8593.5        156.088         95.588
         8594.0        161.135         93.627
         8594.5        163.673         93.163
         8595.0        156.221         90.398
         8595.5        156.097         92.383
         8596.0        166.960         92.638
         8596.5        201.132         75.792
         8597.0        219.847         80.511
         8597.5        195.613         90.084
         8598.0        171.569         98.157
         8598.5        149.192        104.489
         8599.0        156.008        104.895
         8599.5        154.995        104.404
         8600.0        144.692        106.559
         8600.5        136.872        112.247
         8601.0        126.256        115.032
         8601.5        106.822        115.486
         8602.0        102.994        121.632
         8602.5        103.320        122.684
