~Version Information
 VERS.                  2.0:   CWLS log ASCII Standard -VERSION 2.0
 WRAP.                   NO:   One line per depth step
~Well Information Block
#MNEM.UNIT     VALUE/NAME     DESCRIPTION
#---------     -----------    ---------------------------
 STRT.F              8580.0000: START DEPTH
 STOP.F             14491.0000: STOP DEPTH
 STEP.F                 0.5000: STEP DEPTH
 NULL.               -999.2500: NULL VALUE
 LOC .     1072' FWL & 424' FNL:  LOCATION
 FL2 .     A2085 SEC 12 BLK 113:  LOCATIONLINE2
 FL1 .     1072' FWL & 424' FNL:  LOCATIONLINE1
 CNTY.               CULBERSON:  COUNTY NAME
 FLD .              WOLFCAMP B:  FIELD NAME
 WELL.           DALE STATE 2H:  WELL NAME
 COMP.     CAPITAN ENERGY INC.:  COMPANY
 DMF .                      KB:  DRILL MEAS FROM
 PDAT.                      GL:  PERMANENT DATUM
 DATE.             11-Feb-2020:  DATE
 SVCO.             Halliburton:  SERVICECONAME
 PROV.                      TX:  PROVINCE
 STAT.                      TX:  STATE NAME
 CTRY.                     USA:  COUNTRY NAME
 HIDE.                        :  WELLNAMEOPERAT
 UWI .            42-109-33544:  UNIQUE WELL IDENTIFIER
 API .            42-109-33544:  API NUMBER
 RANG.                     N/A:  RANGE
 TOWN.                     N/A:  TOWNSHIP
 SECT.                     N/A:  SECTION
 SON .               906290231:  JOB NUMBER
 SRVC.             Halliburton:  SERVICE COMPANY
 LMF .                      KB:  LOG MEASURED FROM
 TVDS.ft           3291.000000:  TVDSS CORRECTN
 EGL .ft           3266.000000:  GROUND ELEVATION
 APD .ft             25.000000:  DEPTH ABOVE PD
 EPD .ft           3266.000000:  ELEVATION
 BAP .ft              0.000000:  GL ELEV ONSHORE
 GVFD.g               1.000000:  GRAVITY FIELD
 EKB .ft           3291.000000:  KB ELEVATION
 EDF .ft           3291.000000:  DF ELEVATION
~Parameter Information Block
#MNEM.UNIT       Value        Description
#---------     -----------    ---------------------------
 BARI.                     OFF:  BARITE CORR 
 BRMP.                      No:  BromidePresent 
 CSF5.        Conductor Casing:  Casing Func5 
 CSF6.        Conductor Casing:  Casing Func6 
 DATE.               07-Feb-20:  Run Date 
 DCS .               07-Feb-20:  DateCircEndT 
 DLAB.               07-Feb-20:  LogStartDateT 
 ENGI.                John Doe:  Engineer Name 
 LSRV.             OH WIRELINE:  NameOfService 
 LSTM.ucts  09.26.51 07-Feb-20:  Log Start Time 
 LTYP.                     RAW:  LogDataType 
 LUL .                  ODESSA:  LoggingUnitLoc 
 LUN .                12100315:  LoggingUnitNum 
 SCT1.               07-Feb-20:  StartDateRun1 
 TCS .                   09 26:  Time Ciculation Ended 
 TDCE.ucts  09.26.51 07-Feb-20:  Time Circ End 
 TLAB.                   09 26:  LogStartTimeT 
~Curve Information Block
#MNEM.UNIT                 API CODE     Curve Description
#---------               -----------    ---------------------------
 DEPT.F                 00 000 000 000:  Depth
 CCL .V                 00 000 000 000:  Casing Collar Locator
 NPHI_OH.pu             00 000 000 000:  NPHI_OH
 NPHI_CHI.decp          00 000 000 000:  NPHI_CHI
 GR  .api               00 000 000 000:  Gamma API
 GR_CHI.api             00 000 000 000:  GR_CHI
 RHOB_OH.g/cc           00 000 000 000:  RHOB_OH
 RHOB_CHI.g/cc          00 000 000 000:  RHOB_CHI
 PE_OH.b/e              00 000 000 000:  PE_OH
 PE_CHI.b/e             00 000 000 000:  PE_CHI
 LLS_CHI.ohmm           00 000 000 000:  LLS_CHI
 LLS_OH.ohmm            00 000 000 000:  LLS_OH
 LLD_OH.ohmm            00 000 000 000:  LLD_OH
 LLD_CHI.ohmm           00 000 000 000:  LLD_CHI
 DTC_OH.uspf            00 000 000 000:  DTC_OH
 DTC_CHI.uspf           00 000 000 000:  DTC_CHI
 SPHW_CHI.decp          00 000 000 000:  SPHW_CHI
#Other Information
#
#WARRANTY: Halliburton will use its best efforts to furnish customers with 
#accurate information and interpretations that are part of, and incident to, the services 
#provided.  However, Halliburton cannot and does not warrant the accuracy 
#or correctness of such information and interpretations.  Under no circumstances should any 
#such information or interpretation be relied upon as the sole basis for any drilling, 
#completion, production, or financial decision or any procedure involving any risk to the 
#safety of any drilling venture, drilling rig or its crew or any other third party.  The 
#Customer has full responsibility for all drilling, completion and production operation.  
#Halliburton makes no representations or warranties, either expressed or 
#implied, including, but not limited to, the implied warranties of merchantability or fitness 
#for a particular purpose, with respect to the services rendered.  In no event will 
#Halliburton be liable for failure to obtain any particular results or for 
#any damages, including, but not limited to, indirect, special or consequential damages, 
#resulting from the use of any information or interpretation provided by Halliburton.
#
~A    DEPT       CCL     NPHI_OH  NPHI_CHI    GR      GR_CHI   RHOB_OH  RHOB_CHI   PE_OH   PE_CHI LLS_CHI   LLS_OH     LLD_OH   LLD_CHI   DTC_OH   DTC_CHI SPHW_CHI 
# ...
   13680.0000    0.0000 -999.2500   0.0786 -999.2500  94.8076 -999.2500   2.5987 -999.2500 3.3285  49.1692 -999.2500  -999.2500  55.8143 -999.2500 69.1588 0.1525
   13680.5000    0.0000 -999.2500   0.0823 -999.2500 100.4320 -999.2500   2.5937 -999.2500 3.2965  51.3643 -999.2500  -999.2500  58.1074 -999.2500 69.6877 0.1562
   13681.0000  -18.5525 -999.2500   0.0845 -999.2500  97.9395 -999.2500   2.5918 -999.2500 3.2437  45.4504 -999.2500  -999.2500  51.3235 -999.2500 69.4742 0.1547
   13681.5000    0.0000 -999.2500   0.0833 -999.2500  88.1786 -999.2500   2.5950 -999.2500 3.2019  36.8117 -999.2500  -999.2500  41.6628 -999.2500 68.5932 0.1485
   13682.0000   22.1046 -999.2500   0.0905 -999.2500  99.8169 -999.2500   2.5839 -999.2500 3.2009  44.0805 -999.2500  -999.2500  49.3649 -999.2500 69.5372 0.1551
   13682.5000   76.3911 -999.2500   0.0891 -999.2500  97.5854 -999.2500   2.5856 -999.2500 3.2263  44.8313 -999.2500  -999.2500  50.3495 -999.2500 69.2846 0.1534
   13683.0000    0.0000 -999.2500   0.0840 -999.2500  86.5900 -999.2500   2.5939 -999.2500 3.2412  39.1618 -999.2500  -999.2500  44.4794 -999.2500 68.3441 0.1467
   13683.5000    0.0000 -999.2500   0.0870 -999.2500  94.1546 -999.2500   2.5890 -999.2500 3.2424  43.8108 -999.2500  -999.2500  49.5164 -999.2500 69.0254 0.1515
   13684.0000    0.0000 -999.2500   0.0832 -999.2500  85.3921 -999.2500   2.5954 -999.2500 3.2099  35.9585 -999.2500  -999.2500  40.7466 -999.2500 68.3169 0.1465
   13684.5000  -26.0538 -999.2500   0.0847 -999.2500  86.0475 -999.2500   2.5936 -999.2500 3.1645  32.9219 -999.2500  -999.2500  37.0141 -999.2500 68.4129 0.1472
   13685.0000  -15.1944 -999.2500   0.0808 -999.2500  78.3476 -999.2500   2.5994 -999.2500 3.1589  29.2736 -999.2500  -999.2500  32.9747 -999.2500 67.7584 0.1426
   13685.5000    0.0000 -999.2500   0.0876 -999.2500  94.6838 -999.2500   2.5882 -999.2500 3.1518  35.4858 -999.2500  -999.2500  39.3699 -999.2500 69.1310 0.1523
   13686.0000    0.0000 -999.2500   0.0850 -999.2500  92.8632 -999.2500   2.5916 -999.2500 3.1860  36.7377 -999.2500  -999.2500  40.9627 -999.2500 68.9798 0.1512
   13686.5000    0.0000 -999.2500   0.0826 -999.2500  87.4938 -999.2500   2.5954 -999.2500 3.2042  35.1001 -999.2500  -999.2500  39.3515 -999.2500 68.5307 0.1480
   13687.0000 -101.1266 -999.2500   0.0814 -999.2500  84.7202 -999.2500   2.5973 -999.2500 3.2283  34.9088 -999.2500  -999.2500  39.2884 -999.2500 68.3257 0.1466
   13687.5000    0.0000 -999.2500   0.0916 -999.2500 104.4908 -999.2500   2.5811 -999.2500 3.2333  46.7279 -999.2500  -999.2500  51.7568 -999.2500 70.0569 0.1588
   13688.0000    0.0000 -999.2500   0.0943 -999.2500 107.9992 -999.2500   2.5773 -999.2500 3.2457  51.0335 -999.2500  -999.2500  56.5469 -999.2500 70.3905 0.1612
   13688.5000    0.0000 -999.2500   0.0827 -999.2500  86.5354 -999.2500   2.5960 -999.2500 3.2484  37.0855 -999.2500  -999.2500  42.0058 -999.2500 68.5872 0.1484
   13689.0000    0.0000 -999.2500   0.0807 -999.2500  88.4777 -999.2500   2.5982 -999.2500 3.2843  41.1844 -999.2500  -999.2500  46.9490 -999.2500 68.7603 0.1496
   13689.5000    0.0000 -999.2500   0.0804 -999.2500  94.4717 -999.2500   2.5973 -999.2500 3.3152  47.8096 -999.2500  -999.2500  54.4823 -999.2500 69.2623 0.1532
   13690.0000  -18.4834 -999.2500   0.0820 -999.2500 103.3847 -999.2500   2.5936 -999.2500 3.3493  58.3688 -999.2500  -999.2500  66.2770 -999.2500 70.0431 0.1587
   13690.5000  -83.8377 -999.2500   0.0802 -999.2500 102.3969 -999.2500   2.5962 -999.2500 3.3400  55.7345 -999.2500  -999.2500  63.2847 -999.2500 70.0016 0.1584
   13691.0000    0.0000 -999.2500   0.0723 -999.2500  87.1481 -999.2500   2.6093 -999.2500 3.3090  41.1631 -999.2500  -999.2500  47.2599 -999.2500 68.7934 0.1499
   13691.5000    0.0000 -999.2500   0.0721 -999.2500  87.8349 -999.2500   2.6100 -999.2500 3.2860  39.6195 -999.2500  -999.2500  45.4658 -999.2500 68.9351 0.1509
   13692.0000    0.0000 -999.2500   0.0783 -999.2500  99.8927 -999.2500   2.6003 -999.2500 3.2671  45.7987 -999.2500  -999.2500  51.9719 -999.2500 69.9673 0.1582
   13692.5000    0.0000 -999.2500   0.0789 -999.2500  94.3091 -999.2500   2.6004 -999.2500 3.2372  39.9345 -999.2500  -999.2500  45.2480 -999.2500 69.4470 0.1545
   13693.0000    0.0000 -999.2500   0.0818 -999.2500  91.5394 -999.2500   2.5970 -999.2500 3.2048  36.4896 -999.2500  -999.2500  41.1505 -999.2500 69.1270 0.1522
   13693.5000    0.0000 -999.2500   0.0888 -999.2500 101.1781 -999.2500   2.5863 -999.2500 3.2032  42.4475 -999.2500  -999.2500  47.4005 -999.2500 69.8826 0.1576
   13694.0000   10.0394 -999.2500   0.0885 -999.2500  99.5654 -999.2500   2.5867 -999.2500 3.2118  42.6790 -999.2500  -999.2500  47.7598 -999.2500 69.6849 0.1562
   13694.5000  -16.0587 -999.2500   0.0824 -999.2500  91.3248 -999.2500   2.5956 -999.2500 3.2650  42.0469 -999.2500  -999.2500  47.7793 -999.2500 68.9686 0.1511
   13695.0000  -26.1264 -999.2500   0.0801 -999.2500  90.3681 -999.2500   2.5987 -999.2500 3.2975  44.0058 -999.2500  -999.2500  50.3022 -999.2500 68.8986 0.1506
   13695.5000    0.0000 -999.2500   0.0748 -999.2500  82.8654 -999.2500   2.6064 -999.2500 3.3335  42.1247 -999.2500  -999.2500  48.6765 -999.2500 68.2430 0.1460
   13696.0000  -15.5760 -999.2500   0.0743 -999.2500  82.7670 -999.2500   2.6067 -999.2500 3.3511  43.2309 -999.2500  -999.2500  49.9325 -999.2500 68.1938 0.1456
   13696.5000   51.5819 -999.2500   0.0803 -999.2500  96.7577 -999.2500   2.5964 -999.2500 3.3336  51.6658 -999.2500  -999.2500  58.6600 -999.2500 69.3110 0.1535
   13697.0000  -17.6201 -999.2500   0.0766 -999.2500  88.5062 -999.2500   2.6018 -999.2500 3.3153  43.8437 -999.2500  -999.2500  49.7348 -999.2500 68.5218 0.1480
   13697.5000    0.0000 -999.2500   0.0782 -999.2500  92.4082 -999.2500   2.5985 -999.2500 3.3060  45.4825 -999.2500  -999.2500  51.1224 -999.2500 68.7626 0.1497
   13698.0000    0.0000 -999.2500   0.0800 -999.2500  95.2623 -999.2500   2.5954 -999.2500 3.3083  47.7994 -999.2500  -999.2500  53.4645 -999.2500 68.9268 0.1508
   13698.5000  -59.0566 -999.2500   0.0774 -999.2500  91.2324 -999.2500   2.5990 -999.2500 3.3388  47.8750 -999.2500  -999.2500  53.9025 -999.2500 68.5372 0.1481
   13699.0000   45.9743 -999.2500   0.0760 -999.2500  93.6868 -999.2500   2.6004 -999.2500 3.3608  52.1946 -999.2500  -999.2500  59.0194 -999.2500 68.7370 0.1495
   13699.5000  -99.9494 -999.2500   0.0775 -999.2500  99.2248 -999.2500   2.5982 -999.2500 3.3171  52.9047 -999.2500  -999.2500  59.5730 -999.2500 69.2670 0.1532
   13700.0000    0.0000 -999.2500   0.0709 -999.2500  85.4799 -999.2500   2.6088 -999.2500 3.2975  42.0259 -999.2500  -999.2500  47.7244 -999.2500 68.0907 0.1449
   13700.5000    0.0000 -999.2500   0.0747 -999.2500  93.5620 -999.2500   2.6028 -999.2500 3.2775  44.9869 -999.2500  -999.2500  50.6082 -999.2500 68.7937 0.1499
   13701.0000    0.0000 -999.2500   0.0810 -999.2500 106.2522 -999.2500   2.5925 -999.2500 3.2977  55.8004 -999.2500  -999.2500  62.1018 -999.2500 69.8883 0.1576
   13701.5000    0.0000 -999.2500   0.0762 -999.2500  97.7717 -999.2500   2.5997 -999.2500 3.3519  53.9371 -999.2500  -999.2500  60.7511 -999.2500 69.1473 0.1524
   13702.0000   22.6194 -999.2500   0.0705 -999.2500  84.8126 -999.2500   2.6092 -999.2500 3.3820  47.1922 -999.2500  -999.2500  54.0302 -999.2500 68.0844 0.1449
   13702.5000  -17.2810 -999.2500   0.0679 -999.2500  83.7370 -999.2500   2.6130 -999.2500 3.4021  48.1971 -999.2500  -999.2500  55.6083 -999.2500 68.0542 0.1447
   13703.0000    0.0000 -999.2500   0.0724 -999.2500  97.4446 -999.2500   2.6056 -999.2500 3.3976  58.8639 -999.2500  -999.2500  67.5130 -999.2500 69.3070 0.1535
   13703.5000    0.0000 -999.2500   0.0687 -999.2500  87.5374 -999.2500   2.6125 -999.2500 3.3674  48.2120 -999.2500  -999.2500  55.7073 -999.2500 68.5122 0.1479
   13704.0000  -23.2683 -999.2500   0.0625 -999.2500  71.4614 -999.2500   2.6229 -999.2500 3.3649  39.1800 -999.2500  -999.2500  45.8965 -999.2500 67.1671 0.1384
   13704.5000   31.9229 -999.2500   0.0680 -999.2500  81.4918 -999.2500   2.6144 -999.2500 3.3308  42.0313 -999.2500  -999.2500  48.5936 -999.2500 67.9744 0.1441
