~Version Information
 VERS.                  2.0:   CWLS log ASCII Standard -VERSION 2.0
 WRAP.                   NO:   One line per depth step
~Well Information Block
#MNEM.UNIT     VALUE/NAME     DESCRIPTION
#---------     -----------    ---------------------------
 STRT.F              8830.0000: START DEPTH
 STOP.F             14230.0000: STOP DEPTH
 STEP.F                 0.5000: STEP DEPTH
 NULL.                 -999.25: NULL VALUE
 LOC .       API  42-109-33374Lat:  LOCATION
 FL1 .       API  42-109-33374Lat:  LOCATIONLINE1
 DMF .                      KB:  DRILL MEAS FROM
 PDAT.                      GL:  PERMANENT DATUM
 CTRY.                     USA:  COUNTRY NAME
 CNTY.               CULBERSON:  COUNTY NAME
 FLD .     FORD, WEST (WOLFCAMP):  FIELD NAME
 WELL.        MOTHER FEE 28 4H:  WELL NAME
 COMP.          CAPITAN ENERGY:  COMPANY
 DATE.             02-May-2019:  DATE
 SVCO.             Halliburton:  SERVICECONAME
 PROV.                   TEXAS:  PROVINCE
 STAT.                   TEXAS:  STATE NAME
 HIDE.                        :  WELLNAMEOPERAT
 BASI.                 PERMIAN:  BASIN
 UWI .            42-109-33374Lat:  UNIQUE WELL IDENTIFIER
 API .            42-109-33374Lat:  API NUMBER
 RANG.                     N/A:  RANGE
 TOWN.                     N/A:  TOWNSHIP
 SECT.                     N/A:  SECTION
 SON .               905631317:  JOB NUMBER
 SRVC.             Halliburton:  SERVICE COMPANY
 LMF .                      KB:  LOG MEASURED FROM
 BAP .ft                0.0000:  GL ELEV ONSHORE
 GVFD.g                 1.0000:  GRAVITY FIELD
~Curve Information Block
#MNEM.UNIT                 API CODE     Curve Description
#---------               -----------    ---------------------------
 DEPT.F                 00 000 000 000:  Depth
 CCL .V                 00 000 000 000:  Casing Collar Locator
 NPHI_OH.pu             00 000 000 000:  NPHI_OH
 NPHI_CHI.pu            00 000 000 000:  NPHI_CHI
 GR_OH.api              00 000 000 000:  GR_OH
 GR_CHI.api             00 000 000 000:  GR_CHI
 RHOB_OH.g/cc           00 000 000 000:  RHOB_OH
 RHOB_CHI.g/cc          00 000 000 000:  RHOB_CHI
 PE_OH.b/e              00 000 000 000:  PE_OH
 PE_CHI.b/e             00 000 000 000:  PE_CHI
 RT10_OH.ohmm           00 000 000 000:  RT10_OH
 RT10_CHI.ohmm          00 000 000 000:  RT10_CHI
 RT30_OH.ohmm           00 000 000 000:  RT30_OH
 RT30_CHI.ohmm          00 000 000 000:  RT30_CHI
 RT90_OH.ohmm           00 000 000 000:  RT90_OH
 RT90_CHI.ohmm          00 000 000 000:  RT90_CHI
 SPHI_CHI.pu            00 000 000 000:  SPHI_CHI
 DTC_CHI.uspf           00 000 000 000:  DTC_CHI
 DTC_OH.uspf            00 000 000 000:  DTC_OH
 SGF .cu                00 000 000 000:  Formation Sigma
 CRNF.NONE              00 000 000 000:  CM GrsCaptRatio
 RIN .NONE              00 000 000 000:  CM GrsInelRatio
#Other Information
#
#WARRANTY: Halliburton will use its best efforts to furnish customers with 
#accurate information and interpretations that are part of, and incident to, the services 
#provided.  However, Halliburton cannot and does not warrant the accuracy 
#or correctness of such information and interpretations.  Under no circumstances should any 
#such information or interpretation be relied upon as the sole basis for any drilling, 
#completion, production, or financial decision or any procedure involving any risk to the 
#safety of any drilling venture, drilling rig or its crew or any other third party.  The 
#Customer has full responsibility for all drilling, completion and production operation.  
#Halliburton makes no representations or warranties, either expressed or 
#implied, including, but not limited to, the implied warranties of merchantability or fitness 
#for a particular purpose, with respect to the services rendered.  In no event will 
#Halliburton be liable for failure to obtain any particular results or for 
#any damages, including, but not limited to, indirect, special or consequential damages, 
#resulting from the use of any information or interpretation provided by Halliburton.
#
~A    DEPT      CCL   NPHI_OH NPHI_CHI  GR_OH    GR_CHI  RHOB_OH RHOB_CHI  PE_OH  PE_CHI RT10_OH RT10_CHI RT30_OH RT30_CHI RT90_OH  RT90_CHI SPHI_CHI DTC_CHI DTC_OH    SGF    CRNF   RIN   
# ...
   12055.0000 17.4206 -999.25  16.0909  -999.25 105.1625 -999.25   2.4929 -999.25 2.8279 -999.25  41.9794 -999.25  43.1264  -999.25  45.8792  22.1200 78.8754 -999.25 29.5972 1.1422 1.0924
   12055.5000 17.4386 -999.25  16.2853  -999.25 105.6414 -999.25   2.4893 -999.25 2.7919 -999.25  41.3551 -999.25  42.4851  -999.25  45.1969  22.3600 79.2115 -999.25 29.8056 1.1444 1.0952
   12056.0000 17.4308 -999.25  16.4704  -999.25 107.3961 -999.25   2.4885 -999.25 2.7895 -999.25  40.8325 -999.25  41.9481  -999.25  44.6257  22.5300 79.4626 -999.25 30.2316 1.1483 1.0940
   12056.5000 17.4189 -999.25  16.3833  -999.25 109.1862 -999.25   2.4930 -999.25 2.8176 -999.25  40.2213 -999.25  41.3203  -999.25  43.9577  22.3500 79.2001 -999.25 30.3716 1.1511 1.0897
   12057.0000 17.4298 -999.25  16.2621  -999.25 110.3839 -999.25   2.4989 -999.25 2.8583 -999.25  39.5669 -999.25  40.6479  -999.25  43.2425  22.1000 78.8523 -999.25 30.4046 1.1553 1.0893
   12057.5000 17.4528 -999.25  16.3358  -999.25 110.6451 -999.25   2.4981 -999.25 2.8484 -999.25  39.2368 -999.25  40.3088  -999.25  42.8817  22.1800 78.9603 -999.25 29.9829 1.1478 1.0921
   12058.0000 17.3844 -999.25  16.6150  -999.25 109.5494 -999.25   2.4889 -999.25 2.7744 -999.25  39.4274 -999.25  40.5047  -999.25  43.0901  22.6300 79.5937 -999.25 29.4625 1.1347 1.0955
   12058.5000 17.4147 -999.25  16.6979  -999.25 106.8241 -999.25   2.4854 -999.25 2.7668 -999.25  40.2536 -999.25  41.3534  -999.25  43.9930  22.7900 79.8283 -999.25 28.9645 1.1192 1.0959
   12059.0000 17.4209 -999.25  16.5279  -999.25 104.0817 -999.25   2.4878 -999.25 2.8104 -999.25  41.4408 -999.25  42.5730  -999.25  45.2904  22.6100 79.5732 -999.25 28.8712 1.1154 1.0935
   12059.5000 17.4190 -999.25  16.0703  -999.25 103.0591 -999.25   2.4944 -999.25 2.8628 -999.25  42.5348 -999.25  43.6970  -999.25  46.4862  22.0800 78.8213 -999.25 28.7534 1.1207 1.0915
   12060.0000 17.4424 -999.25  15.7750  -999.25 103.9127 -999.25   2.4985 -999.25 2.8903 -999.25  43.2310 -999.25  44.4121  -999.25  47.2469  21.7400 78.3411 -999.25 28.8051 1.1259 1.0904
   12060.5000 17.4430 -999.25  15.7477  -999.25 105.9442 -999.25   2.4996 -999.25 2.9051 -999.25  43.6346 -999.25  44.8268  -999.25  47.6881  21.7100 78.2921 -999.25 28.7546 1.1311 1.0896
   12061.0000 17.4208 -999.25  15.9498  -999.25 107.7114 -999.25   2.4966 -999.25 2.8918 -999.25  43.7607 -999.25  44.9563  -999.25  47.8259  21.9600 78.6503 -999.25 28.8237 1.1223 1.0885
   12061.5000 17.4196 -999.25  16.1105  -999.25 108.4063 -999.25   2.4940 -999.25 2.8760 -999.25  43.6735 -999.25  44.8668  -999.25  47.7306  22.1600 78.9332 -999.25 29.1462 1.1149 1.0852
   12062.0000 17.4196 -999.25  16.1369  -999.25 108.0971 -999.25   2.4950 -999.25 2.8861 -999.25  43.3608 -999.25  44.5455  -999.25  47.3889  22.1600 78.9283 -999.25 29.3053 1.1128 1.0809
   12062.5000 17.4199 -999.25  15.9601  -999.25 107.8009 -999.25   2.4990 -999.25 2.9037 -999.25  42.8454 -999.25  44.0160  -999.25  46.8256  21.9000 78.5648 -999.25 29.5206 1.1180 1.0767
   12063.0000 17.4208 -999.25  15.6892  -999.25 107.8789 -999.25   2.5047 -999.25 2.9321 -999.25  42.4161 -999.25  43.5750  -999.25  46.3564  21.5200 78.0327 -999.25 29.2154 1.1169 1.0743
   12063.5000 17.4292 -999.25  15.6876  -999.25 108.2987 -999.25   2.5038 -999.25 2.9154 -999.25  42.2680 -999.25  43.4228  -999.25  46.1945  21.5400 78.0517 -999.25 28.9472 1.1076 1.0741
   12064.0000 17.4204 -999.25  15.7558  -999.25 108.5784 -999.25   2.5013 -999.25 2.8996 -999.25  42.6591 -999.25  43.8247  -999.25  46.6220  21.6600 78.2271 -999.25 28.6055 1.0930 1.0729
   12064.5000 17.4214 -999.25  15.8598  -999.25 108.6231 -999.25   2.4989 -999.25 2.8969 -999.25  43.2592 -999.25  44.4412  -999.25  47.2778  21.8200 78.4502 -999.25 28.5668 1.0849 1.0722
   12065.0000 17.4206 -999.25  15.6454  -999.25 108.4832 -999.25   2.5020 -999.25 2.9196 -999.25  43.7392 -999.25  44.9343  -999.25  47.8024  21.5700 78.0960 -999.25 28.8777 1.0886 1.0710
   12065.5000 17.4385 -999.25  15.3561  -999.25 107.8123 -999.25   2.5052 -999.25 2.9212 -999.25  43.7156 -999.25  44.9101  -999.25  47.7767  21.2300 77.6233 -999.25 29.2442 1.1028 1.0725
   12066.0000 17.4019 -999.25  15.1404  -999.25 106.1018 -999.25   2.5077 -999.25 2.9156 -999.25  43.1907 -999.25  44.3708  -999.25  47.2029  20.9600 77.2441 -999.25 29.4801 1.1177 1.0762
   12066.5000 17.4257 -999.25  15.1373  -999.25 103.8644 -999.25   2.5075 -999.25 2.9018 -999.25  42.5286 -999.25  43.6906  -999.25  46.4793  20.9500 77.2188 -999.25 29.6249 1.1308 1.0802
   12067.0000 17.4206 -999.25  15.1413  -999.25 102.5044 -999.25   2.5087 -999.25 2.9087 -999.25  41.9609 -999.25  43.1074  -999.25  45.8589  20.9100 77.1691 -999.25 29.5328 1.1307 1.0830
   12067.5000 17.3908 -999.25  15.4439  -999.25 103.1255 -999.25   2.5054 -999.25 2.9019 -999.25  41.7055 -999.25  42.8450  -999.25  45.5797  21.2600 77.6547 -999.25 29.1931 1.1253 1.0843
   12068.0000 17.3887 -999.25  15.7895  -999.25 105.1941 -999.25   2.5012 -999.25 2.8954 -999.25  41.9503 -999.25  43.0965  -999.25  45.8473  21.6700 78.2421 -999.25 28.8612 1.1153 1.0843
   12068.5000 17.4091 -999.25  16.1998  -999.25 106.7623 -999.25   2.4925 -999.25 2.8513 -999.25  42.7212 -999.25  43.8885  -999.25  46.6899  22.2500 79.0571 -999.25 28.4881 1.1006 1.0866
   12069.0000 17.4213 -999.25  16.3025  -999.25 107.0498 -999.25   2.4873 -999.25 2.8206 -999.25  43.8212 -999.25  45.0185  -999.25  47.8920  22.4700 79.3796 -999.25 28.0286 1.0932 1.0879
   12069.5000 17.4393 -999.25  16.1178  -999.25 105.9381 -999.25   2.4872 -999.25 2.8240 -999.25  45.0616 -999.25  46.2928  -999.25  49.2477  22.3300 79.1775 -999.25 27.7653 1.0871 1.0879
   12070.0000 17.4075 -999.25  15.8716  -999.25 104.1317 -999.25   2.4882 -999.25 2.8284 -999.25  46.2097 -999.25  47.4723  -999.25  50.5024  22.1100 78.8617 -999.25 27.7337 1.0839 1.0877
   12070.5000 17.4187 -999.25  15.6279  -999.25 102.1617 -999.25   2.4916 -999.25 2.8568 -999.25  46.8632 -999.25  48.1437  -999.25  51.2166  21.8200 78.4599 -999.25 28.0970 1.0922 1.0871
   12071.0000 17.4279 -999.25  15.3218  -999.25 100.4181 -999.25   2.4976 -999.25 2.8970 -999.25  46.8491 -999.25  48.1291  -999.25  51.2012  21.4100 77.8805 -999.25 28.6863 1.1071 1.0872
   12071.5000 17.4503 -999.25  15.0772  -999.25  99.4302 -999.25   2.5034 -999.25 2.9266 -999.25  46.1026 -999.25  47.3622  -999.25  50.3853  21.0500 77.3662 -999.25 29.0280 1.1209 1.0865
   12072.0000 17.4034 -999.25  14.9593  -999.25  99.7558 -999.25   2.5087 -999.25 2.9542 -999.25  44.8075 -999.25  46.0317  -999.25  48.9699  20.8100 77.0189 -999.25 29.3088 1.1304 1.0855
   12072.5000 17.4213 -999.25  15.1451  -999.25 101.2093 -999.25   2.5092 -999.25 2.9590 -999.25  43.6104 -999.25  44.8019  -999.25  47.6616  20.9400 77.2154 -999.25 29.3104 1.1292 1.0841
   12073.0000 17.4059 -999.25  15.5456  -999.25 103.2152 -999.25   2.5036 -999.25 2.9164 -999.25  42.7534 -999.25  43.9215  -999.25  46.7250  21.4100 77.8778 -999.25 29.3616 1.1265 1.0862
   12073.5000 17.4429 -999.25  15.9335  -999.25 104.6231 -999.25   2.4975 -999.25 2.8776 -999.25  42.3465 -999.25  43.5035  -999.25  46.2803  21.8900 78.5480 -999.25 29.3022 1.1226 1.0873
   12074.0000 17.4197 -999.25  16.1952  -999.25 105.1377 -999.25   2.4909 -999.25 2.8234 -999.25  42.2773 -999.25  43.4324  -999.25  46.2047  22.2600 79.0787 -999.25 29.1101 1.1176 1.0903
   12074.5000 17.4365 -999.25  16.2056  -999.25 105.2570 -999.25   2.4885 -999.25 2.8002 -999.25  42.5835 -999.25  43.7470  -999.25  46.5394  22.3300 79.1709 -999.25 28.6671 1.1135 1.0913
   12075.0000 17.3865 -999.25  16.1004  -999.25 105.8088 -999.25   2.4908 -999.25 2.8296 -999.25  43.2564 -999.25  44.4383  -999.25  47.2748  22.2000 78.9920 -999.25 28.4091 1.1155 1.0911
   12075.5000 17.4018 -999.25  16.0281  -999.25 107.1162 -999.25   2.4922 -999.25 2.8545 -999.25  44.1538 -999.25  45.3602  -999.25  48.2555  22.1300 78.8907 -999.25 28.2228 1.1145 1.0915
   12076.0000 17.4216 -999.25  15.9790  -999.25 109.2672 -999.25   2.4939 -999.25 2.8815 -999.25  44.8936 -999.25  46.1202  -999.25  49.0641  22.0700 78.8058 -999.25 28.3458 1.1175 1.0920
