###############################################
##         ENVERUS                           ##
##         ESS - Open Hole                   ##
##         PERMIAN / DELAWARE                ##
##         Nov 03 2023  V4.0                 ##
##         42-109-32508-00-00                ##
###############################################
## Copyright 2017-2023  ENVERUS.  All Rights Reserved. 
## Confidential - Property of ENVERUS, use governed by terms and 
## conditions found within the existing Information Services Subscription Agreement 
## (as may be amended, the “ISSA”) between Customer and ENVERUS. 
## 
~VERSION INFORMATION
# MNEM.UNIT                               DATA : DESCRIPTION OF MNEMONIC
#-----.-----     ----------------------------- : -----------------------------
VERS.                                     2.00 : CWLS LOG ASCII STANDARD - VERSION 2.00
WRAP.                                       NO : MULTIPLE LINES PER DEPTH STEP
VEND.                                  ENVERUS : VENDOR
TYPE.                          ESS - OPEN HOLE : ENVERUS ESSENTIAL CURVES – ACCESSIBLE THROUGH ENVERUS PRISM(TM)
DOC.                                  51093165 : ENVERUS HEADER RAW DOCUMENT ID
#___________________________________________________________________________________________________ 
~WELL INFORMATION 
# 1l9uGBxUQQhBCtjIwzslcirW42fLV8cokTOAxV7sfA093x4JFuWG6+twQwU/7oNL7vvW02EVanlAmdL+peO2nw== 
# MNEM.UNIT                                              DATA : DESCRIPTION OF MNEMONIC 
#-----.-----                    ----------------------------- : ----------------------------- 
CNTY.                                               CULBERSON : COUNTY 
STATE.                                                  TEXAS : STATE 
CNTRY.                                                    USA : COUNTRY 
API.                                             42-109-32508 : API (10 Digit) 
API_14.                                    42-109-32508-00-00 : API (14 Digits) 
API_14_std.                                 42-109-32508-0000 : API (14 Digits Standard) 
UWI.                                           42109325080000 : UNIQUE WELL ID 
WELL.                                  LT. GIBSON 12 STATE 1H : WELL NAME
STRT.FT                                                1970.5 : START DEPTH
STOP.FT                                                8727.0 : STOP DEPTH
STEP.FT                                                   0.5 : STEP BETWEEN DEPTHS
NULL.                                                 -999.25 : NULL VALUE
PREV_APII.                                     42109325080000 : WELL IDENTIFIER
#___________________________________________________________________________________________________ 
~PARAMETER INFORMATION 
# MNEM.UNIT                                              DATA : DESCRIPTION OF MNEMONIC 
#-----.-----                    ----------------------------- : ----------------------------- 
EKB.FT                                                   3552 : ELEVATION ABOVE MSL
#___________________________________________________________________________________________________ 
~CURVE INFORMATION 
# MNEM.UNIT           : CURVE DESCRIPTION 
#-----.-----          : ----------------------------- 
 DEPT.FT               : MEASURED DEPTH 
 GR__A.API             : GAMMA RAY (GAMMA RAY) 
 DT__A.US/FT           : SONIC DELTA TRANSIT TIME (SONIC) 
 #___________________________________________________________________________________________________ 
~A         DEPT          GR__A          DT__A
# ...
         7364.5        383.522        101.137
         7365.0        394.693        103.119
         7365.5        408.792         89.522
         7366.0        410.507         87.155
         7366.5        397.457         91.101
         7367.0        381.297        106.105
         7367.5        380.720        100.990
         7368.0        384.773         85.875
         7368.5        369.905         91.059
         7369.0        339.335        111.723
         7369.5        331.986        117.553
         7370.0        346.246        110.853
         7370.5        352.781         97.510
         7371.0        351.786         93.177
         7371.5        344.431         92.323
         7372.0        336.819         89.690
         7372.5        318.750         88.701
         7373.0        302.660         92.398
         7373.5        302.344         93.024
         7374.0        309.257         92.334
         7374.5        318.359         89.180
         7375.0        328.056         90.219
         7375.5        321.369         93.270
         7376.0        305.899        102.946
         7376.5        300.127        114.824
         7377.0        300.670        117.669
         7377.5        304.351        116.227
         7378.0        306.094        112.125
         7378.5        304.914        109.029
         7379.0        310.147        108.187
         7379.5        331.105        107.751
         7380.0        345.892        102.742
         7380.5        346.674        104.003
         7381.0        335.302        107.612
         7381.5        324.537        109.092
         7382.0        317.916        114.056
         7382.5        311.763        118.587
         7383.0        297.162        120.392
         7383.5        292.188        120.663
         7384.0        298.656        119.756
         7384.5        306.916        119.298
         7385.0        303.605        119.823
         7385.5        291.909        120.078
         7386.0        284.088        120.273
         7386.5        283.594        120.273
         7387.0        281.295        120.468
         7387.5        274.456        120.623
         7388.0        272.585        120.663
         7388.5        276.703        121.216
         7389.0        283.430        121.637
         7389.5        282.905        121.248
         7390.0        278.516        121.229
         7390.5        281.130        122.972
         7391.0        289.366        124.551
         7391.5        286.746        125.139
         7392.0        285.145        125.536
         7392.5        288.284        123.780
         7393.0        289.052        123.392
         7393.5        285.490        123.970
         7394.0        280.024        125.536
         7394.5        275.320        125.536
         7395.0        271.354        125.731
         7395.5        266.251        126.342
         7396.0        261.208        126.720
         7396.5        260.064        127.062
         7397.0        263.825        126.706
         7397.5        265.625        126.664
         7398.0        265.234        126.316
         7398.5        264.453        128.806
         7399.0        264.453        130.020
         7399.5        264.844        130.214
         7400.0        267.829        129.957
         7400.5        272.923        129.825
         7401.0        273.652        130.214
         7401.5        266.047        130.214
         7402.0        261.719        129.941
         7402.5        262.276        129.240
         7403.0        265.193        128.763
         7403.5        269.897        128.655
         7404.0        272.847        129.235
         7404.5        272.457        130.704
         7405.0        270.496        131.189
         7405.5        270.528        131.384
         7406.0        272.489        130.994
         7406.5        273.047        129.319
         7407.0        274.459        129.240
         7407.5        276.172        129.240
         7408.0        275.391        131.506
         7408.5        269.393        132.359
         7409.0        265.743        132.359
         7409.5        266.187        132.359
         7410.0        271.961        134.207
         7410.5        274.703        136.804
         7411.0        271.655        136.732
         7411.5        268.750        134.813
         7412.0        269.531        132.588
         7412.5        269.531        132.328
         7413.0        269.531        133.697
         7413.5        270.659        136.364
         7414.0        271.094        138.084
         7414.5        270.313        135.882
         7415.0        269.141        134.708
         7415.5        266.039        133.540
         7416.0        263.281        132.164
         7416.5        263.677        132.751
         7417.0        265.234        132.944
         7417.5        264.844        133.344
         7418.0        263.223        134.323
         7418.5        261.328        135.088
         7419.0        261.328        135.695
         7419.5        261.382        136.062
         7420.0        263.343        135.026
         7420.5        265.695        133.653
         7421.0        267.656        130.760
         7421.5        271.744        127.270
         7422.0        275.970        128.407
         7422.5        276.850        129.927
         7423.0        272.714        131.774
         7423.5        269.531        130.740
         7424.0        269.531        128.850
         7424.5        269.396        128.918
         7425.0        269.141        129.845
         7425.5        270.464        127.930
         7426.0        273.917        123.622
         7426.5        281.586        122.138
         7427.0        286.466        120.682
         7427.5        291.385        118.919
         7428.0        296.980        117.739
         7428.5        297.656        118.129
         7429.0        294.895        119.611
         7429.5        292.969        123.327
         7430.0        292.578        123.587
         7430.5        289.767        122.379
         7431.0        287.109        120.227
         7431.5        292.015        118.394
         7432.0        300.384        117.739
         7432.5        306.534        117.872
         7433.0        309.766        118.129
         7433.5        307.355        119.049
         7434.0        301.762        121.243
         7434.5        297.150        124.723
         7435.0        291.740        127.945
         7435.5        281.311        130.214
         7436.0        276.239        127.948
         7436.5        281.795        123.149
         7437.0        289.691        119.205
         7437.5        299.744        119.862
         7438.0        309.662        126.390
         7438.5        307.110        140.610
         7439.0        292.741        145.782
         7439.5        268.068        146.399
         7440.0        246.498        143.084
         7440.5        244.544        137.414
         7441.0        258.422        135.305
         7441.5        280.697        138.229
         7442.0        281.219        134.605
         7442.5        266.054        137.895
         7443.0        255.859        138.815
         7443.5        260.212        140.350
         7444.0        259.248        147.169
         7444.5        246.938        152.544
         7445.0        233.114        153.916
         7445.5        226.563        146.708
         7446.0        228.612        137.283
         7446.5        238.413        135.763
         7447.0        247.551        134.308
         7447.5        256.696        138.810
         7448.0        252.877        143.468
         7448.5        244.257        146.209
         7449.0        240.870        148.611
         7449.5        240.779        148.928
         7450.0        242.969        148.182
         7450.5        243.359        144.690
         7451.0        247.588        141.165
