###############################################
##         ENVERUS                           ##
##         ESS - Open Hole                   ##
##         PERMIAN / DELAWARE                ##
##         Nov 03 2023  V4.0                 ##
##         42-109-32620-90-00                ##
###############################################
## Copyright 2017-2023  ENVERUS.  All Rights Reserved. 
## Confidential - Property of ENVERUS, use governed by terms and 
## conditions found within the existing Information Services Subscription Agreement 
## (as may be amended, the “ISSA”) between Customer and ENVERUS. 
## 
~VERSION INFORMATION
# MNEM.UNIT                               DATA : DESCRIPTION OF MNEMONIC
#-----.-----     ----------------------------- : -----------------------------
VERS.                                     2.00 : CWLS LOG ASCII STANDARD - VERSION 2.00
WRAP.                                       NO : MULTIPLE LINES PER DEPTH STEP
VEND.                                  ENVERUS : VENDOR
TYPE.                          ESS - OPEN HOLE : ENVERUS ESSENTIAL CURVES – ACCESSIBLE THROUGH ENVERUS PRISM(TM)
DOC.                                  51092952 : ENVERUS HEADER RAW DOCUMENT ID
#___________________________________________________________________________________________________ 
~WELL INFORMATION 
# LYPeWtxrle9FodilXqet+3VuPRh8A73lGXm1Q3+VPjdIM+tEhu367IfA47DlYFnVF+yDwY76OrXOyADpoj01xA== 
# MNEM.UNIT                                              DATA : DESCRIPTION OF MNEMONIC 
#-----.-----                    ----------------------------- : ----------------------------- 
CNTY.                                               CULBERSON : COUNTY 
STATE.                                                  TEXAS : STATE 
CNTRY.                                                    USA : COUNTRY 
API.                                             42-109-32620 : API (10 Digit) 
API_14.                                    42-109-32620-90-00 : API (14 Digits) 
API_14_std.                                 42-109-32620-9000 : API (14 Digits Standard) 
UWI.                                           42109326209000 : UNIQUE WELL ID 
WELL.                               42109326200000_PREV_API14 : WELL NAME
STRT.FT                                                2339.0 : START DEPTH
STOP.FT                                               10866.0 : STOP DEPTH
STEP.FT                                                   0.5 : STEP BETWEEN DEPTHS
NULL.                                                 -999.25 : NULL VALUE
PREV_APII.                                     42109326200000 : WELL IDENTIFIER
#___________________________________________________________________________________________________ 
~PARAMETER INFORMATION 
# MNEM.UNIT                                              DATA : DESCRIPTION OF MNEMONIC 
#-----.-----                    ----------------------------- : ----------------------------- 
EKB.FT                                                   3330 : ELEVATION ABOVE MSL
#___________________________________________________________________________________________________ 
~CURVE INFORMATION 
# MNEM.UNIT           : CURVE DESCRIPTION 
#-----.-----          : ----------------------------- 
 DEPT.FT               : MEASURED DEPTH 
 GR__A.API             : GAMMA RAY (GAMMA RAY) 
 DT__A.US/FT           : SONIC DELTA TRANSIT TIME (SONIC) 
 #___________________________________________________________________________________________________ 
~A         DEPT          GR__A          DT__A
# ...
         7994.0         56.395        146.418
         7994.5         56.190        145.436
         7995.0         53.493        146.082
         7995.5         54.964        146.896
         7996.0         54.559        148.110
         7996.5         51.742        147.844
         7997.0         51.673        147.442
         7997.5         54.589        147.242
         7998.0         56.508        146.529
         7998.5         58.526        147.726
         7999.0         61.078        147.911
         7999.5         56.512        147.298
         8000.0         54.291        147.442
         8000.5         55.821        146.072
         8001.0         54.360        145.815
         8001.5         54.691        145.838
         8002.0         54.691        146.038
         8002.5         54.523        145.827
         8003.0         59.897        145.035
         8003.5         63.008        145.236
         8004.0         60.216        145.480
         8004.5         56.322        146.294
         8005.0         51.101        147.141
         8005.5         47.659        147.643
         8006.0         51.739        146.952
         8006.5         55.188        146.540
         8007.0         54.869        146.038
         8007.5         53.892        146.038
         8008.0         56.286        146.038
         8008.5         56.655        146.183
         8009.0         51.277        145.838
         8009.5         47.972        146.239
         8010.0         47.505        146.038
         8010.5         46.730        145.838
         8011.0         46.707        145.838
         8011.5         49.209        145.955
         8012.0         59.879        135.037
         8012.5        134.628        110.488
         8013.0        237.710         93.626
         8013.5        241.900         91.080
         8014.0        222.233         97.922
         8014.5        202.762        105.801
         8015.0        207.229        101.751
         8015.5        208.583         96.189
         8016.0        204.283         99.551
         8016.5        170.880        109.348
         8017.0        134.205        117.719
         8017.5        121.524        124.896
         8018.0        117.055        127.114
         8018.5        115.702        128.335
         8019.0        127.964        128.319
         8019.5        151.039        118.971
         8020.0        164.468        110.634
         8020.5        208.048         88.880
         8021.0        225.326         81.166
         8021.5        221.258         85.857
         8022.0        207.077         91.975
         8022.5        189.378         95.855
         8023.0        191.616         89.268
         8023.5        202.550         86.459
         8024.0        201.996         88.487
         8024.5        206.287         95.737
         8025.0        215.272        103.143
         8025.5        201.586        108.570
         8026.0        188.224        108.459
         8026.5        180.550        108.983
         8027.0        180.838        107.378
         8027.5        174.451        103.995
         8028.0        177.735        101.092
         8028.5        214.995         93.129
         8029.0        236.327         88.265
         8029.5        222.619         90.077
         8030.0        210.355         95.331
         8030.5        188.422        106.470
         8031.0        181.703        113.775
         8031.5        182.946        116.405
         8032.0        184.964        117.152
         8032.5        185.784        116.332
         8033.0        187.226        114.387
         8033.5        185.030        106.968
         8034.0        185.320        101.905
         8034.5        194.945        101.689
         8035.0        198.045        105.618
         8035.5        168.540        111.080
         8036.0        151.625        114.734
         8036.5        140.717        115.179
         8037.0        146.419        114.722
         8037.5        144.242        119.645
         8038.0        134.926        125.880
         8038.5        127.745        131.423
         8039.0        133.468        133.423
         8039.5        138.126        134.018
         8040.0        142.363        129.754
         8040.5        153.707        123.218
         8041.0        169.934        117.384
         8041.5        192.777        111.759
         8042.0        206.836        105.347
         8042.5        218.770         95.436
         8043.0        234.554         95.755
         8043.5        229.436         96.936
         8044.0        210.238        100.504
         8044.5        180.012        109.415
         8045.0        172.188        113.073
         8045.5        166.125        115.347
         8046.0        155.107        120.821
         8046.5        107.495        137.037
         8047.0         81.861        141.020
         8047.5         86.506        134.982
         8048.0        102.137        132.896
         8048.5        135.864        123.836
         8049.0        142.824        123.237
         8049.5        135.431        125.974
         8050.0        128.547        124.167
         8050.5        150.693        116.667
         8051.0        186.165        103.125
         8051.5        209.191         92.876
         8052.0        215.305         91.787
         8052.5        213.636         93.387
         8053.0        204.651         95.622
         8053.5        196.227        106.677
         8054.0        191.835        114.167
         8054.5        171.067        116.501
         8055.0        149.446        119.519
         8055.5        141.349        124.627
         8056.0        136.325        126.380
         8056.5        131.079        126.379
         8057.0        128.988        125.743
         8057.5        135.933        122.531
         8058.0        141.008        120.516
         8058.5        140.525        121.019
         8059.0        127.399        121.934
         8059.5        106.708        132.164
         8060.0         92.518        139.785
         8060.5         78.135        147.543
         8061.0         76.383        147.330
         8061.5         85.275        143.508
         8062.0         95.086        138.447
         8062.5         96.426        134.021
         8063.0         88.085        132.798
         8063.5         89.092        133.400
         8064.0         94.706        132.119
         8064.5         88.873        134.991
         8065.0         86.235        125.173
         8065.5        115.188        123.045
         8066.0        145.610        118.725
         8066.5        202.024         95.472
         8067.0        212.511         87.002
         8067.5        216.962         84.798
         8068.0        226.151         83.714
         8068.5        222.682         80.608
         8069.0        221.626         86.343
         8069.5        224.751         94.540
         8070.0        223.952         96.883
         8070.5        205.431        112.155
         8071.0        143.890        132.418
         8071.5        114.298        141.771
         8072.0        118.479        139.932
         8072.5        157.673        123.037
         8073.0        208.904        106.072
         8073.5        264.501         84.604
         8074.0        279.977         73.335
         8074.5        263.473         87.217
         8075.0        212.293        100.882
         8075.5        116.656        130.329
         8076.0         93.164        147.171
         8076.5         50.764        159.133
         8077.0         35.789        161.447
         8077.5         33.449        161.065
         8078.0         41.918        154.417
         8078.5         80.700        130.972
         8079.0        116.392        122.041
         8079.5        141.892        121.040
         8080.0        143.444        117.483
         8080.5        136.490        116.550
