~VERSION INFORMATION
 VERS.                2.0:   CWLS LOG ASCII STANDARD - VERSION 2.0
 WRAP.                 NO:   ONE LINE PER DEPTH STEP
~WELL INFORMATION
#MNEM.UNIT      DATA TYPE    INFORMATION
#----------   ------------   ------------------------------
 STRT.FT        8672.0000:   START DEPTH
 STOP.FT       14432.0000:   STOP DEPTH
 STEP.FT           0.5000:   STEP LENGTH
 NULL.          -999.2500:   NULL VALUE
 COMP. CAPITAN ENERGY, INCORPORATED:   COMPANY
 WELL.  MOTHER FEE 28 #1H:   WELL
 FLD . FORD, WEST (WOLFCAMP)	:   FIELD
 LOC .                   :   LOCATION
 CNTY.          CULBERSON:   COUNTY
 STAT.              TEXAS:   STATE
 CTRY. UNITED STATES OF AMERICA:   COUNTRY
 SRVC.        HALLIBURTON:   SERVICE COMPANY
 DATE.        16-Nov-2015:   LOGDATE
 API .     42109328880000:   API NUMBER
~CURVE INFORMATION
#MNEM.UNIT       API CODE    CURVE DESCRIPTION
#----------   ------------   ------------------------------
 DEPT.FT                 :   
 CALD_C.IN   45 280 60 00:   CALIPER FROM DENSITY COMPOSITE LOG
 DCOR.G/C3   45 356 01 00:   DENSITY CORRECTION
 DPHI_LS.DEC 45 890 10 00:   DENSITY POROSITY LIMESTONE
 DT_CH.US/F  60 501 00 00:   DELTA FROM THE FULL WAVE SONIC IN CASED HOLE
 GRD .GAPI   45 310 01 00:   GAMMA RAY FROM DENSITY LOG
 LLDC.OHMM   11 220 10 00:   CORRECTED LATEROLOG DEEP RESISTIVITY
 LLSC.OHMM   11 220 09 00:   CORRECTED LATEROLOG SHALLOW RESISTIVITY
 MSFLC.OHMM  11 270 04 00:   CORRECTED MICRO SPHERICALLY FOCUSED RESISTIVITY
 NPHI_LS.DEC 42 890 01 00:   NEUTRON POROSITY LIMESTONE
 PE  .B/E    45 358 01 00:   PHOTO ELECTRIC CROSS SECTION
 RHOB_CH.G/C3 45 350 01 00:   
~PARAMETER INFORMATION
#MNEM.UNIT          VALUE    DESCRIPTION
#----------   ------------   ------------------------------
 DATE.           11/16/15:   RUN DATE
 RUN .                  1:   RUN NUMBER
 BLI .FT            14432:   BOTTOM LOG INTERVAL
 TLI .FT             8672:   TOP LOG INTERVAL
 ORIG.     1" 2" 5" PRINT:   ORIGIN OF DATA
 UWI .     42109328880000:   UNIQUE WELL ID
~OTHER INFORMATION
~A   DEPT         CALD_C      DCOR       DPHI_LS      DT_CH       GRD        LLDC        LLSC        MSFLC       NPHI_LS         PE      RHOB_CH
  8672.0000      8.5454     -0.0078      0.0614     70.9001     76.1425    104.5817     90.9770     56.3449      0.1068      3.9740      2.5023
  8672.5000      8.5452     -0.0076      0.0735     71.0327     94.6847    101.7259     89.6246     56.5625      0.1182      3.8940      2.5031
  8673.0000      8.5448     -0.0075      0.0887     71.1652    130.4132     89.8876     81.2062     52.7822      0.1317      3.6974      2.5054
  8673.5000      8.5444     -0.0073      0.1039     69.8398    144.5848     75.8095     66.2173     45.4921      0.1373      3.4231      2.5162
  8674.0000      8.5441     -0.0072      0.0999     67.6310    121.1437     70.8558     61.4053     39.0862      0.1392      3.3299      2.5287
  8674.5000      8.5436     -0.0070      0.0796     65.4222     86.2766    111.5467     85.3723     43.7630      0.1134      3.4833      2.5412
  8675.0000      8.4458     -0.0069      0.0700     63.8060     73.9984    152.2377    123.7978     68.7303      0.0694      3.7678      2.5581
  8675.5000      8.4445     -0.0067      0.0640     62.5848     66.6615    168.6012    159.0887     77.3519      0.0544      3.9580      2.5816
  8676.0000      8.4432     -0.0066      0.0609     61.3636     65.7533    177.1585    166.4657     85.7190      0.0510      4.0930      2.6051
  8676.5000      8.4418     -0.0064      0.0620     60.8414     66.2317    182.4707    166.0440     89.5904      0.0576      4.1411      2.6106
  8677.0000      8.4408     -0.0062      0.0609     62.1532     62.1027    172.3875    156.9117     84.8331      0.0564      4.1799      2.6106
  8677.5000      8.4567     -0.0056      0.0552     64.3401     50.2005    160.4255    146.7371     75.8896      0.0449      4.1903      2.5768
  8678.0000      8.4768     -0.0013      0.0609     66.5269     71.3885    162.0114    150.6520     84.3346      0.0663      4.1903      2.5557
  8678.5000      8.4615      0.0021      0.0708     68.7138    103.0941    156.3577    146.5954     88.2570      0.0990      4.1540      2.5590
  8679.0000      8.4393      0.0056      0.0827     70.1455    123.4374    140.7551    130.0057     85.3824      0.1370      4.0820      2.5632
  8679.5000      8.4390      0.0091      0.0928     70.4111    132.1736    125.9493     97.2190     60.4029      0.1326      3.8563      2.5641
  8680.0000      8.4388      0.0087      0.0863     70.6235    111.9117     83.9915     68.7926     38.5468      0.1250      3.6571      2.5622
  8680.5000      8.4385      0.0032      0.0892     70.6229    127.1116     73.7516     65.9977     41.4389      0.1241      3.3903      2.5557
  8681.0000      8.4383     -0.0022      0.0921     69.7514    133.3946     67.4205     60.7827     34.6384      0.1255      3.2851      2.5531
  8681.5000      8.4380     -0.0077      0.0951     68.4661    135.7105     76.0877     67.0267     40.1618      0.1269      3.2179      2.5723
  8682.0000      8.4377     -0.0131      0.1009     67.1807    123.2698     90.1851     78.8285     46.6219      0.1265      3.3044      2.6044
  8682.5000      8.4375     -0.0143      0.0701     65.8954    101.6662     82.9747     72.9965     38.4929      0.1087      3.4121      2.6365
  8683.0000      8.4372     -0.0110      0.0451     64.6100     86.9078     68.8968     62.1137     31.8059      0.0975      3.4996      2.6380
  8683.5000      8.4370     -0.0068      0.0424     63.3247     90.6059     85.0319     68.7738     34.1264      0.0919      3.5403      2.6396
  8684.0000      8.4367     -0.0026      0.0609     62.1964    104.0165    112.2783     96.2537     57.7221      0.1074      3.5998      2.6442
  8684.5000      8.4365      0.0015      0.0893     62.0626    114.7330    139.5246    122.5499     72.4908      0.1185      3.6887      2.6483
  8685.0000      8.4362      0.0057      0.0582     62.0286     85.9346    147.0624    135.9062     72.9132      0.0808      3.8257      2.6525
  8685.5000      8.4359      0.0098      0.0192     60.4301     60.5871    158.8922    139.3137     73.3759      0.0539      4.0055      2.6566
  8686.0000      8.4357      0.0140      0.0175     60.2631     63.0846    178.1736    157.7786     88.6582      0.0516      4.1044      2.6591
  8686.5000      8.4354      0.0176      0.0196     60.2290     65.0271    184.8675    168.2601     91.3116      0.0584      4.1736      2.6302
  8687.0000      8.4352      0.0187      0.0205     60.1952     63.8988    182.8705    168.1436     91.3798      0.0619      4.2075      2.6318
  8687.5000      8.4349      0.0186      0.0228     59.9948     63.3046    178.9450    167.3444     91.4651      0.0632      4.2235      2.6558
  8688.0000      8.4347      0.0109      0.0168     59.7944     55.2948    175.0016    166.7051     87.3448      0.0542      4.2235      2.6812
  8688.5000      8.4344      0.0007      0.0068     59.7937     48.6624    171.7819    160.4065     83.5598      0.0504      4.2353      2.6929
  8689.0000      8.4341     -0.0001      0.0105     59.8929     52.3798    167.3086    153.8175     82.0225      0.0580      4.2348      2.6929
  8689.5000      8.4339      0.0058      0.0190     61.4263     58.4769    157.7212    139.5338     75.7982      0.0718      4.2009      2.6751
  8690.0000      8.4336      0.0117      0.0397     64.6019     75.6704    144.7246    122.3867     73.7018      0.1121      4.1139      2.6278
  8690.5000      8.4334      0.0175      0.0722     67.7775     99.8603    128.5792    100.9749     58.0093      0.1238      3.9322      2.6063
  8691.0000      8.4331      0.0182      0.0840     68.5120    104.9789     79.8806     58.9140     36.2002      0.1267      3.5850      2.5908
  8691.5000      8.4329      0.0182      0.0892     68.5113    114.7507     34.8031     31.6655     16.3521      0.1306      3.2475      2.5753
  8692.0000      8.4326      0.0150      0.0884     68.4108    114.7237     31.1201     27.0644     13.8926      0.1315      3.1465      2.5684
  8692.5000      8.4323      0.0111      0.0888     67.9541    117.3273     51.3966     45.4929     24.7830      0.1282      3.2016      2.5692
  8693.0000      8.4321      0.0072      0.0918     67.3043    130.4630    101.2675     63.9215     40.6909      0.1261      3.3299      2.5765
  8693.5000      8.4318      0.0033      0.0947     66.6545    136.8181    135.0621    128.2526     80.3230      0.1257      3.6133      2.5873
  8694.0000      8.4316     -0.0006      0.0755     66.0047    111.9951    160.6994    150.0611     84.6035      0.1066      3.7955      2.5982
  8694.5000      8.4591     -0.0033      0.0648     65.6113     70.1876    166.4037    155.9846     80.5950      0.0840      4.0207      2.6090
  8695.0000      8.5284     -0.0023      0.0606     65.6106     61.4301    168.9992    154.9010     76.9162      0.0796      4.1092      2.6156
  8695.5000      8.5534      0.0192      0.0650     66.9928     63.6711    150.2478    137.6928     72.7613      0.0876      4.1224      2.6134
  8696.0000      8.6162      0.0214      0.0778     68.5541     89.5763    143.8764    120.7901     72.8837      0.1175      4.0112      2.6023
  8696.5000      8.6286      0.0218      0.0898     69.8030    117.4234    123.6156    105.3961     64.6622      0.1265      3.7835      2.5912
  8697.0000      8.5944      0.0224      0.0965     69.7357    139.2469    108.4686     98.5871     61.6798      0.1291      3.4704      2.5890
  8697.5000      8.5519      0.0230      0.0916     69.6014    141.2946    119.1091    112.5910     66.2348      0.1269      3.3789      2.5922
  8698.0000      8.5094      0.0237      0.0781     69.4753    109.8393    130.0199    104.1440     57.6982      0.1030      3.4518      2.5962
  8698.5000      8.4670      0.0243      0.0674     69.3492     80.7670     81.9159     76.2535     37.0331      0.0926      3.5450      2.6001
  8699.0000      8.4463      0.0250      0.0679     69.2231     81.0549     86.8362     76.8482     39.7406      0.0931      3.6234      2.6041
  8699.5000      8.4360      0.0262      0.0711     69.0970     84.1051     77.1205     66.3825     35.0259      0.1013      3.6072      2.6014
