# Exported from Transform Software 5.2.0 on 27-Jun-2019 by user brian.umlang
# DI Transform - A Product of Drillinginfo, Inc. - www.drillinginfo.com
#
~VERSION INFORMATION
 VERS.        2.0 : LAS ASCII STANDARD - VERSION 2.0
 WRAP.         NO : ONE LINE PER DEPTH STEP

~WELL INFORMATION
#MNEM.UNIT       DATA TYPE       INFORMATION
#---------       ---------       -----------
 STRT.ft                   0 : Start Depth
 STOP.ft               12430 : Stop Depth
 STEP.ft                 0.5 : Step Length
 NULL.               -999.25 : Null Value
 COMP.                       : Company
 WELL.  42109313590000_API14 : Well Name
 FLD.                        : Field Name
 LOC.                        : Well Location
 CNTY.                       : County
 STAT.                       : State or Province
 CTRY.                       : Country
 SRVC.                       : Service Company
 DATE.                       : Date
 API.         42109313590000 : Well Identifier

~CURVE INFORMATION
#MNEM.UNIT       API CODE       CURVE DESCRIPTION
#---------       --------       -----------------
 DEPT.ft          : <Measured Depth>
 CAL.in           : Caliper
 DPHI.%           : Density Porosity
 DT.us/ft         : Sonic
 GR.gAPI          : Gamma Ray
 ILD.ohmm         : Deep Resistivity
 ILM.ohmm         : Medium Resistivity
 ILS.ohmm         : Shallow Resistivity
 NPHI.%           : Neutron Porosity
 RHOB.g/cm3       : Density
 SP.mV            : Spontaneous Potential

~PARAMETER INFORMATION
#MNEM.UNIT       VALUE       DESCRIPTION
#---------       -----       -----------
 EKB.ft      3771 : Elevation above MSL

~A      DEPT         CAL        DPHI          DT          GR         ILD         ILM         ILS        NPHI        RHOB          SP
# ...
      5032.5      12.855     18.5228     67.1195     48.3235     97.9892      9.4487     19.3044     29.8018      2.6455     37.3761
        5033      12.855     21.2288     65.9736     48.3235     84.4747      8.8108     19.8527     29.8018      2.6115     37.3799
      5033.5      12.855     22.1987     65.4289     48.6413     80.4651      8.8108     19.8527     29.8018      2.6094     37.3836
        5034     12.9624     22.2555     65.0673     48.7209     68.4776      8.9596     20.0196     29.8018      2.6074     37.3873
      5034.5     13.1227     24.7694     64.5207     48.0769     55.0286      8.9697     20.0196     29.8018      2.6062      37.391
        5035     13.2799     26.6643     64.5576     48.1491     62.6655      8.8108     20.0196     29.8018      2.5918     37.3947
      5035.5      13.437      29.189     65.1152     46.2212     65.4108      8.8108     20.0196     29.8018      2.5776     37.3985
        5036     13.6076     29.3613     67.1996     41.7201     72.5705      8.5922     20.3578     29.8018      2.5622     37.4022
      5036.5      13.779     29.7511     67.8849     35.0389    104.5092      8.8108     20.3578     29.8018      2.5446     37.4059
        5037     13.9504     29.7605     67.7366     45.4195    108.6822       9.035      20.188     29.8018      2.5149     37.4096
      5037.5     14.1218     29.7605     67.5479     61.6765     81.3598       9.035      20.188     29.8018      2.4752     37.4133
        5038     14.5029     29.7605      68.006     66.1856     50.2969      8.5228      20.188     29.8018      2.4437     37.4171
      5038.5     15.0106     29.7605     69.1585      78.018     34.0112      8.1651     20.0048     29.8018      2.4162     37.4208
        5039     15.5182     29.7605     69.7056     89.3433     28.6981       8.103     19.8527     29.8018      2.3783     37.4245
      5039.5     16.0259     29.7605     70.6463      90.847     29.0192      7.9684     19.3072     29.8018      2.3389     37.4282
        5040     16.5336     29.7605     71.5922     93.0856     31.8514      7.9684     18.7223     29.8018      2.2568     37.4319
      5040.5     16.7751     29.7605     71.9607     89.8242     45.7046       7.836     19.3601     29.8018      2.2512     37.4357
        5041     16.7751     29.7605      71.049     42.1365     47.4331       7.836     19.3601     29.8018      2.2391     37.4394
      5041.5     16.7751     29.7605     69.0756     37.1969     55.3325       7.836     19.3601     29.8018       2.218     37.4431
        5042     16.7751     29.7605     65.9453     44.8568     72.7215       7.836     18.7401     29.8018      2.2314     37.4468
      5042.5     16.7751     29.7605     63.4559     46.3679     91.0347       7.836     17.3566     29.8018      2.2335     37.4505
        5043     16.7751     29.7605     63.2922      47.625    104.3688       7.836     17.2182     29.8018      2.2355     37.4542
      5043.5     16.7751     29.7605     64.4368     52.5148    105.9856      7.9019     17.1153     29.8018      2.2375      37.458
        5044     16.7751     29.7605     65.9343     57.5508     86.1301      7.9684     17.5982     29.8018      2.2396     37.4617
      5044.5     16.7751     29.7605     65.9133     53.6993     58.1816      7.9684     18.8045     29.8018      2.3072     37.4654
        5045     16.7751     29.7605     64.6761     52.3761     55.1506      7.9684     18.8798     29.8018      2.4236     37.4691
      5045.5     16.7751     29.7605     63.5336     38.0519     73.4064      7.8518     19.8131     29.8018      2.4605     37.4728
        5046     16.7751     29.7605     63.2115     39.3642     77.0199      6.4631     22.3223     29.8018       2.466     37.4766
      5046.5     16.7751     29.7605     63.1228     40.3801     79.7231      5.8544     21.5869     29.8018      2.4317     37.4803
        5047     16.7744     29.7605     64.8139     47.0804     80.4026      6.1526     20.8549     29.8018      2.3513      37.484
      5047.5     16.7706     29.7605     67.7184     49.3517     77.5901      6.6192     17.0406     29.8018      2.2307     37.4877
        5048     16.7667     29.7605     68.2683     48.5206     48.8597      7.9924     16.3254     29.8018      2.2309     37.4914
      5048.5     16.7628     29.7605      69.559     43.9394     42.6514      8.1711     16.1024     29.8018      2.2336     37.4952
        5049     16.7589     29.7605     69.0184     40.4339     40.5924      8.1711     16.1024     29.8018      2.2413     37.4989
      5049.5     16.7551     29.7605     66.6599     40.4339     37.2939      8.1711     16.9431     29.8018       2.246     37.5026
        5050     16.7512     29.7605        65.6     40.1874     31.7321      7.9019     18.6337     29.8018      2.2501     37.5063
      5050.5     16.7473     29.7605     66.0641     44.7423      32.801      7.9019     18.7223     29.8018      2.2525       37.51
        5051     16.7435     29.7605     68.2458     47.2753     34.2379      7.9019     18.7223     29.8018      2.2816     37.5138
      5051.5     16.7396     29.7605     71.2647     52.5148     63.5832      7.9019     19.1986     29.8018      2.3051     37.5175
        5052     16.7357     29.7605     73.7203     52.7481     66.3082      8.0566     19.1986     29.8018      2.1653     37.5212
      5052.5     16.7319     29.7605     75.9719     59.6759    545.2283      8.6755     18.8798     29.8018      2.0672     37.5249
        5053      16.728     29.7605     77.1746     76.4368    808.0703      8.7373     18.8798     29.8018       2.038     37.5286
      5053.5     16.7241     29.7605     77.0535     81.6075    586.7028      9.0103     17.8048     29.8018      2.0383     37.5323
        5054     16.7203     29.7605     76.8667     81.5232    414.3775      9.1269     17.6563     29.8018      2.0569     37.5361
      5054.5     16.7164     29.7605     76.3444     81.3609    177.0362      8.1935     18.8658     29.8018      2.1717     37.5398
        5055     16.7125     29.7605     75.1194     81.1144     64.1073      7.3264     18.8798     29.8018      2.1876     37.5435
      5055.5     16.7087     29.7605     72.9584      80.957     66.3082      6.4631     19.2229     29.8018      2.1896     37.5472
        5056     16.7048     29.7605     69.7592     80.8679     79.7679      6.4631     19.5229     29.8018      2.2544     37.5509
      5056.5     16.7009     29.7605     66.6994     81.1144     319.219      6.4092     19.5229     29.8018       2.362     37.5547
        5057     16.6971     29.7605     64.4932     80.8839    484.6434      6.4092     19.5229     29.8018      2.3875     37.5584
      5057.5     16.6932     29.7605     64.4574     80.8679    829.1506      6.4092     19.4207     29.8018      2.3896     37.5621
        5058     16.6893     29.7605     64.5841     79.8817    797.4875      6.6277     17.6981     29.8018      2.3916     37.5658
      5058.5     16.6855     29.7605     65.6138     81.1144    315.3818      7.1385      15.442     29.8018      2.4414     37.5695
        5059     16.6816     29.7605     67.7935     80.8679    112.3975       7.389      15.442     29.8018      2.4787     37.5733
      5059.5     16.6777     29.7605     69.4152     80.6213     18.3159      7.7707     15.5719     29.8018      2.4841      37.577
        5060     16.6739     29.7605     71.6536     80.6213     17.8385      7.7707     15.5719     29.8018      2.4807     37.5807
      5060.5       16.67     29.7605     72.2522     80.7759     20.4168      7.3686     15.5719     29.8018      2.4184     37.5844
        5061     16.6661     29.7605     70.9559     80.6213     20.6091      7.0594     15.5719     29.8018      2.3913     37.5881
      5061.5     16.6622     29.7605     67.8937     80.8679     28.5933      5.7481     16.7327     29.8018      2.3027     37.5919
        5062     16.6584     29.7605     64.4399     80.3748     28.6981      5.7001      16.791     29.8018      2.2591     37.5956
      5062.5     16.6545     29.7605     61.2988     80.6213     27.5623      5.4289      16.791     29.8018      2.2631     37.5993
