~VERSION INFORMATION
 VERS.                2.0:   CWLS LOG ASCII STANDARD - VERSION 2.0
 WRAP.                 NO:   ONE LINE PER DEPTH STEP
~WELL INFORMATION
#MNEM.UNIT      DATA TYPE    INFORMATION
#----------   ------------   ------------------------------
 STRT.FT          68.0000:   START DEPTH
 STOP.FT        1517.0000:   STOP DEPTH
 STEP.FT           0.5000:   STEP LENGTH
 NULL.          -999.2500:   NULL VALUE
 COMP. LINCOLN ROCK CORPORATION:   COMPANY
 WELL.        HOLLER #602:   WELL
 FLD .            UNNAMED:   FIELD
 LOC .                   :   LOCATION
 CNTY.          CULBERSON:   COUNTY
 STAT.              TEXAS:   STATE
 CTRY. UNITED STATES OF AMERICA:   COUNTRY
 SRVC.           Gearhart:   SERVICE COMPANY
 DATE.        24-Jun-1984:   LOGDATE
 API .     42109317410000:   API NUMBER
~CURVE INFORMATION
#MNEM.UNIT       API CODE    CURVE DESCRIPTION
#----------   ------------   ------------------------------
 DEPT.F                  :   
 CALXS.IN    60 280 13 00:   CALIPER FROM X AXIS OF X-Y CALIPER(S) FROM SONIC LOG
 GRD .GAPI   45 310 01 00:   GAMMA RAY FROM DENSITY LOG
 GRS .GAPI   60 310 01 00:   GAMMA RAY FROM SONIC LOG
 TEND.LB     45 635 00 00:   TENSION FROM DENSITY LOG
 TENR.LB     11 635 00 00:   TENSION FROM RESISTIVITY LOG
 TENS.LB     60 635 00 00:   TENSION FROM SONIC LOG
 CALYD.IN    45 280 24 00:   CALIPER FROM X AXIS OF X-Y CALIPER(S) FROM DENSITY LOG
 CNS_LS.DEC  42 890 01 00:   COMPENSATED NEUTRON POROSITY
 CDL_LS.DEC  45 890 10 00:   COMPENSATED DENSITY POROSITY LIMESTONE
 RHOB.G/C3   45 350 01 00:   BULK DENSITY
 DRHO.G/C3   45 356 01 00:   BULK DENSITY CORRECTION
 GRR .GAPI   11 310 01 00:   GAMMA RAY FROM RESISTIVITY LOG
 RLLD.OHMM   11 220 10 00:   RAW LATEROLOG DEEP RESISTIVITY
 RLLS.OHMM   11 220 09 00:   RAW LATEROLOG SHALLOW RESISTIVITY
 DT  .US/F   60 500 00 00:   DELTA-T (INTERVAL TRANSIT TIME)
 SPHI.DEC    60 890 00 00:   SONIC POROSITY
~PARAMETER INFORMATION
#MNEM.UNIT          VALUE    DESCRIPTION
#----------   ------------   ------------------------------
 PD  .                 GL:   PERMANENT DATUM
 EPD .FT             3532:   ELEVATION PERMANENT DATUM
 LMF .                 GL:   LOG MEASURED FROM
 DMF .                RKB:   DRILLING MEASURED FROM
 EKB .FT             3544:   KELLY BUSHING
 EDF .FT             3543:   DRILLING FLOOR
 EGL .FT             3532:   GROUND LEVEL
 DATE.           06/24/84:   RUN DATE
 RUN .                  1:   RUN NUMBER
 DD  .FT             1502:   DEPTH DRILLER
 DL  .FT             1506:   DEPTH LOGGER
 BLI .FT             1505:   BOTTOM LOG INTERVAL
 TLI .FT               90:   TOP LOG INTERVAL
 CS  .IN              4.5:   CASING SIZE
 CBD .FT              101:   CASING BOTTOM DRILLER
 CBL .FT             1502:   CASING BOTTOM LOGGER
 BS  .IN            7.875:   BIT SIZE
 BSD .FT             1502:   BIT SIZE AT DEPTH
 DFT .          FRESH H2O:   DRILLING FLUID TYPE
 DFD .                8.4:   DRILLING FLUID DENSITY
 DFV .                 27:   DRILLING FLUID VISCOSITY
 DFPH.                 12:   DRILLING FLUID PH
 MSS .                PIT:   MUD SAMPLE SOURCE
 RMS .OHMM           2.32:   RESISTIVITY MUD SAMPLE
 MST .DEGF             77:   MUD SAMPLE TEMPERATURE
 RMF .OHMM           2.32:   RESISTIVITY MUD FILTRATE SAMPLE
 MFST.DEGF             77:   MUD FILTRATE SAMPLE TEMPERATURE
 MFSS.               MEAS:   MUD FILTRATE SAMPLE SOURCE
 TCS .HRS            0940:   TIME CIRCULATED STOPPED
 TLAB.HRS            1319:   TIME LOGGER AT BOTTOM
 MRT .DEGF            770:   MAXIMUM RECORDED TEMPERATURE
 LUN .               7583:   LOGGING UNIT NUMBER
 LUL .              HOBBS:   LOGGING UNIT LOCATION
 ENGI.             BRYANT:   RECORDING ENGINEER
 WITN.             BURROW:   WITNESSED BY
 CLNT.            :   CLIENT CODE
 ORIG.      1" 2.5" PRINT:   ORIGIN OF DATA
 UWI .     42109317410000:   UNIQUE WELL ID
 
~OTHER INFORMATION
~A   DEPT    CALXS        GRD        GRS       TEND       TENR       TENS      CALYD      CNS_LS     CDL_LS      RHOB       DRHO          GRR     RLLD       RLLS         DT       SPHI   
# ...
 1035.5000     8.0787     7.5300     7.6273  1030.8131   749.1847   936.0442     8.2417    -0.0062     0.2571     2.9615    -0.0184     6.1045 28191.9609 15673.0098    49.9900    -0.0143
 1036.0000     8.0812     6.9665     7.2216  1030.1337   744.0711   936.5317     8.2435    -0.0063     0.2654     2.9474    -0.0280     5.8704 22974.9648 11727.4619    49.8449    -0.0158
 1036.5000     8.0837     6.1194     6.8476  1031.6779   738.9591   937.0192     8.2418    -0.0067     0.2680     2.9325    -0.0306     5.2065 21523.9492  9407.8174    49.6029    -0.0170
 1037.0000     8.0862     5.6141     6.6004  1030.9972   736.5150   937.5055     8.2437    -0.0072     0.2675     2.9368    -0.0267     4.5263 20544.5801  7088.1714    49.4636    -0.0184
 1037.5000     8.0887     6.3638     6.2376  1032.5427   738.0735   937.9934     8.2420    -0.0077     0.2628     2.9455    -0.0227     4.2510 14697.2402  4768.5264    49.2104    -0.0202
 1038.0000     8.0912     7.0060     5.8748  1031.8607   739.6329   938.4797     8.2438    -0.0074     0.2580     2.9536    -0.0184     4.9666  4654.7793  2912.8247    49.0300    -0.0220
 1038.5000     8.0937     7.0287     5.3890  1033.4063   741.1915   938.9672     8.2421    -0.0070     0.2623     2.9476    -0.0239     5.8593  4654.9805  2912.8845    48.8119    -0.0233
 1039.0000     8.0962     6.9833     4.6657  1032.7242   742.7496   939.4535     8.2440    -0.0066     0.2666     2.9385    -0.0301     6.7520 13808.9326  7673.1904    48.7779    -0.0238
 1039.5000     8.0987     6.8987     5.8922  1063.7667   744.3090   939.9410     8.2423    -0.0062     0.2709     2.9305    -0.0364     6.8390 24973.1484 15484.5791    48.7439    -0.0240
 1040.0000     8.0960     6.9370     7.6586  1079.8658   746.1560   944.0627     8.2333    -0.0061     0.2762     2.9239    -0.0406     6.4466 37279.8438 23295.9688    48.7098    -0.0240
 1040.5000     8.0977     6.8531     9.1290  1098.4508   747.5984   943.3439     8.2259    -0.0061     0.2819     2.9137    -0.0397     6.0542 44646.5664 29918.2363    48.6758    -0.0248
 1041.0000     8.0957     7.2442     9.3317  1098.8188   749.1578   945.8672     8.2246    -0.0061     0.2833     2.9108    -0.0388     5.6618 45072.8906 30674.5938    48.4749    -0.0260
 1041.5000     8.0998     7.6354     8.7588  1099.1870   750.7163   942.2895     8.2232    -0.0061     0.2833     2.9122    -0.0333     5.2694 44659.4102 30677.9961    48.4566    -0.0263
 1042.0000     8.0957     8.2886     8.1553  1099.5552   752.2757   946.8422     8.2219    -0.0061     0.2784     2.9135    -0.0304     5.2012 43433.3438 29617.7793    48.5600    -0.0254
 1042.5000     8.1098     8.9418     8.1148  1099.9246   753.8339   940.8801     8.2205    -0.0061     0.2750     2.9192    -0.0274     5.5013 40867.9102 26958.7578    48.6635    -0.0238
 1043.0000     8.1495     9.5949     8.1105  1100.2927   755.3924   941.4558     8.2192    -0.0061     0.2722     2.9272    -0.0245     5.8014 34016.9609 22312.8945    48.7528    -0.0234
 1043.5000     8.1582     9.8561     8.3672  1100.6609   747.8127   933.8996     8.2179    -0.0061     0.2707     2.9289    -0.0215     6.1015 26106.7656 17170.3223    48.7856    -0.0234
 1044.0000     8.1590     9.1147     8.5426  1101.0291   733.9850   934.4752     8.2165    -0.0061     0.2719     2.9281    -0.0186     6.4015 13959.5820 12027.7500    48.7362    -0.0239
 1044.5000     8.1677     8.1879     7.5963  1101.3972   749.9961   926.9202     8.2152    -0.0061     0.2715     2.9281    -0.0157     6.7016  4241.8662  8942.5684    48.6867    -0.0240
 1045.0000     8.1691     8.4436     6.5687  1101.7666   754.5812   927.4946     8.2138    -0.0061     0.2711     2.9261    -0.0122     7.0017  7036.6460  8943.1221    48.7250    -0.0235
 1045.5000     8.1792     8.4474     5.9996  1102.1346   751.5496   919.9396     8.2125    -0.0061     0.2736     2.9228    -0.0139     7.2692 19148.7090  9638.2148    48.8212    -0.0225
 1046.0000     8.1810     8.2630     6.5862  1102.5028   728.2590   920.5152     8.2041    -0.0061     0.2768     2.9194    -0.0202     7.4899 30286.6836 24424.2246    48.8440    -0.0222
 1046.5000     8.1911     7.6030     8.2127  1102.8710   744.1355   912.9604     8.1957    -0.0059     0.2763     2.9244    -0.0192     7.3245 47312.1055 30340.8574    48.8669    -0.0229
 1047.0000     8.1789     7.2399    10.3030  1103.2404   757.1847   913.5347     8.1982    -0.0054     0.2750     2.9354    -0.0177     7.1787 60624.4922 29598.3418    48.7036    -0.0236
 1047.5000     8.1656     6.8990    12.4747  1103.6085   759.5711   905.9797     8.1924    -0.0050     0.2709     2.9373    -0.0146     7.0040 76707.6875 29054.3652    48.6726    -0.0244
 1048.0000     8.1668     7.3643    11.0530  1103.9766   781.9824   906.5553     8.1980    -0.0045     0.2707     2.9320    -0.0131     6.7773 92790.8750 28519.3008    48.8400    -0.0237
 1048.5000     8.1762     7.6618     8.4408  1104.3459   769.5261   898.9991     8.2036    -0.0069     0.2728     2.9266    -0.0173     6.5506 89206.9453 29021.8594    48.9618    -0.0223
 1049.0000     8.1774     7.6622     6.8122  1104.7141   757.0701   899.5747     8.2092    -0.0061     0.2748     2.9213    -0.0215     6.3239 71214.9531 31519.2539    49.0149    -0.0217
 1049.5000     8.1868     7.2167     6.8772  1094.7570   726.2350   892.0197     8.2125    -0.0061     0.2768     2.9159    -0.0256     6.2753 53222.9570 35008.7148    49.1294    -0.0213
 1050.0000     8.1954     6.7611     8.2735  1084.6517   737.4081   885.1468     8.2125    -0.0061     0.2784     2.9106    -0.0306     6.2753 49168.0859 40723.4609    49.1444    -0.0213
 1050.5000     8.1966     6.4776     9.5958  1084.5962   745.4856   885.0836     8.2126    -0.0061     0.2784     2.9153    -0.0280     6.2753 49668.4648 46438.2109    49.0472    -0.0213
 1051.0000     8.1730     6.8934    10.9488  1084.5962   755.0444   881.7664     8.2126    -0.0061     0.2784     2.9304    -0.0215     6.4437 52506.9883 48215.3047    49.1975    -0.0213
 1051.5000     8.1721     7.2318    10.9755  1084.5962   757.0784   877.2569     8.2126    -0.0061     0.2692     2.9345    -0.0149     7.2567 57183.6445 49992.3984    49.2094    -0.0214
 1052.0000     8.1677     7.1464     9.6999  1084.5962   757.2304   874.9545     8.2126    -0.0061     0.2662     2.9264    -0.0122     7.7733 61860.3008 50710.1445    49.1528    -0.0214
 1052.5000     8.1605     6.8902     8.1425  1084.5962   757.3836   915.4117     8.2126    -0.0061     0.2686     2.9243    -0.0149     7.2087 62804.8242 50723.8359    49.1292    -0.0213
 1053.0000     8.1553     6.8728     6.5851  1084.5962   757.5368   914.3511     8.2126    -0.0061     0.2707     2.9294    -0.0183     6.6442 61077.0391 50109.3047    49.2372    -0.0208
 1053.5000     8.1564     7.0705     5.8043  1084.5962   760.9249   915.5048     8.2126    -0.0061     0.2727     2.9344    -0.0195     6.0796 58182.0742 50119.4570    49.3335    -0.0197
 1054.0000     8.1678     7.3288     6.6835  1084.5962   769.1645   914.4429     8.2126    -0.0061     0.2681     2.9394    -0.0169     6.1263 55287.1094 50133.0508    49.0727    -0.0206
 1054.5000     8.1600     7.5871     7.4123  1084.5962   777.4047   915.5966     8.2126    -0.0061     0.2662     2.9384    -0.0191     6.5328 53412.8711 50143.2031    48.8118    -0.0227
 1055.0000     8.1860     7.5801     7.8182  1084.5962   765.6580   916.7503     8.2126    -0.0061     0.2678     2.9291    -0.0226     6.9393 52874.4063 50160.2617    48.7808    -0.0234
 1055.5000     8.1916     7.5069     7.7781  1084.5962   771.2695   915.6884     8.2126    -0.0061     0.2739     2.9197    -0.0262     7.3457 52084.4570 50170.4180    48.8908    -0.0233
 1056.0000     8.1914     7.1748     8.6432  1087.0016   745.0982   916.8421     8.2126    -0.0061     0.2787     2.9155    -0.0297     7.1812 49196.3398 50180.5781    48.8188    -0.0233
 1056.5000     8.1947     6.5714    10.4664  1099.3071   752.2741   915.9735     8.2126    -0.0061     0.2765     2.9207    -0.0306     6.7030 44140.5547 50194.1797    48.7848    -0.0232
