~VERSION INFORMATION
VERS. 2.0 : CWLS Log ASCII Standard - version 2.0
WRAP.  NO : One line per depth step
#--------------------------------------------------#
#----------------DRILLING INFO, INC.---------------#
#---------------WWW.DRILLINGINFO.COM---------------#
#------------------COPYRIGHT 2015------------------#
#--------------------------------------------------#
#THIS FILE MAY BE USED ONLY IN ACCORDANCE WITH A CURRENT SUBSCRIPTION AGREEMENT BETWEEN
#THE USER AND DRILLING INFO, INC. NO PART OF THIS FILE MAY BE REPRODUCED, USED, COPIED,
#MODIFIED, PROPAGATED, OR DISTRIBUTED EXCEPT IN ACCORDANCE WITH THE SUBSCRIPTION
#AGREEMENT. UNAUTHORIZED USE OR DISTRIBUTION OF ALL OR ANY PART OF THIS FILE MAY VIOLATE
#COPYRIGHT, TRADEMARK, AND/OR OTHER LAWS AND IS SUBJECT TO CIVIL AS WELL AS CRIMINAL
#SANCTIONS.
#--------------------------------------------------#
#THIS FILE IS PROVIDED "AS-IS" AND ALL WARRANTIES ARE EXPRESSLY DISCLAIMED, WHETHER
#EXPRESS, ORAL, IMPLIED, STATUTORY OR OTHERWISE, INCLUDING ANY IMPLIED WARRANTY OF FITNESS
#FOR A PARTICULAR PURPOSE, MERCHANTABILITY, TITLE OR NON-INFRINGEMENT, AND ANY WARRANTIES
#ARISING BY VIRTUE OF CUSTOM OF TRADE OR COURSE OF DEALING.  FURTHER, DRILLING INFO,
#INC. AND ITS LICENSORS DO NOT REPRESENT OR WARRANT THAT THIS FILE WILL MEET USER'S
#REQUIREMENTS OR ARE SUITABLE FOR USER'S NEEDS OR THAT THE DATA OR RESULTS PROVIDED IN
#CONJUNCTION THEREWITH ARE CORRECT, ACCURATE, TIMELY OR RELIABLE. THESE DISCLAIMERS SHALL
#APPLY REGARDLESS OF ANY FAILURE OF ESSENTIAL PURPOSE OF ANY LIMITED REMEDY.  SOME
#JURISDICTIONS DO NOT ALLOW THE EXCLUSION OF CERTAIN WARRANTIES SO SOME OF THE ABOVE
#EXCLUSIONS MAY NOT APPLY. IN NO EVENT SHALL DRILLING INFO, INC. OR ANY OF ITS AFFILIATES
#BE LIABLE UNDER ANY LEGAL THEORY, WHETHER IN TORT (INCLUDING WITHOUT LIMITATION
#NEGLIGENCE), CONTRACT, STRICT LIABILITY, STATUTORY OR OTHERWISE, FOR ANY SPECIAL,
#INCIDENTAL, CONSEQUENTIAL, EXEMPLARY, PUNITIVE OR INDIRECT DAMAGE OF ANY KIND, INCLUDING
#WITHOUT LIMITATION LOSS OF REVENUE, PROFITS, GOODWILL, USE, AND/OR DATA OR THE COST OF
#PROCUREMENT OF SUBSTITUTE GOODS OR SERVICES, EVEN IF APPRISED OF THE POSSIBILITY OF SUCH
#DAMAGES IN ADVANCE.
#--------------------------------------------------#
~WELL INFORMATION
#MNEMONIC     .UNIT              VALUE :DESCRIPTION
#--------------------------------------------------#
STRT       .FT                181 :START DEPTH
STOP       .FT                12231 :STOP DEPTH
STEP       .FT                   0.500 :STEP
NULL       .                  -999.250 :NULL
API        .                421093228700 :API NUMBER
COMP       .         CHESAPEAKE OPERATING  INC. :COMPANY
WELL       .        UNIVERSITY LANDS 4627  1 :WELL
DATE       .                06-May-2007 :LOG DATE
~CURVE INFORMATION
#MNEMONIC     .UNIT      API CODE :CURVE DESCRIPTION
#--------------------------------------------------#
DEPTH       .FT                      :Measured Depth
ILS.OHM        UNKNOWN   :ILS
GR.API        UNKNOWN   :GR
ILD.OHM        UNKNOWN   :ILD
CAL.INCH        UNKNOWN   :CAL
DT.US/FT        UNKNOWN   :DT
~A    DEPTH    ILS    GR    ILD    CAL    DT
# ...
 2610     -999.250   56.922   72.377   15.229   74.521
 2610.5     -999.250   55.313   73.706   15.525   72.275
 2611     -999.250   53.705   75.035   16.237   75.338
 2611.5     -999.250   53.169   76.364   15.849   75.525
 2612     -999.250   53.457   77.693   16.019   75.647
 2612.5     -999.250   52.733   79.022   15.326   74.538
 2613     -999.250   51.017   80.351   15.241   73.309
 2613.5     -999.250   49.301   89.266   15.156   72.399
 2614     -999.250   48.449   98.835   15.071   73.045
 2614.5     -999.250   48.91   92.578   15.026   73.69
 2615     -999.250   49.371   81.327   15.013   73.864
 2615.5     -999.250   49.833   83.471   15   73.622
 2616     -999.250   50.161   89.106   14.987   72.087
 2616.5     -999.250   49.628   94.74   14.975   70.046
 2617     -999.250   48.667   100.375   14.962   70.142
 2617.5     -999.250   47.706   100.454   14.949   70.238
 2618     -999.250   46.799   99.682   14.936   70.334
 2618.5     -999.250   46.209   98.911   14.924   71.077
 2619     -999.250   46.135   98.139   14.911   72.211
 2619.5     -999.250   46.648   96.179   14.898   73.344
 2620     -999.250   50.562   87.561   14.881   74.477
 2620.5     -999.250   54.754   78.943   14.853   75.611
 2621     -999.250   57.441   72.454   14.825   76.604
 2621.5     -999.250   56.665   74.218   14.797   76.24
 2622     -999.250   56.047   75.982   14.769   75.007
 2622.5     -999.250   56.228   77.747   14.741   73.675
 2623     -999.250   55.454   79.511   14.713   72.344
 2623.5     -999.250   51.826   91.999   14.684   71.012
 2624     -999.250   48.197   105.893   14.656   71.896
 2624.5     -999.250   49.281   98.032   14.628   77.312
 2625     -999.250   52.283   81.703   14.6   78.78
 2625.5     -999.250   55.286   65.375   14.572   78.632
 2626     -999.250   55.161   59.606   14.544   78.42
 2626.5     -999.250   54.436   70.907   14.516   75.552
 2627     -999.250   53.711   82.208   14.488   73.917
 2627.5     -999.250   52.987   93.508   14.459   73.746
 2628     -999.250   52.262   94.709   14.431   73.951
 2628.5     -999.250   51.538   90.469   14.403   74.168
 2629     -999.250   50.813   86.228   14.374   74.384
 2629.5     -999.250   50.801   87.293   14.346   74.528
 2630     -999.250   51.569   90.594   14.317   74.134
 2630.5     -999.250   52.337   93.895   14.289   72.895
 2631     -999.250   51.757   97.196   14.261   71.587
 2631.5     -999.250   49.084   104.931   14.232   70.279
 2632     -999.250   46.411   119.939   14.204   68.971
 2632.5     -999.250   43.738   134.946   14.176   68.141
 2633     -999.250   42.247   134.159   14.153   68.182
 2633.5     -999.250   41.462   124.084   14.157   68.711
 2634     -999.250   40.678   114.01   14.162   69.515
 2634.5     -999.250   39.893   114.52   14.167   69.617
 2635     -999.250   39.109   116.465   14.161   69.718
 2635.5     -999.250   39.293   115.37   14.133   69.82
 2636     -999.250   41.411   113.096   14.104   69.45
 2636.5     -999.250   42.867   110.821   14.076   68.701
 2637     -999.250   42.65   127.314   14.048   67.889
 2637.5     -999.250   42.432   144.438   14.019   69.255
 2638     -999.250   42.214   120.56   13.991   70.439
 2638.5     -999.250   43.526   121.974   13.963   70.602
 2639     -999.250   45.582   123.389   13.934   70.284
 2639.5     -999.250   49.583   134.876   13.901   69.668
 2640     -999.250   56.919   147.996   13.808   69.052
 2640.5     -999.250   64.255   163.063   13.716   68.231
 2641     -999.250   71.128   193.641   13.623   67.283
 2641.5     -999.250   72.972   224.22   13.531   66.334
 2642     -999.250   71.514   254.799   13.438   65.386
 2642.5     -999.250   67.833   307.12   13.345   64.919
 2643     -999.250   63.719   343.853   13.255   65.073
 2643.5     -999.250   59.766   302.432   13.27   65.639
 2644     -999.250   61.495   261.012   13.285   66.205
 2644.5     -999.250   63.225   223.141   13.3   66.381
 2645     -999.250   58.266   247.003   13.315   66.232
 2645.5     -999.250   53.131   247.926   13.331   66.084
 2646     -999.250   47.995   192.358   13.346   66.564
 2646.5     -999.250   43.009   136.791   13.361   67.136
 2647     -999.250   40.758   158.268   13.376   67.678
 2647.5     -999.250   38.506   185.472   13.391   68.219
 2648     -999.250   36.454   141.788   13.497   70.999
 2648.5     -999.250   37.04   110.134   13.677   75.612
 2649     -999.250   37.626   100.927   13.857   75.9
 2649.5     -999.250   38.212   93.916   13.903   76.189
 2650     -999.250   38.798   86.905   13.936   76.477
 2650.5     -999.250   39.384   80.957   13.969   76.766
 2651     -999.250   39.97   88.936   14.001   75.986
 2651.5     -999.250   40.556   96.914   13.998   74.678
 2652     -999.250   52.675   111.856   13.899   73.37
 2652.5     -999.250   64.828   129.599   13.801   72.062
 2653     -999.250   77.199   162.212   13.702   70.754
 2653.5     -999.250   90.11   164.741   13.603   69.689
 2654     -999.250   86.444   144.24   13.585   68.877
 2654.5     -999.250   79.567   136.739   13.574   68.065
 2655     -999.250   73.142   176.688   13.579   67.252
 2655.5     -999.250   66.718   173.377   13.61   67.13
 2656     -999.250   63.861   161.862   13.642   67.54
 2656.5     -999.250   67.906   169.067   13.674   67.95
 2657     -999.250   73.09   185.232   13.705   67.917
 2657.5     -999.250   78.273   210.34   13.737   67.843
 2658     -999.250   83.457   239.044   13.769   67.769
 2658.5     -999.250   91.716   267.747   13.8   67.695
 2659     -999.250   100.066   296.451   13.832   67.621
 2659.5     -999.250   107.741   265.939   13.867   69.09
 2660     -999.250   102.237   144.027   13.912   71.777
 2660.5     -999.250   91.484   60.986   13.957   74.464
 2661     -999.250   75.03   54.186   14.001   75.135
 2661.5     -999.250   61.474   76.232   14.046   73.284
 2662     -999.250   49.181   113.354   14.091   71.432
 2662.5     -999.250   42.491   140.004   14.135   69.58
 2663     -999.250   39.639   125.745   14.18   70.042
 2663.5     -999.250   39.994   111.485   14.225   71.293
 2664     -999.250   40.93   105.643   14.27   72.384
 2664.5     -999.250   42.417   100.302   14.314   72.483
 2665     -999.250   43.905   94.96   14.359   72.223
 2665.5     -999.250   45.392   97.585   14.404   71.777
 2666     -999.250   45.679   102.203   14.433   71.331
 2666.5     -999.250   44.915   107.821   14.463   70.885
 2667     -999.250   44.15   114.703   14.493   71.694
 2667.5     -999.250   43.717   106.187   14.522   72.902
 2668     -999.250   45.532   90.304   14.552   74.111
 2668.5     -999.250   52.113   89.92   14.582   75.319
 2669     -999.250   58.694   92.474   14.611   75.204
 2669.5     -999.250   57.111   88.26   14.641   74.917
 2670     -999.250   52.396   92.173   14.671   74.031
 2670.5     -999.250   47.682   96.818   14.7   73.145
 2671     -999.250   45.86   93.874   14.73   72.367
 2671.5     -999.250   44.464   98.442   14.76   72.125
 2672     -999.250   43.069   107.693   14.789   73.033
 2672.5     -999.250   41.967   99.591   14.819   73.968
 2673     -999.250   43.89   92.254   14.848   74.904
 2673.5     -999.250   47.76   93.261   14.878   74.999
 2674     -999.250   56.217   94.269   14.908   74.831
 2674.5     -999.250   68.214   100.997   14.937   74.663
 2675     -999.250   77.988   105.354   14.967   74.496
 2675.5     -999.250   77.582   95.934   14.993   74.328
 2676     -999.250   65.858   86.514   15.001   74.16
 2676.5     -999.250   56.12   89.005   15.008   73.992
 2677     -999.250   50.618   91.572   15.016   73.825
 2677.5     -999.250   50.548   90.649   15.024   73.719
 2678     -999.250   50.478   85.253   15.032   74.056
 2678.5     -999.250   50.142   79.857   15.04   74.393
 2679     -999.250   49.154   77.381   15.047   74.16
 2679.5     -999.250   48.182   81.783   15.055   73.743
 2680     -999.250   47.368   86.185   15.063   73.41
 2680.5     -999.250   46.723   80.693   15.069   74.301
 2681     -999.250   47.001   74.571   15.056   75.193
