###############################################
##         ENVERUS                           ##
##         ESS - Open Hole                   ##
##         PERMIAN / DELAWARE                ##
##         Nov 03 2023  V4.0                 ##
##         42-109-32572-90-00                ##
###############################################
## Copyright 2017-2023  ENVERUS.  All Rights Reserved. 
## Confidential - Property of ENVERUS, use governed by terms and 
## conditions found within the existing Information Services Subscription Agreement 
## (as may be amended, the “ISSA”) between Customer and ENVERUS. 
## 
~VERSION INFORMATION
# MNEM.UNIT                               DATA : DESCRIPTION OF MNEMONIC
#-----.-----     ----------------------------- : -----------------------------
VERS.                                     2.00 : CWLS LOG ASCII STANDARD - VERSION 2.00
WRAP.                                       NO : MULTIPLE LINES PER DEPTH STEP
VEND.                                  ENVERUS : VENDOR
TYPE.                          ESS - OPEN HOLE : ENVERUS ESSENTIAL CURVES – ACCESSIBLE THROUGH ENVERUS PRISM(TM)
DOC.                                  51093467 : ENVERUS HEADER RAW DOCUMENT ID
#___________________________________________________________________________________________________ 
~WELL INFORMATION 
# 8gl1O6v4swiPFL4GH+dnL3Th7drW/gNnufiOMC39xBbatiyIUGjWQRxOO2UkOAKZqu0QrDKM70MxnzzovQmAYg== 
# MNEM.UNIT                                              DATA : DESCRIPTION OF MNEMONIC 
#-----.-----                    ----------------------------- : ----------------------------- 
CNTY.                                               CULBERSON : COUNTY 
STATE.                                                  TEXAS : STATE 
CNTRY.                                                    USA : COUNTRY 
API.                                             42-109-32572 : API (10 Digit) 
API_14.                                    42-109-32572-90-00 : API (14 Digits) 
API_14_std.                                 42-109-32572-9000 : API (14 Digits Standard) 
UWI.                                           42109325729000 : UNIQUE WELL ID 
WELL.                               42109325720000_PREV_API14 : WELL NAME
STRT.FT                                                2248.5 : START DEPTH
STOP.FT                                               10757.5 : STOP DEPTH
STEP.FT                                                   0.5 : STEP BETWEEN DEPTHS
NULL.                                                 -999.25 : NULL VALUE
PREV_APII.                                     42109325720000 : WELL IDENTIFIER
#___________________________________________________________________________________________________ 
~PARAMETER INFORMATION 
# MNEM.UNIT                                              DATA : DESCRIPTION OF MNEMONIC 
#-----.-----                    ----------------------------- : ----------------------------- 
EKB.FT                                                   3340 : ELEVATION ABOVE MSL
#___________________________________________________________________________________________________ 
~CURVE INFORMATION 
# MNEM.UNIT           : CURVE DESCRIPTION 
#-----.-----          : ----------------------------- 
 DEPT.FT               : MEASURED DEPTH 
 CALI.IN               : CALIPER (CAL - CALIPER) 
 GR.API                : GAMMA RAY (GAMMA RAY) 
 DT.US/FT              : SONIC DELTA TRANSIT TIME (SONIC) 
 #___________________________________________________________________________________________________ 
~A         DEPT           CALI             GR             DT
# ...
         5020.5          9.249        157.619         70.433
         5021.0          9.249        172.346         70.245
         5021.5          9.256        178.580         67.718
         5022.0          9.288        131.826         65.584
         5022.5          9.314         92.081         62.820
         5023.0          9.373         81.813         65.307
         5023.5          9.432         93.492         65.923
         5024.0          9.464         94.061         65.723
         5024.5          9.523         86.433         64.649
         5025.0          9.539         89.920         66.077
         5025.5          9.552        128.058         67.676
         5026.0          9.596        142.242         67.520
         5026.5          9.577        106.734         66.681
         5027.0          9.557         86.573         66.620
         5027.5          9.562         82.840         67.797
         5028.0          9.562         84.600         68.553
         5028.5          9.562         82.390         68.655
         5029.0          9.562         69.723         64.910
         5029.5          9.562         52.850         62.174
         5030.0          9.562         52.894         61.175
         5030.5          9.581         54.666         62.710
         5031.0          9.581         57.980         64.919
         5031.5          9.581         60.274         65.062
         5032.0          9.581         60.522         63.656
         5032.5          9.625         62.869         62.829
         5033.0          9.679         64.092         63.511
         5033.5          9.723         53.573         67.479
         5034.0          9.777         52.838         68.842
         5034.5          9.860         54.254         69.049
         5035.0          9.914         54.795         69.135
         5035.5          9.934         53.042         69.180
         5036.0          9.934         51.816         69.180
         5036.5          9.934         52.301         69.251
         5037.0          9.934         54.249         69.550
         5037.5          9.934         54.599         70.176
         5038.0          9.934         54.442         70.293
         5038.5          9.934         55.556         69.707
         5039.0          9.934         58.419         69.520
         5039.5          9.934         61.731         69.308
         5040.0          9.934         57.499         69.835
         5040.5          9.934         54.173         69.755
         5041.0          9.934         54.632         69.463
         5041.5          9.934         54.453         69.414
         5042.0          9.934         54.012         69.423
         5042.5          9.934         54.599         69.599
         5043.0          9.936         53.787         69.757
         5043.5          9.949         52.369         69.444
         5044.0          9.969         55.408         69.063
         5044.5          9.981         59.764         68.420
         5045.0          9.981         58.158         68.125
         5045.5          9.981         56.141         68.125
         5046.0          9.816         56.187         68.177
         5046.5          9.757         56.773         67.533
         5047.0          9.757         59.953         66.680
         5047.5          9.757         74.271         66.153
         5048.0          9.757         88.472         65.776
         5048.5          9.757        109.734         65.195
         5049.0          9.757        102.210         65.020
         5049.5          9.757         91.620         64.956
         5050.0          9.757         96.100         65.141
         5050.5          9.777        101.566         66.488
         5051.0          9.816         82.940         67.305
         5051.5          9.836         67.978         67.313
         5052.0          9.876         62.409         67.955
         5052.5          9.915         57.419         69.301
         5053.0          9.934         54.579         68.848
         5053.5          9.934         50.930         68.120
         5054.0          9.934         47.545         68.654
         5054.5          9.934         47.177         68.855
         5055.0          9.934         52.664         67.595
         5055.5          9.933         58.239         65.305
         5056.0          9.914         61.258         63.963
         5056.5          9.914         66.145         65.607
         5057.0          9.934         63.700         68.856
         5057.5          9.934         61.254         71.136
         5058.0          9.934         60.277         71.348
         5058.5          9.934         60.078         70.821
         5059.0          9.934         57.641         71.053
         5059.5          9.934         57.322         71.143
         5060.0          9.934         58.702         70.705
         5060.5          9.934         67.092         70.408
         5061.0          9.934         68.680         70.410
         5061.5          9.934         70.440         69.648
         5062.0          9.934         69.298         69.531
         5062.5          9.934         64.322         69.707
         5063.0          9.934         62.733         69.707
         5063.5          9.934         63.265         69.766
         5064.0          9.934         64.760         69.770
         5064.5          9.934         67.531         69.798
         5065.0          9.934         62.202         69.398
         5065.5          9.934         61.874         68.543
         5066.0          9.934         64.364         68.307
         5066.5          9.934         80.771         68.131
         5067.0          9.934         94.382         67.897
         5067.5          9.934        113.514         67.491
         5068.0          9.934        118.216         67.246
         5068.5          9.970        123.435         67.799
         5069.0          9.973        104.148         68.915
         5069.5          9.973         84.269         69.582
         5070.0          9.973         70.673         70.008
         5070.5          9.973         54.432         69.578
         5071.0          9.973         57.671         68.240
         5071.5         10.012         61.022         68.316
         5072.0         10.012         62.868         68.760
         5072.5         10.012         67.303         69.575
         5073.0         10.012         67.157         70.291
         5073.5         10.012         66.501         70.087
         5074.0         10.012         67.559         69.601
         5074.5         10.012         73.330         69.520
         5075.0          9.988         74.675         68.657
         5075.5         10.012         63.033         69.361
         5076.0         10.012         60.184         70.457
         5076.5         10.012         63.086         72.547
         5077.0         10.012         64.928         74.262
         5077.5         10.012         65.395         74.834
         5078.0         10.012         66.883         73.848
         5078.5         10.012         68.298         70.600
         5079.0          9.958         66.676         60.055
         5079.5          9.767         58.492         56.762
         5080.0          9.645         54.452         54.956
         5080.5          9.547         41.586         53.029
         5081.0          9.523         40.168         53.443
         5081.5          9.523         40.653         53.060
         5082.0          9.537         42.014         53.402
         5082.5          9.595         50.199         59.758
         5083.0          9.700         57.468         64.588
         5083.5          9.827         61.323         68.669
         5084.0          9.928         64.131         68.928
         5084.5         10.012         67.457         69.903
         5085.0         10.025         66.752         70.486
         5085.5         10.051         65.226         70.216
         5086.0         10.051         65.362         70.861
