###############################################
##         ENVERUS                           ##
##         ESS - Open Hole                   ##
##         PERMIAN / DELAWARE                ##
##         Nov 02 2023  V4.0                 ##
##         42-109-30915-00-00                ##
###############################################
## Copyright 2017-2023  ENVERUS.  All Rights Reserved. 
## Confidential - Property of ENVERUS, use governed by terms and 
## conditions found within the existing Information Services Subscription Agreement 
## (as may be amended, the “ISSA”) between Customer and ENVERUS. 
## 
~VERSION INFORMATION
# MNEM.UNIT                               DATA : DESCRIPTION OF MNEMONIC
#-----.-----     ----------------------------- : -----------------------------
VERS.                                     2.00 : CWLS LOG ASCII STANDARD - VERSION 2.00
WRAP.                                       NO : MULTIPLE LINES PER DEPTH STEP
VEND.                                  ENVERUS : VENDOR
TYPE.                          ESS - OPEN HOLE : ENVERUS ESSENTIAL CURVES – ACCESSIBLE THROUGH ENVERUS PRISM(TM)
DOC.                                  32305988 : ENVERUS HEADER RAW DOCUMENT ID
#___________________________________________________________________________________________________ 
~WELL INFORMATION 
# YiEbrulvYUtXh1D3opxUtnvhUVpPAvxlEBgV2kjbCTHvWrxGcz1+vOa1jEIuqGtoxi0rQ+ZQV9RU/rHAPCAAKQ== 
# MNEM.UNIT                                              DATA : DESCRIPTION OF MNEMONIC 
#-----.-----                    ----------------------------- : ----------------------------- 
CNTY.                                               CULBERSON : COUNTY 
STATE.                                                  TEXAS : STATE 
CNTRY.                                                    USA : COUNTRY 
API.                                             42-109-30915 : API (10 Digit) 
API_14.                                    42-109-30915-00-00 : API (14 Digits) 
API_14_std.                                 42-109-30915-0000 : API (14 Digits Standard) 
UWI.                                           42109309150000 : UNIQUE WELL ID 
WELL.                             VELMA CASEY ROUNSAVILLE A 1 : WELL NAME
STRT.FT                                                  82.0 : START DEPTH
STOP.FT                                               11225.0 : STOP DEPTH
STEP.FT                                                   0.5 : STEP BETWEEN DEPTHS
NULL.                                                 -999.25 : NULL VALUE
#___________________________________________________________________________________________________ 
~CURVE INFORMATION 
# MNEM.UNIT           : CURVE DESCRIPTION 
#-----.-----          : ----------------------------- 
 DEPT.FT               : MEASURED DEPTH 
 CALI.IN               : CALIPER (CAL - CAL) 
 GR.API                : GAMMA RAY (GR) 
 DT.US/FT              : SONIC DELTA TRANSIT TIME (DT) 
 NPHI.V/V              : NEUTRON POROSITY (NPHI) 
 RHOB.G/CC             : BULK DENSITY (RHOB) 
 #___________________________________________________________________________________________________ 
~A         DEPT           CALI             GR             DT           NPHI           RHOB
# ...
        10290.0          7.602         79.376         59.308        0.08045         2.6496
        10290.5          7.603         81.178         60.026        0.08652         2.6568
        10291.0          7.603         82.981         60.744        0.09259         2.6456
        10291.5          7.603         84.783         61.462        0.08833         2.6247
        10292.0          7.603         80.489         59.666        0.07803         2.6038
        10292.5          7.603         76.014         57.574        0.06774         2.5829
        10293.0          7.603         71.539         55.481        0.05745         2.6055
        10293.5          7.604         67.064         54.579        0.04716         2.6294
        10294.0          7.604         66.466         54.830        0.03687         2.6532
        10294.5          7.604         69.612         56.260        0.02658         2.6401
        10295.0          7.604         72.759         57.689        0.03086         2.6256
        10295.5          7.604         75.905         59.118        0.04241         2.6111
        10296.0          7.604         78.376         60.548        0.05395         2.5966
        10296.5          7.605         77.716         61.977        0.06550         2.5821
        10297.0          7.605         77.055         63.406        0.07704         2.5676
        10297.5          7.605         76.395         64.836        0.08556         2.5531
        10298.0          7.605         75.735         65.837        0.08332         2.5478
        10298.5          7.605         75.074         66.027        0.08108         2.5476
        10299.0          7.605         74.414         66.216        0.07884         2.5473
        10299.5          7.606         73.754         66.265        0.07659         2.5471
        10300.0          7.606         73.054         65.254        0.07435         2.5473
        10300.5          7.606         69.413         64.243        0.07184         2.5679
        10301.0          7.606         65.772         62.871        0.06447         2.5884
        10301.5          7.606         62.131         61.173        0.05709         2.6090
        10302.0          7.606         58.490         59.475        0.04972         2.6296
        10302.5          7.607         54.849         57.777        0.04235         2.6502
        10303.0          7.607         51.208         56.079        0.03497         2.6707
        10303.5          7.607         52.381         54.380        0.02760         2.6913
        10304.0          7.607         56.052         52.682        0.02029         2.7119
        10304.5          7.607         59.723         50.991        0.02414         2.7325
        10305.0          7.607         63.394         50.723        0.02799         2.7530
        10305.5          7.608         67.065         50.454        0.03183         2.7736
        10306.0          7.608         70.736         50.603        0.03568         2.7625
        10306.5          7.608         74.406         51.699        0.03953         2.7498
        10307.0          7.608         78.077         52.796        0.04337         2.7371
        10307.5          7.608         82.406         53.893        0.05347         2.7245
        10308.0          7.608         87.122         54.990        0.06648         2.7118
        10308.5          7.609         91.837         56.086        0.07949         2.6991
        10309.0          7.609         96.553         57.183        0.09254         2.6865
        10309.5          7.609        101.269         58.280        0.10565         2.6738
        10310.0          7.609        105.984         59.377        0.11875         2.6619
        10310.5          7.609        110.700         60.474        0.13186         2.6578
        10311.0          7.609        115.415         61.570        0.14497         2.6538
        10311.5          7.610        112.009         62.667        0.14848         2.6560
        10312.0          7.610        103.926         62.343        0.14111         2.6643
        10312.5          7.610         96.186         61.310        0.13375         2.6726
        10313.0          7.610         95.345         60.276        0.12638         2.6809
        10313.5          7.610         94.505         59.243        0.11663         2.6892
        10314.0          7.610         93.664         58.210        0.10673         2.6975
        10314.5          7.611         92.196         59.272        0.09684         2.7059
        10315.0          7.611         89.086         59.698        0.08694         2.6998
        10315.5          7.611         85.976         59.106        0.07681         2.6918
        10316.0          7.611         82.866         58.514        0.06638         2.6838
        10316.5          7.611         79.757         57.921        0.05596         2.6757
        10317.0          7.611         76.647         57.329        0.04554         2.6677
        10317.5          7.612         72.178         56.737        0.04136         2.6597
        10318.0          7.612         76.288         56.517        0.04416         2.6517
        10318.5          7.612         80.398         56.455        0.04696         2.6525
        10319.0          7.612         84.850         56.393        0.04976         2.6589
        10319.5          7.612         89.693         56.386        0.05819         2.6653
        10320.0          7.612         94.537         57.185        0.08150         2.6715
        10320.5          7.613         99.381         57.984        0.10481         2.6732
        10321.0          7.613        104.225         58.782        0.11644         2.6750
        10321.5          7.613        109.068         59.581        0.11161         2.6767
        10322.0          7.613        111.514         60.380        0.10678         2.6757
        10322.5          7.613        108.811         61.178        0.10195         2.6715
        10323.0          7.613        106.108         61.977        0.09711         2.6672
        10323.5          7.614        103.405         62.775        0.09228         2.6630
        10324.0          7.614        100.703         62.425        0.08745         2.6587
        10324.5          7.614         98.000         60.816        0.08262         2.6680
        10325.0          7.614         95.297         59.208        0.09512         2.6808
        10325.5          7.614         96.971         57.599        0.11244         2.6935
        10326.0          7.614         98.701         56.776        0.12976         2.7063
        10326.5          7.614        100.431         57.957        0.11673         2.7142
        10327.0          7.615         95.241         59.139        0.10366         2.7059
        10327.5          7.615         89.069         60.321        0.09059         2.6977
        10328.0          7.615         85.467         61.503        0.07878         2.6895
        10328.5          7.615         87.608         60.500        0.08875         2.6813
        10329.0          7.615         89.749         59.237        0.09871         2.6731
        10329.5          7.615         91.140         58.719        0.10867         2.6629
        10330.0          7.616         89.576         59.702        0.10626         2.6510
        10330.5          7.616         88.011         60.686        0.10104         2.6390
        10331.0          7.616         86.447         61.669        0.09582         2.6270
        10331.5          7.616         84.883         62.040        0.09060         2.6150
        10332.0          7.616         83.318         61.734        0.08716         2.6102
        10332.5          7.616         83.205         61.429        0.08934         2.6069
        10333.0          7.617         84.375         61.124        0.09152         2.6035
        10333.5          7.617         85.545         60.818        0.09370         2.6108
