# Exported from Transform Software 5.2.0 on 25-May-2018 by user brian.umlang
# DI Transform - A Product of Drillinginfo, Inc. - www.drillinginfo.com
#
~VERSION INFORMATION
 VERS.        2.0 : LAS ASCII STANDARD - VERSION 2.0
 WRAP.         NO : ONE LINE PER DEPTH STEP

~WELL INFORMATION
#MNEM.UNIT       DATA TYPE       INFORMATION
#---------       ---------       -----------
# Enverus has updated the API/UWI.  The previous names are renamed to  PREV_API / PREV_UWI
API.         42-109-32508-00-00 : API (14 Digits with Dashes)
UWI.             42109325080000 : UNIQUE WELL ID

 STRT.ft                1970 : Start Depth
 STOP.ft                8730 : Stop Depth
 STEP.ft                 0.5 : Step Length
 NULL.               -999.25 : Null Value
 COMP.                       : Company
 WELL.  42109325080000_API14 : Well Name
 FLD.                        : Field Name
 LOC.                        : Well Location
 CNTY.                       : County
 STAT.                       : State or Province
 CTRY.                       : Country
 SRVC.                       : Service Company
 DATE.                       : Date
PREV_APII.         42109325080000 : Well Identifier

~CURVE INFORMATION
#MNEM.UNIT       API CODE       CURVE DESCRIPTION
#---------       --------       -----------------
 DEPT.ft        : <Measured Depth>
 CAL.in         : Caliper
 DT.us/ft       : Pressure Wave Sonic
 GR.gAPI        : Gamma Ray

~PARAMETER INFORMATION
#MNEM.UNIT       VALUE       DESCRIPTION
#---------       -----       -----------
 EKB.ft      3552 : Elevation above MSL

~A      DEPT         CAL          DT          GR
        1970     -999.25     -999.25     -999.25
      1970.5      8.7645     -999.25     55.6446
        1971      8.7539     67.5279     49.4059
      1971.5      8.7539     66.7288     49.9575
        1972      8.7539     66.9006     52.3601
      1972.5      8.7539     66.9189     52.2154
        1973      8.7539     67.4857     51.1719
      1973.5      8.7539     69.5992     53.3085
        1974      8.7539     70.7213     56.8205
      1974.5      8.7539     71.7637     59.9071
        1975      8.7539     72.3514     63.3721
      1975.5      8.7539      72.501     68.3594
        1976      8.7539     64.7657      59.543
      1976.5      8.7539     58.3928      46.123
        1977      8.7539     55.0641     37.0911
      1977.5      8.7539     52.8332      31.526
        1978      8.7539     60.6113     43.6266
      1978.5      8.7344     67.3986     58.2757
        1979      8.7417     70.6653     65.9816
      1979.5      8.9179     83.5007    106.3441
        1980       9.016     81.0131    170.8353
      1980.5      9.1183     76.7229    204.1676
        1981      9.3098     76.3158    159.6567
      1981.5      9.3203     71.6743    119.0036
        1982      9.3203     65.3936     80.4993
      1982.5      9.2617      65.328     79.0029
        1983      9.2617     66.7458     87.2808
      1983.5      9.2617     73.8392    171.9477
        1984      9.2617     78.2289    198.2266
      1984.5      9.3008     76.6103    197.9635
        1985      9.3912     75.0299    146.2386
      1985.5      9.4306     71.6934     95.1041
        1986      9.4375     70.9062     73.7609
      1986.5      9.4901     70.7198     72.9865
        1987      9.5156     70.8603     73.8281
      1987.5      9.5156     71.0526     72.5132
        1988      9.5499     71.0967     74.7353
      1988.5      9.5938     71.3318     78.0319
        1989      9.5782     71.5085     79.3319
      1989.5      9.5547     71.6374     79.6022
        1990      9.5547     71.7544      79.726
      1990.5      9.5184     71.7544     78.9907
        1991      9.5156     71.8643     80.6803
      1991.5      9.5137     72.0468     80.5807
        1992      9.4976     72.2761     78.7236
      1992.5      9.4766     72.5112     77.3269
        1993      9.4766     72.7464     84.7327
      1993.5      9.5156      72.807     89.9887
        1994      9.5156     72.9243     88.2794
      1994.5      9.5357     73.2164     84.6604
        1995      9.6328     73.3959      82.683
      1995.5      9.7123     73.8051     81.8491
        1996      9.7517     74.4359     83.7778
      1996.5      9.8086     75.5163     89.6698
        1997      9.8477     76.5471     93.3146
      1997.5      9.9218     77.8965     85.8136
        1998      9.9453     78.6308     81.4117
      1998.5      9.9453      79.368     78.6732
        1999      9.9886     79.6032     76.5207
      1999.5      10.082     79.9037       75.54
        2000     10.1016     80.3074     73.0399
      2000.5     10.1016     80.6595     66.7428
        2001     10.1269     80.9823     65.3715
      2001.5      10.225     81.1789     67.8979
        2002     10.2383     83.5767     70.3474
      2002.5     10.3367     90.4951     62.3648
        2003      10.441     94.0853     53.6983
      2003.5     10.4531    101.2595     52.0035
        2004       10.52    100.0469     52.6517
      2004.5     10.5508     93.1514      48.546
        2005     10.5508     89.1835     43.5907
      2005.5     10.5798     80.2549     38.3816
        2006     10.6289      78.693     37.8439
      2006.5     10.6875     85.3755     42.3016
        2007     10.6875      92.246     48.1999
      2007.5     10.7266     98.6508     48.1582
        2008      10.707     95.9278     48.1268
      2008.5     10.7385     94.5509     48.0469
        2009      10.817     95.7101     52.4594
      2009.5     10.9737     98.2118     53.6691
        2010     11.0915     97.5805     52.3074
      2010.5     11.1562     94.5767      55.613
        2011     11.2456     93.8012     57.2266
      2011.5     11.3516      94.523      55.885
        2012     11.3886     97.6082     51.4852
      2012.5     11.5426     98.4666     47.5041
        2013     11.6211     98.7135      47.754
      2013.5     11.6836      98.277     49.1139
        2014     11.7782     97.5131     48.3553
      2014.5     11.8398     95.3881     47.2924
        2015     11.8766     95.4318     45.1329
      2015.5     11.9161      96.469     41.0342
        2016     12.0142     98.3278      37.816
      2016.5     12.0536     99.9817     41.2005
        2017     12.1322     98.5249      45.681
      2017.5     12.1914     97.6632      47.654
        2018     12.2109     95.8435     45.4046
      2018.5     12.2311     95.4989     44.3419
        2019     12.3086     96.2693     46.5971
      2019.5     12.3086     97.4269     47.5883
        2020     12.3281     97.6982     45.3464
      2020.5     12.3281     99.1253     43.3371
        2021     12.3698     98.6677     41.0156
      2021.5     12.3867     97.4671     40.4602
        2022     12.3867     95.6583     43.4405
      2022.5     12.3867     94.1758     46.2676
        2023     12.3281     93.2849     46.8109
      2023.5     12.3281     93.2865     44.2697
        2024     12.3035       94.93     42.7734
      2024.5      12.264     95.7989     43.6647
        2025      12.205     94.5757      48.106
      2025.5     12.1328     92.6058     46.6165
        2026      12.087     89.3068     45.8984
      2026.5      11.989     85.4757     45.3125
        2027     11.8909     84.5659     41.5261
      2027.5     11.8984      88.019     38.5233
        2028     11.9068     94.8867     39.2712
      2028.5      11.918     95.4827      41.777
        2029     11.9088     90.4667      44.209
      2029.5     11.8888     85.9564     48.8618
        2030     11.8398     82.3201     57.6857
      2030.5     11.8099     81.3724     63.7495
        2031      11.726     80.7247     68.2722
      2031.5     11.5747     80.1959     72.3385
        2032     11.4201     79.4917      73.167
      2032.5     11.2643     79.0507     69.8456
        2033     10.8934     78.5965     68.2886
      2033.5     10.6795     78.3826     69.4572
        2034     10.5766     78.0889      68.422
      2034.5      10.498     77.7953     67.4086
        2035     10.4336     77.5098     71.1097
      2035.5     10.4336      77.325     71.4069
        2036     10.4336     77.1484     70.3588
      2036.5     10.4336     76.9132     68.9453
        2037     10.4336     76.6018      70.665
      2037.5     10.4336     76.2675     70.8984
        2038     10.4141     75.9784     68.9453
      2038.5     10.4141     75.9064     70.6773
        2039     10.4141     75.8545     73.0251
      2039.5     10.3963     75.4492     74.3964
        2040     10.2982     74.8035     75.7677
      2040.5     10.2773     74.6199      76.553
        2041     10.2188     74.6183     77.5256
      2041.5     10.1797     75.5251     85.3358
        2042     10.1602     76.3183    103.8724
      2042.5     10.1602     76.9057    112.0772
        2043     10.1602     77.0359    138.5861
      2043.5     10.1602     76.5317    137.2744
        2044     10.1602      75.778    122.7681
      2044.5     10.1602     75.3801    106.3388
        2045     10.1629     75.4468    104.4607
      2045.5     10.1797     76.2949     113.501
        2046     10.2188     77.8468    107.1735
      2046.5     10.2618     79.0295     95.4236
        2047     10.3164     79.3567     79.8369
      2047.5     10.3164     79.2982     73.6371
        2048     10.3411     79.3138     72.5128
      2048.5     10.3611     79.7411     73.7447
        2049     10.4005     80.1349     73.4528
      2049.5     10.4141     80.2339     70.4437
        2050     10.4531      80.155     69.5312
      2050.5     10.4604      80.117     69.6035
        2051     10.5194     80.1983     68.8689
      2051.5     10.5508     81.3003     67.9455
