~Version Information
 VERS.                  2.0:   CWLS log ASCII Standard -VERSION 2.0
 WRAP.                   NO:   One line per depth step
~Well Information Block
#MNEM.UNIT     VALUE/NAME     DESCRIPTION
#---------     -----------    ---------------------------
 STRT.F              8432.0000: START DEPTH
 STOP.F             13842.0000: STOP DEPTH
 STEP.F                 0.5000: STEP DEPTH
 NULL.                 -999.25: NULL VALUE
 LOC .     100' FNL & 990' FEL:  LOCATION
 FL6 .       API  42-109-33163:  LOCATIONLINE6
 FL4 .           ABSTRACT 1006:  LOCATIONLINE4
 FL3 .        T&P RR CO SURVEY:  LOCATIONLINE3
 FL2 .     SECTION 36, BLOCK 59 T2:  LOCATIONLINE2
 FL1 .     100' FNL & 990' FEL:  LOCATIONLINE1
 DMF .                      KB:  DRILL MEAS FROM
 PDAT.                      GL:  PERMANENT DATUM
 CNTY.               CULBERSON:  COUNTY NAME
 FLD .     FORD, WEST (WOLFCAMP):  FIELD NAME
 WELL.         SCOTT FEE 36 2H:  WELL NAME
 COMP.     CAPITAN ENERGY INC.:  COMPANY
 DATE.             11-Oct-2017:  DATE
 SVCO.             Halliburton:  SERVICECONAME
 PROV.                   TEXAS:  PROVINCE
 STAT.                   TEXAS:  STATE NAME
 CTRY.           UNITED STATES:  COUNTRY NAME
 HIDE.                        :  WELLNAMEOPERAT
 BASI.                 PERMIAN:  BASIN
 UWI .            42-109-33163Lat:  UNIQUE WELL IDENTIFIER
 API .            42-109-33163Lat:  API NUMBER
 RANG.                     N/A:  RANGE
 TOWN.                     N/A:  TOWNSHIP
 SECT.                     N/A:  SECTION
 SON .               904352259:  JOB NUMBER
 SRVC.             Halliburton:  SERVICE COMPANY
 LMF .                      KB:  LOG MEASURED FROM
 EGL .ft             3174.0000:  GROUND ELEVATION
 BAP .ft                0.0000:  GL ELEV ONSHORE
 GVFD.g                 1.0000:  GRAVITY FIELD
 EKB .ft             3200.0000:  KB ELEVATION
 EDF .ft             3199.0000:  DF ELEVATION
~Curve Information Block
#MNEM.UNIT                 API CODE     Curve Description
#---------               -----------    ---------------------------
 DEPT.F                 00 000 000 000:  Depth
 CCL .V                 00 000 000 000:  Casing Collar Locator
 NPHI_OH.pu             00 000 000 000:  NPHI_OH
 NPHI_CHI.pu            00 000 000 000:  NPHI_CHI
 GR_CHI.api             00 000 000 000:  GR_CHI
 GR_OH.api              00 000 000 000:  GR_OH
 RHOB_OH.g/cc           00 000 000 000:  RHOB_OH
 RHOB_CHI.g/cc          00 000 000 000:  RHOB_CHI
 PE_CHI.b/e             00 000 000 000:  PE_CHI
 PE_OH.b/e              00 000 000 000:  PE_OH
 MSFL_OH.ohmm           00 000 000 000:  MSFL_OH
 MSFL_CHI.ohmm          00 000 000 000:  MSFL_CHI
 LLS_OH.ohmm            00 000 000 000:  LLS_OH
 LLS_CHI.ohmm           00 000 000 000:  LLS_CHI
 LLD_OH.ohmm            00 000 000 000:  LLD_OH
 LLD_CHI.ohmm           00 000 000 000:  LLD_CHI
 DTC_OH.uspf            00 000 000 000:  DTC_OH
 DTC_CHI.uspf           00 000 000 000:  DTC_CHI
 SPHI_CHI.pu            00 000 000 000:  SPHI_CHI
 SGF .cu                00 000 000 000:  Formation Sigma
 CRNF.NONE              00 000 000 000:  CM GrsCaptRatio
 RIN .NONE              00 000 000 000:  CM GrsInelRatio
~A    DEPT      CCL   NPHI_OH NPHI_CHI  GR_CHI   GR_OH   RHOB_OH RHOB_CHI PE_CHI  PE_OH   MSFL_OH  MSFL_CHI  LLS_OH   LLS_CHI   LLD_OH  LLD_CHI  DTC_OH  DTC_CHI SPHI_CHI   SGF    CRNF   RIN   
# ...
   12023.0000  0.0000 -999.25  15.5292 113.5657  -999.25 -999.25   2.5123 3.1704 -999.25   -999.25  34.5059   -999.25  40.9676  -999.25  41.3568 -999.25 70.8489  16.3600 26.3706 1.0000 1.0517
   12023.5000  0.0000 -999.25  15.4668 111.7849  -999.25 -999.25   2.5130 3.1623 -999.25   -999.25  33.2537   -999.25  39.2791  -999.25  39.6411 -999.25 70.6241  16.3300 26.8445 1.0211 1.0541
   12024.0000  0.0000 -999.25  15.5155 114.0114  -999.25 -999.25   2.5084 3.1250 -999.25   -999.25  31.2953   -999.25  36.6563  -999.25  36.9770 -999.25 70.8547  16.4000 27.1871 1.0323 1.0546
   12024.5000  0.0000 -999.25  15.5264 107.2913  -999.25 -999.25   2.5131 3.1426 -999.25   -999.25  30.0782   -999.25  35.0375  -999.25  35.3333 -999.25 70.6814  16.3600 27.2617 1.0395 1.0573
   12025.0000  0.0000 -999.25  15.8352 117.6100  -999.25 -999.25   2.5011 3.0768 -999.25   -999.25  29.2278   -999.25  33.9119  -999.25  34.1907 -999.25 71.7455  16.8500 27.3190 1.0466 1.0597
   12025.5000  0.0000 -999.25  16.0033 120.6218  -999.25 -999.25   2.4979 3.0546 -999.25   -999.25  29.0459   -999.25  33.6716  -999.25  33.9469 -999.25 72.1576  17.2800 27.6324 1.0546 1.0651
   12026.0000  0.0000 -999.25  16.1019 120.3181  -999.25 -999.25   2.4968 3.0466 -999.25   -999.25  28.9069   -999.25  33.4882  -999.25  33.7607 -999.25 72.2853  17.4300 28.0625 1.0650 1.0734
   12026.5000  0.0000 -999.25  16.1303 117.7495  -999.25 -999.25   2.4973 3.0468 -999.25   -999.25  28.1584   -999.25  32.5027  -999.25  32.7607 -999.25 72.2676  17.4500 28.3066 1.0592 1.0770
   12027.0000  0.0000 -999.25  16.0499 109.2981  -999.25 -999.25   2.5026 3.0756 -999.25   -999.25  27.1627   -999.25  31.1973  -999.25  31.4362 -999.25 71.8877  17.2600 28.3109 1.0429 1.0770
   12027.5000  0.0000 -999.25  16.0799 108.5569  -999.25 -999.25   2.5028 3.0762 -999.25   -999.25  26.6133   -999.25  30.4799  -999.25  30.7085 -999.25 72.0610  17.2600 27.9253 1.0182 1.0715
   12028.0000  0.0000 -999.25  16.0795 113.0993  -999.25 -999.25   2.4999 3.0595 -999.25   -999.25  26.6037   -999.25  30.4674  -999.25  30.6959 -999.25 72.2367  17.3900 27.5832 1.0074 1.0662
   12028.5000  0.0000 -999.25  16.0728 120.5123  -999.25 -999.25   2.4967 3.0376 -999.25   -999.25  27.4764   -999.25  31.6079  -999.25  31.8528 -999.25 72.3664  17.4900 27.0919 1.0118 1.0634
   12029.0000  0.0000 -999.25  15.8132 116.4177  -999.25 -999.25   2.5008 3.0689 -999.25   -999.25  28.2746   -999.25  32.6555  -999.25  32.9157 -999.25 71.6159  17.1400 26.8623 1.0322 1.0642
   12029.5000  0.0000 -999.25  15.6991 111.8884  -999.25 -999.25   2.5061 3.1041 -999.25   -999.25  29.4617   -999.25  34.2210  -999.25  34.5044 -999.25 71.1083  16.7300 26.8666 1.0507 1.0675
   12030.0000  0.0000 -999.25  15.7748 113.9482  -999.25 -999.25   2.5043 3.0983 -999.25   -999.25  30.0334   -999.25  34.9781  -999.25  35.2730 -999.25 71.3229  16.7300 26.8476 1.0672 1.0693
   12030.5000  0.0000 -999.25  15.8735 110.2644  -999.25 -999.25   2.5068 3.1139 -999.25   -999.25  30.0226   -999.25  34.9637  -999.25  35.2585 -999.25 71.4908  16.8600 27.0166 1.0736 1.0688
   12031.0000  0.0000 -999.25  15.9676 107.5361  -999.25 -999.25   2.5087 3.1251 -999.25   -999.25  30.0703   -999.25  35.0271  -999.25  35.3228 -999.25 71.6862  16.9900 26.9502 1.0716 1.0683
   12031.5000  0.0000 -999.25  16.0376 105.1051  -999.25 -999.25   2.5101 3.1309 -999.25   -999.25  29.6480   -999.25  34.4674  -999.25  34.7546 -999.25 71.8677  17.1200 26.7705 1.0670 1.0667
   12032.0000  0.0000 -999.25  16.1774 109.3336  -999.25 -999.25   2.5052 3.1059 -999.25   -999.25  29.8132   -999.25  34.6863  -999.25  34.9768 -999.25 72.2722  17.3600 26.6709 1.0504 1.0707
   12032.5000  0.0000 -999.25  16.2957 115.4206  -999.25 -999.25   2.4998 3.0751 -999.25   -999.25  30.2651   -999.25  35.2854  -999.25  35.5851 -999.25 72.6220  17.6200 26.5490 1.0255 1.0762
   12033.0000  0.0000 -999.25  16.1717 108.9626  -999.25 -999.25   2.5058 3.1085 -999.25   -999.25  30.5184   -999.25  35.6220  -999.25  35.9268 -999.25 72.0996  17.4400 26.8002 1.0036 1.0780
   12033.5000  0.0000 -999.25  15.7921  95.5712  -999.25 -999.25   2.5227 3.1875 -999.25   -999.25  30.8314   -999.25  36.0383  -999.25  36.3494 -999.25 70.8717  16.7200 26.9972 0.9728 1.0738
   12034.0000  0.1000 -999.25  15.2453  86.1883  -999.25 -999.25   2.5361 3.2481 -999.25   -999.25  30.1899   -999.25  35.1857  -999.25  35.4838 -999.25 69.7891  15.9200 26.8350 0.9550 1.0606
   12034.5000  0.0000 -999.25  15.0536  88.2290  -999.25 -999.25   2.5358 3.2434 -999.25   -999.25  29.6961   -999.25  34.5312  -999.25  34.8194 -999.25 69.5427  15.5700 26.2640 0.9399 1.0474
   12035.0000  0.0000 -999.25  14.9014  93.6633  -999.25 -999.25   2.5328 3.2208 -999.25   -999.25  30.1021   -999.25  35.0692  -999.25  35.3655 -999.25 69.3488  15.4200 25.5542 0.9485 1.0358
   12035.5000  0.0000 -999.25  15.0275 110.2334  -999.25 -999.25   2.5183 3.1441 -999.25   -999.25  31.5758   -999.25  37.0306  -999.25  37.3571 -999.25 70.0409  15.7200 24.8598 0.9502 1.0214
   12036.0000  0.0000 -999.25  14.8235 109.0099  -999.25 -999.25   2.5241 3.1754 -999.25   -999.25  33.5088   -999.25  39.6224  -999.25  39.9899 -999.25 69.7004  15.7000 24.4567 0.9523 1.0084
   12036.5000  0.0000 -999.25  14.2636  91.9352  -999.25 -999.25   2.5460 3.3416 -999.25   -999.25  35.5142   -999.25  42.3334  -999.25  42.7450 -999.25 68.9052  15.2400 24.3168 0.9475 0.9947
   12037.0000  0.0000 -999.25  14.2439  92.3433  -999.25 -999.25   2.5469 3.3719 -999.25   -999.25  36.7330   -999.25  43.9915  -999.25  44.4307 -999.25 68.9663  15.1000 24.6519 0.9448 0.9911
   12037.5000  0.0000 -999.25  14.1779  89.4109  -999.25 -999.25   2.5492 3.4002 -999.25   -999.25  37.1657   -999.25  44.5820  -999.25  45.0311 -999.25 68.8259  15.0400 25.4402 0.9755 0.9986
   12038.0000  0.0000 -999.25  14.4663  93.5619  -999.25 -999.25   2.5424 3.3359 -999.25   -999.25  36.1377   -999.25  43.1806  -999.25  43.6063 -999.25 68.9538  15.0700 26.3117 1.0191 1.0138
   12038.5000  0.0000 -999.25  14.3830  88.0701  -999.25 -999.25   2.5444 3.3150 -999.25   -999.25  33.8301   -999.25  40.0552  -999.25  40.4297 -999.25 68.5201  14.8900 27.8134 1.0861 1.0299
   12039.0000  0.0000 -999.25  14.7992  89.6219  -999.25 -999.25   2.5383 3.2658 -999.25   -999.25  31.4500   -999.25  36.8626  -999.25  37.1865 -999.25 69.1318  15.1000 28.9032 1.1101 1.0389
   12039.5000  0.0000 -999.25  15.4284  99.8153  -999.25 -999.25   2.5194 3.1570 -999.25   -999.25  27.7350   -999.25  31.9468  -999.25  32.1966 -999.25 70.6014  15.9600 29.3651 1.0857 1.0422
   12040.0000  0.0000 -999.25  15.9951 105.7464  -999.25 -999.25   2.5066 3.0945 -999.25   -999.25  25.3169   -999.25  28.7951  -999.25  29.0001 -999.25 72.3179  17.1200 29.3567 1.0381 1.0404
   12040.5000  0.0000 -999.25  16.1738 106.3725  -999.25 -999.25   2.5041 3.0784 -999.25   -999.25  24.3567   -999.25  27.5550  -999.25  27.7429 -999.25 72.8505  17.7400 29.2337 1.0059 1.0382
   12041.0000  0.0000 -999.25  15.8839 101.5674  -999.25 -999.25   2.5100 3.1045 -999.25   -999.25  24.3738   -999.25  27.5770  -999.25  27.7653 -999.25 72.0505  17.4600 28.6817 1.0045 1.0363
   12041.5000  0.0000 -999.25  15.6225 107.6187  -999.25 -999.25   2.5069 3.0754 -999.25   -999.25  24.6261   -999.25  27.9022  -999.25  28.0949 -999.25 71.4607  17.0000 27.8873 1.0239 1.0345
   12042.0000  0.0000 -999.25  15.2449  98.1969  -999.25 -999.25   2.5203 3.1345 -999.25   -999.25  25.7906   -999.25  29.4095  -999.25  29.6230 -999.25 70.2589  16.2800 27.1925 1.0379 1.0350
   12042.5000  0.0000 -999.25  15.3586 104.3219  -999.25 -999.25   2.5156 3.1302 -999.25   -999.25  27.5640   -999.25  31.7226  -999.25  31.9691 -999.25 70.6061  16.2000 26.7370 1.0540 1.0361
   12043.0000  0.0000 -999.25  15.6556 112.7082  -999.25 -999.25   2.5076 3.1124 -999.25   -999.25  29.2146   -999.25  33.8944  -999.25  34.1730 -999.25 71.4884  16.7100 26.7138 1.0511 1.0382
   12043.5000  0.0000 -999.25  15.7157 110.1582  -999.25 -999.25   2.5108 3.1429 -999.25   -999.25  30.3500   -999.25  35.3983  -999.25  35.6996 -999.25 71.6065  16.9500 26.2432 1.0208 1.0359
