~VERSION INFORMATION
VERS. 2.0 : CWLS Log ASCII Standard - version 2.0
WRAP.  NO : One line per depth step
#--------------------------------------------------#
#----------------DRILLING INFO, INC.---------------#
#---------------WWW.DRILLINGINFO.COM---------------#
#------------------COPYRIGHT 2015------------------#
#--------------------------------------------------#
#THIS FILE MAY BE USED ONLY IN ACCORDANCE WITH A CURRENT SUBSCRIPTION AGREEMENT BETWEEN
#THE USER AND DRILLING INFO, INC. NO PART OF THIS FILE MAY BE REPRODUCED, USED, COPIED,
#MODIFIED, PROPAGATED, OR DISTRIBUTED EXCEPT IN ACCORDANCE WITH THE SUBSCRIPTION
#AGREEMENT. UNAUTHORIZED USE OR DISTRIBUTION OF ALL OR ANY PART OF THIS FILE MAY VIOLATE
#COPYRIGHT, TRADEMARK, AND/OR OTHER LAWS AND IS SUBJECT TO CIVIL AS WELL AS CRIMINAL
#SANCTIONS.
#--------------------------------------------------#
#THIS FILE IS PROVIDED "AS-IS" AND ALL WARRANTIES ARE EXPRESSLY DISCLAIMED, WHETHER
#EXPRESS, ORAL, IMPLIED, STATUTORY OR OTHERWISE, INCLUDING ANY IMPLIED WARRANTY OF FITNESS
#FOR A PARTICULAR PURPOSE, MERCHANTABILITY, TITLE OR NON-INFRINGEMENT, AND ANY WARRANTIES
#ARISING BY VIRTUE OF CUSTOM OF TRADE OR COURSE OF DEALING.  FURTHER, DRILLING INFO,
#INC. AND ITS LICENSORS DO NOT REPRESENT OR WARRANT THAT THIS FILE WILL MEET USER'S
#REQUIREMENTS OR ARE SUITABLE FOR USER'S NEEDS OR THAT THE DATA OR RESULTS PROVIDED IN
#CONJUNCTION THEREWITH ARE CORRECT, ACCURATE, TIMELY OR RELIABLE. THESE DISCLAIMERS SHALL
#APPLY REGARDLESS OF ANY FAILURE OF ESSENTIAL PURPOSE OF ANY LIMITED REMEDY.  SOME
#JURISDICTIONS DO NOT ALLOW THE EXCLUSION OF CERTAIN WARRANTIES SO SOME OF THE ABOVE
#EXCLUSIONS MAY NOT APPLY. IN NO EVENT SHALL DRILLING INFO, INC. OR ANY OF ITS AFFILIATES
#BE LIABLE UNDER ANY LEGAL THEORY, WHETHER IN TORT (INCLUDING WITHOUT LIMITATION
#NEGLIGENCE), CONTRACT, STRICT LIABILITY, STATUTORY OR OTHERWISE, FOR ANY SPECIAL,
#INCIDENTAL, CONSEQUENTIAL, EXEMPLARY, PUNITIVE OR INDIRECT DAMAGE OF ANY KIND, INCLUDING
#WITHOUT LIMITATION LOSS OF REVENUE, PROFITS, GOODWILL, USE, AND/OR DATA OR THE COST OF
#PROCUREMENT OF SUBSTITUTE GOODS OR SERVICES, EVEN IF APPRISED OF THE POSSIBILITY OF SUCH
#DAMAGES IN ADVANCE.
#--------------------------------------------------#
~WELL INFORMATION
#MNEMONIC     .UNIT              VALUE :DESCRIPTION
#--------------------------------------------------#
STRT       .FT                4 :START DEPTH
STOP       .FT                10042 :STOP DEPTH
STEP       .FT                   0.500 :STEP
NULL       .                  -999.250 :NULL
API        .                421093139500 :API NUMBER
COMP       .         MOBIL OIL CORPORATION :COMPANY
WELL       .        MADERA-BROMAN  1 :WELL
DATE       .                27-Jun-1979 :LOG DATE
~CURVE INFORMATION
#MNEMONIC     .UNIT      API CODE :CURVE DESCRIPTION
#--------------------------------------------------#
DEPTH       .FT                      :Measured Depth
DT.US/FT        UNKNOWN   :DT
GR.API        UNKNOWN   :GR
CAL.INCH        UNKNOWN   :CAL
~A    DEPTH    DT    GR    CAL
# ...
 7243     81.274   104.707   9.408
 7243.5     82.025   102.843   9.442
 7244     82.776   100.979   9.475
 7244.5     83.527   99.115   9.509
 7245     83.645   98.089   9.761
 7245.5     83.159   97.837   10.166
 7246     82.673   97.585   10.549
 7246.5     82.187   96.754   10.567
 7247     81.701   96.12   10.545
 7247.5     81.215   96.065   10.264
 7248     81.791   96.01   9.983
 7248.5     83.388   95.955   9.703
 7249     84.985   95.899   9.663
 7249.5     86.177   95.844   9.715
 7250     85.444   95.683   9.829
 7250.5     84.71   95.18   9.943
 7251     83.977   94.678   10.057
 7251.5     83.244   94.175   10.171
 7252     83.032   93.672   10.214
 7252.5     84.54   93.169   10.217
 7253     86.049   91.72   10.221
 7253.5     87.557   89.909   10.224
 7254     87.041   88.098   10.228
 7254.5     84.768   90.048   10.232
 7255     82.995   92.045   10.111
 7255.5     81.995   94.043   9.696
 7256     78.742   92.282   9.281
 7256.5     74.804   88.235   8.866
 7257     70.301   81.505   8.671
 7257.5     66.303   74.775   8.604
 7258     70.298   68.045   8.538
 7258.5     74.293   64.336   8.738
 7259     78.288   71.04   9.673
 7259.5     82.985   77.745   10.608
 7260     89.423   84.449   11.249
 7260.5     87.526   88.858   11.208
 7261     83.462   91.721   10.011
 7261.5     84.268   91.812   9.388
 7262     85.074   90.451   9.402
 7262.5     85.88   89.089   9.416
 7263     85.914   88.674   9.609
 7263.5     85.285   88.422   10.122
 7264     84.655   88.17   10.635
 7264.5     84.198   87.918   11.149
 7265     84.318   87.666   10.951
 7265.5     83.77   87.414   10.689
 7266     83.422   87.162   10.604
 7266.5     83.348   88.339   10.519
 7267     83.274   89.523   10.435
 7267.5     83.045   90.706   10.35
 7268     81.799   91.89   10.142
 7268.5     80.552   93.074   9.679
 7269     79.306   94.257   9.215
 7269.5     82.209   95.441   8.84
 7270     85.451   94.522   8.747
 7270.5     82.824   92.477   9.19
 7271     72.899   80.38   9.19
 7271.5     59.153   67.28   9.037
 7272     51.741   54.181   8.694
 7272.5     50.677   47.737   8.466
 7273     49.614   45.207   8.456
 7273.5     50.106   45.464   8.447
 7274     50.828   45.721   8.438
 7274.5     50.689   45.978   8.429
 7275     50.55   46.235   8.419
 7275.5     53.021   46.492   8.41
 7276     56.233   55.754   8.412
 7276.5     63.699   67.39   8.484
 7277     72.835   79.026   8.556
 7277.5     78.667   90.662   8.628
 7278     83.421   89.755   8.697
 7278.5     81.412   87.144   8.72
 7279     78.912   84.533   8.73
 7279.5     76.664   82.651   8.656
 7280     75.325   82.55   8.592
 7280.5     76.017   82.45   8.578
 7281     76.088   82.349   8.564
 7281.5     75.457   83.241   8.55
 7282     74.826   84.279   8.536
 7282.5     74.196   86.946   8.523
 7283     73.565   89.873   8.509
 7283.5     73.734   94.659   8.495
 7284     74.001   99.637   8.481
 7284.5     74.268   104.614   8.468
 7285     73.975   102.252   8.459
 7285.5     73.52   98.036   8.45
 7286     73.065   93.82   8.44
 7286.5     72.923   92.698   8.431
 7287     75.293   92.195   8.421
 7287.5     74.74   87.676   8.412
 7288     71.768   81.929   8.403
 7288.5     68.797   76.182   8.393
 7289     65.825   70.434   8.384
 7289.5     65.578   66.538   8.375
 7290     68.989   71.465   8.365
 7290.5     72.4   76.391   8.356
 7291     75.332   81.317   8.346
 7291.5     72.936   86.243   8.337
 7292     70.54   83.453   8.328
 7292.5     68.144   78.738   8.318
 7293     65.748   74.024   8.303
 7293.5     62.593   69.31   8.284
 7294     57.172   63.171   8.265
 7294.5     55.197   53.815   8.247
 7295     53.453   44.459   8.228
 7295.5     54.024   46.386   8.209
 7296     55.314   50.798   8.191
 7296.5     56.605   55.209   8.179
 7297     57.895   59.62   8.177
 7297.5     59.186   64.032   8.175
 7298     60.476   68.558   8.172
 7298.5     61.654   73.116   8.17
 7299     62.195   75.813   8.168
 7299.5     62.736   73.294   8.165
 7300     60.794   70.774   8.163
 7300.5     57.726   68.254   8.16
 7301     54.658   60.616   8.161
 7301.5     52.253   50.571   8.169
 7302     52.518   42.576   8.176
 7302.5     52.782   45.675   8.183
 7303     53.046   48.773   8.19
 7303.5     52.306   47.071   8.198
 7304     51.211   41.842   8.205
 7304.5     51.48   36.613   8.212
 7305     53.146   31.383   8.219
 7305.5     54.812   40.647   8.227
 7306     56.478   53.749   8.234
 7306.5     58.144   66.851   8.241
 7307     56.928   70.948   8.248
 7307.5     55.626   66.132   8.256
 7308     54.324   61.315   8.263
 7308.5     53.25   56.498   8.27
 7309     53.341   55.648   8.27
 7309.5     53.827   56.098   8.264
 7310     54.416   56.549   8.258
 7310.5     55.006   56.999   8.252
 7311     56.112   57.449   8.247
 7311.5     57.235   58.648   8.241
 7312     58.358   61.319   8.235
 7312.5     59.481   63.991   8.229
 7313     59.31   66.662   8.223
 7313.5     58.256   69.334   8.218
 7314     57.203   71.029   8.212
 7314.5     56.149   64.395   8.206
 7315     55.095   54.614   8.2
 7315.5     54.378   50.108   8.195
 7316     54.067   47.679   8.189
 7316.5     53.508   45.251   8.183
 7317     52.64   42.175   8.177
 7317.5     51.773   35.235   8.172
 7318     50.905   28.295   8.166
 7318.5     51.337   32.55   8.16
 7319     52.814   39.764   8.154
 7319.5     54.291   46.977   8.148
 7320     55.768   54.191   8.143
 7320.5     57.022   61.404   8.137
 7321     55.394   68.618   8.131
 7321.5     53.766   62.157   8.125
 7322     52.138   51.612   8.12
 7322.5     50.51   41.066   8.114
 7323     50.994   35.401   8.108
 7323.5     52.297   37.793   8.102
 7324     53.48   40.186   8.096
 7324.5     53.871   42.579   8.095
 7325     54.263   44.972   8.094
 7325.5     54.385   47.365   8.094
 7326     54.384   49.758   8.093
 7326.5     54.135   47.941   8.092
 7327     53.748   45.327   8.092
 7327.5     53.361   42.714   8.091
 7328     52.974   40.108   8.09
 7328.5     53.03   37.524   8.089
 7329     53.095   35.369   8.089
 7329.5     53.16   36.942   8.088
 7330     53.225   38.514   8.087
 7330.5     53.098   40.086   8.087
 7331     52.798   41.659   8.086
 7331.5     52.499   43.231   8.085
 7332     51.984   40.303   8.084
 7332.5     50.495   36.225   8.084
 7333     49.442   32.147   8.083
 7333.5     49.376   28.069   8.082
 7334     49.309   27.405   8.082
 7334.5     49.242   32.61   8.081
 7335     49.176   37.815   8.08
 7335.5     50.868   43.02   8.079
 7336     52.767   48.225   8.079
 7336.5     53.394   53.43   8.078
 7337     52.768   50.77   8.077
 7337.5     52.142   45.624   8.077
 7338     51.516   40.479   8.076
 7338.5     50.89   35.333   8.075
 7339     51.888   32.622   8.074
 7339.5     52.93   37.743   8.074
 7340     53.906   42.865   8.073
 7340.5     53.795   47.184   8.072
 7341     53.684   45.38   8.072
 7341.5     53.573   43.577   8.071
 7342     54.17   45.321   8.07
 7342.5     55.113   47.029   8.069
 7343     55.385   45.424   8.069
 7343.5     55.548   43.82   8.068
 7344     55.712   43.261   8.067
 7344.5     55.876   46.878   8.067
 7345     56.016   48.033   8.066
 7345.5     55.592   42.815   8.061
 7346     55.169   37.782   8.055
 7346.5     55.244   44.649   8.048
 7347     56.185   51.516   8.042
 7347.5     57.259   58.384   8.036
 7348     58.334   65.251   8.03
 7348.5     56.905   72.119   8.024
 7349     54.597   68.169   8.018
 7349.5     52.324   55.395   8.012
 7350     50.053   42.62   8.006
 7350.5     49.165   40.204   8
 7351     49.332   39.124   7.994
 7351.5     49.499   38.044   7.991
 7352     49.666   36.964   8.022
 7352.5     49.796   30.446   8.054
 7353     49.547   22.392   8.085
 7353.5     49.446   22.223   8.117
 7354     49.555   22.11   8.148
 7354.5     49.663   23.862   8.18
 7355     49.772   25.613   8.211
 7355.5     49.587   27.364   8.243
 7356     49.396   28.938   8.246
 7356.5     49.206   27.661   8.245
 7357     49.015   26.383   8.243
 7357.5     49.756   25.106   8.241
