~VERSION INFORMATION
 VERS.                2.0:   CWLS LOG ASCII STANDARD - VERSION 2.0
 WRAP.                 NO:   ONE LINE PER DEPTH STEP
~WELL INFORMATION
#MNEM.UNIT      DATA TYPE    INFORMATION
#----------   ------------   ------------------------------
 STRT.FT        8672.0000:   START DEPTH
 STOP.FT       14432.0000:   STOP DEPTH
 STEP.FT           0.5000:   STEP LENGTH
 NULL.          -999.2500:   NULL VALUE
 COMP. CAPITAN ENERGY, INCORPORATED:   COMPANY
 WELL.  MOTHER FEE 28 #1H:   WELL
 FLD . FORD, WEST (WOLFCAMP)	:   FIELD
 LOC .                   :   LOCATION
 CNTY.          CULBERSON:   COUNTY
 STAT.              TEXAS:   STATE
 CTRY. UNITED STATES OF AMERICA:   COUNTRY
 SRVC.        HALLIBURTON:   SERVICE COMPANY
 DATE.        16-Nov-2015:   LOGDATE
 API .     42109328880000:   API NUMBER
~CURVE INFORMATION
#MNEM.UNIT       API CODE    CURVE DESCRIPTION
#----------   ------------   ------------------------------
 DEPT.FT                 :   
 CALD_C.IN   45 280 60 00:   CALIPER FROM DENSITY COMPOSITE LOG
 DCOR.G/C3   45 356 01 00:   DENSITY CORRECTION
 DPHI_LS.DEC 45 890 10 00:   DENSITY POROSITY LIMESTONE
 DT_CH.US/F  60 501 00 00:   DELTA FROM THE FULL WAVE SONIC IN CASED HOLE
 GRD .GAPI   45 310 01 00:   GAMMA RAY FROM DENSITY LOG
 LLDC.OHMM   11 220 10 00:   CORRECTED LATEROLOG DEEP RESISTIVITY
 LLSC.OHMM   11 220 09 00:   CORRECTED LATEROLOG SHALLOW RESISTIVITY
 MSFLC.OHMM  11 270 04 00:   CORRECTED MICRO SPHERICALLY FOCUSED RESISTIVITY
 NPHI_LS.DEC 42 890 01 00:   NEUTRON POROSITY LIMESTONE
 PE  .B/E    45 358 01 00:   PHOTO ELECTRIC CROSS SECTION
 RHOB_CH.G/C3 45 350 01 00:   
~PARAMETER INFORMATION
#MNEM.UNIT          VALUE    DESCRIPTION
#----------   ------------   ------------------------------
 DATE.           11/16/15:   RUN DATE
 RUN .                  1:   RUN NUMBER
 BLI .FT            14432:   BOTTOM LOG INTERVAL
 TLI .FT             8672:   TOP LOG INTERVAL
 ORIG.     1" 2" 5" PRINT:   ORIGIN OF DATA
 UWI .     42109328880000:   UNIQUE WELL ID
~OTHER INFORMATION
~A   DEPT         CALD_C      DCOR       DPHI_LS      DT_CH       GRD        LLDC        LLSC        MSFLC       NPHI_LS         PE      RHOB_CH
# ...
 11724.0000   -999.2500   -999.2500      0.0951     72.3695    124.1749     36.3150     30.4351     17.9322      0.1589      3.2367      2.5599
 11724.5000   -999.2500   -999.2500      0.0964     72.4207    128.4105     37.8084     31.0690     18.5682      0.1600      3.2267      2.5532
 11725.0000   -999.2500   -999.2500      0.0978     72.4718    132.1299     39.4421     32.0172     19.3285      0.1612      3.2009      2.5498
 11725.5000   -999.2500   -999.2500      0.0975     72.5229    135.2326     40.7965     33.0604     19.9073      0.1618      3.1983      2.5487
 11726.0000   -999.2500   -999.2500      0.0994     72.5740    142.6803     44.8076     34.9809     21.7693      0.1634      3.2186      2.5487
 11726.5000   -999.2500   -999.2500      0.1010     72.6149    135.8133     39.2621     34.7681     20.5178      0.1647      3.2017      2.5493
 11727.0000   -999.2500   -999.2500      0.0935     72.5599    126.2307     36.0409     29.1048     17.5133      0.1626      3.1983      2.5510
 11727.5000   -999.2500   -999.2500      0.0969     72.2846    133.6367     41.2999     35.1522     20.3181      0.1628      3.1784      2.5543
 11728.0000   -999.2500   -999.2500      0.0968     72.0093    127.6441     38.5290     31.7393     20.6222      0.1607      3.1514      2.5576
 11728.5000   -999.2500   -999.2500      0.0930     71.7890    119.0825     34.0561     28.4500     16.5074      0.1584      3.1477      2.5593
 11729.0000   -999.2500   -999.2500      0.0909     71.9324    118.5660     32.4111     26.9787     16.0805      0.1561      3.1451      2.5610
 11729.5000   -999.2500   -999.2500      0.0925     72.1714    120.7534     34.4776     28.1481     16.5312      0.1563      3.1579      2.5616
 11730.0000   -999.2500   -999.2500      0.0921     72.4104    121.8732     34.4987     28.1426     16.7777      0.1562      3.1579      2.5616
 11730.5000   -999.2500   -999.2500      0.0949     72.6016    126.2762     35.3195     29.1791     17.4580      0.1572      3.1538      2.5599
 11731.0000   -999.2500   -999.2500      0.0971     72.6016    129.1291     36.9390     30.4150     18.2360      0.1568      3.1376      2.5535
 11731.5000   -999.2500   -999.2500      0.0984     72.6016    130.3303     37.9841     31.0055     18.5811      0.1557      3.1411      2.5498
 11732.0000   -999.2500   -999.2500      0.0982     72.6016    129.8798     38.4898     31.8356     19.0087      0.1556      3.1536      2.5482
 11732.5000   -999.2500   -999.2500      0.0976     72.5217    127.5168     38.0780     31.3500     18.5808      0.1549      3.1724      2.5484
 11733.0000   -999.2500   -999.2500      0.0957     72.5550    124.9506     39.5470     32.1232     19.0392      0.1557      3.1983      2.5488
 11733.5000   -999.2500   -999.2500      0.1004     72.5883    134.4344     42.9209     34.1801     20.3300      0.1562      3.1983      2.5492
 11734.0000   -999.2500   -999.2500      0.0979     72.5984    129.8906     38.9105     31.9773     18.9886      0.1541      3.1983      2.5496
 11734.5000   -999.2500   -999.2500      0.0976     72.5820    128.5495     37.6708     30.7239     18.3850      0.1527      3.1807      2.5500
 11735.0000   -999.2500   -999.2500      0.0976     72.5657    128.5285     37.3607     30.6545     18.2758      0.1528      3.1983      2.5503
 11735.5000   -999.2500   -999.2500      0.0987     72.5493    129.4609     38.9296     32.3471     18.9519      0.1550      3.1983      2.5507
 11736.0000   -999.2500   -999.2500      0.0997     72.2396    127.6756     41.5502     33.1762     19.3778      0.1567      3.1983      2.5511
 11736.5000   -999.2500   -999.2500      0.0956     72.1946    122.3380     39.6169     32.5856     19.0391      0.1560      3.1983      2.5515
 11737.0000   -999.2500   -999.2500      0.0944     72.1497    122.8957     41.8639     33.6549     19.8581      0.1549      3.1983      2.5519
 11737.5000   -999.2500   -999.2500      0.0957     72.1047    127.5422     44.0687     35.7062     20.8473      0.1549      3.1983      2.5523
 11738.0000   -999.2500   -999.2500      0.0968     72.0688    128.6426     43.0470     35.0308     20.3519      0.1554      3.1691      2.5527
 11738.5000   -999.2500   -999.2500      0.0963     72.0954    125.9759     39.9825     32.7223     19.0891      0.1558      3.1747      2.5531
 11739.0000   -999.2500   -999.2500      0.0952     72.2286    123.4311     37.3250     30.0336     17.9578      0.1565      3.1848      2.5534
 11739.5000   -999.2500   -999.2500      0.0958     72.3618    125.0685     37.2389     30.3757     18.1174      0.1573      3.1983      2.5538
 11740.0000   -999.2500   -999.2500      0.0969     72.4950    129.9104     39.7461     31.7544     19.5198      0.1592      3.2206      2.5542
 11740.5000   -999.2500   -999.2500      0.0976     72.6016    130.0681     40.1543     31.3615     19.1514      0.1610      3.2402      2.5543
 11741.0000   -999.2500   -999.2500      0.0943     72.5350    124.5104     36.5309     29.7231     17.9965      0.1621      3.2793      2.5582
 11741.5000   -999.2500   -999.2500      0.0928     72.4240    120.1769     35.0995     28.5747     17.3027      0.1621      3.2773      2.5632
 11742.0000   -999.2500   -999.2500      0.0913     72.3352    117.8435     34.9597     28.3594     17.2092      0.1610      3.2793      2.5638
 11742.5000   -999.2500   -999.2500      0.0933     72.5446    122.2181     36.8885     30.7977     18.2573      0.1605      3.2793      2.5549
 11743.0000   -999.2500   -999.2500      0.0970     72.4570    130.1558     42.1917     33.2980     20.1857      0.1604      3.2617      2.5498
 11743.5000   -999.2500   -999.2500      0.0959     72.3294    126.7899     40.9663     32.7437     19.7737      0.1603      3.2548      2.5549
 11744.0000   -999.2500   -999.2500      0.0955     72.2588    126.9219     39.9826     31.7564     19.4862      0.1603      3.2388      2.5576
 11744.5000   -999.2500   -999.2500      0.0939     72.1366    123.5531     37.4317     30.2630     17.7628      0.1602      3.2388      2.5588
 11745.0000   -999.2500   -999.2500      0.0906     72.4755    119.2449     35.3805     27.9908     18.1119      0.1601      3.2388      2.5599
 11745.5000   -999.2500   -999.2500      0.0952     72.8145    134.2599     41.8091     33.8084     19.8767      0.1611      3.2220      2.5565
 11746.0000   -999.2500   -999.2500      0.0988     73.0857    135.2609     41.5003     33.3108     19.9255      0.1613      3.1994      2.5510
 11746.5000   -999.2500   -999.2500      0.0999     73.1190    139.5652     39.7298     32.3963     19.6949      0.1611      3.1983      2.5493
 11747.0000   -999.2500   -999.2500      0.0980     73.1190    128.8545     34.4766     28.4940     17.1841      0.1606      3.1780      2.5487
 11747.5000   -999.2500   -999.2500      0.0980     73.1190    129.6553     33.6208     27.4827     16.8111      0.1601      3.1710      2.5498
 11748.0000   -999.2500   -999.2500      0.0955     73.0857    122.6188     31.3383     25.2662     15.3219      0.1591      3.1542      2.5521
 11748.5000   -999.2500   -999.2500      0.0955     72.9146    121.4693     31.6150     26.1726     15.6644      0.1579      3.1579      2.5532
 11749.0000   -999.2500   -999.2500      0.1002     72.7403    134.5936     37.7868     30.5668     19.3301      0.1598      3.1579      2.5476
 11749.5000   -999.2500   -999.2500      0.1031     72.5661    142.4681     40.4999     33.3104     20.0461      0.1599      3.1579      2.5465
 11750.0000   -999.2500   -999.2500      0.0992     72.3918    131.0567     37.5746     28.6333     18.2154      0.1572      3.1579      2.5471
 11750.5000   -999.2500   -999.2500      0.0966     72.2175    128.0174     34.0015     27.9283     16.7685      0.1555      3.1579      2.5560
 11751.0000   -999.2500   -999.2500      0.0917     72.0433    117.2620     29.6815     24.5515     14.3092      0.1533      3.1579      2.5627
 11751.5000   -999.2500   -999.2500      0.0898     71.7891    112.7800     26.4408     21.8837     13.5208      0.1536      3.1413      2.5655
