~Version Information
 VERS.                  2.0:   CWLS log ASCII Standard -VERSION 2.0
 WRAP.                   NO:   One line per depth step
~Well Information Block
#MNEM.UNIT     VALUE/NAME     DESCRIPTION
#---------     -----------    ---------------------------
 STRT.F              8580.0000: START DEPTH
 STOP.F             14491.0000: STOP DEPTH
 STEP.F                 0.5000: STEP DEPTH
 NULL.               -999.2500: NULL VALUE
 LOC .     1072' FWL & 424' FNL:  LOCATION
 FL2 .     A2085 SEC 12 BLK 113:  LOCATIONLINE2
 FL1 .     1072' FWL & 424' FNL:  LOCATIONLINE1
 CNTY.               CULBERSON:  COUNTY NAME
 FLD .              WOLFCAMP B:  FIELD NAME
 WELL.           DALE STATE 2H:  WELL NAME
 COMP.     CAPITAN ENERGY INC.:  COMPANY
 DMF .                      KB:  DRILL MEAS FROM
 PDAT.                      GL:  PERMANENT DATUM
 DATE.             11-Feb-2020:  DATE
 SVCO.             Halliburton:  SERVICECONAME
 PROV.                      TX:  PROVINCE
 STAT.                      TX:  STATE NAME
 CTRY.                     USA:  COUNTRY NAME
 HIDE.                        :  WELLNAMEOPERAT
 UWI .            42-109-33544:  UNIQUE WELL IDENTIFIER
 API .            42-109-33544:  API NUMBER
 RANG.                     N/A:  RANGE
 TOWN.                     N/A:  TOWNSHIP
 SECT.                     N/A:  SECTION
 SON .               906290231:  JOB NUMBER
 SRVC.             Halliburton:  SERVICE COMPANY
 LMF .                      KB:  LOG MEASURED FROM
 TVDS.ft           3291.000000:  TVDSS CORRECTN
 EGL .ft           3266.000000:  GROUND ELEVATION
 APD .ft             25.000000:  DEPTH ABOVE PD
 EPD .ft           3266.000000:  ELEVATION
 BAP .ft              0.000000:  GL ELEV ONSHORE
 GVFD.g               1.000000:  GRAVITY FIELD
 EKB .ft           3291.000000:  KB ELEVATION
 EDF .ft           3291.000000:  DF ELEVATION
~Parameter Information Block
#MNEM.UNIT       Value        Description
#---------     -----------    ---------------------------
 BARI.                     OFF:  BARITE CORR 
 BRMP.                      No:  BromidePresent 
 CSF5.        Conductor Casing:  Casing Func5 
 CSF6.        Conductor Casing:  Casing Func6 
 DATE.               07-Feb-20:  Run Date 
 DCS .               07-Feb-20:  DateCircEndT 
 DLAB.               07-Feb-20:  LogStartDateT 
 ENGI.                John Doe:  Engineer Name 
 LSRV.             OH WIRELINE:  NameOfService 
 LSTM.ucts  09.26.51 07-Feb-20:  Log Start Time 
 LTYP.                     RAW:  LogDataType 
 LUL .                  ODESSA:  LoggingUnitLoc 
 LUN .                12100315:  LoggingUnitNum 
 SCT1.               07-Feb-20:  StartDateRun1 
 TCS .                   09 26:  Time Ciculation Ended 
 TDCE.ucts  09.26.51 07-Feb-20:  Time Circ End 
 TLAB.                   09 26:  LogStartTimeT 
~Curve Information Block
#MNEM.UNIT                 API CODE     Curve Description
#---------               -----------    ---------------------------
 DEPT.F                 00 000 000 000:  Depth
 CCL .V                 00 000 000 000:  Casing Collar Locator
 NPHI_OH.pu             00 000 000 000:  NPHI_OH
 NPHI_CHI.decp          00 000 000 000:  NPHI_CHI
 GR  .api               00 000 000 000:  Gamma API
 GR_CHI.api             00 000 000 000:  GR_CHI
 RHOB_OH.g/cc           00 000 000 000:  RHOB_OH
 RHOB_CHI.g/cc          00 000 000 000:  RHOB_CHI
 PE_OH.b/e              00 000 000 000:  PE_OH
 PE_CHI.b/e             00 000 000 000:  PE_CHI
 LLS_CHI.ohmm           00 000 000 000:  LLS_CHI
 LLS_OH.ohmm            00 000 000 000:  LLS_OH
 LLD_OH.ohmm            00 000 000 000:  LLD_OH
 LLD_CHI.ohmm           00 000 000 000:  LLD_CHI
 DTC_OH.uspf            00 000 000 000:  DTC_OH
 DTC_CHI.uspf           00 000 000 000:  DTC_CHI
 SPHW_CHI.decp          00 000 000 000:  SPHW_CHI
#Other Information
#
#WARRANTY: Halliburton will use its best efforts to furnish customers with 
#accurate information and interpretations that are part of, and incident to, the services 
#provided.  However, Halliburton cannot and does not warrant the accuracy 
#or correctness of such information and interpretations.  Under no circumstances should any 
#such information or interpretation be relied upon as the sole basis for any drilling, 
#completion, production, or financial decision or any procedure involving any risk to the 
#safety of any drilling venture, drilling rig or its crew or any other third party.  The 
#Customer has full responsibility for all drilling, completion and production operation.  
#Halliburton makes no representations or warranties, either expressed or 
#implied, including, but not limited to, the implied warranties of merchantability or fitness 
#for a particular purpose, with respect to the services rendered.  In no event will 
#Halliburton be liable for failure to obtain any particular results or for 
#any damages, including, but not limited to, indirect, special or consequential damages, 
#resulting from the use of any information or interpretation provided by Halliburton.
#
~A    DEPT       CCL     NPHI_OH  NPHI_CHI    GR      GR_CHI   RHOB_OH  RHOB_CHI   PE_OH   PE_CHI LLS_CHI   LLS_OH     LLD_OH   LLD_CHI   DTC_OH   DTC_CHI SPHW_CHI 
    8580.0000    0.0000    5.5600   0.0376   47.6571  46.6639    2.6320   2.6482    5.3434 3.7743  48.0864  180.0143   310.0850  54.9394 -999.2500 64.1368 0.1170
    8580.5000    0.0000    5.2700   0.0397   42.4932  56.1835    2.6573   2.6449    5.2652 3.7667  50.5531  227.1486   336.5639  57.4789 -999.2500 64.8351 0.1219
    8581.0000    0.0000    4.7700   0.0439   36.0217  64.4219    2.6946   2.6389    5.0891 3.7433  52.2748  236.0898   358.5516  58.9342 -999.2500 65.4590 0.1263
    8581.5000    0.0000    4.4900   0.0395   40.0552  54.8567    2.6980   2.6451    4.8649 3.8357  53.9144  237.6341   379.9424  61.4944 -999.2500 64.7328 0.1212
    8582.0000    0.0000    5.0100   0.0349   41.9568  45.6036    2.6823   2.6511    4.6414 3.9591  58.2902  218.1748   273.1870  67.2540 -999.2500 64.0211 0.1161
    8582.5000    0.0000    5.0000   0.0311   40.4225  42.4269    2.6775   2.6558    4.5687 4.0626  64.2551  242.1538   314.4767  74.7605 -999.2500 63.7629 0.1143
    8583.0000    0.0000    4.2600   0.0310   44.0729  47.3043    2.6829   2.6561    4.6454 4.0942  68.2011  242.0999   314.2148  79.6718 -999.2500 64.1568 0.1171
    8583.5000    0.0000    3.9700   0.0308   49.2378  45.7329    2.6853   2.6580    4.7749 4.1320  69.7591  219.1399   348.0434  82.7807 -999.2500 64.1847 0.1173
    8584.0000    0.0000    3.8400   0.0273   46.0708  30.1642    2.6820   2.6673    4.8787 4.2457  69.8810  394.7526   456.8169  86.4102 -999.2500 63.3842 0.1116
    8584.5000    0.0000    3.1500   0.0273   34.1513  27.6914    2.6826   2.6714    4.9108 4.3195  72.3543  395.4102   451.9441  92.2816 -999.2500 63.5446 0.1128
    8585.0000  -13.1748    2.8200   0.0351   26.8845  43.2160    2.6859   2.6633    4.9339 4.2915  80.1675  218.2606   325.5870 102.9226 -999.2500 64.9582 0.1228
    8585.5000  351.8872    2.6100   0.0314   29.2349  32.9951    2.6871   2.6731    5.0245 4.4485  86.2454  213.1031   320.5655 115.3286 -999.2500 64.5823 0.1201
    8586.0000 -239.9500    3.0600   0.0309   31.0346  20.9969    2.6931   2.6782    5.2231 4.4740  77.1787  213.0500   320.2916 105.6555 -999.2500 64.0399 0.1163
    8586.5000   18.7237    3.2600   0.0362   26.9611  23.1353    2.6976   2.6727    5.4362 4.4127  72.6263  202.4818   281.4901  99.3314 -999.2500 64.3330 0.1183
    8587.0000   19.3058    3.1200   0.0432   23.8980  28.5873    2.6957   2.6624    5.6729 4.3293  70.0796  143.1314   175.5721  94.7528 -999.2500 64.5848 0.1201
    8587.5000   10.6582    4.4300   0.0471   30.9405  30.5896    2.6948   2.6553    6.0219 4.4077  80.8189  120.9999   157.1204 109.4326 -999.2500 64.3571 0.1185
    8588.0000 -114.2465    5.6600   0.0500   45.7883  35.0566    2.6870   2.6496    6.0580 4.5595 107.4462  119.9150   155.7159 146.7826 -999.2500 64.3113 0.1182
    8588.5000  -53.4587    5.8800   0.0453   53.5051  20.5078    2.6821   2.6581    5.5871 4.7476 115.8934  130.5336   169.6031 164.3315 -999.2500 63.1700 0.1101
    8589.0000  128.4257    5.1300   0.0500   47.5673  23.0664    2.6870   2.6538    5.2097 4.7043 116.9647  175.6090   242.0765 167.3623 -999.2500 63.4161 0.1119
    8589.5000  -22.8996    2.8200   0.0503   34.7118  16.9781    2.6872   2.6571    5.1729 4.5924  96.4484  177.5559   249.0977 139.9364 -999.2500 63.2500 0.1107
    8590.0000  420.9550    2.4000   0.0598   25.5752  22.5417    2.6909   2.6472    5.2687 4.3675  79.9147  352.5102   530.5413 114.8527 -999.2500 63.8841 0.1152
    8590.5000    0.0000    2.3800   0.0638   22.5789  18.2791    2.7002   2.6451    5.3630 4.2383  63.9015  261.4396   400.5527  92.0884 -999.2500 63.8385 0.1148
    8591.0000    0.0000    2.7900   0.0716   25.6770  21.7808    2.7069   2.6357    5.3683 4.1489  59.5860  213.8533   358.2782  85.2917 -999.2500 64.1841 0.1173
    8591.5000  -75.0822    3.4000   0.0712   34.4644  17.4393    2.7067   2.6372    5.3750 4.2117  60.0483  213.2019   356.7087  86.8857 -999.2500 63.9015 0.1153
    8592.0000    0.0000    3.2900   0.0715   38.6135  24.6032    2.7034   2.6357    5.4141 4.3078  76.5694  199.8948   308.0786 111.1866 -999.2500 64.4252 0.1190
    8592.5000  -35.2264    3.3600   0.0616   36.4656  15.4078    2.6999   2.6512    5.4415 4.5053  86.0613  293.7406   461.2709 129.1209 -999.2500 63.9593 0.1157
    8593.0000   13.9708    3.1100   0.0604   33.9827  18.6195    2.6908   2.6542    5.4948 4.6088 103.9112  295.9378   463.7808 157.4515 -999.2500 64.4611 0.1192
    8593.5000    0.0000    3.2000   0.0635   32.2684  18.5390    2.6873   2.6524    5.5333 4.5555  96.0617  354.7212   700.3235 145.2251 -999.2500 64.7839 0.1215
    8594.0000  -33.6612    3.3100   0.0733   31.1747  23.2604    2.6938   2.6396    5.5599 4.3233  75.5971  325.3086   388.0828 111.7717 -999.2500 65.1966 0.1244
    8594.5000  -20.0049    4.3500   0.0758   36.4382  18.9031    2.6970   2.6358    5.5450 4.1767  57.7258  297.4969   336.1991  84.5819 -999.2500 64.6360 0.1205
    8595.0000   26.4804    5.2900   0.0781   46.1507  27.7229    2.6885   2.6288    5.4340 4.2577  75.8476  256.8566   296.6139 110.2538 -999.2500 64.8868 0.1223
    8595.5000   21.4907    5.0200   0.0807   49.1492  42.1307    2.6799   2.6209    5.3830 4.4247 125.1828  143.4079   229.6296 181.0108 -999.2500 65.6697 0.1278
    8596.0000  212.9241    4.4900   0.0678   44.3827  25.0838    2.6853   2.6399    5.5234 4.6458 124.1507  158.1670   248.9780 186.3857 -999.2500 64.2774 0.1179
    8596.5000  -11.4544    3.2700   0.0747   32.9931  21.9635    2.6998   2.6305    5.7878 4.5073  98.3232  164.3160   256.7919 145.5321 -999.2500 63.8329 0.1148
    8597.0000  695.7431    3.3400   0.0884   25.0070  23.0570    2.7074   2.6110    6.0118 4.2135  66.9665  272.5900   567.5029  95.0600 -999.2500 63.5677 0.1129
    8597.5000   13.7869    3.9400   0.1014   27.4570  32.9676    2.7003   2.5903    6.1192 4.0467  60.5508  256.3784   562.7106  82.3159 -999.2500 63.8916 0.1152
    8598.0000  -32.2488    4.1300   0.0924   33.4102  23.7383    2.6962   2.6015    6.1671 4.2130  65.2085  256.3014   562.1163  89.8718 -999.2500 63.0254 0.1091
    8598.5000  185.8924    4.1300   0.0742   33.4102  10.3948    2.6962   2.6264    6.1671 4.5456  85.8194  256.3014   562.1163 123.8435 -999.2500 62.2167 0.1034
    8599.0000   35.0869    4.0100   0.0649   35.4333  21.2140    2.7050   2.6376    6.1040 4.7580 133.5306  265.1005   589.6526 196.9044 -999.2500 63.1044 0.1096
    8599.5000  -26.2946    3.9300   0.0472   34.5925  15.4431    2.7072   2.6640    5.9333 4.9774 162.1656  645.0533  7423.8418 249.7296 -999.2500 63.2027 0.1103
    8600.0000  -12.7411    3.0500   0.0403   31.7150  15.8101    2.6903   2.6769    5.8136 5.0401 172.6476  659.0389  9625.3848 268.7098 -999.2500 63.9095 0.1153
    8600.5000  -55.3726    3.2900   0.0564   29.7259  40.4565    2.6776   2.6561    5.7648 4.9210 227.3056  659.5618  9685.9658 334.3549 -999.2500 66.5293 0.1339
    8601.0000    0.0000    3.3000   0.0796   29.7691  57.7207    2.6744   2.6284    5.7412 4.5404 190.5417  460.2900  1321.2697 259.3991 -999.2500 69.0109 0.1514
    8601.5000   55.2202    4.3300   0.0878   31.3149  51.6599    2.6553   2.6231    5.6760 4.2227 107.3571  371.9791   736.6349 141.0648 -999.2500 69.3534 0.1538
    8602.0000    0.0000    6.9400   0.0980   43.9459  55.7061    2.6335   2.6114    5.4726 3.9183  71.1596  370.0442   727.2147  90.7986 -999.2500 70.1861 0.1597
    8602.5000    0.0000    7.1600   0.1075   70.1976  68.3674    2.6343   2.5969    5.1576 3.7618  67.1965  352.4900   603.4937  84.6387 -999.2500 71.2572 0.1673
    8603.0000    0.0000    7.8800   0.1172   89.3500  88.1037    2.6270   2.5802    4.6724 3.6852  80.1795  106.5461   147.5577  99.7439 -999.2500 72.8110 0.1783
    8603.5000    0.0000   11.6200   0.1196   94.7229  88.9752    2.6060   2.5764    4.0567 3.5672  67.6432  106.5690   145.2689  84.6783 -999.2500 72.6630 0.1772
    8604.0000   29.9670   12.6000   0.1129   93.6906  72.2397    2.6094   2.5873    3.8476 3.4730  44.8967  107.6499   140.0084  57.2129 -999.2500 71.0009 0.1655
    8604.5000   35.0726   12.5700   0.1104   82.7061  71.1166    2.6188   2.5888    4.1328 3.4157  40.3859  106.0089   124.5180  51.5061 -999.2500 70.5609 0.1624
