###############################################
##         ENVERUS                           ##
##         ESS - Open Hole                   ##
##         PERMIAN / DELAWARE                ##
##         Nov 02 2023  V4.0                 ##
##         42-109-31383-00-00                ##
###############################################
## Copyright 2017-2023  ENVERUS.  All Rights Reserved. 
## Confidential - Property of ENVERUS, use governed by terms and 
## conditions found within the existing Information Services Subscription Agreement 
## (as may be amended, the “ISSA”) between Customer and ENVERUS. 
## 
~VERSION INFORMATION
# MNEM.UNIT                               DATA : DESCRIPTION OF MNEMONIC
#-----.-----     ----------------------------- : -----------------------------
VERS.                                     2.00 : CWLS LOG ASCII STANDARD - VERSION 2.00
WRAP.                                       NO : MULTIPLE LINES PER DEPTH STEP
VEND.                                  ENVERUS : VENDOR
TYPE.                          ESS - OPEN HOLE : ENVERUS ESSENTIAL CURVES – ACCESSIBLE THROUGH ENVERUS PRISM(TM)
DOC.                                  31887493 : ENVERUS HEADER RAW DOCUMENT ID
#___________________________________________________________________________________________________ 
~WELL INFORMATION 
# e8MMFGpko9nixUfuEkfb9P8cKS4olzuguLrtdgPIjARTX3oRymgI2EYtnk6GmA/F0PbYW2Z7xnLx5OgyGayifw== 
# MNEM.UNIT                                              DATA : DESCRIPTION OF MNEMONIC 
#-----.-----                    ----------------------------- : ----------------------------- 
CNTY.                                               CULBERSON : COUNTY 
STATE.                                                  TEXAS : STATE 
CNTRY.                                                    USA : COUNTRY 
API.                                             42-109-31383 : API (10 Digit) 
API_14.                                    42-109-31383-00-00 : API (14 Digits) 
API_14_std.                                 42-109-31383-0000 : API (14 Digits Standard) 
UWI.                                           42109313830000 : UNIQUE WELL ID 
WELL.                                          KIRK  T. A.  1 : WELL NAME
STRT.FT                                                  43.0 : START DEPTH
STOP.FT                                               16492.0 : STOP DEPTH
STEP.FT                                                   0.5 : STEP BETWEEN DEPTHS
NULL.                                                 -999.25 : NULL VALUE
COMP.                                             EXXON CORP. : COMPANY 
DATE.                                             05-AUG-1981 : LOG DATE
#___________________________________________________________________________________________________ 
~CURVE INFORMATION 
# MNEM.UNIT           : CURVE DESCRIPTION 
#-----.-----          : ----------------------------- 
 DEPT.FT               : MEASURED DEPTH 
 CALI.IN               : CALIPER (CAL - CAL) 
 GR.API                : GAMMA RAY (GR) 
 SP.MV                 : SPONTANEOUS POTENTIAL (SP) 
 DT.US/FT              : SONIC DELTA TRANSIT TIME (DT) 
 RESS.OHMM             : SHALLOW INDUCTION RESISTIVITY (ILS - ILS) 
 RESD.OHMM             : DEEP INDUCTION RESISTIVITY (ILD - ILD) 
 NPHI.V/V              : NEUTRON POROSITY (NPHI) 
 #___________________________________________________________________________________________________ 
~A         DEPT           CALI             GR             SP             DT           RESS           RESD           NPHI
# ...
        11701.0          9.385         83.196       -999.250         63.836         64.698         33.285     -999.25000
        11701.5          9.385         88.741       -999.250         64.820         72.668         33.313     -999.25000
        11702.0          9.384         94.286       -999.250         66.237         68.298         33.341     -999.25000
        11702.5          9.384         99.832       -999.250         67.654         60.774         33.369     -999.25000
        11703.0          9.383        105.377       -999.250         69.071         53.251         33.397     -999.25000
        11703.5          9.383        105.986       -999.250         69.894         45.728         33.425     -999.25000
        11704.0          9.383         99.365       -999.250         69.578         40.984         33.454     -999.25000
        11704.5          9.382         96.052       -999.250         69.262         40.979         33.374     -999.25000
        11705.0          9.382         92.739       -999.250         68.945         42.603         33.207     -999.25000
        11705.5          9.381         89.426       -999.250         68.611         44.993         33.041     -999.25000
        11706.0          9.381         86.690       -999.250         68.277         47.383         32.875     -999.25000
        11706.5          9.380         86.266       -999.250         67.943         49.773         32.709     -999.25000
        11707.0          9.380         85.841       -999.250         67.919         50.268         32.543     -999.25000
        11707.5          9.379         85.416       -999.250         68.490         50.169         32.377     -999.25000
        11708.0          9.379         86.618       -999.250         69.061         50.070         32.211     -999.25000
        11708.5          9.378         91.908       -999.250         69.632         48.025         32.044     -999.25000
        11709.0          9.378         97.198       -999.250         70.203         42.812         31.878     -999.25000
        11709.5          9.377        102.488       -999.250         70.774         37.599         31.712     -999.25000
        11710.0          9.377         96.016       -999.250         70.750         32.386         30.927     -999.25000
        11710.5          9.376         88.096       -999.250         70.292         30.608         29.914     -999.25000
        11711.0          9.375         90.311       -999.250         69.346         36.227         29.357     -999.25000
        11711.5          9.375         92.525       -999.250         67.951         41.845         30.795     -999.25000
        11712.0          9.374         93.385       -999.250         66.556         47.463         32.233     -999.25000
        11712.5          9.373         91.857       -999.250         65.161         51.719         33.670     -999.25000
        11713.0          9.373         90.329       -999.250         65.321         55.111         35.108     -999.25000
        11713.5          9.372         88.801       -999.250         65.834         58.502         36.069     -999.25000
        11714.0          9.372         88.445       -999.250         66.347         61.572         36.112     -999.25000
        11714.5          9.371         89.365       -999.250         66.860         56.443         36.155     -999.25000
        11715.0          9.370         90.284       -999.250         67.373         51.314         36.199     -999.25000
        11715.5          9.370         91.204       -999.250         67.887         46.186         36.242     -999.25000
        11716.0          9.369         92.124       -999.250         68.400         43.839         36.285     -999.25000
        11716.5          9.369         89.924       -999.250         67.251         42.188         37.899     -999.25000
        11717.0          9.368         87.231       -999.250         65.724         46.865         40.872     -999.25000
        11717.5          9.367         84.578       -999.250         64.197         76.027         43.844     -999.25000
        11718.0          9.367         82.018       -999.250         62.670         93.731         46.817     -999.25000
        11718.5          9.366         80.027       -999.250         61.643        111.436         49.789     -999.25000
        11719.0          9.366         79.010       -999.250         61.846        113.888         53.772     -999.25000
        11719.5          9.365         77.994       -999.250         62.049        108.402         59.508     -999.25000
        11720.0          9.364         76.978       -999.250         62.251        102.915         65.245     -999.25000
        11720.5          9.364         75.962       -999.250         62.454         97.428         70.981     -999.25000
        11721.0          9.363         75.216       -999.250         62.445         92.861         70.189     -999.25000
        11721.5          9.362         75.793       -999.250         62.038         95.218         68.164     -999.25000
        11722.0          9.362         76.371       -999.250         61.632         97.576         66.138     -999.25000
        11722.5          9.361         76.948       -999.250         61.295         99.933         64.112     -999.25000
        11723.0          9.361         78.333       -999.250         62.182        102.290         62.087     -999.25000
        11723.5          9.360         82.508       -999.250         63.069         97.924         59.286     -999.25000
        11724.0          9.359         86.682       -999.250         63.956         85.775         56.242     -999.25000
        11724.5          9.359         90.857       -999.250         64.843         73.627         53.199     -999.25000
        11725.0          9.358         91.426       -999.250         65.617         71.947         50.155     -999.25000
        11725.5          9.358         91.337       -999.250         65.473         71.860         48.310     -999.25000
        11726.0          9.357         91.248       -999.250         65.329         71.773         47.869     -999.25000
        11726.5          9.356         91.160       -999.250         65.186         71.686         47.429     -999.25000
        11727.0          9.356         88.246       -999.250         65.042         71.599         46.988     -999.25000
        11727.5          9.355         85.087       -999.250         64.898         72.228         46.547     -999.25000
        11728.0          9.354         81.928       -999.250         64.755         77.859         46.107     -999.25000
        11728.5          9.354         78.769       -999.250         63.637         83.489         46.075     -999.25000
        11729.0          9.353         80.414       -999.250         64.279         87.211         46.300     -999.25000
        11729.5          9.353         88.136       -999.250         64.921         84.132         46.525     -999.25000
        11730.0          9.352         93.680       -999.250         65.563         81.052         46.750     -999.25000
        11730.5          9.351         95.327       -999.250         65.437         77.973         46.975     -999.25000
        11731.0          9.351         93.196       -999.250         64.178         74.894         47.200     -999.25000
        11731.5          9.350         84.670       -999.250         62.920         72.314         48.098     -999.25000
        11732.0          9.350         76.143       -999.250         61.661         87.970         49.973     -999.25000
        11732.5          9.349         70.778       -999.250         60.402        103.627         51.848     -999.25000
        11733.0          9.348         73.236       -999.250         59.996        119.283         56.275     -999.25000
        11733.5          9.348         75.694       -999.250         60.561        125.942         60.766     -999.25000
        11734.0          9.347         78.152       -999.250         61.126        116.246         65.256     -999.25000
