###############################################
##         ENVERUS                           ##
##         ESS - Open Hole                   ##
##         PERMIAN / DELAWARE                ##
##         Nov 03 2023  V4.0                 ##
##         42-109-33370-00-00                ##
###############################################
## Copyright 2017-2023  ENVERUS.  All Rights Reserved. 
## Confidential - Property of ENVERUS, use governed by terms and 
## conditions found within the existing Information Services Subscription Agreement 
## (as may be amended, the “ISSA”) between Customer and ENVERUS. 
## 
~VERSION INFORMATION
# MNEM.UNIT                               DATA : DESCRIPTION OF MNEMONIC
#-----.-----     ----------------------------- : -----------------------------
VERS.                                     2.00 : CWLS LOG ASCII STANDARD - VERSION 2.00
WRAP.                                       NO : MULTIPLE LINES PER DEPTH STEP
VEND.                                  ENVERUS : VENDOR
TYPE.                          ESS - OPEN HOLE : ENVERUS ESSENTIAL CURVES – ACCESSIBLE THROUGH ENVERUS PRISM(TM)
DOC.                                  52814434 : ENVERUS HEADER RAW DOCUMENT ID
#___________________________________________________________________________________________________ 
~WELL INFORMATION 
# 4wk/Fx8UuugU+iebl2dHJIcndKaYvWbTE+/Vf37HP7rynMiEVi3nAb6NYbehQO/VbM9PVY38flJCaeNisGRn4g== 
# MNEM.UNIT                                              DATA : DESCRIPTION OF MNEMONIC 
#-----.-----                    ----------------------------- : ----------------------------- 
CNTY.                                               CULBERSON : COUNTY 
STATE.                                                  TEXAS : STATE 
CNTRY.                                                    USA : COUNTRY 
API.                                             42-109-33370 : API (10 Digit) 
API_14.                                    42-109-33370-00-00 : API (14 Digits) 
API_14_std.                                 42-109-33370-0000 : API (14 Digits Standard) 
UWI.                                           42109333700000 : UNIQUE WELL ID 
WELL.                                       ROXANNE FEE 46 3H : WELL NAME
STRT.FT                                                8800.0 : START DEPTH
STOP.FT                                               14157.0 : STOP DEPTH
STEP.FT                                                   0.5 : STEP BETWEEN DEPTHS
NULL.                                                 -999.25 : NULL VALUE
LOC.                                        API  42-109-33370 : LOCATION 
FL1.                                        API  42-109-33370 : LOCATIONLINE1 
DMF.                                                       KB : DRILL MEAS FROM 
PDAT.                                                      GL : PERMANENT DATUM 
FLD.                                    FORD, WEST (WOLFCAMP) : FIELD NAME 
COMP.                                          CAPITAN ENERGY : COMPANY 
DATE.                                             29-APR-2019 : DATE 
SVCO.                                             HALLIBURTON : SERVICECONAME 
PROV.                                                   TEXAS : PROVINCE 
BASI.                                                 PERMIAN : BASIN 
RANG.                                                     N/A : RANGE 
TOWN.                                                     N/A : TOWNSHIP 
SECT.                                                     N/A : SECTION 
SON.                                                905631605 : JOB NUMBER 
SRVC.                                             HALLIBURTON : SERVICE COMPANY 
LMF.                                                       KB : LOG MEASURED FROM 
BAP.FT                                                 0.0000 : GL ELEV ONSHORE 
GVFD.G                                                 1.0000 : GRAVITY FIELD
#___________________________________________________________________________________________________ 
~CURVE INFORMATION 
# MNEM.UNIT           : CURVE DESCRIPTION 
#-----.-----          : ----------------------------- 
 DEPT.FT               : MEASURED DEPTH 
 GR.API                : GAMMA RAY (GR_CHI - GR_CHI) 
 GR__01.API            : GAMMA RAY (GR_OH - GR_OH) 
 DT.US/FT              : SONIC DELTA TRANSIT TIME (DTC_CHI - DTC_CHI) 
 DT__01.US/FT          : SONIC DELTA TRANSIT TIME (DTC_OH - DTC_OH) 
 PE.B/E                : PHOTOELECTRIC EFFECT/FACTOR (PE_CHI - PE_CHI) 
 PE__01.B/E            : PHOTOELECTRIC EFFECT/FACTOR (PE_OH - PE_OH) 
 RESS_10.OHMM          : 10 INCH SHALLOW INDUCTION RESISTIVITY (RT10_CHI - RT10_CHI) 
 RESS_10__01.OHMM      : 10 INCH SHALLOW INDUCTION RESISTIVITY (RT10_OH - RT10_OH) 
 RESM_30.OHMM          : 30 INCH MEDIUM INDUCTION RESISTIVITY (RT30_CHI - RT30_CHI) 
 RESM_30__01.OHMM      : 30 INCH MEDIUM INDUCTION RESISTIVITY (RT30_OH - RT30_OH) 
 RESD_90.OHMM          : 90 INCH DEEP INDUCTION RESISTIVITY (RT90_CHI - RT90_CHI) 
 RESD_90__01.OHMM      : 90 INCH DEEP INDUCTION RESISTIVITY (RT90_OH - RT90_OH) 
 NPHI.V/V              : NEUTRON POROSITY (NPHI_CHI - NPHI_CHI) 
 NPHI__01.V/V          : NEUTRON POROSITY (NPHI_OH - NPHI_OH) 
 SPHI.V/V              : SONIC POROSITY (SPHI_CHI - SPHI_CHI) 
 RHOB.G/CC             : BULK DENSITY (RHOB_CHI - RHOB_CHI) 
 RHOB__01.G/CC         : BULK DENSITY (RHOB_OH - RHOB_OH) 
 #___________________________________________________________________________________________________ 
~A         DEPT             GR         GR__01             DT         DT__01             PE         PE__01        RESS_10    RESS_10__01        RESM_30    RESM_30__01        RESD_90    RESD_90__01           NPHI       NPHI__01           SPHI           RHOB       RHOB__01
# ...
        13075.0        105.054       -999.250         73.290       -999.250         3.4089      -999.2500         37.987       -999.250         39.240       -999.250         41.744       -999.250        0.13830     -999.25000        0.18150         2.5744      -999.2500
        13075.5        104.711       -999.250         73.411       -999.250         3.3995      -999.2500         37.032       -999.250         38.253       -999.250         40.695       -999.250        0.13900     -999.25000        0.18250         2.5740      -999.2500
        13076.0        104.612       -999.250         73.544       -999.250         3.3930      -999.2500         36.336       -999.250         37.534       -999.250         39.930       -999.250        0.13960     -999.25000        0.18340         2.5734      -999.2500
        13076.5        103.940       -999.250         73.656       -999.250         3.3908      -999.2500         35.779       -999.250         36.959       -999.250         39.318       -999.250        0.13980     -999.25000        0.18430         2.5731      -999.2500
        13077.0        102.545       -999.250         73.773       -999.250         3.3918      -999.2500         35.225       -999.250         36.386       -999.250         38.709       -999.250        0.13990     -999.25000        0.18520         2.5732      -999.2500
        13077.5        100.952       -999.250         73.916       -999.250         3.3953      -999.2500         34.643       -999.250         35.785       -999.250         38.069       -999.250        0.14030     -999.25000        0.18630         2.5734      -999.2500
        13078.0         99.935       -999.250         74.089       -999.250         3.3999      -999.2500         34.071       -999.250         35.194       -999.250         37.441       -999.250        0.14150     -999.25000        0.18740         2.5734      -999.2500
        13078.5         99.328       -999.250         74.270       -999.250         3.4067      -999.2500         33.600       -999.250         34.708       -999.250         36.923       -999.250        0.14320     -999.25000        0.18850         2.5733      -999.2500
        13079.0         99.257       -999.250         74.451       -999.250         3.4147      -999.2500         33.294       -999.250         34.392       -999.250         36.587       -999.250        0.14550     -999.25000        0.18950         2.5731      -999.2500
        13079.5         99.412       -999.250         74.562       -999.250         3.4220      -999.2500         33.188       -999.250         34.282       -999.250         36.470       -999.250        0.14770     -999.25000        0.19010         2.5732      -999.2500
        13080.0        100.198       -999.250         74.594       -999.250         3.4247      -999.2500         33.263       -999.250         34.360       -999.250         36.553       -999.250        0.14940     -999.25000        0.19020         2.5732      -999.2500
        13080.5        101.535       -999.250         74.542       -999.250         3.4239      -999.2500         33.492       -999.250         34.596       -999.250         36.805       -999.250        0.15030     -999.25000        0.18980         2.5730      -999.2500
        13081.0        102.478       -999.250         74.385       -999.250         3.4236      -999.2500         33.822       -999.250         34.937       -999.250         37.167       -999.250        0.14990     -999.25000        0.18890         2.5733      -999.2500
        13081.5        101.752       -999.250         74.144       -999.250         3.4257      -999.2500         34.104       -999.250         35.229       -999.250         37.477       -999.250        0.14780     -999.25000        0.18760         2.5745      -999.2500
        13082.0         99.636       -999.250         73.885       -999.250         3.4286      -999.2500         34.169       -999.250         35.295       -999.250         37.548       -999.250        0.14510     -999.25000        0.18630         2.5763      -999.2500
        13082.5         97.752       -999.250         73.685       -999.250         3.4219      -999.2500         33.872       -999.250         34.988       -999.250         37.222       -999.250        0.14280     -999.25000        0.18530         2.5776      -999.2500
        13083.0         97.196       -999.250         73.638       -999.250         3.4074      -999.2500         33.288       -999.250         34.386       -999.250         36.581       -999.250        0.14210     -999.25000        0.18490         2.5776      -999.2500
        13083.5         98.098       -999.250         73.698       -999.250         3.3889      -999.2500         32.621       -999.250         33.696       -999.250         35.847       -999.250        0.14260     -999.25000        0.18500         2.5766      -999.2500
        13084.0         99.401       -999.250         73.811       -999.250         3.3760      -999.2500         32.079       -999.250         33.136       -999.250         35.251       -999.250        0.14350     -999.25000        0.18550         2.5753      -999.2500
        13084.5        100.558       -999.250         73.908       -999.250         3.3684      -999.2500         31.730       -999.250         32.777       -999.250         34.869       -999.250        0.14410     -999.25000        0.18610         2.5742      -999.2500
        13085.0        101.572       -999.250         74.006       -999.250         3.3642      -999.2500         31.547       -999.250         32.587       -999.250         34.667       -999.250        0.14470     -999.25000        0.18670         2.5732      -999.2500
        13085.5        102.595       -999.250         74.089       -999.250         3.3611      -999.2500         31.495       -999.250         32.533       -999.250         34.610       -999.250        0.14520     -999.25000        0.18730         2.5723      -999.2500
        13086.0        102.907       -999.250         74.166       -999.250         3.3613      -999.2500         31.550       -999.250         32.590       -999.250         34.671       -999.250        0.14560     -999.25000        0.18780         2.5718      -999.2500
        13086.5        101.544       -999.250         74.243       -999.250         3.3739      -999.2500         31.759       -999.250         32.806       -999.250         34.900       -999.250        0.14570     -999.25000        0.18820         2.5724      -999.2500
        13087.0         99.347       -999.250         74.294       -999.250         3.3947      -999.2500         32.117       -999.250         33.176       -999.250         35.293       -999.250        0.14570     -999.25000        0.18850         2.5736      -999.2500
        13087.5         97.673       -999.250         74.332       -999.250         3.4165      -999.2500         32.496       -999.250         33.567       -999.250         35.710       -999.250        0.14590     -999.25000        0.18860         2.5747      -999.2500
        13088.0         96.927       -999.250         74.285       -999.250         3.4224      -999.2500         32.608       -999.250         33.683       -999.250         35.833       -999.250        0.14570     -999.25000        0.18840         2.5755      -999.2500
        13088.5         96.761       -999.250         74.183       -999.250         3.4159      -999.2500         32.347       -999.250         33.413       -999.250         35.546       -999.250        0.14530     -999.25000        0.18790         2.5759      -999.2500
        13089.0         96.655       -999.250         74.068       -999.250         3.4007      -999.2500         31.719       -999.250         32.765       -999.250         34.856       -999.250        0.14470     -999.25000        0.18730         2.5761      -999.2500
        13089.5         96.196       -999.250         73.976       -999.250         3.3833      -999.2500         30.855       -999.250         31.872       -999.250         33.907       -999.250        0.14410     -999.25000        0.18680         2.5763      -999.2500
