###############################################
##         ENVERUS                           ##
##         ESS - Open Hole                   ##
##         PERMIAN / DELAWARE                ##
##         Nov 02 2023  V4.0                 ##
##         42-109-32255-00-00                ##
###############################################
## Copyright 2017-2023  ENVERUS.  All Rights Reserved. 
## Confidential - Property of ENVERUS, use governed by terms and 
## conditions found within the existing Information Services Subscription Agreement 
## (as may be amended, the “ISSA”) between Customer and ENVERUS. 
## 
~VERSION INFORMATION
# MNEM.UNIT                               DATA : DESCRIPTION OF MNEMONIC
#-----.-----     ----------------------------- : -----------------------------
VERS.                                     2.00 : CWLS LOG ASCII STANDARD - VERSION 2.00
WRAP.                                       NO : MULTIPLE LINES PER DEPTH STEP
VEND.                                  ENVERUS : VENDOR
TYPE.                          ESS - OPEN HOLE : ENVERUS ESSENTIAL CURVES – ACCESSIBLE THROUGH ENVERUS PRISM(TM)
DOC.                                  31869427 : ENVERUS HEADER RAW DOCUMENT ID
#___________________________________________________________________________________________________ 
~WELL INFORMATION 
# Kns/CyAZPDgS4fEM5w0azv9tYcXlBSx1nHSqICrpKgQv6F2hlFUFpw+R1SAxYfM92i4ks6BDNpB+WhJDZXFO5Q== 
# MNEM.UNIT                                              DATA : DESCRIPTION OF MNEMONIC 
#-----.-----                    ----------------------------- : ----------------------------- 
CNTY.                                               CULBERSON : COUNTY 
STATE.                                                  TEXAS : STATE 
CNTRY.                                                    USA : COUNTRY 
API.                                             42-109-32255 : API (10 Digit) 
API_14.                                    42-109-32255-00-00 : API (14 Digits) 
API_14_std.                                 42-109-32255-0000 : API (14 Digits Standard) 
UWI.                                           42109322550000 : UNIQUE WELL ID 
WELL.                             MELISSA TAYLOR STATE 27  1H : WELL NAME
STRT.FT                                                  94.0 : START DEPTH
STOP.FT                                               13828.0 : STOP DEPTH
STEP.FT                                                   0.5 : STEP BETWEEN DEPTHS
NULL.                                                 -999.25 : NULL VALUE
COMP.                              CHESAPEAKE OPERATING  INC. : COMPANY 
DATE.                                             29-NOV-2005 : LOG DATE
#___________________________________________________________________________________________________ 
~CURVE INFORMATION 
# MNEM.UNIT           : CURVE DESCRIPTION 
#-----.-----          : ----------------------------- 
 DEPT.FT               : MEASURED DEPTH 
 CALI__B.IN            : CALIPER (CAL - CAL) 
 GR__B.API             : GAMMA RAY (GR) 
 DT__B.US/FT           : SONIC DELTA TRANSIT TIME (DT) 
 DPHI__B.V/V           : DENSITY POROSITY (DPHI) 
 NPHI__B.V/V           : NEUTRON POROSITY (NPHI) 
 RHOB__B.G/CC          : BULK DENSITY (RHOB) 
 #___________________________________________________________________________________________________ 
~A         DEPT        CALI__B          GR__B          DT__B        DPHI__B        NPHI__B        RHOB__B
# ...
         9670.0          9.489         95.454         61.146        0.03799        0.10473         2.6490
         9670.5          9.511        105.833         63.527        0.03320        0.18053         2.6640
         9671.0          9.533        114.434         65.614        0.02661        0.19499         2.6800
         9671.5          9.555        115.486         67.262        0.02028        0.19452         2.6800
         9672.0          9.577        113.736         67.799        0.01768        0.18697         2.6700
         9672.5          9.599        113.957         68.007        0.02415        0.17943         2.6600
         9673.0          9.609        115.242         68.215        0.03669        0.17467         2.6500
         9673.5          9.605        116.362         68.297        0.04528        0.17440         2.6400
         9674.0          9.602        117.188         68.208        0.04251        0.17390         2.6430
         9674.5          9.598        117.188         67.595        0.04036        0.17189         2.6540
         9675.0          9.589        110.915         66.441        0.03166        0.16326         2.6640
         9675.5          9.578        104.162         65.269        0.02069        0.15086         2.6750
         9676.0          9.567         99.471         64.070        0.01915        0.14488         2.6790
         9676.5          9.557         98.142         62.871        0.02549        0.14201         2.6740
         9677.0          9.546        101.028         61.672        0.02590        0.13915         2.6710
         9677.5          9.535        103.914         61.274        0.02187        0.13411         2.6810
         9678.0          9.525        105.115         61.531        0.01507        0.12893         2.6850
         9678.5          9.514        102.286         61.647        0.01836        0.13546         2.6750
         9679.0          9.503         99.457         61.209        0.02405        0.13972         2.6650
         9679.5          9.493         96.446         60.409        0.02640        0.13852         2.6550
         9680.0          9.482         92.253         59.614        0.03714        0.11647         2.6450
         9680.5          9.475         83.067         58.885        0.04591        0.09176         2.6350
         9681.0          9.468         77.682         58.636        0.04875        0.07544         2.6420
         9681.5          9.461         78.700         59.069        0.04701        0.08155         2.6510
         9682.0          9.454         82.919         59.676        0.03509        0.10615         2.6600
         9682.5          9.447         85.906         60.241        0.02933        0.12548         2.6630
         9683.0          9.440         88.555         60.333        0.03167        0.12219         2.6610
         9683.5          9.433         90.763         60.192        0.03375        0.11686         2.6600
         9684.0          9.426         93.231         60.156        0.03203        0.11198         2.6630
         9684.5          9.419         95.856         60.133        0.02716        0.10912         2.6700
         9685.0          9.412         91.758         60.143        0.02689        0.10594         2.6620
         9685.5          9.405         90.281         59.902        0.03683        0.09944         2.6540
         9686.0          9.398         91.845         59.786        0.04566        0.09729         2.6460
         9686.5          9.394         95.136         59.954        0.04687        0.09570         2.6380
         9687.0          9.391         95.524         60.122        0.04728        0.09406         2.6390
         9687.5          9.389         92.728         59.910        0.04375        0.09106         2.6410
         9688.0          9.386         89.884         59.923        0.04008        0.08639         2.6420
         9688.5          9.384         86.973         59.993        0.03895        0.07643         2.6440
         9689.0          9.381         85.580         60.063        0.03870        0.07300         2.6430
         9689.5          9.372         86.760         60.074        0.04984        0.08735         2.6360
         9690.0          9.358         90.164         60.003        0.05201        0.10652         2.6310
         9690.5          9.344         93.673         59.903        0.04909        0.10677         2.6440
         9691.0          9.330         92.976         59.782        0.03251        0.09661         2.6570
         9691.5          9.316         91.865         58.945        0.01542        0.08544         2.6700
         9692.0          9.307         92.400         59.222        0.01306        0.08849         2.6830
         9692.5          9.305         94.325         59.882        0.01882        0.09944         2.6880
         9693.0          9.303         95.753         60.542        0.02186        0.10973         2.6780
         9693.5          9.301         94.944         61.252        0.03363        0.11250         2.6690
         9694.0          9.298         94.135         61.560        0.03500        0.11527         2.6600
         9694.5          9.296         97.543         60.672        0.03463        0.11804         2.6680
         9695.0          9.294        101.900         59.822        0.01866        0.11869         2.6810
         9695.5          9.291        102.744         59.388        0.02026        0.10977         2.6770
         9696.0          9.289         91.369         58.968        0.03931        0.08318         2.6510
         9696.5          9.287         81.094         58.550        0.05370        0.07090         2.6310
         9697.0          9.285         80.541         58.581        0.04809        0.07775         2.6380
         9697.5          9.282         84.496         58.916        0.04238        0.09055         2.6410
         9698.0          9.280         88.451         59.237        0.04448        0.09518         2.6370
         9698.5          9.291         92.406         59.476        0.04801        0.09759         2.6330
         9699.0          9.304         96.184         60.363        0.04859        0.10565         2.6320
         9699.5          9.317         99.649         61.294        0.04684        0.11837         2.6410
         9700.0          9.330        103.113         62.772        0.04674        0.13144         2.6510
         9700.5          9.344        106.957         64.250        0.03713        0.14521         2.6600
         9701.0          9.356        111.140         65.489        0.02749        0.15841         2.6700
         9701.5          9.368        115.333         65.007        0.01938        0.17160         2.6780
         9702.0          9.379        120.326         64.298        0.03566        0.17610         2.6470
         9702.5          9.391        115.591         63.174        0.05850        0.16819         2.6160
         9703.0          9.402        103.156         62.032        0.07166        0.12743         2.6000
         9703.5          9.414         87.022         61.367        0.07140        0.08761         2.6040
         9704.0          9.425         76.593         60.796        0.06621        0.06778         2.6090
         9704.5          9.437         71.546         60.272        0.06042        0.06927         2.6100
         9705.0          9.448         74.115         60.474        0.06579        0.08795         2.6080
         9705.5          9.460         78.683         61.112        0.06617        0.10662         2.6160
         9706.0          9.471         86.288         61.017        0.05582        0.12184         2.6250
         9706.5          9.469         94.059         60.585        0.04333        0.12330         2.6350
         9707.0          9.407        101.829         59.900        0.03970        0.12476         2.6440
         9707.5          9.371        103.456         58.884        0.04174        0.12623         2.6440
