~VERSION INFORMATION
VERS. 2.0 : CWLS Log ASCII Standard - Version 2.0
WRAP. NO : One line per depth step
#--------------------------------------------------#
#----------------DRILLING INFO, INC.---------------#
#---------------WWW.DRILLINGINFO.COM---------------#
#------------------COPYRIGHT 2015------------------#
#--------------------------------------------------#
#THIS FILE MAY BE USED ONLY IN ACCORDANCE WITH A CURRENT SUBSCRIPTION AGREEMENT BETWEEN
#THE USER AND DRILLING INFO, INC. NO PART OF THIS FILE MAY BE REPRODUCED, USED, COPIED,
#MODIFIED, PROPAGATED, OR DISTRIBUTED EXCEPT IN ACCORDANCE WITH THE SUBSCRIPTION
#AGREEMENT. UNAUTHORIZED USE OR DISTRIBUTION OF ALL OR ANY PART OF THIS FILE MAY VIOLATE
#COPYRIGHT, TRADEMARK, AND/OR OTHER LAWS AND IS SUBJECT TO CIVIL AS WELL AS CRIMINAL
#SANCTIONS.
#--------------------------------------------------#
#THIS FILE IS PROVIDED "AS-IS" AND ALL WARRANTIES ARE EXPRESSLY DISCLAIMED, WHETHER
#EXPRESS, ORAL, IMPLIED, STATUTORY OR OTHERWISE, INCLUDING ANY IMPLIED WARRANTY OF FITNESS
#FOR A PARTICULAR PURPOSE, MERCHANTABILITY, TITLE OR NON-INFRINGEMENT, AND ANY WARRANTIES
#ARISING BY VIRTUE OF CUSTOM OF TRADE OR COURSE OF DEALING.  FURTHER, DRILLING INFO,
#INC. AND ITS LICENSORS DO NOT REPRESENT OR WARRANT THAT THIS FILE WILL MEET USER'S
#REQUIREMENTS OR ARE SUITABLE FOR USER'S NEEDS OR THAT THE DATA OR RESULTS PROVIDED IN
#CONJUNCTION THEREWITH ARE CORRECT, ACCURATE, TIMELY OR RELIABLE. THESE DISCLAIMERS SHALL
#APPLY REGARDLESS OF ANY FAILURE OF ESSENTIAL PURPOSE OF ANY LIMITED REMEDY.  SOME
#JURISDICTIONS DO NOT ALLOW THE EXCLUSION OF CERTAIN WARRANTIES SO SOME OF THE ABOVE
#EXCLUSIONS MAY NOT APPLY. IN NO EVENT SHALL DRILLING INFO, INC. OR ANY OF ITS AFFILIATES
#BE LIABLE UNDER ANY LEGAL THEORY, WHETHER IN TORT (INCLUDING WITHOUT LIMITATION
#NEGLIGENCE), CONTRACT, STRICT LIABILITY, STATUTORY OR OTHERWISE, FOR ANY SPECIAL,
#INCIDENTAL, CONSEQUENTIAL, EXEMPLARY, PUNITIVE OR INDIRECT DAMAGE OF ANY KIND, INCLUDING
#WITHOUT LIMITATION LOSS OF REVENUE, PROFITS, GOODWILL, USE, AND/OR DATA OR THE COST OF
#PROCUREMENT OF SUBSTITUTE GOODS OR SERVICES, EVEN IF APPRISED OF THE POSSIBILITY OF SUCH
#DAMAGES IN ADVANCE.
#--------------------------------------------------#
~WELL INFORMATION
#MNEMONIC     .UNIT              VALUE :DESCRIPTION
#--------------------------------------------------#
STRT       .ft                52.00000 :START DEPTH
STOP       .ft                8797.00000 :STOP DEPTH
STEP       .ft                0.50000 :STEP
NULL       .                -999.25000 :NULL VALUE
COMP       .                 :COMPANY
WELL       .                 :WELL
FLD       .                 :FIELD
LOC       .                 :LOCATION
CNTY       .                 :COUNTY
STAT       .                 :STATE
CTRY       .                 :COUNTRY
SRVC       .                 :SERVICE COMPANY
DATE       .                 :DATE
API       .                42109700290000 :API NUMBER
~CURVE INFORMATION
#MNEMONIC     .UNIT      API CODE :CURVE DESCRIPTION
#--------------------------------------------------#
DEPTH       .ft                      :Measured Depth
DT       .us/ft        UNKNOWN   :DT
GR       .gAPI        UNKNOWN   :GR
ILD       .ohmm        UNKNOWN   :ILD
ILS       .ohmm        UNKNOWN   :ILS
SP       .mV        UNKNOWN   :SP
~A    DEPTH    DT    GR    ILD    ILS    SP
# ...
4711.50000    53.64227    29.78635    123.72609    137.21068    -60.76616
4712.00000    53.25260    31.26707    118.61980    136.36377    -60.35670
4712.50000    54.23254    31.46501    115.44639    135.51685    -59.94724
4713.00000    55.69142    30.05341    114.27335    134.66994    -59.53778
4713.50000    56.56011    28.64181    113.10031    133.82303    -59.30116
4714.00000    57.08142    27.23020    111.92727    132.97611    -59.35316
4714.50000    57.60272    25.81860    110.75423    132.12920    -59.40516
4715.00000    58.12381    25.28758    109.58119    131.28229    -59.45717
4715.50000    58.64476    27.75679    108.40815    130.57728    -59.50917
4716.00000    59.16571    30.22599    107.23511    130.39806    -59.56118
4716.50000    59.68666    32.69520    106.06207    130.21884    -59.61318
4717.00000    60.28487    34.94125    104.88903    130.03963    -59.66518
4717.50000    61.74118    37.00965    103.71599    129.86041    -59.71719
4718.00000    63.19749    39.07805    102.54295    129.68119    -59.76919
4718.50000    63.78316    41.14645    101.36991    129.50197    -59.77077
4719.00000    63.20363    43.66804    100.19687    129.32275    -59.30270
4719.50000    62.65166    46.74596    99.32315    129.14353    -58.83463
4720.00000    62.58464    48.70732    98.62386    128.96432    -58.36656
4720.50000    62.61632    49.15508    97.92458    128.78510    -57.89849
4721.00000    63.50772    49.60285    97.22529    128.60588    -57.43042
4721.50000    64.39912    50.05061    97.45687    128.42666    -56.96235
4722.00000    65.28386    50.49838    98.69379    128.24744    -56.49428
4722.50000    65.74046    53.00188    99.93071    128.06823    -56.02621
4723.00000    66.19706    56.06206    99.84633    127.88901    -55.88850
4723.50000    66.65281    59.12224    99.87805    127.70979    -58.19686
4724.00000    66.14875    59.47197    99.90978    127.53057    -60.50522
4724.50000    65.64470    59.67472    99.94150    127.35135    -62.81358
4725.00000    65.14065    59.87747    99.97323    127.17213    -63.47998
4725.50000    64.63659    60.08021    100.04956    126.99292    -58.91621
4726.00000    64.54698    59.59867    100.36682    126.81370    -54.35244
4726.50000    64.62480    57.44895    100.68408    126.63448    -54.06123
4727.00000    64.70263    55.29923    101.00134    126.45526    -55.59316
4727.50000    64.78046    55.42292    101.31859    126.27604    -57.12509
4728.00000    64.85829    55.87050    101.63585    126.09683    -58.65702
4728.50000    64.93611    56.31808    101.95311    125.94699    -60.18895
4729.00000    65.91278    56.76567    102.27037    125.94339    -59.86094
4729.50000    66.39627    57.21325    102.58763    125.93979    -57.95958
4730.00000    66.65934    57.66083    102.90489    126.17604    -56.05821
4730.50000    66.92240    58.10842    103.22214    126.42846    -54.15684
4731.00000    66.91713    58.55600    103.53940    126.68088    -52.25547
4731.50000    66.75663    59.00358    103.85666    126.93330    -50.35410
4732.00000    66.59613    59.45116    104.17392    127.18572    -48.45274
4732.50000    66.43563    59.46856    104.49118    127.43814    -46.55137
4733.00000    66.27513    59.46857    104.80844    130.55864    -45.15291
4733.50000    66.11462    59.46858    105.12570    133.72603    -45.37761
4734.00000    65.95412    59.46860    105.44295    136.89343    -45.60232
4734.50000    65.79362    59.46861    105.76021    140.06083    -45.82702
4735.00000    65.63312    59.46862    106.07747    143.22822    -46.05173
4735.50000    65.47262    59.46864    106.39473    146.39562    -46.27643
4736.00000    65.31212    59.46865    106.71199    149.56301    -46.50113
4736.50000    65.15162    59.46866    107.02925    152.73041    -46.34420
4737.00000    64.99111    59.46868    107.34650    159.15786    -44.28298
4737.50000    64.83061    59.46869    107.66376    166.30813    -42.22176
4738.00000    64.67011    59.46870    107.98102    173.45840    -40.16053
4738.50000    64.50961    59.46872    108.29828    180.60867    -40.01663
4739.00000    64.34911    59.46873    108.61554    187.75894    -43.66885
4739.50000    64.18861    59.46874    108.93280    194.90922    -47.32107
4740.00000    64.02811    59.46876    109.25006    202.05949    -50.97330
4740.50000    63.86760    59.46877    109.56731    209.20976    -53.30474
4741.00000    63.76763    58.53340    109.88457    216.36003    -53.96022
4741.50000    63.76775    56.80380    110.20183    223.51031    -54.61571
4742.00000    63.76786    55.07420    110.51909    230.66058    -55.27119
4742.50000    63.76798    53.34460    205.75627    237.81085    -55.92667
4743.00000    63.76809    52.43803    331.82027    244.96112    -56.58216
4743.50000    63.76821    52.05666    457.88427    252.11140    -57.23462
4744.00000    63.77078    51.67530    583.94827    259.26167    -57.41788
4744.50000    63.81936    51.29393    710.01227    266.41194    -57.60115
4745.00000    63.86795    50.91256    715.61330    273.56221    -57.78442
4745.50000    63.91654    50.53119    715.60954    275.49594    -57.96769
4746.00000    63.96513    50.14982    715.60577    276.06439    -58.15095
4746.50000    64.01372    49.76846    715.60201    276.63284    -58.33422
4747.00000    64.20880    49.38709    715.59825    277.20129    -58.51749
4747.50000    64.47232    49.19263    715.59449    277.76974    -58.70076
4748.00000    64.73584    49.73010    715.59073    278.33820    -58.88402
4748.50000    64.99936    50.26758    715.02100    278.90665    -59.06729
4749.00000    65.19831    50.80505    712.74470    279.47510    -59.25056
4749.50000    65.18696    51.34252    710.46840    280.04355    -58.32904
4750.00000    65.17560    51.88000    708.19211    280.61200    -55.99144
4750.50000    65.16425    52.41747    705.91581    281.18045    -53.65385
4751.00000    65.15290    52.95494    703.63951    281.74890    -51.31626
4751.50000    65.14154    53.49242    631.93457    282.31735    -51.23683
4752.00000    65.13019    53.50740    567.69125    282.88581    -52.59993
4752.50000    65.11883    53.36753    532.21434    283.45426    -53.96185
4753.00000    65.10748    53.22765    496.73742    284.02271    -55.32321
4753.50000    65.09613    53.08778    461.26051    279.34088    -56.68457
4754.00000    65.08477    52.94791    713.05105    273.34360    -58.04594
4754.50000    65.07342    52.80804    713.47815    267.34633    -59.40730
4755.00000    65.06206    52.66817    713.90525    261.34905    -60.76866
4755.50000    65.05071    52.52830    714.33235    255.35177    -60.00701
4756.00000    65.03936    52.38842    714.75945    249.35450    -58.93268
4756.50000    65.02800    52.24855    715.18656    240.84747    -57.85834
4757.00000    65.01665    52.10868    715.61366    229.25157    -56.78400
4757.50000    65.03296    51.96881    716.04076    217.65567    -55.70967
4758.00000    65.15744    51.82894    716.46786    206.05977    -54.63533
4758.50000    65.28192    51.68906    716.89497    194.46387    -53.56099
4759.00000    65.40640    51.54919    717.32207    182.86797    -52.48665
4759.50000    65.53088    51.40932    717.74917    171.27207    -53.06984
4760.00000    65.65536    51.40877    715.83912    159.67617    -55.02769
4760.50000    65.77984    51.51047    697.19894    152.26413    -56.98554
4761.00000    65.90432    51.61217    678.55876    148.02904    -58.40257
4761.50000    65.98452    51.71386    659.91857    143.79396    -58.65561
4762.00000    65.98462    51.81556    311.36187    139.55887    -58.90865
4762.50000    65.98471    51.91725    232.58471    135.32378    -59.16169
4763.00000    65.98481    52.01895    153.80754    131.08870    -59.41473
4763.50000    65.98490    52.12064    98.23247    126.85361    -59.66777
4764.00000    65.98500    52.22234    92.43788    122.61853    -59.92082
4764.50000    65.98509    52.32404    86.64330    118.38344    -60.17386
4765.00000    65.98519    52.42573    80.84872    114.14835    -60.42690
4765.50000    65.98528    52.52743    75.05414    104.84248    -59.20416
