###############################################
##         ENVERUS                           ##
##         ESS - Open Hole                   ##
##         PERMIAN / DELAWARE                ##
##         Nov 03 2023  V4.0                 ##
##         42-109-32620-90-00                ##
###############################################
## Copyright 2017-2023  ENVERUS.  All Rights Reserved. 
## Confidential - Property of ENVERUS, use governed by terms and 
## conditions found within the existing Information Services Subscription Agreement 
## (as may be amended, the “ISSA”) between Customer and ENVERUS. 
## 
~VERSION INFORMATION
# MNEM.UNIT                               DATA : DESCRIPTION OF MNEMONIC
#-----.-----     ----------------------------- : -----------------------------
VERS.                                     2.00 : CWLS LOG ASCII STANDARD - VERSION 2.00
WRAP.                                       NO : MULTIPLE LINES PER DEPTH STEP
VEND.                                  ENVERUS : VENDOR
TYPE.                          ESS - OPEN HOLE : ENVERUS ESSENTIAL CURVES – ACCESSIBLE THROUGH ENVERUS PRISM(TM)
DOC.                                  51092952 : ENVERUS HEADER RAW DOCUMENT ID
#___________________________________________________________________________________________________ 
~WELL INFORMATION 
# LYPeWtxrle9FodilXqet+3VuPRh8A73lGXm1Q3+VPjdIM+tEhu367IfA47DlYFnVF+yDwY76OrXOyADpoj01xA== 
# MNEM.UNIT                                              DATA : DESCRIPTION OF MNEMONIC 
#-----.-----                    ----------------------------- : ----------------------------- 
CNTY.                                               CULBERSON : COUNTY 
STATE.                                                  TEXAS : STATE 
CNTRY.                                                    USA : COUNTRY 
API.                                             42-109-32620 : API (10 Digit) 
API_14.                                    42-109-32620-90-00 : API (14 Digits) 
API_14_std.                                 42-109-32620-9000 : API (14 Digits Standard) 
UWI.                                           42109326209000 : UNIQUE WELL ID 
WELL.                               42109326200000_PREV_API14 : WELL NAME
STRT.FT                                                2339.0 : START DEPTH
STOP.FT                                               10866.0 : STOP DEPTH
STEP.FT                                                   0.5 : STEP BETWEEN DEPTHS
NULL.                                                 -999.25 : NULL VALUE
PREV_APII.                                     42109326200000 : WELL IDENTIFIER
#___________________________________________________________________________________________________ 
~PARAMETER INFORMATION 
# MNEM.UNIT                                              DATA : DESCRIPTION OF MNEMONIC 
#-----.-----                    ----------------------------- : ----------------------------- 
EKB.FT                                                   3330 : ELEVATION ABOVE MSL
#___________________________________________________________________________________________________ 
~CURVE INFORMATION 
# MNEM.UNIT           : CURVE DESCRIPTION 
#-----.-----          : ----------------------------- 
 DEPT.FT               : MEASURED DEPTH 
 GR__A.API             : GAMMA RAY (GAMMA RAY) 
 DT__A.US/FT           : SONIC DELTA TRANSIT TIME (SONIC) 
 #___________________________________________________________________________________________________ 
~A         DEPT          GR__A          DT__A
# ...
         5732.0        201.793        117.352
         5732.5        197.267        116.637
         5733.0        194.563        116.024
         5733.5        195.215        115.145
         5734.0        197.897        114.945
         5734.5        197.732        115.963
         5735.0        185.553        117.706
         5735.5        158.673        117.573
         5736.0        137.743        115.369
         5736.5        125.540        107.002
         5737.0        124.616        102.307
         5737.5        136.905        104.109
         5738.0        157.414        109.086
         5738.5        189.549        114.506
         5739.0        205.222        116.550
         5739.5        214.320        116.349
         5740.0        214.293        117.231
         5740.5        195.011        121.382
         5741.0        183.218        127.194
         5741.5        171.048        136.384
         5742.0        153.445        142.939
         5742.5        121.232        146.478
         5743.0        100.630        148.793
         5743.5         91.387        150.853
         5744.0         89.484        151.053
         5744.5         90.758        148.657
         5745.0        105.572        143.083
         5745.5        141.424        133.168
         5746.0        170.145        124.494
         5746.5        164.077        117.367
         5747.0        156.886        115.311
         5747.5        162.062        115.593
         5748.0        161.043        116.206
         5748.5        141.416        116.681
         5749.0        135.489        116.750
         5749.5        153.337        116.550
         5750.0        175.658        116.550
         5750.5        195.662        117.065
         5751.0        194.912        117.352
         5751.5        194.289        117.152
         5752.0        203.926        117.205
         5752.5        207.270        116.951
         5753.0        203.748        116.750
         5753.5        199.847        116.570
         5754.0        204.347        116.942
         5754.5        209.001        119.782
         5755.0        177.721        128.012
         5755.5        136.100        135.806
         5756.0        114.272        136.610
         5756.5        111.432        130.795
         5757.0        127.309        122.077
         5757.5        155.556        118.251
         5758.0        177.646        117.272
         5758.5        205.810        116.951
         5759.0        201.651        117.054
         5759.5        183.212        117.667
         5760.0        166.617        117.753
         5760.5        163.545        117.553
         5761.0        164.764        117.405
         5761.5        166.383        117.109
         5762.0        166.529        118.725
         5762.5        154.983        123.492
         5763.0        130.648        125.965
         5763.5        111.771        125.159
         5764.0        110.152        120.680
         5764.5        110.702        113.466
         5765.0        121.869        111.499
         5765.5        152.152        112.331
         5766.0        181.354        113.800
         5766.5        201.996        113.942
         5767.0        198.519        113.340
         5767.5        186.306        115.020
         5768.0        159.271        115.948
         5768.5        128.523        113.572
         5769.0        122.381        104.942
         5769.5        121.086         94.022
         5770.0        121.651         89.321
         5770.5        131.710         94.107
         5771.0        144.881        102.023
         5771.5        160.231        111.449
         5772.0        179.399        116.942
         5772.5        194.698        121.161
         5773.0        242.307        116.307
         5773.5        282.133        114.180
         5774.0        337.302        112.738
         5774.5        331.975        116.084
         5775.0        264.678        118.414
         5775.5        206.058        116.707
         5776.0        181.384        114.181
         5776.5        143.704        105.621
         5777.0        123.907        102.353
         5777.5        122.724         99.171
         5778.0        129.192         97.969
         5778.5        132.127         97.830
         5779.0        127.461         98.242
         5779.5        116.873         98.094
         5780.0        111.837         98.094
         5780.5        110.180        100.958
         5781.0        109.398        108.083
         5781.5        114.982        115.361
         5782.0        119.701        117.366
         5782.5        134.957        117.152
         5783.0        162.709        118.692
         5783.5        172.144        126.784
         5784.0        160.401        133.983
         5784.5        129.653        141.765
         5785.0        125.226        143.251
         5785.5        120.472        144.433
         5786.0        111.740        144.129
         5786.5        102.053        143.459
         5787.0        103.271        140.897
         5787.5        147.745        134.686
         5788.0        169.824        129.133
         5788.5        281.916        119.970
         5789.0        336.994        116.510
         5789.5        384.991        115.074
         5790.0        399.442        114.945
         5790.5        387.807        114.340
         5791.0        436.598        113.526
         5791.5        448.272        112.023
         5792.0        391.131        113.231
         5792.5        321.193        118.842
         5793.0        261.346        120.255
         5793.5        274.625        121.274
         5794.0        299.280        117.951
         5794.5        350.015        115.308
         5795.0        388.380        114.945
         5795.5        404.163        114.228
         5796.0        368.227        114.268
         5796.5        274.195        119.383
         5797.0        211.372        121.364
         5797.5        200.252        122.866
         5798.0        196.068        125.115
         5798.5        177.431        135.226
         5799.0        136.815        144.163
         5799.5         99.703        147.045
         5800.0         88.721        148.259
         5800.5         84.605        148.080
         5801.0         91.238        145.125
         5801.5         95.713        141.658
         5802.0         93.413        136.722
         5802.5         95.689        130.737
         5803.0        104.160        124.179
         5803.5        112.913        115.986
         5804.0        118.694        108.270
         5804.5        124.923        101.375
         5805.0        131.366        101.356
         5805.5        135.088        105.907
         5806.0        146.802        110.680
         5806.5        195.151        114.940
         5807.0        225.090        117.393
         5807.5        225.150        118.938
         5808.0        222.193        120.955
         5808.5        214.132        121.568
         5809.0        204.533        121.242
         5809.5        215.518        117.637
         5810.0        244.072        111.706
         5810.5        260.713        106.154
         5811.0        203.228        102.419
         5811.5        148.464        100.596
         5812.0        133.948        101.386
         5812.5        141.291        103.442
         5813.0        154.424        106.129
         5813.5        175.711        108.124
         5814.0        183.604        106.468
         5814.5        164.674        105.537
         5815.0        132.993        101.534
         5815.5        120.048         98.800
         5816.0        113.432         97.121
         5816.5        112.682         97.957
         5817.0        131.015         99.763
         5817.5        182.606        103.524
         5818.0        244.401        106.334
         5818.5        260.558        107.802
