###############################################
##         ENVERUS                           ##
##         ESS - Open Hole                   ##
##         PERMIAN / DELAWARE                ##
##         Nov 02 2023  V4.0                 ##
##         42-109-32255-00-00                ##
###############################################
## Copyright 2017-2023  ENVERUS.  All Rights Reserved. 
## Confidential - Property of ENVERUS, use governed by terms and 
## conditions found within the existing Information Services Subscription Agreement 
## (as may be amended, the “ISSA”) between Customer and ENVERUS. 
## 
~VERSION INFORMATION
# MNEM.UNIT                               DATA : DESCRIPTION OF MNEMONIC
#-----.-----     ----------------------------- : -----------------------------
VERS.                                     2.00 : CWLS LOG ASCII STANDARD - VERSION 2.00
WRAP.                                       NO : MULTIPLE LINES PER DEPTH STEP
VEND.                                  ENVERUS : VENDOR
TYPE.                          ESS - OPEN HOLE : ENVERUS ESSENTIAL CURVES – ACCESSIBLE THROUGH ENVERUS PRISM(TM)
DOC.                                  31869427 : ENVERUS HEADER RAW DOCUMENT ID
#___________________________________________________________________________________________________ 
~WELL INFORMATION 
# Kns/CyAZPDgS4fEM5w0azv9tYcXlBSx1nHSqICrpKgQv6F2hlFUFpw+R1SAxYfM92i4ks6BDNpB+WhJDZXFO5Q== 
# MNEM.UNIT                                              DATA : DESCRIPTION OF MNEMONIC 
#-----.-----                    ----------------------------- : ----------------------------- 
CNTY.                                               CULBERSON : COUNTY 
STATE.                                                  TEXAS : STATE 
CNTRY.                                                    USA : COUNTRY 
API.                                             42-109-32255 : API (10 Digit) 
API_14.                                    42-109-32255-00-00 : API (14 Digits) 
API_14_std.                                 42-109-32255-0000 : API (14 Digits Standard) 
UWI.                                           42109322550000 : UNIQUE WELL ID 
WELL.                             MELISSA TAYLOR STATE 27  1H : WELL NAME
STRT.FT                                                  94.0 : START DEPTH
STOP.FT                                               13828.0 : STOP DEPTH
STEP.FT                                                   0.5 : STEP BETWEEN DEPTHS
NULL.                                                 -999.25 : NULL VALUE
COMP.                              CHESAPEAKE OPERATING  INC. : COMPANY 
DATE.                                             29-NOV-2005 : LOG DATE
#___________________________________________________________________________________________________ 
~CURVE INFORMATION 
# MNEM.UNIT           : CURVE DESCRIPTION 
#-----.-----          : ----------------------------- 
 DEPT.FT               : MEASURED DEPTH 
 CALI__B.IN            : CALIPER (CAL - CAL) 
 GR__B.API             : GAMMA RAY (GR) 
 DT__B.US/FT           : SONIC DELTA TRANSIT TIME (DT) 
 DPHI__B.V/V           : DENSITY POROSITY (DPHI) 
 NPHI__B.V/V           : NEUTRON POROSITY (NPHI) 
 RHOB__B.G/CC          : BULK DENSITY (RHOB) 
 #___________________________________________________________________________________________________ 
~A         DEPT        CALI__B          GR__B          DT__B        DPHI__B        NPHI__B        RHOB__B
# ...
        13774.0          5.761        142.208       -999.250       -0.04420        0.07320         2.7840
        13774.5          5.832        140.219       -999.250       -0.05038        0.07512         2.7920
        13775.0          5.933        138.577       -999.250       -0.05628        0.07619         2.7960
        13775.5          6.034        136.934       -999.250       -0.05299        0.07725         2.7900
        13776.0          6.090        136.828       -999.250       -0.04648        0.07852         2.7830
        13776.5          6.071        139.315       -999.250       -0.05150        0.08026         2.7930
        13777.0          6.052        142.212       -999.250       -0.06444        0.08200         2.8080
        13777.5          6.033        147.345       -999.250       -0.06895        0.08374         2.8170
        13778.0          6.013        148.559       -999.250       -0.06300        0.08501         2.7990
        13778.5          5.994        146.373       -999.250       -0.04562        0.08488         2.7800
        13779.0          5.975        142.961       -999.250       -0.04127        0.08475         2.7800
        13779.5          5.956        139.103       -999.250       -0.04260        0.08462         2.7900
        13780.0          5.937        137.738       -999.250       -0.05514        0.08449         2.8000
        13780.5          5.917        138.811       -999.250       -0.06639        0.08436         2.8090
        13781.0          5.898        140.706       -999.250       -0.07136        0.08505         2.8190
        13781.5          5.902        142.601       -999.250       -0.07171        0.08642         2.8280
        13782.0          5.905        143.425       -999.250       -0.06908        0.08779         2.8240
        13782.5          5.908        143.893       -999.250       -0.06486        0.08917         2.8120
        13783.0          5.911        144.048       -999.250       -0.05163        0.09054         2.7880
        13783.5          5.915        143.773       -999.250       -0.03852        0.08997         2.7690
        13784.0          5.918        143.621       -999.250       -0.03360        0.08930         2.7650
        13784.5          5.921        143.621       -999.250       -0.03468        0.08863         2.7610
        13785.0          5.924        145.110       -999.250       -0.03137        0.08796         2.7590
        13785.5          5.928        146.709       -999.250       -0.03138        0.08729         2.7620
        13786.0          5.931        145.741       -999.250       -0.03048        0.08690         2.7650
        13786.5          5.934        143.566       -999.250       -0.03362        0.08690         2.7680
        13787.0          5.937        141.391       -999.250       -0.03676        0.08690         2.7700
        13787.5          5.941        139.217       -999.250       -0.03745        0.08629         2.7700
        13788.0          5.944        137.063       -999.250       -0.03702        0.08536         2.7680
        13788.5          5.947        135.736       -999.250       -0.04046        0.08443         2.7770
        13789.0          5.950        135.964       -999.250       -0.04868        0.08350         2.7860
        13789.5          5.954        136.353       -999.250       -0.05275        0.08258         2.7960
        13790.0          5.957        134.953       -999.250       -0.05668        0.08350         2.8050
        13790.5          5.960        133.579       -999.250       -0.06061        0.08471         2.8150
        13791.0          5.963        136.208       -999.250       -0.06424        0.08569         2.7850
        13791.5          5.967        138.836       -999.250       -0.06584        0.08476         2.7910
        13792.0          5.970        140.735       -999.250       -0.05237        0.08383         2.7980
        13792.5          5.973        141.072       -999.250       -0.04852        0.08380         2.8060
        13793.0          5.976        142.027       -999.250       -0.05087        0.08414         2.8130
        13793.5          5.980        143.238       -999.250       -0.06459        0.08425         2.8200
        13794.0          5.983        141.958       -999.250       -0.06478        0.08414         2.7980
        13794.5          5.986        140.443       -999.250       -0.05539        0.08403         2.7710
        13795.0          5.990        139.593       -999.250       -0.04617        0.08409         2.7690
        13795.5          5.991        141.025       -999.250       -0.03789        0.08483         2.7750
        13796.0          5.990        142.457       -999.250       -0.03710        0.08541         2.7810
        13796.5          5.989        143.888       -999.250       -0.03783        0.08598         2.7870
        13797.0          5.988        143.654       -999.250       -0.04146        0.08656         2.7930
        13797.5          5.987        143.419       -999.250       -0.04710        0.08713         2.7990
        13798.0          5.986        142.889       -999.250       -0.05274        0.08756         2.8040
        13798.5          5.985        142.296       -999.250       -0.05925        0.08685         2.8100
        13799.0          5.984        142.997       -999.250       -0.06434        0.08614         2.8080
        13799.5          5.983        143.698       -999.250       -0.06595        0.08543         2.8020
        13800.0          5.982        142.874       -999.250       -0.05954        0.08623         2.7950
        13800.5          5.981        141.484       -999.250       -0.04778        0.08706         2.7880
        13801.0          5.980        141.459       -999.250       -0.04162        0.08789         2.7820
        13801.5          5.979        142.433       -999.250       -0.04672        0.08754         2.7850
        13802.0          5.979        143.262       -999.250       -0.04690        0.08698         2.7890
        13802.5          5.978        141.495       -999.250       -0.05084        0.08643         2.7920
        13803.0          5.977        138.572       -999.250       -0.04702        0.08587         2.7960
        13803.5          5.976        135.648       -999.250       -0.05097        0.08532         2.7940
        13804.0          5.975        136.382       -999.250       -0.04788        0.08521         2.7890
        13804.5          5.974        137.796       -999.250       -0.05331        0.08552         2.7850
        13805.0          5.973        138.771       -999.250       -0.04408        0.08560         2.7810
        13805.5          5.972        137.357       -999.250       -0.04209        0.08410         2.7810
        13806.0          5.971        135.943       -999.250       -0.04041        0.08412         2.7860
        13806.5          5.970        135.614       -999.250       -0.04339        0.08499         2.7920
        13807.0          5.969        136.522       -999.250       -0.04902        0.08573         2.7920
        13807.5          5.968        137.431       -999.250       -0.05261        0.08483         2.7880
        13808.0          5.967        141.332       -999.250       -0.04926        0.08394         2.7840
        13808.5          5.967       -999.250       -999.250       -0.04559        0.08304         2.7790
        13809.0          5.966       -999.250       -999.250       -0.04385        0.08367         2.7750
        13809.5          5.965       -999.250       -999.250       -0.04400        0.08479         2.7850
        13810.0          5.964       -999.250       -999.250       -0.04152        0.08591         2.7990
        13810.5          5.963       -999.250       -999.250       -0.04702        0.08677         2.8120
        13811.0          5.962       -999.250       -999.250       -0.05401        0.08731         2.8120
        13811.5          5.961       -999.250       -999.250       -0.06517        0.08784         2.8090
