###############################################
##         ENVERUS                           ##
##         ESS - Open Hole                   ##
##         PERMIAN / DELAWARE                ##
##         Nov 02 2023  V4.0                 ##
##         42-109-32346-90-00                ##
###############################################
## Copyright 2017-2023  ENVERUS.  All Rights Reserved. 
## Confidential - Property of ENVERUS, use governed by terms and 
## conditions found within the existing Information Services Subscription Agreement 
## (as may be amended, the “ISSA”) between Customer and ENVERUS. 
## 
~VERSION INFORMATION
# MNEM.UNIT                               DATA : DESCRIPTION OF MNEMONIC
#-----.-----     ----------------------------- : -----------------------------
VERS.                                     2.00 : CWLS LOG ASCII STANDARD - VERSION 2.00
WRAP.                                       NO : MULTIPLE LINES PER DEPTH STEP
VEND.                                  ENVERUS : VENDOR
TYPE.                          ESS - OPEN HOLE : ENVERUS ESSENTIAL CURVES – ACCESSIBLE THROUGH ENVERUS PRISM(TM)
DOC.                                  51092887 : ENVERUS HEADER RAW DOCUMENT ID
#___________________________________________________________________________________________________ 
~WELL INFORMATION 
# XhrHiXkIrwGIJmPLTIo0+WseqdI1VWn+o0JF90EYfb9BJ/ikjsIPmHpj3yVLlwnYQ/npclNvflN3Ll99f4ZCqQ== 
# MNEM.UNIT                                              DATA : DESCRIPTION OF MNEMONIC 
#-----.-----                    ----------------------------- : ----------------------------- 
CNTY.                                               CULBERSON : COUNTY 
STATE.                                                  TEXAS : STATE 
CNTRY.                                                    USA : COUNTRY 
API.                                             42-109-32346 : API (10 Digit) 
API_14.                                    42-109-32346-90-00 : API (14 Digits) 
API_14_std.                                 42-109-32346-9000 : API (14 Digits Standard) 
UWI.                                           42109323469000 : UNIQUE WELL ID 
WELL.                                                  DRD_55 : WELL NAME
STRT.FT                                                 334.5 : START DEPTH
STOP.FT                                                4950.0 : STOP DEPTH
STEP.FT                                                   0.5 : STEP BETWEEN DEPTHS
NULL.                                                 -999.25 : NULL VALUE
PREV_APII.                                     42109323460000 : WELL IDENTIFIER
#___________________________________________________________________________________________________ 
~PARAMETER INFORMATION 
# MNEM.UNIT                                              DATA : DESCRIPTION OF MNEMONIC 
#-----.-----                    ----------------------------- : -----------------------------
#___________________________________________________________________________________________________ 
~CURVE INFORMATION 
# MNEM.UNIT           : CURVE DESCRIPTION 
#-----.-----          : ----------------------------- 
 DEPT.FT               : MEASURED DEPTH 
 CALI.IN               : CALIPER (CAL - CALIPER) 
 GR.API                : GAMMA RAY (GAMMA RAY) 
 DT.US/FT              : SONIC DELTA TRANSIT TIME (SONIC) 
 #___________________________________________________________________________________________________ 
~A         DEPT           CALI             GR             DT
# ...
         2446.5          8.729         56.298         74.002
         2447.0          8.733         55.981         74.121
         2447.5          8.749         55.975         74.640
         2448.0          8.743         54.484         74.544
         2448.5          8.723         52.566         73.333
         2449.0          8.710         52.318         73.178
         2449.5          8.690         55.057         72.743
         2450.0          8.690         54.880         73.104
         2450.5          8.690         51.941         73.178
         2451.0          8.690         51.773         72.560
         2451.5          8.671         54.732         71.541
         2452.0          8.671         56.971         70.845
         2452.5          8.636         65.623         69.685
         2453.0          8.616         67.057         67.468
         2453.5          8.612         62.808         63.902
         2454.0          8.575         58.320         61.823
         2454.5          8.554         34.375         56.434
         2455.0          8.554         30.203         55.861
         2455.5          8.554         29.253         56.391
         2456.0          8.554         30.846         56.857
         2456.5          8.554         40.635         58.962
         2457.0          8.554         47.596         60.434
         2457.5          8.554         48.148         61.381
         2458.0          8.554         47.565         61.721
         2458.5          8.554         46.979         61.319
         2459.0          8.573         47.718         61.321
         2459.5          8.573         54.467         63.753
         2460.0          8.573         57.124         64.817
         2460.5          8.585         58.102         66.565
         2461.0          8.593         51.903         67.869
         2461.5          8.593         47.039         67.890
         2462.0          8.593         46.979         67.915
         2462.5          8.593         48.888         68.163
         2463.0          8.593         49.123         67.914
         2463.5          8.593         49.776         67.414
         2464.0          8.573         52.469         67.222
         2464.5          8.554         53.996         65.333
         2465.0          8.534         51.553         62.442
         2465.5          8.513         44.447         60.221
         2466.0          8.495         38.951         58.455
         2466.5          8.491         34.928         56.833
         2467.0          8.476         33.256         56.061
         2467.5          8.456         31.389         55.215
         2468.0          8.456         28.362         54.112
         2468.5          8.447         25.454         53.727
         2469.0          8.447         25.628         53.994
         2469.5          8.447         27.393         53.905
         2470.0          8.447         27.793         53.819
         2470.5          8.447         27.875         53.192
         2471.0          8.447         27.158         53.159
         2471.5          8.447         27.680         53.469
         2472.0          8.447         28.766         53.424
         2472.5          8.447         31.613         53.411
         2473.0          8.437         34.428         53.887
         2473.5          8.437         38.574         55.596
         2474.0          8.437         42.486         56.704
         2474.5          8.437         42.264         56.694
         2475.0          8.417         34.340         55.338
         2475.5          8.398         29.600         54.801
         2476.0          8.398         30.235         54.880
         2476.5          8.398         31.629         56.116
         2477.0          8.398         34.764         57.257
         2477.5          8.398         37.622         56.947
         2478.0          8.398         36.504         56.769
         2478.5          8.398         35.478         56.432
         2479.0          8.398         38.118         56.532
         2479.5          8.398         45.725         58.571
         2480.0          8.398         48.274         59.427
         2480.5          8.398         47.170         61.663
         2481.0          8.378         44.109         60.888
         2481.5          8.359         42.756         58.443
         2482.0          8.359         35.858         56.318
         2482.5          8.342         30.075         53.708
         2483.0          8.339         26.914         54.076
         2483.5          8.339         29.520         56.033
         2484.0          8.339         38.605         58.973
         2484.5          8.339         55.177         60.705
         2485.0          8.339         61.850         60.426
         2485.5          8.359         51.619         58.009
         2486.0          8.359         45.493         56.749
         2486.5          8.359         38.618         56.443
         2487.0          8.359         35.240         56.120
         2487.5          8.359         30.390         55.312
         2488.0          8.378         28.453         54.199
         2488.5          8.378         25.826         53.090
         2489.0          8.359         21.702         52.400
         2489.5          8.359         16.840         52.514
         2490.0          8.359         15.090         52.673
         2490.5          8.359         18.253         52.774
         2491.0          8.408         22.446         52.994
         2491.5          8.456         29.948         53.687
         2492.0          8.456         39.270         59.299
         2492.5          8.476         61.500         64.378
         2493.0          8.534         84.896         68.612
         2493.5          8.534         87.919         70.688
         2494.0          8.555         73.681         68.436
         2494.5          8.576         54.348         67.106
         2495.0          8.612         53.642         67.283
         2495.5          8.612         53.366         67.341
         2496.0          8.612         52.966         67.735
         2496.5          8.632         53.216         67.852
         2497.0          8.632         53.216         67.383
         2497.5          8.612         55.642         65.903
         2498.0          8.612         56.725         64.335
         2498.5          8.612         52.985         61.524
         2499.0          8.601         47.461         58.554
         2499.5          8.594         35.836         56.514
         2500.0          8.594         33.391         56.111
         2500.5          8.610         27.680         56.298
         2501.0          8.634         32.298         56.916
         2501.5          8.683         36.273         56.734
         2502.0          8.720         35.885         56.072
         2502.5          8.730         25.944         55.337
         2503.0          8.720         26.319         54.636
         2503.5          8.731         26.511         55.219
         2504.0          8.731         26.511         55.335
         2504.5          8.731         27.001         55.837
         2505.0          8.762         29.090         56.405
         2505.5          8.831         34.880         57.032
         2506.0          8.959         37.296         57.589
         2506.5          9.117         36.388         57.879
         2507.0          9.156         33.054         57.501
         2507.5          9.016         31.585         56.707
         2508.0          8.851         29.960         56.309
         2508.5          8.666         28.036         56.272
         2509.0          8.605         29.822         57.226
         2509.5          8.573         34.377         59.166
         2510.0          8.573         36.208         60.167
         2510.5          8.573         48.068         63.487
         2511.0          8.590         53.338         65.064
         2511.5          8.649         54.757         67.552
         2512.0          8.690         54.400         68.098
