###############################################
##         ENVERUS                           ##
##         ESS - Open Hole                   ##
##         PERMIAN / DELAWARE                ##
##         Nov 02 2023  V4.0                 ##
##         42-109-32297-90-00                ##
###############################################
## Copyright 2017-2023  ENVERUS.  All Rights Reserved. 
## Confidential - Property of ENVERUS, use governed by terms and 
## conditions found within the existing Information Services Subscription Agreement 
## (as may be amended, the “ISSA”) between Customer and ENVERUS. 
## 
~VERSION INFORMATION
# MNEM.UNIT                               DATA : DESCRIPTION OF MNEMONIC
#-----.-----     ----------------------------- : -----------------------------
VERS.                                     2.00 : CWLS LOG ASCII STANDARD - VERSION 2.00
WRAP.                                       NO : MULTIPLE LINES PER DEPTH STEP
VEND.                                  ENVERUS : VENDOR
TYPE.                          ESS - OPEN HOLE : ENVERUS ESSENTIAL CURVES – ACCESSIBLE THROUGH ENVERUS PRISM(TM)
DOC.                                  52921007 : ENVERUS HEADER RAW DOCUMENT ID
#___________________________________________________________________________________________________ 
~WELL INFORMATION 
# EM3SY5Bwx6x9YoJmjxbMXtwK21/gMzSEmeWIZ71LA4UD3Y8PQw/mHJ0IHc4n7dRi3zAL189RIdETacnakexX1Q== 
# MNEM.UNIT                                              DATA : DESCRIPTION OF MNEMONIC 
#-----.-----                    ----------------------------- : ----------------------------- 
CNTY.                                               CULBERSON : COUNTY 
STATE.                                                  TEXAS : STATE 
CNTRY.                                                    USA : COUNTRY 
API.                                             42-109-32297 : API (10 Digit) 
API_14.                                    42-109-32297-90-00 : API (14 Digits) 
API_14_std.                                 42-109-32297-9000 : API (14 Digits Standard) 
UWI.                                           42109322979000 : UNIQUE WELL ID 
WELL.                          MELISSA TAYLOR STATE 105-3  1H : WELL NAME
STRT.FT                                                 200.0 : START DEPTH
STOP.FT                                               10260.0 : STOP DEPTH
STEP.FT                                                   0.5 : STEP BETWEEN DEPTHS
NULL.                                                 -999.25 : NULL VALUE
PREV_API.                                        421093229700 : API NUMBER 
COMP.                              CHESAPEAKE OPERATING  INC. : COMPANY 
DATE.                                             17-JUN-2008 : LOG DATE
#___________________________________________________________________________________________________ 
~CURVE INFORMATION 
# MNEM.UNIT           : CURVE DESCRIPTION 
#-----.-----          : ----------------------------- 
 DEPT.FT               : MEASURED DEPTH 
 CALI.IN               : CALIPER (CAL - CAL) 
 GR.API                : GAMMA RAY (GR) 
 DT.US/FT              : SONIC DELTA TRANSIT TIME (DT) 
 RESS.OHMM             : SHALLOW INDUCTION RESISTIVITY (ILS - ILS) 
 RESD.OHMM             : DEEP INDUCTION RESISTIVITY (ILD - ILD) 
 DPHI.V/V              : DENSITY POROSITY (DPHI) 
 NPHI.V/V              : NEUTRON POROSITY (NPHI) 
 RHOB.G/CC             : BULK DENSITY (RHOB) 
 #___________________________________________________________________________________________________ 
~A         DEPT           CALI             GR             DT           RESS           RESD           DPHI           NPHI           RHOB
# ...
         9020.5         12.374        110.521         76.496        144.222        183.323        0.05447        0.25080         2.6350
         9021.0         12.389        113.719         77.472        149.523        191.264        0.06393        0.24478         2.6150
         9021.5         12.410        115.125         78.471        143.722        174.422        0.07338        0.23877         2.5930
         9022.0         12.462        116.462         79.553        134.938        163.480        0.07306        0.23874         2.5770
         9022.5         12.515        117.717         80.635        141.055        163.485        0.07683        0.24481         2.5760
         9023.0         12.567        116.782         81.717        144.674        163.490        0.07782        0.25088         2.5760
         9023.5         12.619        114.647         79.010        133.428        149.634        0.07785        0.25280         2.5760
         9024.0         12.595        104.945         75.452        122.183        135.441        0.07473        0.24808         2.5750
         9024.5         12.560         93.189         72.584        110.937        118.345        0.06211        0.24337         2.6030
         9025.0         12.524         88.412         70.441        115.662        114.445        0.05333        0.23704         2.6110
         9025.5         12.489         83.635         68.297        121.092        120.105        0.05192        0.20887         2.6190
         9026.0         12.454         78.927         66.825        126.522        125.765        0.04401        0.18070         2.6280
         9026.5         12.418         75.347         65.524        131.952        131.426        0.03580        0.16647         2.6360
         9027.0         12.383         75.198         64.947        137.382        137.086        0.03757        0.15702         2.6440
         9027.5         12.364         75.424         64.895        130.026        130.760        0.04030        0.15735         2.6450
         9028.0         12.351         75.650         64.842        119.961        124.234        0.04232        0.15991         2.6420
         9028.5         12.339         75.876         64.747        133.456        124.165        0.03791        0.15960         2.6420
         9029.0         12.326         75.084         64.189        149.217        134.282        0.03250        0.15899         2.6530
         9029.5         12.314         74.073         63.630        140.733        144.400        0.02602        0.15839         2.6640
         9030.0         12.315         73.061         63.242        117.317        132.291        0.01719        0.15778         2.6750
         9030.5         12.318         73.343         63.065        152.551        144.489        0.01426        0.15706         2.6860
         9031.0         12.321         73.816         62.888        187.786        156.526        0.01519        0.15332         2.6780
         9031.5         12.324         73.866         62.711        219.881        174.269        0.02060        0.14959         2.6700
         9032.0         12.327         73.349         62.631        198.898        176.512        0.02545        0.14585         2.6620
         9032.5         12.330         72.833         62.792        177.915        165.450        0.02747        0.14211         2.6660
         9033.0         12.333         74.542         62.953        184.963        159.230        0.02356        0.14637         2.6700
         9033.5         12.336         78.691         63.114        193.772        156.621        0.02180        0.15202         2.6730
         9034.0         12.339         78.433         63.275        181.541        166.541        0.02414        0.15355         2.6730
         9034.5         12.342         77.231         63.008        169.309        151.288        0.02664        0.14966         2.6680
         9035.0         12.341         76.029         62.631        157.077        139.700        0.02337        0.14645         2.6660
         9035.5         12.336         74.646         62.543        181.165        146.911        0.01964        0.14458         2.6710
         9036.0         12.330         72.190         62.456        213.268        167.671        0.01652        0.14270         2.6760
         9036.5         12.325         69.846         62.368        213.264        171.891        0.02061        0.14368         2.6790
         9037.0         12.320         70.014         62.741        209.030        171.136        0.02138        0.14573         2.6720
         9037.5         12.315         73.509         63.331        222.126        195.939        0.02540        0.14777         2.6650
         9038.0         12.310         75.368         63.869        250.008        228.408        0.02760        0.14982         2.6590
         9038.5         12.305         74.198         63.714        277.890        239.258        0.02999        0.14753         2.6550
         9039.0         12.300         72.651         63.232        242.570        208.588        0.03532        0.14481         2.6510
         9039.5         12.295         71.105         62.749        186.452        174.982        0.03472        0.14210         2.6500
         9040.0         12.290         70.350         63.513        178.275        161.046        0.03156        0.14361         2.6510
         9040.5         12.285         71.766         64.463        334.155        223.272        0.03381        0.15082         2.6510
         9041.0         12.289         73.181         63.767        336.008        291.561        0.03836        0.15249         2.6490
         9041.5         12.293         69.057         61.276        308.235        282.014        0.04142        0.14549         2.6440
         9042.0         12.297         60.652         58.784        268.273        272.468        0.03544        0.11438         2.6570
         9042.5         12.301         51.405         55.909        256.957        227.851        0.02203        0.08695         2.6720
         9043.0         12.305         42.158         51.938        221.930        171.350        0.00862        0.06109         2.6870
         9043.5         12.310         38.723         51.835        168.196        145.300       -0.00478        0.04493         2.7020
         9044.0         12.314         45.913         53.769        565.213        216.083        0.00062        0.04451         2.7160
         9044.5         12.313         57.172         58.386       1338.797       1034.959        0.01315        0.07087         2.7090
         9045.0         12.309         63.053         60.543       2112.380       2146.174        0.02008        0.10326         2.6930
         9045.5         12.305         66.058         60.106       2122.234       2215.571        0.02243        0.11244         2.6770
         9046.0         12.302         63.823         59.100       1438.794       1164.803        0.01848        0.11395         2.6820
         9046.5         12.298         61.587         59.241        353.662        248.372        0.00983        0.09941         2.6900
         9047.0         12.294         66.786         60.744        222.914        147.927        0.00778        0.10204         2.6870
         9047.5         12.290         73.298         62.641        199.048        200.620        0.01491        0.11529         2.6770
         9048.0         12.287         78.899         63.401        346.655        256.677        0.02495        0.13513         2.6670
         9048.5         12.304         77.838         63.346        388.460        219.540        0.03735        0.14576         2.6560
         9049.0         12.320         72.804         61.933        207.236        159.703        0.03543        0.14264         2.6460
         9049.5         12.337         66.140         60.270        168.522        142.294        0.03143        0.13126         2.6510
