###############################################
##         ENVERUS                           ##
##         ESS - Open Hole                   ##
##         PERMIAN / DELAWARE                ##
##         Nov 03 2023  V4.0                 ##
##         42-109-32572-90-00                ##
###############################################
## Copyright 2017-2023  ENVERUS.  All Rights Reserved. 
## Confidential - Property of ENVERUS, use governed by terms and 
## conditions found within the existing Information Services Subscription Agreement 
## (as may be amended, the “ISSA”) between Customer and ENVERUS. 
## 
~VERSION INFORMATION
# MNEM.UNIT                               DATA : DESCRIPTION OF MNEMONIC
#-----.-----     ----------------------------- : -----------------------------
VERS.                                     2.00 : CWLS LOG ASCII STANDARD - VERSION 2.00
WRAP.                                       NO : MULTIPLE LINES PER DEPTH STEP
VEND.                                  ENVERUS : VENDOR
TYPE.                          ESS - OPEN HOLE : ENVERUS ESSENTIAL CURVES – ACCESSIBLE THROUGH ENVERUS PRISM(TM)
DOC.                                  51093105 : ENVERUS HEADER RAW DOCUMENT ID
#___________________________________________________________________________________________________ 
~WELL INFORMATION 
# JLMmoJa/ja/TVcwAQvDk33OYEn4U2aLD16xKSNtVAxpK3Y/5Eg5lhKgsZNDQ5ZP0fRHfEZLFMAnipg5oeA7W3g== 
# MNEM.UNIT                                              DATA : DESCRIPTION OF MNEMONIC 
#-----.-----                    ----------------------------- : ----------------------------- 
CNTY.                                               CULBERSON : COUNTY 
STATE.                                                  TEXAS : STATE 
CNTRY.                                                    USA : COUNTRY 
API.                                             42-109-32572 : API (10 Digit) 
API_14.                                    42-109-32572-90-00 : API (14 Digits) 
API_14_std.                                 42-109-32572-9000 : API (14 Digits Standard) 
UWI.                                           42109325729000 : UNIQUE WELL ID 
WELL.                               42109325720000_PREV_API14 : WELL NAME
STRT.FT                                                2248.5 : START DEPTH
STOP.FT                                               10721.5 : STOP DEPTH
STEP.FT                                                   0.5 : STEP BETWEEN DEPTHS
NULL.                                                 -999.25 : NULL VALUE
PREV_APII.                                     42109325720000 : WELL IDENTIFIER
#___________________________________________________________________________________________________ 
~PARAMETER INFORMATION 
# MNEM.UNIT                                              DATA : DESCRIPTION OF MNEMONIC 
#-----.-----                    ----------------------------- : ----------------------------- 
EKB.FT                                                   3340 : ELEVATION ABOVE MSL
#___________________________________________________________________________________________________ 
~CURVE INFORMATION 
# MNEM.UNIT           : CURVE DESCRIPTION 
#-----.-----          : ----------------------------- 
 DEPT.FT               : MEASURED DEPTH 
 GR__A.API             : GAMMA RAY (GAMMA RAY) 
 DT__A.US/FT           : SONIC DELTA TRANSIT TIME (SONIC) 
 #___________________________________________________________________________________________________ 
~A         DEPT          GR__A          DT__A
# ...
        10078.5        257.252        125.477
        10079.0        263.265        126.328
        10079.5        230.304        120.351
        10080.0        217.610        119.751
        10080.5        184.087         96.957
        10081.0        198.928        105.724
        10081.5        218.266        114.023
        10082.0        216.702        113.115
        10082.5        204.270        108.253
        10083.0        204.090        109.599
        10083.5        214.481        114.316
        10084.0        212.437        112.786
        10084.5        210.764        108.462
        10085.0        226.565        108.164
        10085.5        252.179        111.855
        10086.0        254.628        119.401
        10086.5        236.404        117.834
        10087.0        216.760        116.962
        10087.5        223.316        116.758
        10088.0        227.067        116.732
        10088.5        221.693        115.653
        10089.0        202.973        100.230
        10089.5        155.967         92.602
        10090.0        154.233         95.516
        10090.5        165.902        100.065
        10091.0        226.389        108.559
        10091.5        210.859        105.472
        10092.0        199.653        101.946
        10092.5        190.204        109.871
        10093.0        229.483        121.193
        10093.5        256.831        121.758
        10094.0        272.172        122.060
        10094.5        271.157        121.348
        10095.0        247.920        115.649
        10095.5        245.473        112.345
        10096.0        244.053        111.751
        10096.5        229.935        110.922
        10097.0        226.451        109.075
        10097.5        211.287         98.184
        10098.0        201.445         94.811
        10098.5        165.274         91.833
        10099.0        161.694         91.248
        10099.5        142.642         90.363
        10100.0        138.209         89.792
        10100.5         88.850         64.399
        10101.0         70.356         58.195
        10101.5         54.343         57.676
        10102.0         49.751         57.735
        10102.5         54.572         57.430
        10103.0         71.269         64.131
        10103.5        163.201        117.256
        10104.0        191.143        117.770
        10104.5        301.836        127.347
        10105.0        317.449        128.477
        10105.5        319.458        126.108
        10106.0        304.252        122.955
        10106.5        267.246        115.613
        10107.0        250.982        115.982
        10107.5        247.750        116.779
        10108.0        247.377        117.661
        10108.5        252.745        119.166
        10109.0        270.285        122.576
        10109.5        294.794        126.870
        10110.0        301.772        123.396
        10110.5        297.847        122.420
        10111.0        297.429        122.031
        10111.5        284.319        121.737
        10112.0        277.093        121.841
        10112.5        273.387        125.645
        10113.0        275.147        125.644
        10113.5        263.243        129.127
        10114.0        256.757        127.305
        10114.5        241.327        122.726
        10115.0        253.546        119.760
        10115.5        260.611        111.437
        10116.0        232.801        105.602
        10116.5        171.297         99.906
        10117.0        182.336         93.712
        10117.5        208.253        101.269
        10118.0        214.693        106.401
        10118.5        274.338        120.200
        10119.0        278.225        122.063
        10119.5        255.966        125.873
        10120.0        251.694        126.233
        10120.5        236.993        106.122
        10121.0        205.929        105.056
        10121.5        208.111        106.602
        10122.0        225.440        107.959
        10122.5        223.525        110.967
        10123.0        209.045        105.952
        10123.5        198.225        111.899
        10124.0        207.244        113.226
        10124.5        224.860        114.005
        10125.0        227.317        118.328
        10125.5        211.647        113.626
        10126.0        209.114        112.817
        10126.5        211.010        116.743
        10127.0        216.770        116.285
        10127.5        241.772        116.090
        10128.0        249.259        115.684
        10128.5        254.012        119.738
        10129.0        248.738        115.798
        10129.5        236.162        103.946
        10130.0        225.513        103.162
        10130.5        176.521        100.910
        10131.0        148.176         92.858
        10131.5        145.284        111.185
        10132.0        145.516        118.613
        10132.5        184.769        122.694
        10133.0        223.569        122.715
        10133.5        183.790        115.140
        10134.0        171.931        109.760
        10134.5        143.340        109.101
        10135.0        154.093        127.815
        10135.5        242.409        129.234
        10136.0        274.172        129.624
        10136.5        258.519        126.060
        10137.0        227.402        118.822
        10137.5        210.959        115.899
        10138.0        209.247        117.621
        10138.5        237.995        121.790
        10139.0        251.945        120.103
        10139.5        252.446        118.906
        10140.0        254.289        119.366
        10140.5        294.862        123.883
        10141.0        320.707        128.093
        10141.5        343.332        132.856
        10142.0        365.958        134.208
        10142.5        343.374        134.128
        10143.0        307.759        130.852
        10143.5        303.125        114.665
        10144.0        292.373        109.648
        10144.5        233.675        103.717
        10145.0        194.684         94.101
        10145.5        147.489         78.868
        10146.0        135.418         76.666
        10146.5        115.393         81.871
        10147.0        139.571        101.618
        10147.5        209.922        109.181
        10148.0        221.656        112.579
        10148.5        219.109        111.041
        10149.0        207.589        112.635
        10149.5        215.596        117.226
        10150.0        220.511        114.785
        10150.5        225.832        110.489
        10151.0        232.331        110.410
        10151.5        246.871        112.511
        10152.0        248.306        115.612
        10152.5        258.277        124.852
        10153.0        312.356        131.959
        10153.5        356.487        134.141
        10154.0        355.610        133.248
        10154.5        334.015        128.650
        10155.0        329.816        120.904
        10155.5        320.669        118.587
        10156.0        309.608        119.083
        10156.5        302.844        120.415
        10157.0        302.935        121.887
        10157.5        281.781        120.433
        10158.0        271.879        118.075
        10158.5        240.826         89.014
        10159.0        200.856         91.548
        10159.5        180.725         97.275
        10160.0        226.372         99.619
        10160.5        314.311        116.604
        10161.0        327.984        120.910
        10161.5        320.184        112.678
        10162.0        298.837        111.828
        10162.5        269.605        113.991
        10163.0        296.463        116.461
        10163.5        337.148        119.489
        10164.0        336.497        117.404
        10164.5        303.869        111.372
        10165.0        277.164        113.942
