~Version Information
 VERS.                  2.0:   CWLS log ASCII Standard -VERSION 2.0
 WRAP.                   NO:   One line per depth step
~Well Information Block
#MNEM.UNIT     VALUE/NAME     DESCRIPTION
#---------     -----------    ---------------------------
 STRT.F              8564.0000: START DEPTH
 STOP.F             14132.0000: STOP DEPTH
 STEP.F                 0.5000: STEP DEPTH
 NULL.                 -999.25: NULL VALUE
 FL6 .       API  42-109-33219:  LOCATIONLINE6
 LOC .     253' FEL & 408' FNL:  LOCATION
 FL4 .           ABSTRACT 1760:  LOCATIONLINE4
 FL3 .        T&P RR CO SURVEY:  LOCATIONLINE3
 FL2 .     SECTION 32, BLOCK 58 T2:  LOCATIONLINE2
 FL1 .     253' FEL & 408' FNL:  LOCATIONLINE1
 DMF .                      KB:  DRILL MEAS FROM
 PDAT.                      GL:  PERMANENT DATUM
 CTRY.                     USA:  COUNTRY NAME
 PROV.                   TEXAS:  PROVINCE
 STAT.                   TEXAS:  STATE NAME
 CNTY.               CULBERSON:  COUNTY NAME
 FLD .     FORD, WEST (WOLFCAMP):  FIELD NAME
 WELL.        MOTHER FEE 28 2H:  WELL NAME
 COMP.     CAPITAN ENERGY INC.:  COMPANY
 DATE.             24-Jan-2018:  DATE
 SVCO.             Halliburton:  SERVICECONAME
 HIDE.                        :  WELLNAMEOPERAT
 BASI.                 PERMIAN:  BASIN
 UWI .            42-109-33219LAT:  UNIQUE WELL IDENTIFIER
 API .            42-109-33219LAT:  API NUMBER
 RANG.                     N/A:  RANGE
 TOWN.                     N/A:  TOWNSHIP
 SECT.                     N/A:  SECTION
 SON .               904563795:  JOB NUMBER
 SRVC.             Halliburton:  SERVICE COMPANY
 LMF .                      KB:  LOG MEASURED FROM
 EGL .ft             3142.0000:  GROUND ELEVATION
 BAP .ft                0.0000:  GL ELEV ONSHORE
 GVFD.g                 1.0000:  GRAVITY FIELD
 EKB .ft             3167.0000:  KB ELEVATION
 EDF .ft             3166.0000:  DF ELEVATION
~Curve Information Block
#MNEM.UNIT                 API CODE     Curve Description
#---------               -----------    ---------------------------
 DEPT.F                 00 000 000 000:  Depth
 CCL .V                 00 000 000 000:  Casing Collar Locator
 NPHI_OH.pu             00 000 000 000:  NPHI_OH
 NPHI_CHI.pu            00 000 000 000:  NPHI_CHI
 GR_OH.api              00 000 000 000:  GR_OH
 GR_CHI.api             00 000 000 000:  GR_CHI
 RHOB_OH.g/cc           00 000 000 000:  RHOB_OH
 RHOB_CHI.g/cc          00 000 000 000:  RHOB_CHI
 PE_OH.b/e              00 000 000 000:  PE_OH
 PE_CHI.b/e             00 000 000 000:  PE_CHI
 DTC_OH.uspf            00 000 000 000:  DTC_OH
 DTC_CHI.uspf           00 000 000 000:  DTC_CHI
 SPHI_CHI.pu            00 000 000 000:  SPHI_CHI
 RT10_OH.ohmm           00 000 000 000:  RT10_OH
 RT10_CHI.ohmm          00 000 000 000:  RT10_CHI
 RT30_OH.ohmm           00 000 000 000:  RT30_OH
 RT30_CHI.ohmm          00 000 000 000:  RT30_CHI
 RT90_OH.ohmm           00 000 000 000:  RT90_OH
 RT90_CHI.ohmm          00 000 000 000:  RT90_CHI
 SGF .cu                00 000 000 000:  Formation Sigma
 CRNF.NONE              00 000 000 000:  CaptMode Capt Ratio
 RIN .NONE              00 000 000 000:  CaptMode Gross Inel Ratio
#Other Information
#
#WARRANTY: Halliburton will use its best efforts to furnish customers with 
#accurate information and interpretations that are part of, and incident to, the services 
#provided.  However, Halliburton cannot and does not warrant the accuracy 
#or correctness of such information and interpretations.  Under no circumstances should any 
#such information or interpretation be relied upon as the sole basis for any drilling, 
#completion, production, or financial decision or any procedure involving any risk to the 
#safety of any drilling venture, drilling rig or its crew or any other third party.  The 
#Customer has full responsibility for all drilling, completion and production operation.  
#Halliburton makes no representations or warranties, either expressed or 
#implied, including, but not limited to, the implied warranties of merchantability or fitness 
#for a particular purpose, with respect to the services rendered.  In no event will 
#Halliburton be liable for failure to obtain any particular results or for 
#any damages, including, but not limited to, indirect, special or consequential damages, 
#resulting from the use of any information or interpretation provided by Halliburton.
#
~A    DEPT       CCL    NPHI_OH NPHI_CHI  GR_OH    GR_CHI  RHOB_OH RHOB_CHI  PE_OH   PE_CHI   DTC_OH  DTC_CHI SPHI_CHI RT10_OH  RT10_CHI RT30_OH  RT30_CHI RT90_OH  RT90_CHI   SGF    CRNF   RIN   
# ...
   10412.0000   -0.1070 -999.25  10.6776  -999.25 104.7548 -999.25   2.5979 -999.25    3.2700 -999.25 70.1184  15.9300  -999.25  30.1159  -999.25  28.5794  -999.25  31.2817 23.0551 0.9328 1.0895
   10412.5000    0.0000 -999.25   9.8402  -999.25  91.0798 -999.25   2.6069 -999.25    3.3660 -999.25 69.4243  15.4300  -999.25  37.0664  -999.25  36.1342  -999.25  40.0564 22.5260 0.9257 1.0826
   10413.0000    0.0000 -999.25  10.0048  -999.25 100.4460 -999.25   2.6080 -999.25    3.4703 -999.25 69.0256  15.1500  -999.25  35.7496  -999.25  34.7763  -999.25  38.7538 22.1073 0.9162 1.0745
   10413.5000    0.0000 -999.25   9.5636  -999.25  95.4775 -999.25   2.6133 -999.25    3.5567 -999.25 68.4282  14.7300  -999.25  41.3612  -999.25  40.9714  -999.25  46.1624 21.6973 0.9036 1.0662
   10414.0000    0.0000 -999.25   9.6426  -999.25 100.7726 -999.25   2.6128 -999.25    3.6089 -999.25 67.9524  14.3900  -999.25  43.7547  -999.25  43.6767  -999.25  49.6593 21.3751 0.8936 1.0634
   10414.5000    0.0000 -999.25   9.2765  -999.25  99.6767 -999.25   2.6177 -999.25    3.6969 -999.25 67.0452  13.7500  -999.25  49.5726  -999.25  50.0558  -999.25  57.4793 21.0130 0.8949 1.0649
   10415.0000    0.0000 -999.25   8.5918  -999.25  90.2850 -999.25   2.6262 -999.25    3.8009 -999.25 66.2762  13.2100  -999.25  57.3294  -999.25  58.7852  -999.25  67.9595 20.7311 0.9033 1.0686
   10415.5000    0.0000 -999.25   8.3683  -999.25  89.7288 -999.25   2.6302 -999.25    3.8847 -999.25 65.8014  12.8700  -999.25  60.3616  -999.25  62.2631  -999.25  72.3421 20.5529 0.9096 1.0714
   10416.0000    0.0000 -999.25   7.9881  -999.25  81.6994 -999.25   2.6336 -999.25    3.9106 -999.25 65.5027  12.6600  -999.25  65.0150  -999.25  67.7187  -999.25  78.7782 20.4531 0.9096 1.0696
   10416.5000  -30.3401 -999.25   8.0210  -999.25  79.7019 -999.25   2.6321 -999.25    3.8846 -999.25 65.7048  12.8000  -999.25  64.8065  -999.25  67.6872  -999.25  78.6943 20.3891 0.8990 1.0637
   10417.0000    0.0000 -999.25   7.7679  -999.25  72.4549 -999.25   2.6331 -999.25    3.8615 -999.25 65.5991  12.7300  -999.25  67.6189  -999.25  70.9978  -999.25  82.3965 20.2046 0.8947 1.0572
   10417.5000    0.0000 -999.25   7.7537  -999.25  72.6349 -999.25   2.6328 -999.25    3.8572 -999.25 65.4535  12.6300  -999.25  68.6145  -999.25  72.1107  -999.25  83.7687 19.9663 0.8969 1.0500
   10418.0000    0.0000 -999.25   7.6851  -999.25  73.6750 -999.25   2.6341 -999.25    3.8859 -999.25 65.1292  12.4000  -999.25  70.2132  -999.25  73.8658  -999.25  85.9999 19.7868 0.9012 1.0438
   10418.5000    0.0000 -999.25   7.6865  -999.25  78.8406 -999.25   2.6350 -999.25    3.9329 -999.25 64.5583  11.9900  -999.25  72.7487  -999.25  76.5738  -999.25  89.6617 19.7234 0.9036 1.0393
   10419.0000    0.0000 -999.25   7.6305  -999.25  80.3891 -999.25   2.6342 -999.25    3.9245 -999.25 63.9719  11.5800  -999.25  77.2349  -999.25  81.5649  -999.25  95.9470 19.9586 0.8969 1.0381
   10419.5000    0.0000 -999.25   8.1704  -999.25  90.4561 -999.25   2.6273 -999.25    3.8617 -999.25 64.1939  11.7400  -999.25  74.4891  -999.25  78.3622  -999.25  92.5209 20.4024 0.8891 1.0412
   10420.0000    0.0000 -999.25   8.2325  -999.25  90.6344 -999.25   2.6260 -999.25    3.8268 -999.25 64.3055  11.8100  -999.25  73.9300  -999.25  77.6043  -999.25  91.4853 20.9459 0.8842 1.0457
   10420.5000    0.0000 -999.25   8.7890  -999.25 103.3979 -999.25   2.6222 -999.25    3.8186 -999.25 64.6815  12.0800  -999.25  66.8283  -999.25  69.2031  -999.25  81.5275 21.4110 0.8821 1.0493
   10421.0000    0.0000 -999.25   8.8535  -999.25 105.8424 -999.25   2.6232 -999.25    3.8235 -999.25 64.9309  12.2600  -999.25  63.1316  -999.25  64.7420  -999.25  75.9532 21.7671 0.8844 1.0518
   10421.5000    0.0000 -999.25   8.4755  -999.25  98.1273 -999.25   2.6276 -999.25    3.8310 -999.25 64.9041  12.2400  -999.25  64.7965  -999.25  66.4504  -999.25  77.6304 22.0381 0.8869 1.0543
   10422.0000    0.0000 -999.25   8.4452  -999.25  97.6215 -999.25   2.6283 -999.25    3.8315 -999.25 64.9449  12.2700  -999.25  64.0381  -999.25  65.5166  -999.25  76.4086 22.3097 0.8930 1.0606
   10422.5000    0.0000 -999.25   8.4014  -999.25  95.8808 -999.25   2.6286 -999.25    3.8083 -999.25 65.0090  12.3100  -999.25  63.3561  -999.25  64.6242  -999.25  75.1329 22.5739 0.9029 1.0674
   10423.0000    0.0000 -999.25   9.0786  -999.25 108.2961 -999.25   2.6224 -999.25    3.7701 -999.25 65.7319  12.8200  -999.25  53.0852  -999.25  53.1425  -999.25  61.4268 22.8388 0.9111 1.0735
   10423.5000    0.0000 -999.25   9.3046  -999.25 110.3510 -999.25   2.6199 -999.25    3.7329 -999.25 66.1694  13.1300  -999.25  48.5673  -999.25  48.1811  -999.25  55.3521 23.1283 0.9172 1.0749
   10424.0000    0.0000 -999.25   9.5902  -999.25 112.3392 -999.25   2.6164 -999.25    3.6786 -999.25 66.7166  13.5200  -999.25  43.9165  -999.25  43.1563  -999.25  49.2227 23.4693 0.9172 1.0720
   10424.5000    0.0000 -999.25  10.0791  -999.25 118.5696 -999.25   2.6102 -999.25    3.5889 -999.25 67.2671  13.9100  -999.25  38.3143  -999.25  37.0342  -999.25  41.8431 23.8610 0.9153 1.0717
   10425.0000    0.0000 -999.25  10.0708  -999.25 114.7254 -999.25   2.6077 -999.25    3.4985 -999.25 67.4869  14.0600  -999.25  39.1676  -999.25  37.8617  -999.25  42.6454 24.3203 0.9143 1.0738
   10425.5000    0.0000 -999.25  10.2131  -999.25 117.2697 -999.25   2.6060 -999.25    3.4600 -999.25 67.5846  14.1300  -999.25  37.1537  -999.25  35.5760  -999.25  39.8834 24.7578 0.9157 1.0772
   10426.0000    0.0000 -999.25   9.9248  -999.25 111.0910 -999.25   2.6087 -999.25    3.4404 -999.25 67.4556  14.0400  -999.25  38.2848  -999.25  36.6560  -999.25  40.9892 25.1650 0.9185 1.0769
   10426.5000    0.0000 -999.25  10.2201  -999.25 116.4900 -999.25   2.6063 -999.25    3.4113 -999.25 67.6853  14.2000  -999.25  34.0487  -999.25  32.0951  -999.25  35.6129 25.4596 0.9191 1.0721
   10427.0000    0.0000 -999.25   9.9754  -999.25 110.4632 -999.25   2.6082 -999.25    3.3945 -999.25 67.5789  14.1300  -999.25  35.5007  -999.25  33.5835  -999.25  37.2352 25.7597 0.9221 1.0679
   10427.5000    0.0000 -999.25   9.7874  -999.25 106.1765 -999.25   2.6088 -999.25    3.3493 -999.25 67.3472  13.9700  -999.25  37.4589  -999.25  35.4930  -999.25  39.3348 26.0501 0.9254 1.0659
   10428.0000    0.0000 -999.25  10.2703  -999.25 116.6289 -999.25   2.6034 -999.25    3.2949 -999.25 67.5447  14.1100  -999.25  34.5131  -999.25  32.2429  -999.25  35.6232 26.2273 0.9288 1.0674
   10428.5000    0.0000 -999.25  10.0003  -999.25 109.8119 -999.25   2.6046 -999.25    3.2485 -999.25 67.3403  13.9600  -999.25  37.0141  -999.25  34.7433  -999.25  38.3846 26.3638 0.9250 1.0693
   10429.0000    0.0000 -999.25  10.0026  -999.25 109.1281 -999.25   2.6043 -999.25    3.2245 -999.25 67.3448  13.9600  -999.25  36.4939  -999.25  34.1408  -999.25  37.6222 26.2769 0.9213 1.0673
   10429.5000    0.0000 -999.25  10.1494  -999.25 109.2679 -999.25   2.6033 -999.25    3.2113 -999.25 67.7226  14.2300  -999.25  33.5151  -999.25  31.1239  -999.25  34.0659 26.0493 0.9162 1.0655
   10430.0000    0.0000 -999.25  10.2511  -999.25 112.2758 -999.25   2.6027 -999.25    3.2243 -999.25 67.7472  14.2500  -999.25  32.8817  -999.25  30.4744  -999.25  33.3711 25.7796 0.9145 1.0621
   10430.5000    0.0000 -999.25   9.8281  -999.25 105.1997 -999.25   2.6069 -999.25    3.2613 -999.25 67.3079  13.9400  -999.25  36.7125  -999.25  34.4809  -999.25  37.9879 25.4033 0.9103 1.0591
   10431.0000    0.0000 -999.25   9.4490  -999.25 100.0161 -999.25   2.6106 -999.25    3.2991 -999.25 66.7698  13.5600  -999.25  41.6557  -999.25  39.6684  -999.25  44.0427 25.0365 0.9019 1.0544
   10431.5000    0.0000 -999.25   8.8578  -999.25  88.8310 -999.25   2.6161 -999.25    3.3441 -999.25 66.1759  13.1400  -999.25  49.7813  -999.25  48.4737  -999.25  54.2692 24.5262 0.8878 1.0502
   10432.0000    0.0000 -999.25   9.1260  -999.25  96.4001 -999.25   2.6144 -999.25    3.3680 -999.25 66.3046  13.2300  -999.25  46.9125  -999.25  45.3676  -999.25  50.8289 24.0446 0.8778 1.0456
   10432.5000    0.0000 -999.25   9.3697  -999.25 103.9388 -999.25   2.6128 -999.25    3.4116 -999.25 66.3822  13.2800  -999.25  45.7711  -999.25  44.2164  -999.25  49.7522 23.6569 0.8745 1.0442
