~VERSION INFORMATION
VERS. 2.0 : CWLS Log ASCII Standard - Version 2.0
WRAP. NO : One line per depth step
#--------------------------------------------------#
#----------------DRILLING INFO, INC.---------------#
#---------------WWW.DRILLINGINFO.COM---------------#
#------------------COPYRIGHT 2015------------------#
#--------------------------------------------------#
#THIS FILE MAY BE USED ONLY IN ACCORDANCE WITH A CURRENT SUBSCRIPTION AGREEMENT BETWEEN
#THE USER AND DRILLING INFO, INC. NO PART OF THIS FILE MAY BE REPRODUCED, USED, COPIED,
#MODIFIED, PROPAGATED, OR DISTRIBUTED EXCEPT IN ACCORDANCE WITH THE SUBSCRIPTION
#AGREEMENT. UNAUTHORIZED USE OR DISTRIBUTION OF ALL OR ANY PART OF THIS FILE MAY VIOLATE
#COPYRIGHT, TRADEMARK, AND/OR OTHER LAWS AND IS SUBJECT TO CIVIL AS WELL AS CRIMINAL
#SANCTIONS.
#--------------------------------------------------#
#THIS FILE IS PROVIDED "AS-IS" AND ALL WARRANTIES ARE EXPRESSLY DISCLAIMED, WHETHER
#EXPRESS, ORAL, IMPLIED, STATUTORY OR OTHERWISE, INCLUDING ANY IMPLIED WARRANTY OF FITNESS
#FOR A PARTICULAR PURPOSE, MERCHANTABILITY, TITLE OR NON-INFRINGEMENT, AND ANY WARRANTIES
#ARISING BY VIRTUE OF CUSTOM OF TRADE OR COURSE OF DEALING.  FURTHER, DRILLING INFO,
#INC. AND ITS LICENSORS DO NOT REPRESENT OR WARRANT THAT THIS FILE WILL MEET USER'S
#REQUIREMENTS OR ARE SUITABLE FOR USER'S NEEDS OR THAT THE DATA OR RESULTS PROVIDED IN
#CONJUNCTION THEREWITH ARE CORRECT, ACCURATE, TIMELY OR RELIABLE. THESE DISCLAIMERS SHALL
#APPLY REGARDLESS OF ANY FAILURE OF ESSENTIAL PURPOSE OF ANY LIMITED REMEDY.  SOME
#JURISDICTIONS DO NOT ALLOW THE EXCLUSION OF CERTAIN WARRANTIES SO SOME OF THE ABOVE
#EXCLUSIONS MAY NOT APPLY. IN NO EVENT SHALL DRILLING INFO, INC. OR ANY OF ITS AFFILIATES
#BE LIABLE UNDER ANY LEGAL THEORY, WHETHER IN TORT (INCLUDING WITHOUT LIMITATION
#NEGLIGENCE), CONTRACT, STRICT LIABILITY, STATUTORY OR OTHERWISE, FOR ANY SPECIAL,
#INCIDENTAL, CONSEQUENTIAL, EXEMPLARY, PUNITIVE OR INDIRECT DAMAGE OF ANY KIND, INCLUDING
#WITHOUT LIMITATION LOSS OF REVENUE, PROFITS, GOODWILL, USE, AND/OR DATA OR THE COST OF
#PROCUREMENT OF SUBSTITUTE GOODS OR SERVICES, EVEN IF APPRISED OF THE POSSIBILITY OF SUCH
#DAMAGES IN ADVANCE.
#--------------------------------------------------#
~WELL INFORMATION
#MNEMONIC     .UNIT              VALUE :DESCRIPTION
#--------------------------------------------------#
STRT       .ft                25.00000 :START DEPTH
STOP       .ft                17086.00000 :STOP DEPTH
STEP       .ft                0.50000 :STEP
NULL       .                -999.25000 :NULL VALUE
COMP       .                 :COMPANY
WELL       .                 :WELL
FLD       .                 :FIELD
LOC       .                 :LOCATION
CNTY       .                 :COUNTY
STAT       .                 :STATE
CTRY       .                 :COUNTRY
SRVC       .                 :SERVICE COMPANY
DATE       .                 :DATE
API       .                42109309270000 :API NUMBER
~CURVE INFORMATION
#MNEMONIC     .UNIT      API CODE :CURVE DESCRIPTION
#--------------------------------------------------#
DEPTH       .ft                      :Measured Depth
CAL       .in        UNKNOWN   :CAL
DT       .us/ft        UNKNOWN   :DT
GR       .gAPI        UNKNOWN   :GR
~A    DEPTH    CAL    DT    GR
# ...
13615.00000    8.93790    130.55539    59.62438
13615.50000    8.94400    128.02475    59.62486
13616.00000    8.95010    126.50264    59.96417
13616.50000    8.95459    130.34719    63.00621
13617.00000    8.95084    134.19174    64.38468
13617.50000    8.94710    138.03630    64.38516
13618.00000    8.94335    115.42218    64.38565
13618.50000    8.93960    96.72601    64.38613
13619.00000    8.93585    87.78224    62.45619
13619.50000    8.93210    78.83848    60.40509
13620.00000    8.92836    74.79459    60.05758
13620.50000    8.91041    80.22423    59.71006
13621.00000    8.88133    85.65388    59.36255
13621.50000    8.85225    91.08353    54.18327
13622.00000    8.82316    96.51318    50.97610
13622.50000    8.79408    134.83402    52.95838
13623.00000    8.76500    133.87624    54.94066
13623.50000    8.73591    132.91846    56.92294
13624.00000    8.73292    132.11202    58.90521
13624.50000    8.74624    132.19614    60.88749
13625.00000    8.75955    132.28026    60.83501
13625.50000    8.77287    132.36437    58.77320
13626.00000    8.78619    131.60323    59.23214
13626.50000    8.79951    133.14521    60.05613
13627.00000    8.81283    134.68718    60.88012
13627.50000    8.82615    136.22916    61.70411
13628.00000    8.83947    137.77114    62.52810
13628.50000    8.85278    132.28394    63.35208
13629.00000    8.86610    120.94776    64.17607
13629.50000    8.87942    109.61158    65.00006
13630.00000    8.89274    99.49158    64.79918
13630.50000    8.93253    96.87779    62.90085
13631.00000    8.99634    94.26401    62.94478
13631.50000    9.06016    93.16205    63.61483
13632.00000    9.12398    94.08803    64.28487
13632.50000    9.18780    95.01402    64.95492
13633.00000    9.24692    95.48295    65.62496
13633.50000    9.24699    95.99576    66.29501
13634.00000    9.24705    97.01242    63.93534
13634.50000    9.24712    98.02907    61.26097
13635.00000    9.24718    99.04572    59.27542
13635.50000    9.24725    123.53995    60.33117
13636.00000    9.24731    112.15059    61.38691
13636.50000    9.24738    100.76123    62.44266
13637.00000    9.24744    92.56545    63.49840
13637.50000    9.24751    89.86681    64.55414
13638.00000    9.24757    89.46149    63.30823
13638.50000    9.24759    89.05617    61.75443
13639.00000    9.24601    88.23582    60.20063
13639.50000    9.24443    74.15640    60.17916
13640.00000    9.24285    67.87435    61.01236
13640.50000    9.24127    67.61759    61.84557
13641.00000    9.23968    67.36082    62.67878
13641.50000    9.23810    68.35730    63.51198
13642.00000    9.23652    69.78405    64.34519
13642.50000    9.23494    71.21079    65.17840
13643.00000    9.23335    72.63754    66.01160
13643.50000    9.23177    142.75920    66.84481
13644.00000    9.23019    135.43507    67.67802
13644.50000    9.22861    130.63112    65.90865
13645.00000    9.22703    128.20656    62.09694
13645.50000    9.22545    125.78199    60.65265
13646.00000    9.22386    123.35742    63.46168
13646.50000    9.22228    125.77664    66.27070
13647.00000    9.22070    128.33425    69.07973
13647.50000    9.21912    130.87110    71.40366
13648.00000    9.21753    128.78881    71.40399
13648.50000    9.21595    126.70653    71.26650
13649.00000    9.21437    124.62424    67.83846
13649.50000    9.21279    122.54364    64.41042
13650.00000    9.21121    120.58903    60.98237
13650.50000    9.20962    118.63442    59.32155
13651.00000    9.20804    116.67982    64.56624
13651.50000    9.20646    117.49865    69.81093
13652.00000    9.20488    118.96695    75.05562
13652.50000    9.20330    120.43525    79.28023
13653.00000    9.20171    121.90355    73.75364
13653.50000    9.20013    123.37185    68.22704
13654.00000    9.19855    124.19447    64.30462
13654.50000    9.19697    122.22303    63.95634
13655.00000    9.19538    120.25158    63.60805
13655.50000    9.19380    118.30604    63.06811
13656.00000    9.19222    116.40325    60.62116
13656.50000    9.19287    112.74451    58.17421
13657.00000    9.19405    106.07169    59.15611
13657.50000    9.19523    99.69558    60.44119
13658.00000    9.19641    99.67293    61.72628
13658.50000    9.19759    92.20588    62.86557
13659.00000    9.19877    85.31901    63.47977
13659.50000    9.19995    84.63475    64.09398
13660.00000    9.20113    83.95049    64.70818
13660.50000    9.20231    83.26623    65.32238
13661.00000    9.20349    82.58198    65.93659
13661.50000    9.20467    81.89772    66.55079
13662.00000    9.20585    81.21346    59.16565
13662.50000    9.20703    80.52921    60.34255
13663.00000    9.20821    87.82860    61.51946
13663.50000    9.20939    87.12656    62.69637
13664.00000    9.21057    86.42453    63.84883
13664.50000    9.21175    85.72250    63.32683
13665.00000    9.21293    85.02046    62.80483
13665.50000    9.21411    84.31843    62.28283
13666.00000    9.21529    86.93316    63.27886
13666.50000    9.21646    91.20435    64.65575
13667.00000    9.21764    95.65739    66.03264
13667.50000    9.21882    128.06540    67.40953
13668.00000    9.22000    127.14115    68.78642
13668.50000    9.22118    126.21690    67.80289
13669.00000    9.22236    130.23007    64.58884
13669.50000    9.22354    133.93643    61.37479
13670.00000    9.22472    136.99598    58.16074
13670.50000    9.22590    138.43145    57.53833
13671.00000    9.22708    136.58413    58.12380
13671.50000    9.22826    132.20752    58.70928
13672.00000    9.22944    126.73581    59.29475
13672.50000    9.23062    119.04535    59.88023
13673.00000    9.23180    103.37207    62.29863
13673.50000    9.23298    98.93972    64.92739
13674.00000    9.23416    114.36689    67.55616
13674.50000    9.23534    133.30013    70.18492
13675.00000    9.23652    129.88559    72.81368
13675.50000    9.23770    126.47105    74.64457
13676.00000    9.23888    123.05651    71.85361
13676.50000    9.24006    119.64198    69.06266
13677.00000    9.24124    122.04989    66.27170
13677.50000    9.24241    125.71567    63.48074
13678.00000    9.24359    124.70015    62.29213
13678.50000    9.24478    123.68463    66.37634
13679.00000    9.24595    122.66911    70.46056
13679.50000    9.24713    121.65359    74.54477
13680.00000    9.24831    138.12293    78.62898
13680.50000    9.24949    138.26501    82.71320
13681.00000    9.25067    138.83232    86.79741
13681.50000    9.25185    139.52529    82.80273
13682.00000    9.23486    136.72384    71.21259
13682.50000    9.21174    133.92240    59.62245
13683.00000    9.18862    131.12095    56.59015
13683.50000    9.16549    128.31950    60.05440
13684.00000    9.14237    127.49265    63.51864
13684.50000    9.11924    136.81608    66.98288
13685.00000    9.00282    146.13952    65.64152
13685.50000    8.79444    144.13381    63.94701
13686.00000    8.58605    141.77868    62.25250
13686.50000    8.37766    139.42354    60.55799
13687.00000    8.30362    138.39812    58.86348
13687.50000    8.24570    139.68496    57.16897
13688.00000    8.18777    140.97180    58.52149
13688.50000    8.15307    142.25865    59.92346
13689.00000    8.15311    143.54549    61.32544
13689.50000    8.15315    144.83234    62.72741
13690.00000    8.15319    146.11918    64.12938
13690.50000    8.15323    145.63566    65.53136
13691.00000    8.15327    144.84952    66.93333
13691.50000    8.15330    144.06339    65.85721
13692.00000    8.15334    143.27725    63.09305
13692.50000    8.15338    142.49111    60.32889
13693.00000    8.15342    141.70497    62.81888
13693.50000    8.21124    142.85864    66.16054
13694.00000    8.28943    146.28431    67.59883
13694.50000    8.36762    149.70998    63.73347
13695.00000    8.44581    144.75129    59.86810
13695.50000    8.52400    143.14875    58.22339
13696.00000    8.60219    142.37752    58.69136
13696.50000    8.68038    141.60628    59.15932
13697.00000    8.75857    140.83504    59.62729
13697.50000    8.77305    141.08522    60.09525
13698.00000    8.74387    141.33673    60.76607
13698.50000    8.71469    141.58825    61.51370
