###############################################
##         ENVERUS                           ##
##         ESS - Open Hole                   ##
##         PERMIAN / DELAWARE                ##
##         Nov 03 2023  V4.0                 ##
##         42-109-32620-90-00                ##
###############################################
## Copyright 2017-2023  ENVERUS.  All Rights Reserved. 
## Confidential - Property of ENVERUS, use governed by terms and 
## conditions found within the existing Information Services Subscription Agreement 
## (as may be amended, the “ISSA”) between Customer and ENVERUS. 
## 
~VERSION INFORMATION
# MNEM.UNIT                               DATA : DESCRIPTION OF MNEMONIC
#-----.-----     ----------------------------- : -----------------------------
VERS.                                     2.00 : CWLS LOG ASCII STANDARD - VERSION 2.00
WRAP.                                       NO : MULTIPLE LINES PER DEPTH STEP
VEND.                                  ENVERUS : VENDOR
TYPE.                          ESS - OPEN HOLE : ENVERUS ESSENTIAL CURVES – ACCESSIBLE THROUGH ENVERUS PRISM(TM)
DOC.                                  51092896 : ENVERUS HEADER RAW DOCUMENT ID
#___________________________________________________________________________________________________ 
~WELL INFORMATION 
# mS4wxE9S4ErBCd3MEwtzWWb7vaBLyBp2a6hoNdhJ+t1pinRta8/5SsS3wr5CrR4pTncMCKeAGTUU45xlgh6yRQ== 
# MNEM.UNIT                                              DATA : DESCRIPTION OF MNEMONIC 
#-----.-----                    ----------------------------- : ----------------------------- 
CNTY.                                               CULBERSON : COUNTY 
STATE.                                                  TEXAS : STATE 
CNTRY.                                                    USA : COUNTRY 
API.                                             42-109-32620 : API (10 Digit) 
API_14.                                    42-109-32620-90-00 : API (14 Digits) 
API_14_std.                                 42-109-32620-9000 : API (14 Digits Standard) 
UWI.                                           42109326209000 : UNIQUE WELL ID 
WELL.                               42109326200000_PREV_API14 : WELL NAME
STRT.FT                                                2338.5 : START DEPTH
STOP.FT                                               10866.0 : STOP DEPTH
STEP.FT                                                   0.5 : STEP BETWEEN DEPTHS
NULL.                                                 -999.25 : NULL VALUE
PREV_APII.                                     42109326200000 : WELL IDENTIFIER
#___________________________________________________________________________________________________ 
~PARAMETER INFORMATION 
# MNEM.UNIT                                              DATA : DESCRIPTION OF MNEMONIC 
#-----.-----                    ----------------------------- : ----------------------------- 
EKB.FT                                                   3330 : ELEVATION ABOVE MSL
#___________________________________________________________________________________________________ 
~CURVE INFORMATION 
# MNEM.UNIT           : CURVE DESCRIPTION 
#-----.-----          : ----------------------------- 
 DEPT.FT               : MEASURED DEPTH 
 CALI.IN               : CALIPER (CAL - CALIPER) 
 GR.API                : GAMMA RAY (GAMMA RAY) 
 DT.US/FT              : SONIC DELTA TRANSIT TIME (PRESSURE WAVE SONIC) 
 #___________________________________________________________________________________________________ 
~A         DEPT           CALI             GR             DT
# ...
         3460.5         10.356         93.297         77.699
         3461.0         10.291         91.970         78.617
         3461.5         10.272         84.340         81.237
         3462.0         10.331         76.868         83.944
         3462.5         10.371         59.329         85.469
         3463.0         10.394         64.700         82.719
         3463.5         10.431         80.975         80.046
         3464.0         10.476         86.591         79.302
         3464.5         10.491         87.885         81.091
         3465.0         10.558         81.296         83.649
         3465.5         10.611         71.941         86.167
         3466.0         10.660         67.233         86.548
         3466.5         10.721         63.213         86.760
         3467.0         10.782         63.105         86.873
         3467.5         10.843         66.935         88.514
         3468.0         10.904         67.078         89.826
         3468.5         11.005         59.965         91.672
         3469.0         11.050         55.031         91.575
         3469.5         11.070         56.184         89.942
         3470.0         11.070         59.319         89.025
         3470.5         11.110         60.679         88.927
         3471.0         11.130         58.283         88.806
         3471.5         11.170         59.082         88.681
         3472.0         11.192         58.510         88.131
         3472.5         11.230         54.890         86.613
         3473.0         11.230         58.274         85.542
         3473.5         11.230         65.778         85.518
         3474.0         11.250         65.948         87.172
         3474.5         11.289         60.217         92.364
         3475.0         11.289         51.876         94.415
         3475.5         11.380         50.413         96.459
         3476.0         11.401         52.012         97.644
         3476.5         11.409         51.570         91.982
         3477.0         11.409         51.903         88.613
         3477.5         11.409         56.381         87.310
         3478.0         11.409         58.643         87.603
         3478.5         11.389         58.512         91.084
         3479.0         11.389         57.902         91.109
         3479.5         11.389         54.630         89.895
         3480.0         11.389         50.483         88.625
         3480.5         11.389         51.084         88.765
         3481.0         11.392         57.307         89.785
         3481.5         11.409         65.321         90.231
         3482.0         11.409         67.498         90.807
         3482.5         11.409         61.427         90.594
         3483.0         11.409         59.202         90.311
         3483.5         11.409         61.301         90.215
         3484.0         11.409         61.184         90.459
         3484.5         11.369         55.927         90.460
         3485.0         11.270         54.664         90.319
         3485.5         11.217         58.055         88.529
         3486.0         11.190         62.028         85.914
         3486.5         11.095         77.487         79.174
         3487.0         10.842         93.538         76.059
         3487.5         10.594         95.802         74.724
         3488.0         10.473         93.231         75.294
         3488.5         10.432         96.566         74.698
         3489.0         10.411        103.110         74.240
         3489.5         10.371        104.775         73.877
         3490.0         10.371        103.612         73.633
         3490.5         10.351        100.837         73.581
         3491.0         10.346        102.692         73.641
         3491.5         10.272        108.944         73.719
         3492.0         10.204        112.626         74.279
         3492.5         10.192        103.391         76.046
         3493.0         10.241         83.468         79.558
         3493.5         10.302         72.968         81.230
         3494.0         10.363         68.788         80.961
         3494.5         10.431         67.737         79.977
         3495.0         10.491         67.128         79.902
         3495.5         10.531         68.162         81.561
         3496.0         10.571         71.817         84.486
         3496.5         10.591         76.163         84.297
         3497.0         10.611         79.438         82.233
         3497.5         10.591         82.910         79.666
         3498.0         10.591         85.439         77.668
         3498.5         10.549         88.048         76.891
         3499.0         10.471         92.465         76.831
         3499.5         10.471         96.564         76.902
         3500.0         10.471         97.405         77.267
         3500.5         10.471         95.176         77.511
         3501.0         10.451         90.174         77.733
         3501.5         10.411         83.567         77.769
         3502.0         10.411         85.065         77.209
         3502.5         10.381         99.220         75.836
         3503.0         10.291        105.016         75.842
         3503.5         10.199         99.891         76.910
         3504.0         10.158         92.999         78.819
         3504.5         10.152         82.614         80.597
         3505.0         10.152         74.405         79.719
         3505.5         10.192         67.960         79.358
         3506.0         10.250         64.522         79.742
         3506.5         10.331         63.467         81.302
         3507.0         10.391         64.676         83.424
         3507.5         10.391         66.457         82.718
         3508.0         10.411         70.768         81.817
         3508.5         10.411         74.651         80.606
         3509.0         10.366         75.423         79.622
         3509.5         10.351         79.796         79.219
         3510.0         10.351         81.944         78.795
         3510.5         10.371         80.614         78.074
         3511.0         10.391         80.334         77.882
         3511.5         10.442         85.125         78.492
         3512.0         10.451         89.461         79.626
         3512.5         10.451         92.147         80.898
         3513.0         10.451         86.165         81.001
         3513.5         10.451         83.084         80.584
         3514.0         10.435         83.594         79.972
         3514.5         10.451         87.058         79.367
         3515.0         10.469         86.552         78.882
         3515.5         10.471         85.033         78.369
         3516.0         10.491         88.563         77.850
         3516.5         10.491         96.691         77.553
         3517.0         10.491         90.811         77.793
         3517.5         10.491         86.788         78.166
         3518.0         10.491         87.999         77.891
         3518.5         10.497         90.039         76.531
         3519.0         10.511         99.480         75.310
         3519.5         10.531        105.065         77.527
         3520.0         10.580        101.770         80.375
         3520.5         10.661         84.391         90.748
         3521.0         10.731         71.915         92.409
         3521.5         10.771         67.482         85.556
         3522.0         10.757         63.446         81.612
         3522.5         10.696         55.539         78.049
         3523.0         10.595         55.691         77.976
         3523.5         10.571         62.170         81.527
         3524.0         10.571         66.692         81.765
         3524.5         10.551         77.002         80.777
         3525.0         10.551         84.872         80.502
         3525.5         10.551         91.060         80.617
         3526.0         10.511         90.777         80.270
