~VERSION INFORMATION
VERS. 2.0 : CWLS Log ASCII Standard - Version 2.0
WRAP. NO : One line per depth step
#--------------------------------------------------#
#----------------DRILLING INFO, INC.---------------#
#---------------WWW.DRILLINGINFO.COM---------------#
#------------------COPYRIGHT 2015------------------#
#--------------------------------------------------#
#THIS FILE MAY BE USED ONLY IN ACCORDANCE WITH A CURRENT SUBSCRIPTION AGREEMENT BETWEEN
#THE USER AND DRILLING INFO, INC. NO PART OF THIS FILE MAY BE REPRODUCED, USED, COPIED,
#MODIFIED, PROPAGATED, OR DISTRIBUTED EXCEPT IN ACCORDANCE WITH THE SUBSCRIPTION
#AGREEMENT. UNAUTHORIZED USE OR DISTRIBUTION OF ALL OR ANY PART OF THIS FILE MAY VIOLATE
#COPYRIGHT, TRADEMARK, AND/OR OTHER LAWS AND IS SUBJECT TO CIVIL AS WELL AS CRIMINAL
#SANCTIONS.
#--------------------------------------------------#
#THIS FILE IS PROVIDED "AS-IS" AND ALL WARRANTIES ARE EXPRESSLY DISCLAIMED, WHETHER
#EXPRESS, ORAL, IMPLIED, STATUTORY OR OTHERWISE, INCLUDING ANY IMPLIED WARRANTY OF FITNESS
#FOR A PARTICULAR PURPOSE, MERCHANTABILITY, TITLE OR NON-INFRINGEMENT, AND ANY WARRANTIES
#ARISING BY VIRTUE OF CUSTOM OF TRADE OR COURSE OF DEALING.  FURTHER, DRILLING INFO,
#INC. AND ITS LICENSORS DO NOT REPRESENT OR WARRANT THAT THIS FILE WILL MEET USER'S
#REQUIREMENTS OR ARE SUITABLE FOR USER'S NEEDS OR THAT THE DATA OR RESULTS PROVIDED IN
#CONJUNCTION THEREWITH ARE CORRECT, ACCURATE, TIMELY OR RELIABLE. THESE DISCLAIMERS SHALL
#APPLY REGARDLESS OF ANY FAILURE OF ESSENTIAL PURPOSE OF ANY LIMITED REMEDY.  SOME
#JURISDICTIONS DO NOT ALLOW THE EXCLUSION OF CERTAIN WARRANTIES SO SOME OF THE ABOVE
#EXCLUSIONS MAY NOT APPLY. IN NO EVENT SHALL DRILLING INFO, INC. OR ANY OF ITS AFFILIATES
#BE LIABLE UNDER ANY LEGAL THEORY, WHETHER IN TORT (INCLUDING WITHOUT LIMITATION
#NEGLIGENCE), CONTRACT, STRICT LIABILITY, STATUTORY OR OTHERWISE, FOR ANY SPECIAL,
#INCIDENTAL, CONSEQUENTIAL, EXEMPLARY, PUNITIVE OR INDIRECT DAMAGE OF ANY KIND, INCLUDING
#WITHOUT LIMITATION LOSS OF REVENUE, PROFITS, GOODWILL, USE, AND/OR DATA OR THE COST OF
#PROCUREMENT OF SUBSTITUTE GOODS OR SERVICES, EVEN IF APPRISED OF THE POSSIBILITY OF SUCH
#DAMAGES IN ADVANCE.
#--------------------------------------------------#
~WELL INFORMATION
#MNEMONIC     .UNIT              VALUE :DESCRIPTION
#--------------------------------------------------#
STRT       .ft                51.00000 :START DEPTH
STOP       .ft                9476.00000 :STOP DEPTH
STEP       .ft                0.50000 :STEP
NULL       .                -999.25000 :NULL VALUE
COMP       .                 :COMPANY
WELL       .                 :WELL
FLD       .                 :FIELD
LOC       .                 :LOCATION
CNTY       .                 :COUNTY
STAT       .                 :STATE
CTRY       .                 :COUNTRY
SRVC       .                 :SERVICE COMPANY
DATE       .                 :DATE
API       .                42109100520000 :API NUMBER
~CURVE INFORMATION
#MNEMONIC     .UNIT      API CODE :CURVE DESCRIPTION
#--------------------------------------------------#
DEPTH       .ft                      :Measured Depth
CAL       .in        UNKNOWN   :CAL
DT       .us/ft        UNKNOWN   :DT
GR       .gAPI        UNKNOWN   :GR
~A    DEPTH    CAL    DT    GR
# ...
8207.00000    6.57899    69.46462    118.41687
8207.50000    6.57161    69.59469    119.22335
8208.00000    6.56423    69.96310    120.02984
8208.50000    6.55686    70.33150    120.83632
8209.00000    6.54948    70.69991    121.64281
8209.50000    6.54210    71.06832    122.44930
8210.00000    6.53473    71.43673    123.25578
8210.50000    6.52735    71.80513    134.87335
8211.00000    6.51997    71.57305    133.88648
8211.50000    6.51260    70.94025    129.48262
8212.00000    6.50522    70.30744    125.08950
8212.50000    6.49784    69.67464    120.95879
8213.00000    6.49047    69.04184    116.82808
8213.50000    6.48309    68.40903    112.69738
8214.00000    6.47571    67.77623    108.56667
8214.50000    6.46834    67.14343    104.43596
8215.00000    6.46096    66.51063    100.30526
8215.50000    6.45358    65.91630    96.17455
8216.00000    6.45090    65.33528    92.04384
8216.50000    6.45225    64.75427    87.91314
8217.00000    6.45360    64.17325    87.89765
8217.50000    6.45496    63.59223    91.74831
8218.00000    6.45631    63.01102    95.59896
8218.50000    6.45767    62.42979    97.63169
8219.00000    6.45902    62.53897    91.76857
8219.50000    6.46037    63.31627    88.58851
8220.00000    6.46173    62.16813    92.26387
8220.50000    6.46308    62.37008    92.84748
8221.00000    6.46444    62.57203    88.36763
8221.50000    6.46579    62.77398    83.88778
8222.00000    6.46715    62.97593    92.12904
8222.50000    6.46850    63.17788    90.11380
8223.00000    6.46985    63.19966    88.09856
8223.50000    6.47121    63.10117    86.08331
8224.00000    6.47256    63.00269    84.92040
8224.50000    6.47392    62.90421    86.47780
8225.00000    6.47527    62.80573    88.03519
8225.50000    6.47663    62.91885    89.59259
8226.00000    6.47798    63.07560    91.14999
8226.50000    6.47867    63.23235    92.70739
8227.00000    6.47812    63.38910    94.26479
8227.50000    6.47757    63.51506    95.82219
8228.00000    6.47702    63.31214    96.66149
8228.50000    6.47647    63.10922    93.48628
8229.00000    6.47593    62.90631    90.31106
8229.50000    6.47538    62.70339    89.56503
8230.00000    6.47483    62.50048    94.66408
8230.50000    6.47428    62.29756    99.76314
8231.00000    6.47373    62.09464    95.43224
8231.50000    6.47319    61.89173    90.25436
8232.00000    6.47264    62.58674    89.12786
8232.50000    6.47209    63.55932    91.52354
8233.00000    6.47154    63.28970    93.91921
8233.50000    6.47100    63.02008    96.31489
8234.00000    6.47045    62.75046    97.51429
8234.50000    6.46990    62.48084    95.19366
8235.00000    6.46935    62.21122    92.87304
8235.50000    6.46880    61.94161    90.55241
8236.00000    6.46826    61.67199    96.79579
8236.50000    6.46771    61.80510    103.73904
8237.00000    6.46716    62.21999    100.52778
8237.50000    6.46661    62.63489    97.31651
8238.00000    6.46606    63.04979    97.51174
8238.50000    6.46552    63.46469    102.51003
8239.00000    6.46497    63.87958    101.77830
8239.50000    6.46442    64.29448    101.04657
8240.00000    6.46387    64.70938    95.79737
8240.50000    6.46332    64.46926    89.64468
8241.00000    6.46278    63.98366    87.16380
8241.50000    6.46223    63.49807    89.17352
8242.00000    6.46168    63.01248    91.18324
8242.50000    6.46113    62.52689    93.19297
8243.00000    6.46130    62.54698    95.20269
8243.50000    6.46151    62.61364    92.49974
8244.00000    6.46172    62.68030    87.71435
8244.50000    6.46192    62.74695    82.92896
8245.00000    6.46213    62.81361    78.14357
8245.50000    6.46234    63.08332    73.35819
8246.00000    6.46255    63.69879    77.02545
8246.50000    6.46275    64.31427    81.35604
8247.00000    6.46296    64.92974    85.06661
8247.50000    6.46317    65.54521    81.22080
8248.00000    6.46338    65.35412    77.37498
8248.50000    6.46299    64.77267    73.52916
8249.00000    6.45777    64.19121    71.24415
8249.50000    6.45254    63.60976    73.31343
8250.00000    6.44732    63.02831    75.38271
8250.50000    6.44209    62.44685    77.45199
8251.00000    6.43687    61.86540    79.52127
8251.50000    6.43164    61.28394    84.59414
8252.00000    6.42642    61.85359    89.00452
8252.50000    6.42119    63.07623    93.41490
8253.00000    6.41597    64.29886    97.82528
8253.50000    6.41074    65.52150    102.23565
8254.00000    6.40552    66.74413    102.21544
8254.50000    6.40029    67.96677    100.75050
8255.00000    6.39507    68.18720    99.28557
8255.50000    6.38984    67.21912    97.82063
8256.00000    6.38462    66.25104    96.35569
8256.50000    6.37939    65.28295    94.89075
8257.00000    6.37417    64.59486    92.54196
8257.50000    6.36894    64.31776    89.51400
8258.00000    6.36372    64.04066    86.48604
8258.50000    6.35849    63.76356    83.45808
8259.00000    6.35327    63.48646    80.43012
8259.50000    6.34804    63.20936    77.40216
8260.00000    6.34717    62.93226    74.37420
8260.50000    6.34838    62.65516    77.77065
8261.00000    6.34960    62.37806    82.81207
8261.50000    6.35081    63.78383    79.73539
8262.00000    6.35203    65.87118    76.65872
8262.50000    6.35325    65.51054    73.58204
8263.00000    6.35446    65.14989    70.50536
8263.50000    6.35568    64.78924    70.11244
8264.00000    6.35689    64.42859    70.83003
8264.50000    6.35811    64.06795    71.54763
8265.00000    6.35933    63.70730    72.26523
8265.50000    6.36054    63.34665    72.98282
8266.00000    6.36176    62.98600    73.70042
8266.50000    6.36297    62.62536    70.35702
8267.00000    6.36419    62.65702    73.84800
8267.50000    6.36540    63.04628    77.02946
8268.00000    6.36662    63.43555    75.07684
8268.50000    6.36783    63.82481    73.12422
8269.00000    6.36905    64.21407    71.17160
8269.50000    6.37027    64.59315    70.42845
8270.00000    6.37148    64.38748    72.10912
8270.50000    6.37270    64.18181    73.78978
8271.00000    6.37391    63.97613    75.45350
8271.50000    6.37513    64.50180    72.13418
8272.00000    6.37961    65.17749    68.81486
8272.50000    6.38960    65.54513    68.22413
8273.00000    6.39960    65.58371    69.30304
8273.50000    6.40959    65.62230    69.96818
8274.00000    6.41959    65.66088    69.33118
8274.50000    6.42958    65.69947    68.69418
8275.00000    6.43957    65.24951    68.05718
8275.50000    6.44957    64.61674    67.42018
8276.00000    6.45956    63.98398    66.78317
8276.50000    6.46956    63.35122    66.29666
8277.00000    6.47955    62.71846    68.50202
8277.50000    6.48955    62.08569    70.14008
8278.00000    6.49954    61.45293    68.57848
8278.50000    6.50954    61.39313    67.01688
8279.00000    6.51953    61.92808    67.35700
8279.50000    6.52953    62.46302    68.26840
8280.00000    6.53952    62.99797    69.17980
8280.50000    6.54952    63.53292    69.20650
8281.00000    6.54499    61.79970    68.10083
8281.50000    6.53928    61.20628    66.99516
8282.00000    6.53356    60.61285    65.88949
8282.50000    6.52785    60.01943    64.78382
8283.00000    6.52214    59.42601    63.67815
8283.50000    6.51643    58.83258    62.57248
8284.00000    6.51071    58.23916    62.21766
8284.50000    6.50500    57.64574    63.64760
8285.00000    6.49929    57.70242    65.07753
8285.50000    6.49357    58.00979    66.50747
8286.00000    6.48786    58.31716    67.93741
8286.50000    6.48215    58.62453    69.36735
8287.00000    6.47644    59.19229    65.23716
8287.50000    6.47072    59.83277    66.75665
8288.00000    6.46501    60.47324    68.27614
8288.50000    6.45930    61.11372    69.79562
8289.00000    6.45359    61.75420    71.31511
8289.50000    6.44787    62.39468    69.43140
8290.00000    6.44216    62.56450    61.30694
8290.50000    6.43645    62.30048    59.71909
8291.00000    6.43834    62.03647    58.69497
8291.50000    6.45387    61.62046    57.67086
8292.00000    6.46940    60.89526    56.64675
8292.50000    6.48493    60.17007    55.97669
8293.00000    6.50045    59.44487    57.17527
8293.50000    6.51598    58.71968    58.37385
