###############################################
##         ENVERUS                           ##
##         ESS - Open Hole                   ##
##         PERMIAN / DELAWARE                ##
##         Nov 02 2023  V4.0                 ##
##         42-109-31448-00-00                ##
###############################################
## Copyright 2017-2023  ENVERUS.  All Rights Reserved. 
## Confidential - Property of ENVERUS, use governed by terms and 
## conditions found within the existing Information Services Subscription Agreement 
## (as may be amended, the “ISSA”) between Customer and ENVERUS. 
## 
~VERSION INFORMATION
# MNEM.UNIT                               DATA : DESCRIPTION OF MNEMONIC
#-----.-----     ----------------------------- : -----------------------------
VERS.                                     2.00 : CWLS LOG ASCII STANDARD - VERSION 2.00
WRAP.                                       NO : MULTIPLE LINES PER DEPTH STEP
VEND.                                  ENVERUS : VENDOR
TYPE.                          ESS - OPEN HOLE : ENVERUS ESSENTIAL CURVES – ACCESSIBLE THROUGH ENVERUS PRISM(TM)
DOC.                                  31981796 : ENVERUS HEADER RAW DOCUMENT ID
#___________________________________________________________________________________________________ 
~WELL INFORMATION 
# ZFHslD71edIju97HcKZ52TF5U8X6gSJhIkoGhJkY8ckYnZzQD/y6zifgDis2Hn4asra90GxYkgpqCQaJUi2DCw== 
# MNEM.UNIT                                              DATA : DESCRIPTION OF MNEMONIC 
#-----.-----                    ----------------------------- : ----------------------------- 
CNTY.                                               CULBERSON : COUNTY 
STATE.                                                  TEXAS : STATE 
CNTRY.                                                    USA : COUNTRY 
API.                                             42-109-31448 : API (10 Digit) 
API_14.                                    42-109-31448-00-00 : API (14 Digits) 
API_14_std.                                 42-109-31448-0000 : API (14 Digits Standard) 
UWI.                                           42109314480000 : UNIQUE WELL ID 
WELL.                                               TRIKEN  1 : WELL NAME
STRT.FT                                                   4.0 : START DEPTH
STOP.FT                                               13097.0 : STOP DEPTH
STEP.FT                                                   0.5 : STEP BETWEEN DEPTHS
NULL.                                                 -999.25 : NULL VALUE
COMP.                                             MARALO  LLC : COMPANY 
DATE.                                             04-NOV-1984 : LOG DATE
#___________________________________________________________________________________________________ 
~CURVE INFORMATION 
# MNEM.UNIT           : CURVE DESCRIPTION 
#-----.-----          : ----------------------------- 
 DEPT.FT               : MEASURED DEPTH 
 CALI.IN               : CALIPER (CAL - CAL) 
 GR.API                : GAMMA RAY (GR) 
 DT.US/FT              : SONIC DELTA TRANSIT TIME (DT) 
 #___________________________________________________________________________________________________ 
~A         DEPT           CALI             GR             DT
# ...
          730.0         12.670         22.837         60.649
          730.5         12.668         22.693         60.606
          731.0         12.666         22.549         60.564
          731.5         12.664         22.216         60.521
          732.0         12.662         21.602         60.478
          732.5         12.660         20.988         60.436
          733.0         12.658         20.374         60.393
          733.5         12.656         19.759         60.350
          734.0         12.654         19.145         61.324
          734.5         12.657         18.527         63.923
          735.0         12.661         17.798         66.554
          735.5         12.665         17.069         69.393
          736.0         12.669         16.339         72.231
          736.5         12.672         15.610         75.070
          737.0         12.676         16.524         77.909
          737.5         12.680         18.715         80.747
          738.0         12.684         20.322         83.586
          738.5         12.688         19.309         86.424
          739.0         12.678         18.295         87.029
          739.5         12.666         17.282         87.561
          740.0         12.655         16.268         88.092
          740.5         12.643         16.806         88.624
          741.0         12.523         18.080         89.155
          741.5         12.339         19.353         89.687
          742.0         12.154         20.627         90.219
          742.5         11.970         21.900         89.624
          743.0         11.785         21.870         88.906
          743.5         11.601         21.542         88.189
          744.0         11.416         21.214         87.471
          744.5         11.598         20.886         86.753
          745.0         11.961         20.558         84.667
          745.5         12.324         20.230         82.106
          746.0         12.450         19.901         81.358
          746.5         12.463         18.570         80.611
          747.0         12.475         18.406         79.864
          747.5         12.488         19.327         79.116
          748.0         12.501         20.248         78.369
          748.5         12.513         21.169         77.753
          749.0         12.526         22.091         77.842
          749.5         12.539         23.012         77.930
          750.0         12.566         23.933         78.019
          750.5         12.615         24.854         78.107
          751.0         12.664         25.776         78.195
          751.5         12.713         26.162         78.726
          752.0         12.762         25.542         79.966
          752.5         12.811         24.923         80.105
          753.0         12.886         24.303         80.244
          753.5         12.973         23.684         80.383
          754.0         13.060         23.064         80.522
          754.5         13.146         22.445         80.660
          755.0         13.233         21.825         80.799
          755.5         13.319         21.206         80.334
          756.0         13.406         20.586         79.310
          756.5         13.493         19.967         79.304
          757.0         13.579         19.347         81.974
          757.5         13.656         19.033         84.644
          758.0         13.730         19.693         84.996
          758.5         13.804         20.353         85.172
          759.0         13.878         20.035         85.347
          759.5         13.952         19.421         85.523
          760.0         14.023         18.807         85.699
          760.5         14.077         18.979         85.875
          761.0         14.131         19.720         85.113
          761.5         14.184         20.460         84.346
          762.0         14.238         21.201         83.580
          762.5         14.291         21.942         82.814
          763.0         14.345         22.682         82.047
          763.5         14.430         22.810         81.281
          764.0         14.536         22.073         80.692
          764.5         14.643         21.336         80.132
          765.0         14.750         20.599         79.573
          765.5         14.856         19.862         79.013
          766.0         14.963         19.125         79.862
          766.5         15.055         20.020         80.803
          767.0         15.060         21.754         81.488
          767.5         15.064         23.488         80.872
          768.0         15.069         23.889         80.255
          768.5         15.073         23.572         79.639
          769.0         15.078         23.255         79.022
          769.5         15.082         22.938         78.406
          770.0         15.087         22.620         77.789
          770.5         15.091         22.303         77.173
          771.0         15.096         21.986         76.536
          771.5         15.100         21.669         75.863
          772.0         15.087         21.733         75.191
          772.5         15.045         22.322         74.518
          773.0         15.003         22.911         74.859
          773.5         14.962         23.501         76.299
          774.0         14.920         24.090         78.071
          774.5         14.878         24.679         80.149
          775.0         14.836         25.269         82.227
          775.5         14.794         25.858         83.350
          776.0         14.747         26.447         82.290
          776.5         14.699         27.036         81.229
          777.0         14.651         27.626         80.169
          777.5         14.602         27.227         79.109
          778.0         14.554         26.714         78.088
          778.5         14.506         26.201         77.522
          779.0         14.458         25.688         76.955
          779.5         14.423         25.533         76.389
          780.0         14.440         25.828         79.630
          780.5         14.457         26.122         83.104
          781.0         14.475         26.417         86.578
          781.5         14.492         26.711         90.052
          782.0         14.509         27.005         93.527
          782.5         14.526         27.300         96.470
          783.0         14.543         27.594         98.993
          783.5         14.560         27.889        100.182
          784.0         14.577         28.183        100.180
          784.5         14.594         28.103        100.177
          785.0         14.611         27.590        100.174
          785.5         14.629         27.077        100.172
          786.0         14.645         26.564        100.169
          786.5         14.644         26.822        100.167
          787.0         14.644         27.501        100.164
          787.5         14.643         28.180        100.161
          788.0         14.642         28.859        100.159
          788.5         14.641         29.539        100.156
          789.0         14.640         30.218        100.154
          789.5         14.640         30.897        100.151
          790.0         14.639         31.576        100.148
          790.5         14.638         32.255        100.146
          791.0         14.637         32.175        100.143
          791.5         14.637         32.089        100.141
          792.0         14.636         32.002        100.138
          792.5         14.635         31.916        100.135
          793.0         14.634         31.830        100.133
          793.5         14.634         31.744        100.130
          794.0         14.633         31.658        100.127
          794.5         14.632         31.363        100.125
          795.0         14.631         30.800        100.122
          795.5         14.631         30.237        100.120
