~VERSION INFORMATION
VERS. 2.0 : CWLS Log ASCII Standard - Version 2.0
WRAP. NO : One line per depth step
#--------------------------------------------------#
#----------------DRILLING INFO, INC.---------------#
#---------------WWW.DRILLINGINFO.COM---------------#
#------------------COPYRIGHT 2015------------------#
#--------------------------------------------------#
#THIS FILE MAY BE USED ONLY IN ACCORDANCE WITH A CURRENT SUBSCRIPTION AGREEMENT BETWEEN
#THE USER AND DRILLING INFO, INC. NO PART OF THIS FILE MAY BE REPRODUCED, USED, COPIED,
#MODIFIED, PROPAGATED, OR DISTRIBUTED EXCEPT IN ACCORDANCE WITH THE SUBSCRIPTION
#AGREEMENT. UNAUTHORIZED USE OR DISTRIBUTION OF ALL OR ANY PART OF THIS FILE MAY VIOLATE
#COPYRIGHT, TRADEMARK, AND/OR OTHER LAWS AND IS SUBJECT TO CIVIL AS WELL AS CRIMINAL
#SANCTIONS.
#--------------------------------------------------#
#THIS FILE IS PROVIDED "AS-IS" AND ALL WARRANTIES ARE EXPRESSLY DISCLAIMED, WHETHER
#EXPRESS, ORAL, IMPLIED, STATUTORY OR OTHERWISE, INCLUDING ANY IMPLIED WARRANTY OF FITNESS
#FOR A PARTICULAR PURPOSE, MERCHANTABILITY, TITLE OR NON-INFRINGEMENT, AND ANY WARRANTIES
#ARISING BY VIRTUE OF CUSTOM OF TRADE OR COURSE OF DEALING.  FURTHER, DRILLING INFO,
#INC. AND ITS LICENSORS DO NOT REPRESENT OR WARRANT THAT THIS FILE WILL MEET USER'S
#REQUIREMENTS OR ARE SUITABLE FOR USER'S NEEDS OR THAT THE DATA OR RESULTS PROVIDED IN
#CONJUNCTION THEREWITH ARE CORRECT, ACCURATE, TIMELY OR RELIABLE. THESE DISCLAIMERS SHALL
#APPLY REGARDLESS OF ANY FAILURE OF ESSENTIAL PURPOSE OF ANY LIMITED REMEDY.  SOME
#JURISDICTIONS DO NOT ALLOW THE EXCLUSION OF CERTAIN WARRANTIES SO SOME OF THE ABOVE
#EXCLUSIONS MAY NOT APPLY. IN NO EVENT SHALL DRILLING INFO, INC. OR ANY OF ITS AFFILIATES
#BE LIABLE UNDER ANY LEGAL THEORY, WHETHER IN TORT (INCLUDING WITHOUT LIMITATION
#NEGLIGENCE), CONTRACT, STRICT LIABILITY, STATUTORY OR OTHERWISE, FOR ANY SPECIAL,
#INCIDENTAL, CONSEQUENTIAL, EXEMPLARY, PUNITIVE OR INDIRECT DAMAGE OF ANY KIND, INCLUDING
#WITHOUT LIMITATION LOSS OF REVENUE, PROFITS, GOODWILL, USE, AND/OR DATA OR THE COST OF
#PROCUREMENT OF SUBSTITUTE GOODS OR SERVICES, EVEN IF APPRISED OF THE POSSIBILITY OF SUCH
#DAMAGES IN ADVANCE.
#--------------------------------------------------#
~WELL INFORMATION
#MNEMONIC     .UNIT              VALUE :DESCRIPTION
#--------------------------------------------------#
STRT       .ft                25.00000 :START DEPTH
STOP       .ft                17086.00000 :STOP DEPTH
STEP       .ft                0.50000 :STEP
NULL       .                -999.25000 :NULL VALUE
COMP       .                 :COMPANY
WELL       .                 :WELL
FLD       .                 :FIELD
LOC       .                 :LOCATION
CNTY       .                 :COUNTY
STAT       .                 :STATE
CTRY       .                 :COUNTRY
SRVC       .                 :SERVICE COMPANY
DATE       .                 :DATE
API       .                42109309270000 :API NUMBER
~CURVE INFORMATION
#MNEMONIC     .UNIT      API CODE :CURVE DESCRIPTION
#--------------------------------------------------#
DEPTH       .ft                      :Measured Depth
CAL       .in        UNKNOWN   :CAL
DT       .us/ft        UNKNOWN   :DT
GR       .gAPI        UNKNOWN   :GR
~A    DEPTH    CAL    DT    GR
# ...
15896.00000    9.00895    76.73808    142.55767
15896.50000    9.01124    77.41094    146.16247
15897.00000    9.01353    78.08379    149.76726
15897.50000    9.01582    78.75665    153.37205
15898.00000    9.01811    79.42950    156.97684
15898.50000    9.02040    80.05699    160.58164
15899.00000    9.02269    79.17850    164.18643
15899.50000    9.02498    79.03233    162.45410
15900.00000    9.02703    79.40700    157.47741
15900.50000    9.02532    79.78167    152.50072
15901.00000    9.02361    80.15634    152.38667
15901.50000    9.02191    80.53101    155.74951
15902.00000    9.02020    80.90568    159.11234
15902.50000    9.01850    81.13825    162.47518
15903.00000    9.01679    80.71049    165.83801
15903.50000    9.01509    80.28272    169.20085
15904.00000    9.01338    80.65944    170.41483
15904.50000    9.01167    81.05309    169.52883
15905.00000    9.00997    81.44674    168.64283
15905.50000    9.00826    81.84039    169.51697
15906.00000    9.00656    82.16240    173.81051
15906.50000    9.00485    81.64919    178.10405
15907.00000    9.00315    81.13598    182.39759
15907.50000    9.00144    80.62276    186.69114
15908.00000    8.99973    80.10955    190.98468
15908.50000    8.99803    79.59634    195.27822
15909.00000    8.99632    79.47470    190.07803
15909.50000    8.99854    79.37344    124.95260
15910.00000    9.00572    79.27218    120.07175
15910.50000    9.01290    78.31765    115.19091
15911.00000    9.02009    74.69194    110.31006
15911.50000    9.02727    71.06623    105.42922
15912.00000    9.03445    67.44052    113.74532
15912.50000    9.04164    69.63594    126.62522
15913.00000    9.04882    72.41956    139.50513
15913.50000    9.05600    76.68286    152.38504
15914.00000    9.06318    78.95504    165.26495
15914.50000    9.07037    80.55499    175.92377
15915.00000    9.07755    80.11253    172.01356
15915.50000    9.08473    79.67006    168.10335
15916.00000    9.09192    79.22760    164.19314
15916.50000    9.09910    78.78514    165.06526
15917.00000    9.10628    81.24529    169.84504
15917.50000    9.13326    82.57525    174.62482
15918.00000    9.17510    83.90520    179.40460
15918.50000    9.21694    85.23515    182.67158
15919.00000    9.25877    85.91268    185.03214
15919.50000    9.30061    84.80781    187.39271
15920.00000    9.34245    83.70292    187.09492
15920.50000    9.36445    82.77703    186.49996
15921.00000    9.35025    87.12620    185.90500
15921.50000    9.33606    88.93342    185.31004
15922.00000    9.32187    89.82241    179.42303
15922.50000    9.30767    90.71139    170.82836
15923.00000    9.29348    90.54858    174.36513
15923.50000    9.27712    89.85382    182.95163
15924.00000    9.24892    89.15905    191.53813
15924.50000    9.22072    89.91631    200.12463
15925.00000    9.19252    91.14923    196.19969
15925.50000    9.16433    92.38214    184.92112
15926.00000    9.13613    93.61506    173.64255
15926.50000    9.10793    91.23443    166.33686
15927.00000    9.07973    91.45435    169.38362
15927.50000    9.05153    91.67427    172.43037
15928.00000    9.02334    89.15077    175.47713
15928.50000    8.99514    84.66705    164.84556
15929.00000    8.96694    85.77644    153.77797
15929.50000    8.93875    87.07544    150.09273
15930.00000    8.93147    88.37443    151.54134
15930.50000    8.93133    88.01634    152.98995
15931.00000    8.93118    87.37004    154.82712
15931.50000    8.93104    86.72374    156.71491
15932.00000    8.93089    86.07744    158.60270
15932.50000    8.93075    87.36660    164.61923
15933.00000    8.93060    90.24338    173.14490
15933.50000    8.95193    93.74339    181.67057
15934.00000    8.97702    96.57861    190.19625
15934.50000    9.00210    94.78245    198.72192
15935.00000    9.02718    92.98628    193.69843
15935.50000    9.05226    91.19011    188.07391
15936.00000    9.07734    89.39394    182.44939
15936.50000    9.10243    87.59777    180.14321
15937.00000    9.15005    92.98500    182.38392
15937.50000    9.19899    97.61613    184.62463
15938.00000    9.24793    100.22849    186.86535
15938.50000    9.29687    101.40999    189.10606
15939.00000    9.28121    102.59149    191.34677
15939.50000    9.25019    100.27158    175.81117
15940.00000    9.21916    97.84026    180.15081
15940.50000    9.18814    95.98828    184.49046
15941.00000    9.15711    94.13630    188.83010
15941.50000    9.12609    92.28432    193.16975
15942.00000    9.09507    90.15079    185.36672
15942.50000    9.06404    87.41251    172.51674
15943.00000    9.03302    89.97325    169.07447
15943.50000    9.00200    92.75329    168.09519
15944.00000    8.98457    95.53333    168.26942
15944.50000    8.98273    98.31336    168.44364
15945.00000    8.98089    99.15713    172.68453
15945.50000    8.97905    97.36093    181.33179
15946.00000    8.97721    95.56474    189.97905
15946.50000    8.97537    93.27212    198.62632
15947.00000    8.97354    90.67541    207.27358
15947.50000    8.97170    88.07870    215.92084
15948.00000    8.96986    85.48199    223.44068
15948.50000    8.96802    84.84608    220.88411
15949.00000    8.96618    85.98304    215.54388
15949.50000    8.96434    87.11999    156.97683
15950.00000    8.96250    88.25695    164.88425
15950.50000    8.96067    89.39390    172.79167
15951.00000    8.95883    90.18528    180.69909
15951.50000    8.95699    87.95940    188.60650
15952.00000    8.95515    85.73352    196.51392
15952.50000    8.96210    83.50764    204.42134
15953.00000    8.99983    81.28176    208.89085
15953.50000    9.03757    80.66308    176.82455
15954.00000    9.07531    84.55501    147.93173
15954.50000    9.11304    88.44694    162.58889
15955.00000    9.15078    90.62137    177.24605
15955.50000    9.18852    91.97024    191.90321
15956.00000    9.20589    92.64755    206.56037
15956.50000    9.18047    92.81740    221.21753
15957.00000    9.15505    92.78286    213.32738
15957.50000    9.12963    92.43540    181.80520
15958.00000    9.10421    92.08794    150.28302
15958.50000    9.07879    87.96315    114.60798
15959.00000    9.05338    80.45587    102.27415
15959.50000    9.02796    72.94858    116.78888
15960.00000    9.00254    74.19576    131.30360
15960.50000    8.97712    79.67857    141.61147
15961.00000    8.95170    94.46394    144.06785
15961.50000    8.95097    96.60665    146.52422
15962.00000    8.95082    93.26597    148.21828
15962.50000    8.95067    96.26755    149.42835
15963.00000    8.95051    99.26913    150.63843
15963.50000    8.95036    94.46888    152.16267
15964.00000    8.95020    90.51183    153.92984
15964.50000    8.95005    88.53660    155.62525
15965.00000    8.94989    87.47083    157.17744
15965.50000    8.94974    86.90698    158.16717
15966.00000    8.94958    86.34313    158.74032
15966.50000    8.94943    85.76282    159.31348
15967.00000    8.94928    85.17624    159.88663
15967.50000    8.94912    84.58965    160.45979
15968.00000    8.94897    83.75778    161.47539
15968.50000    8.94881    82.61092    164.13692
15969.00000    8.94866    81.46406    166.79844
15969.50000    8.94850    82.37508    169.75952
15970.00000    8.94835    83.42725    173.05152
15970.50000    8.94820    84.47943    176.34353
15971.00000    8.94804    85.53161    179.63554
15971.50000    8.94789    85.14791    182.92754
15972.00000    8.94773    84.10968    186.21955
15972.50000    8.94758    83.07145    189.51155
15973.00000    8.94742    82.03322    192.80356
15973.50000    8.94727    80.99499    192.47181
15974.00000    8.94712    81.50146    184.13056
15974.50000    8.94696    82.81075    188.18106
15975.00000    8.94681    84.12004    192.23157
15975.50000    8.94665    81.68556    189.44968
15976.00000    8.94650    80.12887    179.98947
15976.50000    8.94634    79.47365    170.52926
15977.00000    8.94619    78.81844    161.06904
15977.50000    8.94603    78.16322    153.04063
15978.00000    8.94588    77.50801    155.34497
15978.50000    8.94572    76.89187    157.64931
15979.00000    8.94557    76.58864    153.27985
