~Version Information
 VERS.                  2.0:   CWLS log ASCII Standard -VERSION 2.0
 WRAP.                   NO:   One line per depth step
~Well Information Block
#MNEM.UNIT     VALUE/NAME     DESCRIPTION
#---------     -----------    ---------------------------
 STRT.F              8683.0000: START DEPTH
 STOP.F             14089.5000: STOP DEPTH
 STEP.F                 0.5000: STEP DEPTH
 NULL.                 -999.25: NULL VALUE
 LOC .       API  42-109-32906:  LOCATION
 FL1 .       API  42-109-32906:  LOCATIONLINE1
 DMF .                      KB:  DRILL MEAS FROM
 PDAT.                      GL:  PERMANENT DATUM
 PROV.                   TEXAS:  PROVINCE
 STAT.                   TEXAS:  STATE NAME
 CNTY.               CULBERSON:  COUNTY NAME
 LUL .                  ODESSA:  LOGGINGUNITLOC
 FLD .     FORD, WEST (WOLFCAMP):  FIELD NAME
 WELL.     SHELLY FEE 40 No. 2H:  WELL NAME
 COMP.     CAPITAN ENERGY, INC.:  COMPANY
 DATE.             08-Jun-2018:  DATE
 SVCO.             Halliburton:  SERVICECONAME
 HIDE.                        :  WELLNAMEOPERAT
 BASI.                   BACIA:  BASIN
 UWI .            42-109-32906Lat:  UNIQUE WELL IDENTIFIER
 API .            42-109-32906Lat:  API NUMBER
 RANG.                     N/A:  RANGE
 TOWN.                     N/A:  TOWNSHIP
 SECT.                     N/A:  SECTION
 SON .               902848974:  JOB NUMBER
 CTRY.                        :  COUNTRY
 SRVC.             Halliburton:  SERVICE COMPANY
 LMF .                      KB:  LOG MEASURED FROM
 BAP .ft                0.0000:  GL ELEV ONSHORE
 GVFD.g                 1.0000:  GRAVITY FIELD
~Curve Information Block
#MNEM.UNIT                 API CODE     Curve Description
#---------               -----------    ---------------------------
 DEPT.F                 00 000 000 000:  Depth
 CCL .mV                00 000 000 000:  Casing Collar Locator
 DTC_CHI.uspf           00 000 000 000:  DTC_CHI
 DTC_OH.uspf            00 000 000 000:  DTC_OH
 GR_CHI.api             00 000 000 000:  GR_CHI
 GR_OH.api              00 000 000 000:  GR_OH
 LLD_CHI.ohmm           00 000 000 000:  LLD_CHI
 LLD_OH.ohmm            00 000 000 000:  LLD_OH
 LLS_CHI.ohmm           00 000 000 000:  LLS_CHI
 LLS_OH.ohmm            00 000 000 000:  LLS_OH
 MSFL_CHI.ohmm          00 000 000 000:  MSFL_CHI
 MSFL_OH.ohmm           00 000 000 000:  MSFL_OH
 NPHI_CHI.pu            00 000 000 000:  NPHI_CHI
 NPHI_OH.pu             00 000 000 000:  NPHI_OH
 PE_CHI.b/e             00 000 000 000:  PE_CHI
 PE_OH.NONE             00 000 000 000:  Pe_OH
 RHOB_CHI.g/cc          00 000 000 000:  RHOB_CHI
 RHOB_OH.g/cc           00 000 000 000:  RHOB_OH
 SPHI_CHI.pu            00 000 000 000:  SPHI_CHI
#Other Information
#
#WARRANTY: Halliburton will use its best efforts to furnish customers with 
#accurate information and interpretations that are part of, and incident to, the services 
#provided.  However, Halliburton cannot and does not warrant the accuracy 
#or correctness of such information and interpretations.  Under no circumstances should any 
#such information or interpretation be relied upon as the sole basis for any drilling, 
#completion, production, or financial decision or any procedure involving any risk to the 
#safety of any drilling venture, drilling rig or its crew or any other third party.  The 
#Customer has full responsibility for all drilling, completion and production operation.  
#Halliburton makes no representations or warranties, either expressed or 
#implied, including, but not limited to, the implied warranties of merchantability or fitness 
#for a particular purpose, with respect to the services rendered.  In no event will 
#Halliburton be liable for failure to obtain any particular results or for 
#any damages, including, but not limited to, indirect, special or consequential damages, 
#resulting from the use of any information or interpretation provided by Halliburton.
#
~A    DEPT       CCL    DTC_CHI DTC_OH   GR_CHI   GR_OH   LLD_CHI   LLD_OH   LLS_CHI   LLS_OH   MSFL_CHI  MSFL_OH     NPHI_CHI   NPHI_OH   PE_CHI    PE_OH   RHOB_CHI  RHOB_OH SPHI_CHI 
# ...
   12973.0000    0.0000 64.2879 -999.25  69.3306  -999.25 116.2424   -999.25 109.8373   -999.25  55.3610    -999.25       7.8368 -999.25     4.5298 -999.25     2.6599 -999.25 11.8000
   12973.5000  -21.7015 64.1830 -999.25  68.2534  -999.25 115.6735   -999.25 109.1365   -999.25  55.3199    -999.25       7.7534 -999.25     4.5345 -999.25     2.6620 -999.25 11.7300
   12974.0000    0.0000 64.4712 -999.25  76.6619  -999.25 109.2207   -999.25 103.2013   -999.25  52.8813    -999.25       8.0260 -999.25     4.4802 -999.25     2.6545 -999.25 11.9300
   12974.5000    0.0000 63.8358 -999.25  66.5525  -999.25 111.7990   -999.25 104.6332   -999.25  54.1563    -999.25       7.5157 -999.25     4.5102 -999.25     2.6679 -999.25 11.4800
   12975.0000    0.0000 63.8149 -999.25  70.5384  -999.25 106.8609   -999.25  99.5742   -999.25  52.2775    -999.25       7.5371 -999.25     4.4596 -999.25     2.6663 -999.25 11.4700
   12975.5000    0.0000 63.6290 -999.25  69.1878  -999.25 105.7348   -999.25  97.9892   -999.25  51.7132    -999.25       7.4386 -999.25     4.4341 -999.25     2.6690 -999.25 11.3400
   12976.0000    0.0000 63.8812 -999.25  75.8714  -999.25 102.6910   -999.25  95.2309   -999.25  50.3368    -999.25       7.6484 -999.25     4.3901 -999.25     2.6622 -999.25 11.5100
   12976.5000   33.4317 63.9645 -999.25  77.4594  -999.25 104.2638   -999.25  96.6915   -999.25  50.6663    -999.25       7.6571 -999.25     4.3815 -999.25     2.6597 -999.25 11.5700
   12977.0000  -23.8769 63.9599 -999.25  76.3675  -999.25 107.0020   -999.25  99.2484   -999.25  51.5251    -999.25       7.5996 -999.25     4.3911 -999.25     2.6599 -999.25 11.5700
   12977.5000    0.0000 63.8683 -999.25  73.5998  -999.25 108.3681   -999.25 100.5103   -999.25  52.1025    -999.25       7.5293 -999.25     4.4085 -999.25     2.6625 -999.25 11.5100
   12978.0000    0.0000 64.1125 -999.25  79.0875  -999.25 105.2851   -999.25  97.8608   -999.25  50.8646    -999.25       7.7527 -999.25     4.3793 -999.25     2.6567 -999.25 11.6800
   12978.5000    0.0000 63.6233 -999.25  70.3222  -999.25 107.5046   -999.25  99.3705   -999.25  52.0492    -999.25       7.3651 -999.25     4.4176 -999.25     2.6677 -999.25 11.3300
   12979.0000    0.0000 63.7232 -999.25  73.8128  -999.25 104.2176   -999.25  96.3307   -999.25  50.8443    -999.25       7.4839 -999.25     4.3921 -999.25     2.6650 -999.25 11.4000
   12979.5000    0.0000 63.7931 -999.25  73.1245  -999.25 105.7003   -999.25  97.9232   -999.25  51.3050    -999.25       7.5405 -999.25     4.4018 -999.25     2.6642 -999.25 11.4500
   12980.0000    0.0000 63.8629 -999.25  70.5304  -999.25 107.5276   -999.25 100.0268   -999.25  51.9613    -999.25       7.6432 -999.25     4.4250 -999.25     2.6644 -999.25 11.5000
   12980.5000  -12.2113 64.0245 -999.25  70.3515  -999.25 107.6590   -999.25 100.6538   -999.25  52.0246    -999.25       7.8296 -999.25     4.4375 -999.25     2.6624 -999.25 11.6200
   12981.0000    0.0000 64.1964 -999.25  73.9848  -999.25 103.9472   -999.25  97.3977   -999.25  50.6984    -999.25       8.0489 -999.25     4.4156 -999.25     2.6587 -999.25 11.7400
   12981.5000    0.0000 64.1232 -999.25  78.6918  -999.25  98.8220   -999.25  92.0584   -999.25  48.8991    -999.25       8.0091 -999.25     4.3713 -999.25     2.6579 -999.25 11.6900
   12982.0000    0.0000 63.8146 -999.25  77.4995  -999.25  96.3714   -999.25  89.0789   -999.25  48.1315    -999.25       7.7831 -999.25     4.3513 -999.25     2.6629 -999.25 11.4700
   12982.5000    0.0000 63.7099 -999.25  83.5294  -999.25  88.2416   -999.25  80.9264   -999.25  45.2783    -999.25       7.8368 -999.25     4.2913 -999.25     2.6622 -999.25 11.3900
   12983.0000    0.0000 63.2818 -999.25  79.0302  -999.25  85.1058   -999.25  77.4983   -999.25  44.4988    -999.25       7.6022 -999.25     4.2944 -999.25     2.6712 -999.25 11.0900
   12983.5000    0.0000 63.2538 -999.25  78.2438  -999.25  84.7277   -999.25  77.0758   -999.25  44.2478    -999.25       7.6529 -999.25     4.2839 -999.25     2.6716 -999.25 11.0700
   12984.0000    0.0000 63.4179 -999.25  74.7123  -999.25  88.4809   -999.25  81.0552   -999.25  45.4915    -999.25       7.8001 -999.25     4.3104 -999.25     2.6703 -999.25 11.1900
   12984.5000    0.0000 63.7530 -999.25  70.6030  -999.25  96.2968   -999.25  89.1722   -999.25  47.9051    -999.25       8.0081 -999.25     4.3464 -999.25     2.6657 -999.25 11.4200
   12985.0000    0.0000 64.2821 -999.25  77.2091  -999.25  96.3044   -999.25  89.9070   -999.25  47.5354    -999.25       8.4478 -999.25     4.3263 -999.25     2.6547 -999.25 11.8000
   12985.5000    0.0000 64.2296 -999.25  73.8784  -999.25  99.1114   -999.25  92.6295   -999.25  48.5286    -999.25       8.3661 -999.25     4.3474 -999.25     2.6567 -999.25 11.7600
   12986.0000    0.0000 64.3546 -999.25  74.2893  -999.25  98.3041   -999.25  92.1816   -999.25  48.2534    -999.25       8.5411 -999.25     4.3477 -999.25     2.6546 -999.25 11.8500
   12986.5000  -29.0798 63.9986 -999.25  70.4382  -999.25  97.5958   -999.25  90.8600   -999.25  48.0861    -999.25       8.2787 -999.25     4.3402 -999.25     2.6612 -999.25 11.6000
   12987.0000    0.0000 63.9225 -999.25  69.4947  -999.25  96.7060   -999.25  89.8033   -999.25  47.6548    -999.25       8.2793 -999.25     4.3215 -999.25     2.6621 -999.25 11.5400
   12987.5000    0.0000 63.8973 -999.25  74.0150  -999.25  92.3810   -999.25  85.2325   -999.25  45.8526    -999.25       8.3446 -999.25     4.2606 -999.25     2.6598 -999.25 11.5300
   12988.0000    0.0000 64.0650 -999.25  84.5330  -999.25  86.5763   -999.25  79.3782   -999.25  43.4438    -999.25       8.5630 -999.25     4.1836 -999.25     2.6525 -999.25 11.6400
   12988.5000    0.0000 63.3765 -999.25  74.8958  -999.25  87.2441   -999.25  79.1505   -999.25  43.9270    -999.25       8.0027 -999.25     4.1999 -999.25     2.6666 -999.25 11.1600
   12989.0000    0.0000 62.9621 -999.25  71.8974  -999.25  86.6812   -999.25  77.9619   -999.25  43.8196    -999.25       7.6443 -999.25     4.1978 -999.25     2.6740 -999.25 10.8600
   12989.5000    0.0000 62.4877 -999.25  62.4925  -999.25  91.3652   -999.25  81.8719   -999.25  45.7739    -999.25       7.1414 -999.25     4.2543 -999.25     2.6849 -999.25 10.5300
   12990.0000   11.7132 62.4577 -999.25  58.5594  -999.25  96.3584   -999.25  86.6045   -999.25  47.6328    -999.25       6.9941 -999.25     4.2978 -999.25     2.6869 -999.25 10.5100
   12990.5000  -23.9687 63.3321 -999.25  72.6146  -999.25  95.7636   -999.25  86.9511   -999.25  46.7907    -999.25       7.5815 -999.25     4.2439 -999.25     2.6678 -999.25 11.1300
   12991.0000    0.0000 63.2473 -999.25  70.9602  -999.25 101.1414   -999.25  91.6322   -999.25  48.3984    -999.25       7.3279 -999.25     4.2544 -999.25     2.6687 -999.25 11.0700
   12991.5000    0.0000 63.2414 -999.25  69.1723  -999.25 104.9275   -999.25  95.1115   -999.25  49.5505    -999.25       7.2415 -999.25     4.2678 -999.25     2.6689 -999.25 11.0600
   12992.0000   16.7180 63.1195 -999.25  62.2690  -999.25 108.9290   -999.25  99.0436   -999.25  51.1717    -999.25       7.1637 -999.25     4.3196 -999.25     2.6737 -999.25 10.9800
   12992.5000    0.0000 63.4604 -999.25  65.3299  -999.25 106.6701   -999.25  97.6933   -999.25  50.4182    -999.25       7.5166 -999.25     4.3147 -999.25     2.6681 -999.25 11.2200
   12993.0000    0.0000 63.8618 -999.25  70.7328  -999.25 102.1873   -999.25  94.2977   -999.25  48.9438    -999.25       7.9648 -999.25     4.2991 -999.25     2.6609 -999.25 11.5000
   12993.5000    0.0000 64.3823 -999.25  76.3781  -999.25 102.0697   -999.25  95.0134   -999.25  48.5949    -999.25       8.4064 -999.25     4.2847 -999.25     2.6506 -999.25 11.8700
   12994.0000  -81.6946 64.1710 -999.25  64.2835  -999.25 111.7231   -999.25 104.4047   -999.25  52.0453    -999.25       8.1625 -999.25     4.3667 -999.25     2.6582 -999.25 11.7200
   12994.5000  -11.7718 65.1127 -999.25  64.6323  -999.25 122.5914   -999.25 117.0789   -999.25  54.9561    -999.25       8.8706 -999.25     4.4133 -999.25     2.6426 -999.25 12.3900
