###############################################
##         ENVERUS                           ##
##         ESS - Open Hole                   ##
##         PERMIAN / DELAWARE                ##
##         Nov 02 2023  V4.0                 ##
##         42-109-10429-00-00                ##
###############################################
## Copyright 2017-2023  ENVERUS.  All Rights Reserved. 
## Confidential - Property of ENVERUS, use governed by terms and 
## conditions found within the existing Information Services Subscription Agreement 
## (as may be amended, the “ISSA”) between Customer and ENVERUS. 
## 
~VERSION INFORMATION
# MNEM.UNIT                               DATA : DESCRIPTION OF MNEMONIC
#-----.-----     ----------------------------- : -----------------------------
VERS.                                     2.00 : CWLS LOG ASCII STANDARD - VERSION 2.00
WRAP.                                       NO : MULTIPLE LINES PER DEPTH STEP
VEND.                                  ENVERUS : VENDOR
TYPE.                          ESS - OPEN HOLE : ENVERUS ESSENTIAL CURVES – ACCESSIBLE THROUGH ENVERUS PRISM(TM)
DOC.                                  32032754 : ENVERUS HEADER RAW DOCUMENT ID
#___________________________________________________________________________________________________ 
~WELL INFORMATION 
# hXqYWT5FmhW7UEcPXxReyvN++rqgSwBrBdup88XCyeQNQmx1Fo1vv7xYmZNr9HC+TZh0ltY2ePdKOSE9Z1hlZw== 
# MNEM.UNIT                                              DATA : DESCRIPTION OF MNEMONIC 
#-----.-----                    ----------------------------- : ----------------------------- 
CNTY.                                               CULBERSON : COUNTY 
STATE.                                                  TEXAS : STATE 
CNTRY.                                                    USA : COUNTRY 
API.                                             42-109-10429 : API (10 Digit) 
API_14.                                    42-109-10429-00-00 : API (14 Digits) 
API_14_std.                                 42-109-10429-0000 : API (14 Digits Standard) 
UWI.                                           42109104290000 : UNIQUE WELL ID 
WELL.                                          ROUNSAVILLE  1 : WELL NAME
STRT.FT                                                     0 : START DEPTH
STOP.FT                                                8409.0 : STOP DEPTH
STEP.FT                                                   0.5 : STEP BETWEEN DEPTHS
NULL.                                                 -999.25 : NULL VALUE
COMP.                                     EOG RESOURCES  INC. : COMPANY
#___________________________________________________________________________________________________ 
~CURVE INFORMATION 
# MNEM.UNIT           : CURVE DESCRIPTION 
#-----.-----          : ----------------------------- 
 DEPT.FT               : MEASURED DEPTH 
 CALI.IN               : CALIPER (CAL - CAL) 
 GR.API                : GAMMA RAY (GR) 
 SP.MV                 : SPONTANEOUS POTENTIAL (SP) 
 DT.US/FT              : SONIC DELTA TRANSIT TIME (DT) 
 RESD.OHMM             : DEEP INDUCTION RESISTIVITY (ILD - ILD) 
 #___________________________________________________________________________________________________ 
~A         DEPT           CALI             GR             SP             DT           RESD
# ...
         5192.0          9.459         55.103        -25.197         68.481         65.998
         5192.5          9.421         49.616        -25.997         64.247        419.041
         5193.0          9.382         43.498        -26.798         60.470        920.352
         5193.5          9.344         37.313        -27.599         56.692       1421.662
         5194.0          9.344         31.128        -28.399         53.859        173.417
         5194.5          9.353         29.522        -29.200         51.715        139.863
         5195.0          9.362         33.836        -30.000         53.007        141.989
         5195.5          9.371         40.893        -30.824         56.616        152.989
         5196.0          9.380         45.979        -32.308         60.225        163.989
         5196.5          9.380         41.347        -33.792         60.353        181.841
         5197.0          9.373         30.968        -35.277         60.064        218.781
         5197.5          9.367         20.589        -36.761         56.444        219.769
         5198.0          9.361         18.578        -38.245         52.639        216.900
         5198.5          9.355         17.818        -39.729         50.743        208.175
         5199.0          9.348         17.352        -41.214         51.158        197.247
         5199.5          9.342         20.115        -42.320         51.572        186.319
         5200.0          9.336         22.877        -42.321         51.095        197.182
         5200.5          9.329         25.640        -42.265         50.529        330.953
         5201.0          9.331         28.402        -42.155         50.891        317.554
         5201.5          9.337         36.461        -42.044         52.237        273.444
         5202.0          9.343         45.398        -41.934         56.090        229.334
         5202.5          9.349         54.335        -41.823         59.944        185.224
         5203.0          9.354         52.411        -41.637         62.735        182.029
         5203.5          9.360         46.414        -40.354         64.029        188.187
         5204.0          9.366         45.020        -39.071         61.424        189.449
         5204.5          9.372         45.374        -37.788         59.135        175.889
         5205.0          9.378         42.076        -36.506         58.452        157.090
         5205.5          9.384         45.857        -35.223         59.332        138.292
         5206.0          9.390         52.939        -33.940         61.933        120.229
         5206.5          9.395         57.208        -32.657         68.428        103.026
         5207.0          9.401         59.662        -32.002         70.510         89.769
         5207.5          9.407         63.713        -32.003         72.626         81.204
         5208.0          9.413         70.430        -32.004         75.190         72.921
         5208.5          9.419         73.778        -32.004         76.365         68.789
         5209.0          9.424         73.216        -32.005         76.883         64.657
         5209.5          9.423         64.200        -32.006         73.832         62.566
         5210.0          9.423         48.052        -32.006         69.760         65.701
         5210.5          9.422         35.135        -32.350         63.033         69.404
         5211.0          9.421         32.162        -33.045         56.500         77.438
         5211.5          9.421         33.909        -33.740         52.698         85.472
         5212.0          9.420         36.309        -34.435         53.444         93.506
         5212.5          9.419         37.756        -35.130         54.190        124.976
         5213.0          9.418         35.332        -35.826         54.756        139.549
         5213.5          9.418         29.408        -36.521         54.114        210.152
         5214.0          9.417         23.199        -37.216         53.472        280.754
         5214.5          9.416         19.703        -37.911         53.083        338.312
         5215.0          9.415         16.207        -38.606         52.811        322.904
         5215.5          9.415         15.865        -39.301         52.538        307.497
         5216.0          9.414         16.886        -39.997         52.266        333.522
         5216.5          9.414         18.815        -40.586         52.505        367.724
         5217.0          9.413         20.831        -40.847         53.529        387.095
         5217.5          9.413         33.429        -41.108         55.274        462.350
         5218.0          9.413         40.959        -41.369         59.474        480.654
         5218.5          9.413         48.488        -40.883         63.674        345.937
         5219.0          9.412         54.726        -40.141         67.873        213.106
         5219.5          9.412         59.607        -39.399         70.715        173.801
         5220.0          9.412         63.831        -38.657         68.089        134.496
         5220.5          9.411         62.071        -37.914         68.087         95.191
         5221.0          9.411         60.312        -37.172         68.129         81.828
         5221.5          9.411         59.331        -36.430         69.052         68.918
         5222.0          9.410         60.384        -35.688         69.974         57.997
         5222.5          9.410         56.889        -35.331         68.321         56.635
         5223.0          9.410         52.965        -34.984         65.181         55.845
         5223.5          9.410         50.751        -34.638         62.042         57.476
         5224.0          9.409         50.643        -34.308         60.856         59.106
         5224.5          9.409         51.697        -33.996         64.468         60.737
         5225.0          9.409         58.102        -33.684         68.079         61.999
         5225.5          9.408         66.317        -33.372         71.691         62.801
         5226.0          9.396         64.564        -33.060         74.459         63.604
         5226.5          9.378         57.862        -32.748         71.003         64.915
         5227.0          9.359         46.596        -32.436         67.546         66.768
         5227.5          9.343         48.315        -32.124         66.157         68.621
         5228.0          9.330         52.765        -32.292         67.573         70.473
         5228.5          9.317         55.604        -32.663         69.582         72.326
         5229.0          9.305         52.244        -33.033         69.541         74.162
         5229.5          9.292         48.884        -33.403         69.409         75.998
         5230.0          9.296         54.506        -33.773         71.456         77.833
         5230.5          9.307         61.339        -34.144         79.648         79.668
         5231.0          9.317         66.353        -34.514         80.613         74.627
         5231.5          9.328         66.437        -34.884         80.695         65.157
         5232.0          9.338         65.426        -35.254         79.879         55.687
         5232.5          9.349         63.516        -35.624         79.064         45.872
         5233.0          9.359         58.973        -35.990         79.052         42.197
         5233.5          9.370         54.596        -35.991         82.232         43.615
         5234.0          9.380         52.729        -35.992         75.768         45.034
         5234.5          9.391         52.792        -35.992         76.379         46.452
         5235.0          9.401         57.410        -35.993         82.271         47.327
         5235.5          9.412         66.285        -35.994         89.560         47.553
