~Version Information
 VERS.                  2.0:   CWLS log ASCII Standard -VERSION 2.0
 WRAP.                   NO:   One line per depth step
~Well Information Block
#MNEM.UNIT     VALUE/NAME     DESCRIPTION
#---------     -----------    ---------------------------
 STRT.F              8432.0000: START DEPTH
 STOP.F             13842.0000: STOP DEPTH
 STEP.F                 0.5000: STEP DEPTH
 NULL.                 -999.25: NULL VALUE
 LOC .     100' FNL & 990' FEL:  LOCATION
 FL6 .       API  42-109-33163:  LOCATIONLINE6
 FL4 .           ABSTRACT 1006:  LOCATIONLINE4
 FL3 .        T&P RR CO SURVEY:  LOCATIONLINE3
 FL2 .     SECTION 36, BLOCK 59 T2:  LOCATIONLINE2
 FL1 .     100' FNL & 990' FEL:  LOCATIONLINE1
 DMF .                      KB:  DRILL MEAS FROM
 PDAT.                      GL:  PERMANENT DATUM
 CNTY.               CULBERSON:  COUNTY NAME
 FLD .     FORD, WEST (WOLFCAMP):  FIELD NAME
 WELL.         SCOTT FEE 36 2H:  WELL NAME
 COMP.     CAPITAN ENERGY INC.:  COMPANY
 DATE.             11-Oct-2017:  DATE
 SVCO.             Halliburton:  SERVICECONAME
 PROV.                   TEXAS:  PROVINCE
 STAT.                   TEXAS:  STATE NAME
 CTRY.           UNITED STATES:  COUNTRY NAME
 HIDE.                        :  WELLNAMEOPERAT
 BASI.                 PERMIAN:  BASIN
 UWI .            42-109-33163Lat:  UNIQUE WELL IDENTIFIER
 API .            42-109-33163Lat:  API NUMBER
 RANG.                     N/A:  RANGE
 TOWN.                     N/A:  TOWNSHIP
 SECT.                     N/A:  SECTION
 SON .               904352259:  JOB NUMBER
 SRVC.             Halliburton:  SERVICE COMPANY
 LMF .                      KB:  LOG MEASURED FROM
 EGL .ft             3174.0000:  GROUND ELEVATION
 BAP .ft                0.0000:  GL ELEV ONSHORE
 GVFD.g                 1.0000:  GRAVITY FIELD
 EKB .ft             3200.0000:  KB ELEVATION
 EDF .ft             3199.0000:  DF ELEVATION
~Curve Information Block
#MNEM.UNIT                 API CODE     Curve Description
#---------               -----------    ---------------------------
 DEPT.F                 00 000 000 000:  Depth
 CCL .V                 00 000 000 000:  Casing Collar Locator
 NPHI_OH.pu             00 000 000 000:  NPHI_OH
 NPHI_CHI.pu            00 000 000 000:  NPHI_CHI
 GR_CHI.api             00 000 000 000:  GR_CHI
 GR_OH.api              00 000 000 000:  GR_OH
 RHOB_OH.g/cc           00 000 000 000:  RHOB_OH
 RHOB_CHI.g/cc          00 000 000 000:  RHOB_CHI
 PE_CHI.b/e             00 000 000 000:  PE_CHI
 PE_OH.b/e              00 000 000 000:  PE_OH
 MSFL_OH.ohmm           00 000 000 000:  MSFL_OH
 MSFL_CHI.ohmm          00 000 000 000:  MSFL_CHI
 LLS_OH.ohmm            00 000 000 000:  LLS_OH
 LLS_CHI.ohmm           00 000 000 000:  LLS_CHI
 LLD_OH.ohmm            00 000 000 000:  LLD_OH
 LLD_CHI.ohmm           00 000 000 000:  LLD_CHI
 DTC_OH.uspf            00 000 000 000:  DTC_OH
 DTC_CHI.uspf           00 000 000 000:  DTC_CHI
 SPHI_CHI.pu            00 000 000 000:  SPHI_CHI
 SGF .cu                00 000 000 000:  Formation Sigma
 CRNF.NONE              00 000 000 000:  CM GrsCaptRatio
 RIN .NONE              00 000 000 000:  CM GrsInelRatio
~A    DEPT      CCL   NPHI_OH NPHI_CHI  GR_CHI   GR_OH   RHOB_OH RHOB_CHI PE_CHI  PE_OH   MSFL_OH  MSFL_CHI  LLS_OH   LLS_CHI   LLD_OH  LLD_CHI  DTC_OH  DTC_CHI SPHI_CHI   SGF    CRNF   RIN   
# ...
   13472.0000  0.0000 -999.25  14.8865 103.2660  -999.25 -999.25   2.5373 3.4387 -999.25   -999.25  44.9110   -999.25  55.3048  -999.25  55.9428 -999.25 69.7678  15.6100 22.0100 0.9557 1.0210
   13472.5000  0.0000 -999.25  15.1182 110.8225  -999.25 -999.25   2.5290 3.3802 -999.25   -999.25  45.1481   -999.25  55.6373  -999.25  56.2814 -999.25 70.1453  15.8600 21.7738 0.9638 1.0261
   13473.0000  0.0000 -999.25  15.1397 111.8189  -999.25 -999.25   2.5276 3.3651 -999.25   -999.25  45.0820   -999.25  55.5446  -999.25  56.1870 -999.25 70.1248  15.9300 21.6730 0.9718 1.0303
   13473.5000  0.0000 -999.25  15.3493 120.7755  -999.25 -999.25   2.5184 3.3147 -999.25   -999.25  45.9822   -999.25  56.8092  -999.25  57.4749 -999.25 70.7099  16.2200 21.5434 0.9723 1.0325
   13474.0000  0.0000 -999.25  15.4490 124.3300  -999.25 -999.25   2.5149 3.2993 -999.25   -999.25  46.3719   -999.25  57.3576  -999.25  58.0335 -999.25 71.0582  16.5200 21.3893 0.9679 1.0305
   13474.5000  0.0000 -999.25  15.3868 117.9052  -999.25 -999.25   2.5219 3.3575 -999.25   -999.25  46.8777   -999.25  58.0705  -999.25  58.7596 -999.25 70.8364  16.4800 21.2393 0.9559 1.0266
   13475.0000  0.0000 -999.25  15.3847 118.4515  -999.25 -999.25   2.5220 3.3689 -999.25   -999.25  47.4863   -999.25  58.9297  -999.25  59.6348 -999.25 70.8773  16.4500 20.9556 0.9429 1.0239
   13475.5000  0.0000 -999.25  15.3916 120.2977  -999.25 -999.25   2.5207 3.3648 -999.25   -999.25  48.0863   -999.25  59.7782  -999.25  60.4993 -999.25 70.9052  16.4800 20.7416 0.9344 1.0247
   13476.0000  0.0000 -999.25  15.0900 109.7806  -999.25 -999.25   2.5326 3.4540 -999.25   -999.25  49.2419   -999.25  61.4166  -999.25  62.1688 -999.25 70.0798  16.0700 20.9053 0.9348 1.0285
   13476.5000  0.0000 -999.25  14.9002 106.2047  -999.25 -999.25   2.5367 3.4875 -999.25   -999.25  50.1319   -999.25  62.6821  -999.25  63.4585 -999.25 69.6288  15.6700 21.0307 0.9396 1.0330
   13477.0000  0.0000 -999.25  15.1040 114.7513  -999.25 -999.25   2.5278 3.4103 -999.25   -999.25  49.4496   -999.25  61.7117  -999.25  62.4695 -999.25 69.9893  15.7600 21.4711 0.9467 1.0352
   13477.5000  0.0000 -999.25  14.9618 109.4891  -999.25 -999.25   2.5329 3.4414 -999.25   -999.25  48.9333   -999.25  60.9786  -999.25  61.7224 -999.25 69.6813  15.6800 21.7340 0.9528 1.0343
   13478.0000  0.0000 -999.25  14.8205 104.2469  -999.25 -999.25   2.5372 3.4531 -999.25   -999.25  47.1622   -999.25  58.4720  -999.25  59.1686 -999.25 69.4479  15.5000 22.0096 0.9537 1.0318
   13478.5000  0.0000 -999.25  14.7626 100.9477  -999.25 -999.25   2.5396 3.4578 -999.25   -999.25  46.1357   -999.25  57.0251  -999.25  57.6948 -999.25 69.3658  15.4100 22.6356 0.9615 1.0317
   13479.0000  0.0000 -999.25  14.9813 104.4675  -999.25 -999.25   2.5346 3.4049 -999.25   -999.25  45.0835   -999.25  55.5468  -999.25  56.1891 -999.25 69.6730  15.5500 23.1519 0.9645 1.0363
   13479.5000  0.0000 -999.25  15.0192 103.5020  -999.25 -999.25   2.5332 3.3622 -999.25   -999.25  42.7819   -999.25  52.3296  -999.25  52.9136 -999.25 69.6065  15.5800 23.8005 0.9772 1.0426
   13480.0000  0.0000 -999.25  15.2879 111.2112  -999.25 -999.25   2.5229 3.2817 -999.25   -999.25  40.9724   -999.25  49.8169  -999.25  50.3562 -999.25 70.2195  15.8700 23.9894 0.9818 1.0447
   13480.5000  0.0000 -999.25  15.2203 107.2729  -999.25 -999.25   2.5254 3.2745 -999.25   -999.25  38.8072   -999.25  46.8306  -999.25  47.3180 -999.25 70.0293  15.9000 23.9286 0.9818 1.0439
   13481.0000  0.0000 -999.25  15.2754 106.2669  -999.25 -999.25   2.5256 3.2736 -999.25   -999.25  38.1984   -999.25  45.9950  -999.25  46.4681 -999.25 70.2036  15.9500 23.6905 0.9818 1.0415
   13481.5000  0.0000 -999.25  15.4286 112.3998  -999.25 -999.25   2.5187 3.2393 -999.25   -999.25  38.3933   -999.25  46.2623  -999.25  46.7400 -999.25 70.6685  16.2200 23.3402 0.9732 1.0417
   13482.0000  0.0000 -999.25  15.4415 111.6114  -999.25 -999.25   2.5198 3.2509 -999.25   -999.25  39.1661   -999.25  47.3241  -999.25  47.8200 -999.25 70.6159  16.2900 23.1347 0.9712 1.0452
   13482.5000  0.0000 -999.25  15.3963 107.1543  -999.25 -999.25   2.5250 3.2852 -999.25   -999.25  40.3316   -999.25  48.9308  -999.25  49.4546 -999.25 70.3234  16.1300 23.1443 0.9753 1.0512
   13483.0000  0.0000 -999.25  15.3392 105.2204  -999.25 -999.25   2.5272 3.2957 -999.25   -999.25  41.0314   -999.25  49.8986  -999.25  50.4394 -999.25 70.0178  15.9200 23.4831 0.9820 1.0589
   13483.5000  0.0000 -999.25  15.5455 113.3834  -999.25 -999.25   2.5174 3.2349 -999.25   -999.25  40.9984   -999.25  49.8530  -999.25  50.3930 -999.25 70.4829  16.0800 23.9088 0.9879 1.0675
   13484.0000  0.0000 -999.25  15.5913 111.4898  -999.25 -999.25   2.5173 3.2192 -999.25   -999.25  39.8520   -999.25  48.2689  -999.25  48.7812 -999.25 70.4158  16.1500 24.2912 0.9815 1.0756
   13484.5000  0.0000 -999.25  15.7430 118.7111  -999.25 -999.25   2.5079 3.1597 -999.25   -999.25  38.4569   -999.25  46.3497  -999.25  46.8289 -999.25 71.0108  16.4300 24.2636 0.9629 1.0784
   13485.0000  0.0000 -999.25  15.5994 107.2920  -999.25 -999.25   2.5189 3.2105 -999.25   -999.25  37.2454   -999.25  44.6908  -999.25  45.1418 -999.25 70.3867  16.2500 24.1376 0.9473 1.0754
   13485.5000  0.0000 -999.25  15.4937 106.3706  -999.25 -999.25   2.5212 3.2267 -999.25   -999.25  37.3316   -999.25  44.8086  -999.25  45.2615 -999.25 70.2229  16.0300 23.7020 0.9320 1.0690
   13486.0000  0.0000 -999.25  15.3620 109.1255  -999.25 -999.25   2.5203 3.2287 -999.25   -999.25  37.7274   -999.25  45.3499  -999.25  45.8120 -999.25 70.0737  15.9300 23.2221 0.9372 1.0617
   13486.5000  0.0000 -999.25  15.2713 112.4919  -999.25 -999.25   2.5195 3.2362 -999.25   -999.25  39.1285   -999.25  47.2723  -999.25  47.7673 -999.25 70.0171  15.8700 22.7004 0.9537 1.0555
   13487.0000  0.0000 -999.25  15.0966 110.2214  -999.25 -999.25   2.5245 3.2774 -999.25   -999.25  40.7323   -999.25  49.4847  -999.25  50.0182 -999.25 69.6132  15.6500 22.3832 0.9728 1.0516
   13487.5000  0.0000 -999.25  15.0675 108.0265  -999.25 -999.25   2.5283 3.3212 -999.25   -999.25  42.5505   -999.25  52.0074  -999.25  52.5856 -999.25 69.5776  15.5500 22.3982 0.9900 1.0491
   13488.0000  0.0000 -999.25  15.2233 109.6499  -999.25 -999.25   2.5267 3.3270 -999.25   -999.25  43.6954   -999.25  53.6037  -999.25  54.2106 -999.25 69.9760  15.7400 22.3804 0.9881 1.0483
   13488.5000  0.0000 -999.25  15.3924 110.9395  -999.25 -999.25   2.5243 3.3148 -999.25   -999.25  43.6406   -999.25  53.5271  -999.25  54.1327 -999.25 70.4046  16.0400 22.3298 0.9794 1.0480
   13489.0000  0.0000 -999.25  15.5601 112.7434  -999.25 -999.25   2.5214 3.2990 -999.25   -999.25  43.7057   -999.25  53.6180  -999.25  54.2252 -999.25 70.8364  16.3400 22.0366 0.9671 1.0486
   13489.5000  0.0000 -999.25  15.3284 103.5306  -999.25 -999.25   2.5316 3.3578 -999.25   -999.25  43.8912   -999.25  53.8772  -999.25  54.4891 -999.25 70.2122  16.1200 22.2918 0.9721 1.0495
   13490.0000  0.0000 -999.25  15.1150  99.2554  -999.25 -999.25   2.5371 3.4013 -999.25   -999.25  44.9817   -999.25  55.4040  -999.25  56.0438 -999.25 69.7732  15.7700 22.9644 0.9891 1.0505
   13490.5000  0.0000 -999.25  15.2830 107.3572  -999.25 -999.25   2.5285 3.3394 -999.25   -999.25  44.0310   -999.25  54.0727  -999.25  54.6882 -999.25 70.0676  15.8300 23.5602 1.0093 1.0506
   13491.0000  0.0000 -999.25  15.5456 120.3890  -999.25 -999.25   2.5126 3.2267 -999.25   -999.25  41.6205   -999.25  50.7151  -999.25  51.2704 -999.25 70.9725  16.3400 24.0127 1.0213 1.0500
   13491.5000  0.0000 -999.25  15.5098 111.2080  -999.25 -999.25   2.5199 3.2541 -999.25   -999.25  39.5957   -999.25  47.9155  -999.25  48.4216 -999.25 70.7228  16.4100 23.9978 1.0117 1.0483
   13492.0000  0.0000 -999.25  15.4113 101.0658  -999.25 -999.25   2.5293 3.2948 -999.25   -999.25  38.1239   -999.25  45.8930  -999.25  46.3643 -999.25 70.4670  16.2300 23.6921 1.0063 1.0450
   13492.5000  0.0000 -999.25  15.5369 103.0918  -999.25 -999.25   2.5267 3.2845 -999.25   -999.25  38.1715   -999.25  45.9582  -999.25  46.4307 -999.25 70.8312  16.3500 23.5328 1.0040 1.0427
