~Version Information
 VERS.                  2.0:   CWLS log ASCII Standard -VERSION 2.0
 WRAP.                   NO:   One line per depth step
~Well Information Block
#MNEM.UNIT     VALUE/NAME     DESCRIPTION
#---------     -----------    ---------------------------
 STRT.F              8564.0000: START DEPTH
 STOP.F             14132.0000: STOP DEPTH
 STEP.F                 0.5000: STEP DEPTH
 NULL.                 -999.25: NULL VALUE
 FL6 .       API  42-109-33219:  LOCATIONLINE6
 LOC .     253' FEL & 408' FNL:  LOCATION
 FL4 .           ABSTRACT 1760:  LOCATIONLINE4
 FL3 .        T&P RR CO SURVEY:  LOCATIONLINE3
 FL2 .     SECTION 32, BLOCK 58 T2:  LOCATIONLINE2
 FL1 .     253' FEL & 408' FNL:  LOCATIONLINE1
 DMF .                      KB:  DRILL MEAS FROM
 PDAT.                      GL:  PERMANENT DATUM
 CTRY.                     USA:  COUNTRY NAME
 PROV.                   TEXAS:  PROVINCE
 STAT.                   TEXAS:  STATE NAME
 CNTY.               CULBERSON:  COUNTY NAME
 FLD .     FORD, WEST (WOLFCAMP):  FIELD NAME
 WELL.        MOTHER FEE 28 2H:  WELL NAME
 COMP.     CAPITAN ENERGY INC.:  COMPANY
 DATE.             24-Jan-2018:  DATE
 SVCO.             Halliburton:  SERVICECONAME
 HIDE.                        :  WELLNAMEOPERAT
 BASI.                 PERMIAN:  BASIN
 UWI .            42-109-33219LAT:  UNIQUE WELL IDENTIFIER
 API .            42-109-33219LAT:  API NUMBER
 RANG.                     N/A:  RANGE
 TOWN.                     N/A:  TOWNSHIP
 SECT.                     N/A:  SECTION
 SON .               904563795:  JOB NUMBER
 SRVC.             Halliburton:  SERVICE COMPANY
 LMF .                      KB:  LOG MEASURED FROM
 EGL .ft             3142.0000:  GROUND ELEVATION
 BAP .ft                0.0000:  GL ELEV ONSHORE
 GVFD.g                 1.0000:  GRAVITY FIELD
 EKB .ft             3167.0000:  KB ELEVATION
 EDF .ft             3166.0000:  DF ELEVATION
~Curve Information Block
#MNEM.UNIT                 API CODE     Curve Description
#---------               -----------    ---------------------------
 DEPT.F                 00 000 000 000:  Depth
 CCL .V                 00 000 000 000:  Casing Collar Locator
 NPHI_OH.pu             00 000 000 000:  NPHI_OH
 NPHI_CHI.pu            00 000 000 000:  NPHI_CHI
 GR_OH.api              00 000 000 000:  GR_OH
 GR_CHI.api             00 000 000 000:  GR_CHI
 RHOB_OH.g/cc           00 000 000 000:  RHOB_OH
 RHOB_CHI.g/cc          00 000 000 000:  RHOB_CHI
 PE_OH.b/e              00 000 000 000:  PE_OH
 PE_CHI.b/e             00 000 000 000:  PE_CHI
 DTC_OH.uspf            00 000 000 000:  DTC_OH
 DTC_CHI.uspf           00 000 000 000:  DTC_CHI
 SPHI_CHI.pu            00 000 000 000:  SPHI_CHI
 RT10_OH.ohmm           00 000 000 000:  RT10_OH
 RT10_CHI.ohmm          00 000 000 000:  RT10_CHI
 RT30_OH.ohmm           00 000 000 000:  RT30_OH
 RT30_CHI.ohmm          00 000 000 000:  RT30_CHI
 RT90_OH.ohmm           00 000 000 000:  RT90_OH
 RT90_CHI.ohmm          00 000 000 000:  RT90_CHI
 SGF .cu                00 000 000 000:  Formation Sigma
 CRNF.NONE              00 000 000 000:  CaptMode Capt Ratio
 RIN .NONE              00 000 000 000:  CaptMode Gross Inel Ratio
#Other Information
#
#WARRANTY: Halliburton will use its best efforts to furnish customers with 
#accurate information and interpretations that are part of, and incident to, the services 
#provided.  However, Halliburton cannot and does not warrant the accuracy 
#or correctness of such information and interpretations.  Under no circumstances should any 
#such information or interpretation be relied upon as the sole basis for any drilling, 
#completion, production, or financial decision or any procedure involving any risk to the 
#safety of any drilling venture, drilling rig or its crew or any other third party.  The 
#Customer has full responsibility for all drilling, completion and production operation.  
#Halliburton makes no representations or warranties, either expressed or 
#implied, including, but not limited to, the implied warranties of merchantability or fitness 
#for a particular purpose, with respect to the services rendered.  In no event will 
#Halliburton be liable for failure to obtain any particular results or for 
#any damages, including, but not limited to, indirect, special or consequential damages, 
#resulting from the use of any information or interpretation provided by Halliburton.
#
~A    DEPT       CCL    NPHI_OH NPHI_CHI  GR_OH    GR_CHI  RHOB_OH RHOB_CHI  PE_OH   PE_CHI   DTC_OH  DTC_CHI SPHI_CHI RT10_OH  RT10_CHI RT30_OH  RT30_CHI RT90_OH  RT90_CHI   SGF    CRNF   RIN   
# ...
   12995.0000    1.7417 -999.25  13.6873  -999.25 164.7381 -999.25   2.5784 -999.25    3.2389 -999.25 70.0093  15.8500  -999.25  16.0919  -999.25  14.1115  -999.25  14.8321 27.5498 0.9502 1.1350
   12995.5000    1.7188 -999.25  13.1098  -999.25 151.5657 -999.25   2.5837 -999.25    3.2190 -999.25 69.8965  15.7700  -999.25  16.2330  -999.25  14.2196  -999.25  14.9096 28.0509 0.9598 1.1324
   12996.0000    1.6960 -999.25  12.9637  -999.25 150.7953 -999.25   2.5850 -999.25    3.1959 -999.25 69.4643  15.4600  -999.25  16.9002  -999.25  14.7675  -999.25  15.4952 27.8961 0.9663 1.1334
   12996.5000    1.6732 -999.25  12.5453  -999.25 140.6733 -999.25   2.5869 -999.25    3.1282 -999.25 69.4196  15.4300  -999.25  17.8911  -999.25  15.6402  -999.25  16.3866 27.5330 0.9634 1.1356
   12997.0000    1.6504 -999.25  13.3270  -999.25 153.7121 -999.25   2.5796 -999.25    3.1021 -999.25 70.1517  15.9500  -999.25  17.3289  -999.25  15.1166  -999.25  15.8033 27.0513 0.9534 1.1383
   12997.5000    1.6275 -999.25  13.2673  -999.25 149.9889 -999.25   2.5801 -999.25    3.1170 -999.25 70.4500  16.1600  -999.25  16.7366  -999.25  14.6277  -999.25  15.2669 26.7075 0.9511 1.1363
   12998.0000    1.6047 -999.25  12.9815  -999.25 144.5964 -999.25   2.5835 -999.25    3.1732 -999.25 70.3558  16.0900  -999.25  16.2696  -999.25  14.2698  -999.25  14.9146 26.3212 0.9524 1.1308
   12998.5000    1.5819 -999.25  12.9957  -999.25 148.5771 -999.25   2.5842 -999.25    3.2159 -999.25 70.0411  15.8700  -999.25  16.3342  -999.25  14.3341  -999.25  15.0349 25.7413 0.9415 1.1248
   12999.0000    1.5590 -999.25  12.7742  -999.25 145.7831 -999.25   2.5854 -999.25    3.2278 -999.25 70.0784  15.9000  -999.25  16.9503  -999.25  14.9394  -999.25  15.7323 25.0470 0.9205 1.1217
   12999.5000    1.5362 -999.25  13.3536  -999.25 159.1900 -999.25   2.5799 -999.25    3.2405 -999.25 70.1445  15.9400  -999.25  16.8098  -999.25  14.8166  -999.25  15.6430 24.4317 0.8973 1.1219
   13000.0000    1.5134 -999.25  12.9402  -999.25 152.1330 -999.25   2.5839 -999.25    3.2986 -999.25 70.0938  15.9100  -999.25  17.0774  -999.25  15.1642  -999.25  16.0872 24.1196 0.8852 1.1228
   13000.5000    1.4906 -999.25  12.0422  -999.25 139.3410 -999.25   2.5947 -999.25    3.4424 -999.25 69.5356  15.5100  -999.25  18.2775  -999.25  16.4647  -999.25  17.6541 24.2904 0.8972 1.1236
   13001.0000    1.4677 -999.25  11.7312  -999.25 140.5468 -999.25   2.6023 -999.25    3.6158 -999.25 68.7333  14.9500  -999.25  18.4349  -999.25  16.7001  -999.25  18.0620 24.5790 0.9241 1.1275
   13001.5000    1.4449 -999.25  11.8596  -999.25 151.8315 -999.25   2.6043 -999.25    3.7008 -999.25 67.9267  14.3800  -999.25  18.2148  -999.25  16.3671  -999.25  17.7753 25.1108 0.9600 1.1350
   13002.0000    1.4221 -999.25  13.0118  -999.25 170.8295 -999.25   2.5921 -999.25    3.5993 -999.25 68.2432  14.6000  -999.25  16.3729  -999.25  14.5208  -999.25  15.6277 25.4154 0.9810 1.1408
   13002.5000    1.3993 -999.25  13.5693  -999.25 171.8868 -999.25   2.5835 -999.25    3.4420 -999.25 69.0200  15.1500  -999.25  15.5834  -999.25  13.7478  -999.25  14.6127 25.5140 0.9749 1.1383
   13003.0000    1.3764 -999.25  13.3719  -999.25 154.3622 -999.25   2.5816 -999.25    3.3023 -999.25 70.4467  16.1600  -999.25  15.1381  -999.25  13.3729  -999.25  14.0548 25.2400 0.9467 1.1302
   13003.5000    1.3536 -999.25  13.7224  -999.25 154.3296 -999.25   2.5768 -999.25    3.2306 -999.25 71.1781  16.6700  -999.25  14.7457  -999.25  13.0127  -999.25  13.5880 24.6069 0.9202 1.1209
   13004.0000    1.3308 -999.25  13.8123  -999.25 155.8546 -999.25   2.5759 -999.25    3.2217 -999.25 71.2014  16.6900  -999.25  14.7447  -999.25  13.0033  -999.25  13.5697 24.2584 0.9150 1.1186
   13004.5000    1.3079 -999.25  13.4753  -999.25 156.5128 -999.25   2.5802 -999.25    3.3180 -999.25 70.4977  16.1900  -999.25  15.1860  -999.25  13.4626  -999.25  14.1805 24.0814 0.9343 1.1213
   13005.0000    1.2851 -999.25  11.7641  -999.25 133.3463 -999.25   2.5981 -999.25    3.4867 -999.25 69.5510  15.5200  -999.25  18.7572  -999.25  17.0316  -999.25  18.3196 24.1867 0.9598 1.1249
   13005.5000    1.2623 -999.25  11.5718  -999.25 136.2337 -999.25   2.6021 -999.25    3.5817 -999.25 68.9093  15.0700  -999.25  19.5066  -999.25  17.7643  -999.25  19.2456 24.4329 0.9815 1.1265
   13006.0000    1.2395 -999.25  11.4638  -999.25 133.1434 -999.25   2.6001 -999.25    3.5110 -999.25 69.1035  15.2100  -999.25  21.3146  -999.25  19.5200  -999.25  21.2041 24.8520 0.9946 1.1258
   13006.5000    1.2166 -999.25  12.5880  -999.25 144.1572 -999.25   2.5845 -999.25    3.3073 -999.25 70.3080  16.0600  -999.25  18.9714  -999.25  17.1426  -999.25  18.3606 25.4162 1.0038 1.1265
   13007.0000    1.1938 -999.25  13.2228  -999.25 150.5481 -999.25   2.5758 -999.25    3.1759 -999.25 70.8900  16.4700  -999.25  18.4719  -999.25  16.5613  -999.25  17.5896 26.3507 1.0173 1.1299
   13007.5000    1.1710 -999.25  13.3854  -999.25 149.1427 -999.25   2.5731 -999.25    3.0942 -999.25 71.4616  16.8800  -999.25  18.4084  -999.25  16.4277  -999.25  17.3424 27.6649 1.0312 1.1347
   13008.0000    1.1481 -999.25  13.3791  -999.25 145.0272 -999.25   2.5727 -999.25    3.0132 -999.25 71.9914  17.2500  -999.25  18.5278  -999.25  16.4287  -999.25  17.2299 28.9213 1.0377 1.1383
   13008.5000    1.1253 -999.25  13.8106  -999.25 148.6837 -999.25   2.5690 -999.25    2.9509 -999.25 72.5024  17.6100  -999.25  18.1145  -999.25  15.9571  -999.25  16.6104 29.7557 1.0272 1.1420
   13009.0000    1.1025 -999.25  13.9692  -999.25 148.0548 -999.25   2.5686 -999.25    2.8738 -999.25 72.7075  17.7600  -999.25  18.4487  -999.25  16.1119  -999.25  16.6450 30.3065 1.0181 1.1469
   13009.5000    1.0797 -999.25  14.9550  -999.25 163.5269 -999.25   2.5625 -999.25    2.8298 -999.25 72.9409  17.9200  -999.25  18.8451  -999.25  16.3726  -999.25  16.7957 30.3774 1.0089 1.1525
   13010.0000    1.0568 -999.25  15.1166  -999.25 165.8309 -999.25   2.5629 -999.25    2.8216 -999.25 72.6515  17.7200  -999.25  19.1008  -999.25  16.5586  -999.25  16.9430 30.2243 1.0080 1.1566
   13010.5000    1.0340 -999.25  14.8920  -999.25 163.1051 -999.25   2.5659 -999.25    2.8411 -999.25 71.9626  17.2300  -999.25  18.7698  -999.25  16.2367  -999.25  16.6057 30.0590 1.0118 1.1557
   13011.0000    1.0112 -999.25  14.7442  -999.25 162.7357 -999.25   2.5678 -999.25    2.8787 -999.25 71.4840  16.8900  -999.25  18.1710  -999.25  15.7118  -999.25  16.0849 29.9714 1.0218 1.1519
   13011.5000    0.9884 -999.25  14.6143  -999.25 161.9324 -999.25   2.5684 -999.25    2.8862 -999.25 71.4173  16.8400  -999.25  18.1979  -999.25  15.7416  -999.25  16.1476 30.1755 1.0319 1.1491
   13012.0000    0.9655 -999.25  14.3033  -999.25 155.1264 -999.25   2.5699 -999.25    2.8675 -999.25 71.5821  16.9600  -999.25  18.3518  -999.25  15.8766  -999.25  16.2935 30.1977 1.0415 1.1483
   13012.5000    0.9427 -999.25  14.7801  -999.25 161.9112 -999.25   2.5660 -999.25    2.8401 -999.25 72.0680  17.3000  -999.25  18.8417  -999.25  16.3099  -999.25  16.7094 30.0412 1.0419 1.1514
   13013.0000    0.9199 -999.25  14.7405  -999.25 157.8143 -999.25   2.5663 -999.25    2.8249 -999.25 72.3708  17.5200  -999.25  18.6719  -999.25  16.1565  -999.25  16.5082 29.5900 1.0331 1.1522
   13013.5000    0.8970 -999.25  14.6500  -999.25 152.4221 -999.25   2.5672 -999.25    2.8237 -999.25 72.5723  17.6600  -999.25  18.1250  -999.25  15.6745  -999.25  15.9620 29.3163 1.0164 1.1516
   13014.0000    0.8742 -999.25  14.8602  -999.25 155.2146 -999.25   2.5661 -999.25    2.8482 -999.25 72.7311  17.7700  -999.25  17.4588  -999.25  15.1057  -999.25  15.3534 29.3592 0.9994 1.1499
   13014.5000    0.8514 -999.25  15.1603  -999.25 163.6684 -999.25   2.5636 -999.25    2.8822 -999.25 72.7407  17.7800  -999.25  17.1484  -999.25  14.8665  -999.25  15.1377 29.4279 0.9918 1.1483
   13015.0000    0.8286 -999.25  14.4114  -999.25 151.2126 -999.25   2.5698 -999.25    2.9045 -999.25 72.1092  17.3300  -999.25  16.6326  -999.25  14.3977  -999.25  14.6855 29.7105 0.9925 1.1475
   13015.5000    0.8057 -999.25  13.6953  -999.25 142.9767 -999.25   2.5756 -999.25    2.9290 -999.25 71.1882  16.6800  -999.25  16.9042  -999.25  14.6378  -999.25  15.0086 29.8583 1.0056 1.1441
