~VERSION INFORMATION
VERS. 2.0 : CWLS Log ASCII Standard - Version 2.0
WRAP. NO : One line per depth step
#--------------------------------------------------#
#----------------DRILLING INFO, INC.---------------#
#---------------WWW.DRILLINGINFO.COM---------------#
#------------------COPYRIGHT 2015------------------#
#--------------------------------------------------#
#THIS FILE MAY BE USED ONLY IN ACCORDANCE WITH A CURRENT SUBSCRIPTION AGREEMENT BETWEEN
#THE USER AND DRILLING INFO, INC. NO PART OF THIS FILE MAY BE REPRODUCED, USED, COPIED,
#MODIFIED, PROPAGATED, OR DISTRIBUTED EXCEPT IN ACCORDANCE WITH THE SUBSCRIPTION
#AGREEMENT. UNAUTHORIZED USE OR DISTRIBUTION OF ALL OR ANY PART OF THIS FILE MAY VIOLATE
#COPYRIGHT, TRADEMARK, AND/OR OTHER LAWS AND IS SUBJECT TO CIVIL AS WELL AS CRIMINAL
#SANCTIONS.
#--------------------------------------------------#
#THIS FILE IS PROVIDED "AS-IS" AND ALL WARRANTIES ARE EXPRESSLY DISCLAIMED, WHETHER
#EXPRESS, ORAL, IMPLIED, STATUTORY OR OTHERWISE, INCLUDING ANY IMPLIED WARRANTY OF FITNESS
#FOR A PARTICULAR PURPOSE, MERCHANTABILITY, TITLE OR NON-INFRINGEMENT, AND ANY WARRANTIES
#ARISING BY VIRTUE OF CUSTOM OF TRADE OR COURSE OF DEALING.  FURTHER, DRILLING INFO,
#INC. AND ITS LICENSORS DO NOT REPRESENT OR WARRANT THAT THIS FILE WILL MEET USER'S
#REQUIREMENTS OR ARE SUITABLE FOR USER'S NEEDS OR THAT THE DATA OR RESULTS PROVIDED IN
#CONJUNCTION THEREWITH ARE CORRECT, ACCURATE, TIMELY OR RELIABLE. THESE DISCLAIMERS SHALL
#APPLY REGARDLESS OF ANY FAILURE OF ESSENTIAL PURPOSE OF ANY LIMITED REMEDY.  SOME
#JURISDICTIONS DO NOT ALLOW THE EXCLUSION OF CERTAIN WARRANTIES SO SOME OF THE ABOVE
#EXCLUSIONS MAY NOT APPLY. IN NO EVENT SHALL DRILLING INFO, INC. OR ANY OF ITS AFFILIATES
#BE LIABLE UNDER ANY LEGAL THEORY, WHETHER IN TORT (INCLUDING WITHOUT LIMITATION
#NEGLIGENCE), CONTRACT, STRICT LIABILITY, STATUTORY OR OTHERWISE, FOR ANY SPECIAL,
#INCIDENTAL, CONSEQUENTIAL, EXEMPLARY, PUNITIVE OR INDIRECT DAMAGE OF ANY KIND, INCLUDING
#WITHOUT LIMITATION LOSS OF REVENUE, PROFITS, GOODWILL, USE, AND/OR DATA OR THE COST OF
#PROCUREMENT OF SUBSTITUTE GOODS OR SERVICES, EVEN IF APPRISED OF THE POSSIBILITY OF SUCH
#DAMAGES IN ADVANCE.
#--------------------------------------------------#
~WELL INFORMATION
#MNEMONIC     .UNIT              VALUE :DESCRIPTION
#--------------------------------------------------#
STRT       .ft                25.00000 :START DEPTH
STOP       .ft                17086.00000 :STOP DEPTH
STEP       .ft                0.50000 :STEP
NULL       .                -999.25000 :NULL VALUE
COMP       .                 :COMPANY
WELL       .                 :WELL
FLD       .                 :FIELD
LOC       .                 :LOCATION
CNTY       .                 :COUNTY
STAT       .                 :STATE
CTRY       .                 :COUNTRY
SRVC       .                 :SERVICE COMPANY
DATE       .                 :DATE
API       .                42109309270000 :API NUMBER
~CURVE INFORMATION
#MNEMONIC     .UNIT      API CODE :CURVE DESCRIPTION
#--------------------------------------------------#
DEPTH       .ft                      :Measured Depth
CAL       .in        UNKNOWN   :CAL
DT       .us/ft        UNKNOWN   :DT
GR       .gAPI        UNKNOWN   :GR
~A    DEPTH    CAL    DT    GR
# ...
14801.50000    9.07271    80.56526    73.93599
14802.00000    9.16554    84.90395    74.79014
14802.50000    9.25837    86.37136    75.64428
14803.00000    9.35119    77.71492    76.49843
14803.50000    9.44402    75.96472    79.20306
14804.00000    9.53685    75.20141    83.73083
14804.50000    9.62968    76.86641    88.25859
14805.00000    9.70884    85.48173    92.78635
14805.50000    9.77995    94.09705    93.03780
14806.00000    9.85107    81.86791    84.97719
14806.50000    9.92219    77.31598    76.91658
14807.00000    9.99331    86.90351    76.25337
14807.50000    9.65802    86.14648    79.51425
14808.00000    9.44384    80.11882    82.77514
14808.50000    9.41497    82.37165    86.03602
14809.00000    9.38609    83.52668    82.13368
14809.50000    9.35722    81.73876    78.22447
14810.00000    9.32835    62.98033    75.79236
14810.50000    9.29948    66.65478    73.58607
14811.00000    9.27060    69.95195    70.60062
14811.50000    9.24173    72.81563    64.88267
14812.00000    9.22914    75.67930    59.16473
14812.50000    9.23531    78.16527    57.17600
14813.00000    9.24147    79.21760    58.22841
14813.50000    9.24764    80.24790    59.28082
14814.00000    9.25380    79.69931    60.33323
14814.50000    9.25997    79.15072    61.38564
14815.00000    9.26614    78.60213    62.33968
14815.50000    9.27230    79.60268    63.06211
14816.00000    9.27847    81.35943    63.78455
14816.50000    9.28463    82.51812    64.50698
14817.00000    9.29080    83.57007    65.31880
14817.50000    9.29697    83.94933    66.99952
14818.00000    9.30313    83.97128    68.68025
14818.50000    9.30930    84.34589    70.36097
14819.00000    9.31546    85.17918    72.04170
14819.50000    9.32163    85.42906    73.72242
14820.00000    9.32780    83.70464    73.88415
14820.50000    9.33396    81.98023    70.95742
14821.00000    9.34412    83.36756    68.03070
14821.50000    9.35564    84.51457    70.30305
14822.00000    9.36716    84.26142    74.56938
14822.50000    9.37867    84.00827    74.69744
14823.00000    9.39019    84.38582    74.82551
14823.50000    9.40170    84.16925    74.95358
14824.00000    9.41321    82.74254    75.08165
14824.50000    9.42473    81.31583    72.99397
14825.00000    9.43624    79.53204    70.66996
14825.50000    9.44776    74.79245    68.34595
14826.00000    9.45927    70.05287    65.82223
14826.50000    9.47079    66.64177    62.48244
14827.00000    9.48231    67.02702    59.14264
14827.50000    9.49382    77.70126    63.90892
14828.00000    9.50534    79.34252    75.63224
14828.50000    9.51685    79.74770    78.04010
14829.00000    9.52837    81.29928    80.44796
14829.50000    9.53538    83.29773    82.85581
14830.00000    9.54033    83.86815    85.26367
14830.50000    9.54528    77.67830    86.79910
14831.00000    9.55023    75.25713    86.20329
14831.50000    9.55518    73.08397    85.60749
14832.00000    9.56014    72.67866    85.01168
14832.50000    9.56509    72.27336    84.85814
14833.00000    9.57004    71.86807    90.51107
14833.50000    9.57499    72.71225    96.16399
14834.00000    9.57994    75.31295    99.81299
14834.50000    9.58489    75.06209    101.21820
14835.00000    9.76436    74.71272    102.62341
14835.50000    9.99117    74.38175    115.36662
14836.00000    10.21797    76.22136    117.31713
14836.50000    10.44478    79.03494    112.14916
14837.00000    10.67159    83.25091    106.98120
14837.50000    10.89840    86.93820    101.81323
14838.00000    11.12521    90.62549    96.64527
14838.50000    11.35202    92.59240    91.47731
14839.00000    10.03470    93.38564    87.28503
14839.50000    10.00071    94.17888    84.34857
14840.00000    9.96671    94.97212    81.41212
14840.50000    9.93272    70.93006    80.37500
14841.00000    9.89872    73.94990    79.84513
14841.50000    9.86473    74.78152    79.31527
14842.00000    9.83073    73.90763    79.20199
14842.50000    9.79674    73.03374    82.90606
14843.00000    9.76274    72.15985    83.61369
14843.50000    9.77772    72.36876    81.64031
14844.00000    9.81101    69.60103    80.80626
14844.50000    9.84430    69.54391    81.57580
14845.00000    9.87758    71.41222    82.34535
14845.50000    9.91087    73.28053    83.11490
14846.00000    9.94416    75.14884    83.88444
14846.50000    9.97745    73.95647    84.65399
14847.00000    9.94492    72.61677    85.42354
14847.50000    9.90163    73.54344    86.19308
14848.00000    9.85711    75.41188    85.17415
14848.50000    9.80651    70.64511    82.54841
14849.00000    9.75591    71.32471    82.25362
14849.50000    9.70532    70.73725    85.29018
14850.00000    9.66436    71.97738    87.05842
14850.50000    9.67809    75.59018    86.05100
14851.00000    9.69181    75.02295    85.04358
14851.50000    9.70554    72.91772    84.03616
14852.00000    9.72189    70.81248    83.02873
14852.50000    9.78912    71.48420    82.02131
14853.00000    9.85636    73.85068    82.65013
14853.50000    9.92359    77.83199    84.84426
14854.00000    9.99082    81.81330    87.03839
14854.50000    10.05805    85.79461    87.88184
14855.00000    10.07628    89.77593    86.30366
14855.50000    10.04455    84.76549    84.72548
14856.00000    10.01283    74.14361    83.58405
14856.50000    9.98111    69.83527    84.31874
14857.00000    9.94939    70.47594    85.05344
14857.50000    9.91767    71.11027    85.78813
14858.00000    9.88594    69.88165    86.52282
14858.50000    9.85422    68.65302    87.25752
14859.00000    9.82250    67.50225    85.35018
14859.50000    9.79078    71.06463    83.25310
14860.00000    9.79710    73.33625    84.36182
14860.50000    9.86603    75.53304    86.20716
14861.00000    9.93497    73.01543    88.05251
14861.50000    10.00390    75.01801    86.79173
14862.00000    10.03490    77.02060    83.96311
14862.50000    9.92038    79.02319    81.13449
14863.00000    9.80586    81.02577    78.30587
14863.50000    9.69135    83.02836    75.47725
14864.00000    9.70868    71.64215    74.30674
14864.50000    9.73783    71.44343    76.02138
14865.00000    9.76696    71.46960    77.73603
14865.50000    9.79610    71.64595    79.45067
14866.00000    9.82524    71.82231    80.40996
14866.50000    9.85438    71.99866    77.70604
14867.00000    9.88810    72.17501    75.00211
14867.50000    10.00221    72.35136    72.29819
14868.00000    10.11632    72.04030    74.87164
14868.50000    10.23043    71.51619    77.51210
14869.00000    10.52287    71.30313    80.15256
14869.50000    10.97883    75.89207    82.79301
14870.00000    10.75437    83.58487    81.67221
14870.50000    10.48627    91.27766    79.56799
14871.00000    10.21817    86.94022    77.46378
14871.50000    9.97805    74.81693    75.35956
14872.00000    9.87936    82.86893    74.93893
14872.50000    9.78067    77.44513    75.79732
14873.00000    9.76218    73.79384    76.65571
14873.50000    9.81603    70.14254    77.51409
14874.00000    9.86988    67.17876    78.37248
14874.50000    9.92372    72.42723    79.23087
14875.00000    9.97757    71.02028    86.21231
14875.50000    10.03142    71.66806    94.94066
14876.00000    10.08526    74.37249    103.66902
14876.50000    10.21621    77.29946    112.39737
14877.00000    10.39876    80.22642    115.30204
14877.50000    10.58131    95.90222    114.62201
14878.00000    10.76386    93.03631    113.94198
14878.50000    10.94641    94.78509    113.26195
14879.00000    10.82584    97.53538    104.69501
14879.50000    10.45496    77.42031    95.50392
14880.00000    10.08408    82.37657    86.31283
14880.50000    9.71320    87.33284    78.43357
14881.00000    9.82677    92.28910    76.33196
14881.50000    10.00287    97.24536    74.23035
14882.00000    10.17897    84.06831    72.20322
14882.50000    10.26696    85.11132    75.70824
14883.00000    10.13438    86.15433    79.21325
14883.50000    10.00180    79.93538    82.71826
14884.00000    10.06080    73.49359    86.22327
14884.50000    10.21527    74.10340    89.72829
14885.00000    10.36975    74.71322    91.91752
14885.50000    10.52423    74.94694    90.07847
14886.00000    10.61399    74.06603    88.23943
