###############################################
##         ENVERUS                           ##
##         ESS - Open Hole                   ##
##         PERMIAN / DELAWARE                ##
##         Nov 03 2023  V4.0                 ##
##         42-109-33144-00-00                ##
###############################################
## Copyright 2017-2023  ENVERUS.  All Rights Reserved. 
## Confidential - Property of ENVERUS, use governed by terms and 
## conditions found within the existing Information Services Subscription Agreement 
## (as may be amended, the “ISSA”) between Customer and ENVERUS. 
## 
~VERSION INFORMATION
# MNEM.UNIT                               DATA : DESCRIPTION OF MNEMONIC
#-----.-----     ----------------------------- : -----------------------------
VERS.                                     2.00 : CWLS LOG ASCII STANDARD - VERSION 2.00
WRAP.                                       NO : MULTIPLE LINES PER DEPTH STEP
VEND.                                  ENVERUS : VENDOR
TYPE.                          ESS - OPEN HOLE : ENVERUS ESSENTIAL CURVES – ACCESSIBLE THROUGH ENVERUS PRISM(TM)
DOC.                                  44408038 : ENVERUS HEADER RAW DOCUMENT ID
#___________________________________________________________________________________________________ 
~WELL INFORMATION 
# jhvnPe+1QU9E4rmF00QVhgJB4IQXrbTj+4JQBaOQ+xeerJB1ro+a2ny8/YeKPBUHGPa8yPZn1kHe7+9ZkyRs1A== 
# MNEM.UNIT                                              DATA : DESCRIPTION OF MNEMONIC 
#-----.-----                    ----------------------------- : ----------------------------- 
CNTY.                                               CULBERSON : COUNTY 
STATE.                                                  TEXAS : STATE 
CNTRY.                                                    USA : COUNTRY 
API.                                             42-109-33144 : API (10 Digit) 
API_14.                                    42-109-33144-00-00 : API (14 Digits) 
API_14_std.                                 42-109-33144-0000 : API (14 Digits Standard) 
UWI.                                           42109331440000 : UNIQUE WELL ID 
WELL.                                        PAT FEE 4 NO. 3H : WELL NAME
STRT.FT                                                8880.0 : START DEPTH
STOP.FT                                               14320.0 : STOP DEPTH
STEP.FT                                                   0.5 : STEP BETWEEN DEPTHS
NULL.                                                 -999.25 : NULL VALUE
LOC.                                     API  42-109-33144LAT : LOCATION 
FL1.                                     API  42-109-33144LAT : LOCATIONLINE1 
DMF.                                                       KB : DRILL MEAS FROM 
PDAT.                                                      GL : PERMANENT DATUM 
FLD.                                    FORD, WEST (WOLFCAMP) : FIELD NAME 
COMP.                            CAPITAN ENERGY, INCORPORATED : COMPANY 
DATE.                                             21-SEP-2017 : DATE 
SVCO.                                             HALLIBURTON : SERVICECONAME 
PROV.                                                   TEXAS : PROVINCE 
BASI.                                                 PERMIAN : BASIN 
RANG.                                                     N/A : RANGE 
TOWN.                                                     N/A : TOWNSHIP 
SECT.                                                     N/A : SECTION 
SON.                                                      N/A : JOB NUMBER 
SRVC.                                             HALLIBURTON : SERVICE COMPANY 
LMF.                                                       KB : LOG MEASURED FROM 
EGL.FT                                              3093.0000 : GROUND ELEVATION 
BAP.FT                                                 0.0000 : GL ELEV ONSHORE 
GVFD.G                                                 1.0000 : GRAVITY FIELD 
EKB.FT                                              3114.0000 : KB ELEVATION 
EDF.FT                                              3113.0000 : DF ELEVATION
#___________________________________________________________________________________________________ 
~CURVE INFORMATION 
# MNEM.UNIT           : CURVE DESCRIPTION 
#-----.-----          : ----------------------------- 
 DEPT.FT               : MEASURED DEPTH 
 GR.API                : GAMMA RAY (GR_CHI - GR_CHI) 
 GR__01.API            : GAMMA RAY (GR_OH - GR_OH) 
 DT.US/FT              : SONIC DELTA TRANSIT TIME (DTC_CHI - DTC_CHI) 
 DT__01.US/FT          : SONIC DELTA TRANSIT TIME (DTC_OH - DTC_OH) 
 PE.B/E                : PHOTOELECTRIC EFFECT/FACTOR (PE_CHI - PE_CHI) 
 PE__01.B/E            : PHOTOELECTRIC EFFECT/FACTOR (PE_OH - PE_OH) 
 RESS_LL.OHMM          : SHALLOW LATEROLOG (LLS_CHI - LLS_CHI) 
 RESS_LL__01.OHMM      : SHALLOW LATEROLOG (LLS_OH - LLS_OH) 
 RESD_LL.OHMM          : DEEP LATEROLOG (LLD_CHI - LLD_CHI) 
 RESD_LL__01.OHMM      : DEEP LATEROLOG (LLD_OH - LLD_OH) 
 NPHI.V/V              : NEUTRON POROSITY (NPHI_CHI - NPHI_CHI) 
 NPHI__01.V/V          : NEUTRON POROSITY (NPHI_OH - NPHI_OH) 
 SPHI.V/V              : SONIC POROSITY (SPHI_CHI - SPHI_CHI) 
 RHOB.G/CC             : BULK DENSITY (RHOB_CHI - RHOB_CHI) 
 RHOB__01.G/CC         : BULK DENSITY (RHOB_OH - RHOB_OH) 
 #___________________________________________________________________________________________________ 
~A         DEPT             GR         GR__01             DT         DT__01             PE         PE__01        RESS_LL    RESS_LL__01        RESD_LL    RESD_LL__01           NPHI       NPHI__01           SPHI           RHOB       RHOB__01
# ...
        10325.0         60.848       -999.250         60.701       -999.250         4.2965      -999.2500       116.9361      -999.2500       117.9397      -999.2500        0.08955     -999.25000        0.09260         2.6178      -999.2500
        10325.5         62.758       -999.250         60.719       -999.250         4.2825      -999.2500       117.0853      -999.2500       118.0073      -999.2500        0.08989     -999.25000        0.09280         2.6171      -999.2500
        10326.0         63.128       -999.250         60.655       -999.250         4.2290      -999.2500       114.4615      -999.2500       115.2406      -999.2500        0.09050     -999.25000        0.09230         2.6167      -999.2500
        10326.5         61.517       -999.250         60.442       -999.250         4.1669      -999.2500       108.7683      -999.2500       109.4528      -999.2500        0.09039     -999.25000        0.09080         2.6174      -999.2500
        10327.0         59.050       -999.250         60.109       -999.250         4.1014      -999.2500       103.0076      -999.2500       103.5047      -999.2500        0.08989     -999.25000        0.08850         2.6186      -999.2500
        10327.5         55.914       -999.250         59.792       -999.250         4.0420      -999.2500        99.1286      -999.2500        99.3923      -999.2500        0.08958     -999.25000        0.08620         2.6200      -999.2500
        10328.0         58.997       -999.250         60.028       -999.250         4.0230      -999.2500       101.8310      -999.2500       102.0158      -999.2500        0.09133     -999.25000        0.08790         2.6180      -999.2500
        10328.5         60.410       -999.250         60.151       -999.250         4.0041      -999.2500       104.0172      -999.2500       104.0672      -999.2500        0.09260     -999.25000        0.08880         2.6169      -999.2500
        10329.0         59.644       -999.250         60.070       -999.250         3.9979      -999.2500       104.3451      -999.2500       104.2657      -999.2500        0.09254     -999.25000        0.08820         2.6172      -999.2500
        10329.5         62.321       -999.250         60.174       -999.250         4.0027      -999.2500       105.6467      -999.2500       105.5608      -999.2500        0.09302     -999.25000        0.08890         2.6160      -999.2500
        10330.0         53.196       -999.250         59.448       -999.250         3.9511      -999.2500        97.8335      -999.2500        97.5299      -999.2500        0.09047     -999.25000        0.08380         2.6207      -999.2500
        10330.5         46.786       -999.250         58.928       -999.250         3.8970      -999.2500        92.2723      -999.2500        91.8056      -999.2500        0.08900     -999.25000        0.08010         2.6239      -999.2500
        10331.0         45.152       -999.250         58.884       -999.250         3.8873      -999.2500        92.5221      -999.2500        91.9753      -999.2500        0.08912     -999.25000        0.07980         2.6245      -999.2500
        10331.5         53.738       -999.250         59.519       -999.250         3.9549      -999.2500       100.6102      -999.2500       100.1552      -999.2500        0.09114     -999.25000        0.08430         2.6201      -999.2500
        10332.0         56.344       -999.250         59.703       -999.250         4.0201      -999.2500       105.8914      -999.2500       105.4239      -999.2500        0.09103     -999.25000        0.08560         2.6191      -999.2500
        10332.5         55.385       -999.250         59.654       -999.250         4.1400      -999.2500       108.1129      -999.2500       107.9165      -999.2500        0.08823     -999.25000        0.08520         2.6208      -999.2500
        10333.0         49.219       -999.250         59.166       -999.250         4.1924      -999.2500       103.7492      -999.2500       103.6527      -999.2500        0.08468     -999.25000        0.08180         2.6247      -999.2500
        10333.5         50.838       -999.250         59.220       -999.250         4.2448      -999.2500       103.8893      -999.2500       104.0211      -999.2500        0.08373     -999.25000        0.08220         2.6245      -999.2500
        10334.0         54.615       -999.250         59.308       -999.250         4.2237      -999.2500       104.1570      -999.2500       104.2314      -999.2500        0.08454     -999.25000        0.08280         2.6228      -999.2500
        10334.5         52.875       -999.250         58.931       -999.250         4.1743      -999.2500       100.3298      -999.2500       100.1431      -999.2500        0.08385     -999.25000        0.08010         2.6239      -999.2500
        10335.0         53.509       -999.250         58.805       -999.250         4.1580      -999.2500       100.6243      -999.2500       100.2115      -999.2500        0.08392     -999.25000        0.07920         2.6236      -999.2500
        10335.5         55.029       -999.250         58.862       -999.250         4.1749      -999.2500       103.3517      -999.2500       102.8116      -999.2500        0.08421     -999.25000        0.07960         2.6229      -999.2500
        10336.0         53.096       -999.250         58.701       -999.250         4.1711      -999.2500       104.0028      -999.2500       103.2445      -999.2500        0.08390     -999.25000        0.07850         2.6237      -999.2500
        10336.5         48.000       -999.250         58.428       -999.250         4.1447      -999.2500       102.5523      -999.2500       101.5951      -999.2500        0.08334     -999.25000        0.07660         2.6258      -999.2500
        10337.0         45.022       -999.250         58.222       -999.250         4.1050      -999.2500       100.2230      -999.2500        99.1488      -999.2500        0.08320     -999.25000        0.07510         2.6270      -999.2500
        10337.5         49.672       -999.250         58.669       -999.250         4.1094      -999.2500       103.5775      -999.2500       102.6307      -999.2500        0.08513     -999.25000        0.07830         2.6244      -999.2500
        10338.0         50.442       -999.250         58.708       -999.250         4.1045      -999.2500       101.5892      -999.2500       100.8289      -999.2500        0.08502     -999.25000        0.07860         2.6242      -999.2500
        10338.5         52.985       -999.250         58.929       -999.250         4.0983      -999.2500       100.6018      -999.2500       100.1026      -999.2500        0.08571     -999.25000        0.08010         2.6229      -999.2500
        10339.0         63.273       -999.250         59.820       -999.250         4.1110      -999.2500       105.7378      -999.2500       105.6845      -999.2500        0.08921     -999.25000        0.08640         2.6174      -999.2500
        10339.5         56.656       -999.250         59.408       -999.250         4.0178      -999.2500        97.5043      -999.2500        97.4031      -999.2500        0.08867     -999.25000        0.08350         2.6202      -999.2500
        10340.0         52.218       -999.250         59.276       -999.250         3.9427      -999.2500        93.4508      -999.2500        93.3232      -999.2500        0.08927     -999.25000        0.08260         2.6217      -999.2500
        10340.5         58.125       -999.250         59.811       -999.250         3.9340      -999.2500        97.3207      -999.2500        97.2958      -999.2500        0.09206     -999.25000        0.08640         2.6181      -999.2500
        10341.0         61.723       -999.250         60.096       -999.250         3.9325      -999.2500        99.3659      -999.2500        99.4135      -999.2500        0.09345     -999.25000        0.08840         2.6160      -999.2500
        10341.5         63.536       -999.250         60.306       -999.250         3.9655      -999.2500       101.8995      -999.2500       102.0782      -999.2500        0.09375     -999.25000        0.08990         2.6152      -999.2500
