###############################################
##         ENVERUS                           ##
##         ESS - Open Hole                   ##
##         PERMIAN / DELAWARE                ##
##         Nov 02 2023  V4.0                 ##
##         42-109-10429-00-00                ##
###############################################
## Copyright 2017-2023  ENVERUS.  All Rights Reserved. 
## Confidential - Property of ENVERUS, use governed by terms and 
## conditions found within the existing Information Services Subscription Agreement 
## (as may be amended, the “ISSA”) between Customer and ENVERUS. 
## 
~VERSION INFORMATION
# MNEM.UNIT                               DATA : DESCRIPTION OF MNEMONIC
#-----.-----     ----------------------------- : -----------------------------
VERS.                                     2.00 : CWLS LOG ASCII STANDARD - VERSION 2.00
WRAP.                                       NO : MULTIPLE LINES PER DEPTH STEP
VEND.                                  ENVERUS : VENDOR
TYPE.                          ESS - OPEN HOLE : ENVERUS ESSENTIAL CURVES – ACCESSIBLE THROUGH ENVERUS PRISM(TM)
DOC.                                  32032754 : ENVERUS HEADER RAW DOCUMENT ID
#___________________________________________________________________________________________________ 
~WELL INFORMATION 
# hXqYWT5FmhW7UEcPXxReyvN++rqgSwBrBdup88XCyeQNQmx1Fo1vv7xYmZNr9HC+TZh0ltY2ePdKOSE9Z1hlZw== 
# MNEM.UNIT                                              DATA : DESCRIPTION OF MNEMONIC 
#-----.-----                    ----------------------------- : ----------------------------- 
CNTY.                                               CULBERSON : COUNTY 
STATE.                                                  TEXAS : STATE 
CNTRY.                                                    USA : COUNTRY 
API.                                             42-109-10429 : API (10 Digit) 
API_14.                                    42-109-10429-00-00 : API (14 Digits) 
API_14_std.                                 42-109-10429-0000 : API (14 Digits Standard) 
UWI.                                           42109104290000 : UNIQUE WELL ID 
WELL.                                          ROUNSAVILLE  1 : WELL NAME
STRT.FT                                                     0 : START DEPTH
STOP.FT                                                8409.0 : STOP DEPTH
STEP.FT                                                   0.5 : STEP BETWEEN DEPTHS
NULL.                                                 -999.25 : NULL VALUE
COMP.                                     EOG RESOURCES  INC. : COMPANY
#___________________________________________________________________________________________________ 
~CURVE INFORMATION 
# MNEM.UNIT           : CURVE DESCRIPTION 
#-----.-----          : ----------------------------- 
 DEPT.FT               : MEASURED DEPTH 
 CALI.IN               : CALIPER (CAL - CAL) 
 GR.API                : GAMMA RAY (GR) 
 SP.MV                 : SPONTANEOUS POTENTIAL (SP) 
 DT.US/FT              : SONIC DELTA TRANSIT TIME (DT) 
 RESD.OHMM             : DEEP INDUCTION RESISTIVITY (ILD - ILD) 
 #___________________________________________________________________________________________________ 
~A         DEPT           CALI             GR             SP             DT           RESD
# ...
         8360.0         11.741         75.224        -10.815         96.417          9.450
         8360.5         13.794         77.672        -10.713         93.673          9.821
         8361.0         14.345         76.886        -10.831         95.888         10.191
         8361.5         13.562         75.592        -10.976         98.461         10.685
         8362.0         13.029         75.551        -10.749        103.855         11.410
         8362.5         13.361         76.049        -10.407        108.362         12.135
         8363.0         13.693         76.546        -10.065        100.501         12.489
         8363.5         13.863         79.061         -9.723         87.636         11.078
         8364.0         13.630         77.578         -9.381         88.633          9.667
         8364.5         13.440         75.372         -9.039         88.630          9.654
         8365.0         13.617         76.370         -8.697         89.590         10.493
         8365.5         13.545         78.901         -8.355         92.163         11.333
         8366.0         13.378         79.572         -8.377         94.736         11.627
         8366.5         12.849         78.980         -8.486         87.165         11.241
         8367.0         12.151         79.520         -8.594         83.284         10.854
         8367.5         11.793         80.347         -8.703         86.725         10.468
         8368.0         12.173         74.614         -8.811         87.759         10.458
         8368.5         12.100         73.922         -8.920         85.870         10.493
         8369.0         11.865         75.732         -9.028         88.519         10.476
         8369.5         11.655         75.385         -9.137         96.133         10.084
         8370.0         11.857         74.367         -9.192        103.294          9.693
         8370.5         12.059         76.803         -9.103        113.916          9.302
         8371.0         13.011         78.141         -9.014        115.334          9.008
         8371.5         13.241         78.937         -8.925        100.850          8.743
         8372.0         12.571         79.733         -8.836         88.125          8.479
         8372.5         12.624         79.455         -8.748         87.947          8.376
         8373.0         13.209         77.140         -8.659         86.140          8.375
         8373.5         13.639         72.993         -8.570         87.318          8.375
         8374.0         13.189         70.625         -8.481         89.165          8.374
         8374.5         13.256         76.248         -8.392         91.141          8.374
         8375.0         14.747         78.100         -8.303         93.267          9.071
         8375.5         14.640         72.914         -8.214         96.832         10.107
         8376.0         13.062         69.204         -8.125         99.944         11.144
         8376.5         12.590         62.298         -8.036        108.728         12.899
         8377.0         11.806         48.713         -7.020        109.399         15.403
         8377.5          8.258         38.202         -5.872         86.573         17.907
         8378.0          6.309         36.913         -4.725         79.107         19.462
         8378.5          5.967         35.623         -5.027         76.848         18.745
         8379.0          5.971         35.152         -5.377         75.889         18.028
         8379.5          5.976         35.475         -5.726         78.779         15.735
         8380.0          5.980         36.289         -5.846         81.669         10.320
         8380.5          5.984         37.470         -5.712         82.045          9.175
         8381.0          5.988         47.834         -5.578         83.356          9.140
         8381.5          5.993         59.842         -5.443         84.154          9.106
         8382.0          5.997         62.791         -5.309         83.940          9.072
         8382.5          6.001         66.327         -5.199         83.725          9.038
         8383.0          6.006         69.151         -5.089         83.511          8.637
         8383.5          6.010         69.074         -4.979         83.296          8.044
         8384.0          6.014         68.998         -4.869         83.082          7.451
         8384.5          6.017         69.074         -4.759         83.011          7.586
         8385.0          6.016       -999.250         -5.229         83.002          7.799
         8385.5          6.016       -999.250         -6.123         82.993          7.586
         8386.0          6.016       -999.250         -7.018         82.984       -999.250
         8386.5          6.016       -999.250         -6.655         82.975       -999.250
         8387.0          6.015       -999.250         -6.080         82.966       -999.250
         8387.5          6.015       -999.250         -5.505         82.956       -999.250
         8388.0          6.015       -999.250         -5.000         82.947       -999.250
         8388.5          6.015       -999.250         -4.837         82.938       -999.250
         8389.0          6.014       -999.250         -4.674         82.929       -999.250
         8389.5          6.014       -999.250         -4.511         82.920       -999.250
         8390.0          6.014       -999.250         -5.058         82.911       -999.250
         8390.5          6.014       -999.250         -6.361         82.902       -999.250
         8391.0          6.013       -999.250         -7.401         82.893       -999.250
         8391.5          6.013       -999.250         -6.955         82.884       -999.250
         8392.0          6.013       -999.250         -6.510         82.875       -999.250
         8392.5          6.013       -999.250         -6.064         82.866       -999.250
         8393.0          6.012       -999.250         -5.704         82.857       -999.250
         8393.5          6.012       -999.250         -6.376         82.848       -999.250
         8394.0          6.012       -999.250         -7.047         82.839       -999.250
         8394.5          6.012       -999.250         -7.451         82.830       -999.250
         8395.0          6.011       -999.250         -7.370         82.821       -999.250
         8395.5          6.011       -999.250         -7.290         82.812       -999.250
         8396.0          6.011       -999.250         -7.209         82.803       -999.250
         8396.5          6.011       -999.250         -7.128         82.794       -999.250
         8397.0          6.010       -999.250         -7.048         82.785       -999.250
         8397.5          6.010       -999.250         -6.967         82.775       -999.250
         8398.0          6.010       -999.250         -6.887         82.698       -999.250
         8398.5          6.010       -999.250         -6.477         82.775       -999.250
         8399.0          6.009       -999.250         -6.061       -999.250       -999.250
         8399.5          6.010       -999.250         -5.645       -999.250       -999.250
         8400.0       -999.250       -999.250         -5.229       -999.250       -999.250
         8400.5       -999.250       -999.250         -4.814       -999.250       -999.250
         8401.0       -999.250       -999.250         -4.535       -999.250       -999.250
         8401.5       -999.250       -999.250         -4.963       -999.250       -999.250
         8402.0       -999.250       -999.250         -5.391       -999.250       -999.250
         8402.5       -999.250       -999.250         -5.819       -999.250       -999.250
         8403.0       -999.250       -999.250         -6.248       -999.250       -999.250
         8403.5       -999.250       -999.250         -5.868       -999.250       -999.250
