###############################################
##         ENVERUS                           ##
##         ESS - Open Hole                   ##
##         PERMIAN / DELAWARE                ##
##         Nov 02 2023  V4.0                 ##
##         42-109-30915-00-00                ##
###############################################
## Copyright 2017-2023  ENVERUS.  All Rights Reserved. 
## Confidential - Property of ENVERUS, use governed by terms and 
## conditions found within the existing Information Services Subscription Agreement 
## (as may be amended, the “ISSA”) between Customer and ENVERUS. 
## 
~VERSION INFORMATION
# MNEM.UNIT                               DATA : DESCRIPTION OF MNEMONIC
#-----.-----     ----------------------------- : -----------------------------
VERS.                                     2.00 : CWLS LOG ASCII STANDARD - VERSION 2.00
WRAP.                                       NO : MULTIPLE LINES PER DEPTH STEP
VEND.                                  ENVERUS : VENDOR
TYPE.                          ESS - OPEN HOLE : ENVERUS ESSENTIAL CURVES – ACCESSIBLE THROUGH ENVERUS PRISM(TM)
DOC.                                  32305988 : ENVERUS HEADER RAW DOCUMENT ID
#___________________________________________________________________________________________________ 
~WELL INFORMATION 
# YiEbrulvYUtXh1D3opxUtnvhUVpPAvxlEBgV2kjbCTHvWrxGcz1+vOa1jEIuqGtoxi0rQ+ZQV9RU/rHAPCAAKQ== 
# MNEM.UNIT                                              DATA : DESCRIPTION OF MNEMONIC 
#-----.-----                    ----------------------------- : ----------------------------- 
CNTY.                                               CULBERSON : COUNTY 
STATE.                                                  TEXAS : STATE 
CNTRY.                                                    USA : COUNTRY 
API.                                             42-109-30915 : API (10 Digit) 
API_14.                                    42-109-30915-00-00 : API (14 Digits) 
API_14_std.                                 42-109-30915-0000 : API (14 Digits Standard) 
UWI.                                           42109309150000 : UNIQUE WELL ID 
WELL.                             VELMA CASEY ROUNSAVILLE A 1 : WELL NAME
STRT.FT                                                  82.0 : START DEPTH
STOP.FT                                               11225.0 : STOP DEPTH
STEP.FT                                                   0.5 : STEP BETWEEN DEPTHS
NULL.                                                 -999.25 : NULL VALUE
#___________________________________________________________________________________________________ 
~CURVE INFORMATION 
# MNEM.UNIT           : CURVE DESCRIPTION 
#-----.-----          : ----------------------------- 
 DEPT.FT               : MEASURED DEPTH 
 CALI.IN               : CALIPER (CAL - CAL) 
 GR.API                : GAMMA RAY (GR) 
 DT.US/FT              : SONIC DELTA TRANSIT TIME (DT) 
 NPHI.V/V              : NEUTRON POROSITY (NPHI) 
 RHOB.G/CC             : BULK DENSITY (RHOB) 
 #___________________________________________________________________________________________________ 
~A         DEPT           CALI             GR             DT           NPHI           RHOB
# ...
        11170.0          7.778        100.948         70.172        0.16194         2.6044
        11170.5          7.780        102.046         70.891        0.16915         2.6127
        11171.0          7.782        104.929         71.611        0.17499         2.6211
        11171.5          7.784        107.812         72.330        0.17870         2.6294
        11172.0          7.786        110.695         73.050        0.18241         2.6213
        11172.5          7.788        113.578         73.769        0.18611         2.6103
        11173.0          7.790        116.461         74.488        0.18982         2.5992
        11173.5          7.792        119.344         75.208        0.19353         2.5908
        11174.0          7.794        122.227         75.927        0.19724         2.5935
        11174.5          7.796        125.560         76.647        0.20095         2.5962
        11175.0          7.798        131.668         77.366        0.20466         2.5989
        11175.5          7.800        137.776         77.256        0.20837         2.6016
        11176.0          7.802        137.452         76.235        0.21206         2.6078
        11176.5          7.804        134.040         75.214        0.20990         2.6166
        11177.0          7.806        130.629         74.192        0.20773         2.6253
        11177.5          7.808        127.217         73.171        0.20557         2.6341
        11178.0          7.810        122.341         72.150        0.20340         2.6428
        11178.5          7.812        113.243         70.660        0.20123         2.6516
        11179.0          7.814        104.145         68.404        0.19907         2.6603
        11179.5          7.817         95.047         66.149     -999.25000         2.6594
        11180.0          7.819         85.949         65.011     -999.25000         2.6486
        11180.5          7.821         87.653         66.033     -999.25000         2.6378
        11181.0          7.823         92.515         67.054     -999.25000         2.6271
        11181.5          7.825         97.376         68.075     -999.25000         2.6163
        11182.0          7.827        102.237         69.096     -999.25000         2.6056
        11182.5          7.829        107.099         70.117     -999.25000         2.5948
        11183.0          7.831        111.960         71.139     -999.25000         2.5840
        11183.5          7.833        116.821         72.160     -999.25000         2.5733
        11184.0          7.835        119.382         73.181     -999.25000         2.5706
        11184.5          7.837        117.835         74.202     -999.25000         2.5726
        11185.0          7.839        116.287         72.979     -999.25000         2.5849
        11185.5          7.841        114.740         71.356     -999.25000         2.6045
        11186.0          7.843        113.193         69.732     -999.25000         2.6241
        11186.5          7.845       -999.250         68.108     -999.25000         2.6437
        11187.0          7.847       -999.250         67.109     -999.25000         2.6634
        11187.5          7.849       -999.250         68.681     -999.25000         2.6797
        11188.0          7.851       -999.250         70.253     -999.25000         2.6650
        11188.5          7.853       -999.250         71.825     -999.25000         2.6502
        11189.0          7.855       -999.250         73.182     -999.25000         2.6354
        11189.5          7.857       -999.250         73.678     -999.25000         2.6207
        11190.0          7.859       -999.250         74.174     -999.25000         2.6059
        11190.5          7.861       -999.250         74.217     -999.25000         2.5911
        11191.0          7.863       -999.250         74.177     -999.25000         2.5764
        11191.5          7.868       -999.250         74.137     -999.25000         2.5616
        11192.0          7.883       -999.250         74.097     -999.25000         2.5482
        11192.5          7.897       -999.250         74.057     -999.25000         2.5409
        11193.0          7.911       -999.250         74.017     -999.25000         2.5337
        11193.5          7.926       -999.250         73.976     -999.25000         2.5265
        11194.0          7.940       -999.250         75.099     -999.25000         2.5192
        11194.5          7.954       -999.250         76.245     -999.25000         2.5120
        11195.0          7.969       -999.250         77.391     -999.25000         2.5048
        11195.5          7.983       -999.250         78.537     -999.25000         2.4992
        11196.0          7.998       -999.250         79.682     -999.25000         2.4957
        11196.5          8.012       -999.250         80.828     -999.25000         2.4923
        11197.0          8.026       -999.250         81.974     -999.25000         2.4889
        11197.5          8.041       -999.250       -999.250     -999.25000         2.4855
        11198.0          8.055       -999.250       -999.250     -999.25000         2.4835
        11198.5          8.069       -999.250       -999.250     -999.25000         2.4855
        11199.0          8.084       -999.250       -999.250     -999.25000         2.4875
        11199.5          8.098       -999.250       -999.250     -999.25000         2.4895
        11200.0          8.113       -999.250       -999.250     -999.25000         2.4915
        11200.5          8.127       -999.250       -999.250     -999.25000         2.4936
        11201.0          8.141       -999.250       -999.250     -999.25000         2.4956
        11201.5          8.156       -999.250       -999.250     -999.25000         2.4976
        11202.0          8.170       -999.250       -999.250     -999.25000         2.4996
        11202.5          8.184       -999.250       -999.250     -999.25000         2.4996
        11203.0          8.199       -999.250       -999.250     -999.25000         2.4981
        11203.5       -999.250       -999.250       -999.250     -999.25000         2.4966
        11204.0       -999.250       -999.250       -999.250     -999.25000         2.4951
        11204.5       -999.250       -999.250       -999.250     -999.25000         2.4936
        11205.0       -999.250       -999.250       -999.250     -999.25000         2.4921
        11205.5       -999.250       -999.250       -999.250     -999.25000         2.4906
        11206.0       -999.250       -999.250       -999.250     -999.25000         2.4891
        11206.5       -999.250       -999.250       -999.250     -999.25000         2.4876
        11207.0       -999.250       -999.250       -999.250     -999.25000         2.4861
        11207.5       -999.250       -999.250       -999.250     -999.25000         2.4846
        11208.0       -999.250       -999.250       -999.250     -999.25000         2.4831
        11208.5       -999.250       -999.250       -999.250     -999.25000         2.4827
        11209.0       -999.250       -999.250       -999.250     -999.25000         2.4827
        11209.5       -999.250       -999.250       -999.250     -999.25000         2.4826
        11210.0       -999.250       -999.250       -999.250     -999.25000         2.4826
        11210.5       -999.250       -999.250       -999.250     -999.25000         2.4826
        11211.0       -999.250       -999.250       -999.250     -999.25000         2.4826
        11211.5       -999.250       -999.250       -999.250     -999.25000         2.4846
        11212.0       -999.250       -999.250       -999.250     -999.25000         2.4881
        11212.5       -999.250       -999.250       -999.250     -999.25000         2.4916
        11213.0       -999.250       -999.250       -999.250     -999.25000         2.4951
        11213.5       -999.250       -999.250       -999.250     -999.25000         2.4987
