~Version Information
 VERS.                  2.0:   CWLS log ASCII Standard -VERSION 2.0
 WRAP.                   NO:   One line per depth step
~Well Information Block
#MNEM.UNIT     VALUE/NAME     DESCRIPTION
#---------     -----------    ---------------------------
 STRT.F              8564.0000: START DEPTH
 STOP.F             14132.0000: STOP DEPTH
 STEP.F                 0.5000: STEP DEPTH
 NULL.                 -999.25: NULL VALUE
 FL6 .       API  42-109-33219:  LOCATIONLINE6
 LOC .     253' FEL & 408' FNL:  LOCATION
 FL4 .           ABSTRACT 1760:  LOCATIONLINE4
 FL3 .        T&P RR CO SURVEY:  LOCATIONLINE3
 FL2 .     SECTION 32, BLOCK 58 T2:  LOCATIONLINE2
 FL1 .     253' FEL & 408' FNL:  LOCATIONLINE1
 DMF .                      KB:  DRILL MEAS FROM
 PDAT.                      GL:  PERMANENT DATUM
 CTRY.                     USA:  COUNTRY NAME
 PROV.                   TEXAS:  PROVINCE
 STAT.                   TEXAS:  STATE NAME
 CNTY.               CULBERSON:  COUNTY NAME
 FLD .     FORD, WEST (WOLFCAMP):  FIELD NAME
 WELL.        MOTHER FEE 28 2H:  WELL NAME
 COMP.     CAPITAN ENERGY INC.:  COMPANY
 DATE.             24-Jan-2018:  DATE
 SVCO.             Halliburton:  SERVICECONAME
 HIDE.                        :  WELLNAMEOPERAT
 BASI.                 PERMIAN:  BASIN
 UWI .            42-109-33219LAT:  UNIQUE WELL IDENTIFIER
 API .            42-109-33219LAT:  API NUMBER
 RANG.                     N/A:  RANGE
 TOWN.                     N/A:  TOWNSHIP
 SECT.                     N/A:  SECTION
 SON .               904563795:  JOB NUMBER
 SRVC.             Halliburton:  SERVICE COMPANY
 LMF .                      KB:  LOG MEASURED FROM
 EGL .ft             3142.0000:  GROUND ELEVATION
 BAP .ft                0.0000:  GL ELEV ONSHORE
 GVFD.g                 1.0000:  GRAVITY FIELD
 EKB .ft             3167.0000:  KB ELEVATION
 EDF .ft             3166.0000:  DF ELEVATION
~Curve Information Block
#MNEM.UNIT                 API CODE     Curve Description
#---------               -----------    ---------------------------
 DEPT.F                 00 000 000 000:  Depth
 CCL .V                 00 000 000 000:  Casing Collar Locator
 NPHI_OH.pu             00 000 000 000:  NPHI_OH
 NPHI_CHI.pu            00 000 000 000:  NPHI_CHI
 GR_OH.api              00 000 000 000:  GR_OH
 GR_CHI.api             00 000 000 000:  GR_CHI
 RHOB_OH.g/cc           00 000 000 000:  RHOB_OH
 RHOB_CHI.g/cc          00 000 000 000:  RHOB_CHI
 PE_OH.b/e              00 000 000 000:  PE_OH
 PE_CHI.b/e             00 000 000 000:  PE_CHI
 DTC_OH.uspf            00 000 000 000:  DTC_OH
 DTC_CHI.uspf           00 000 000 000:  DTC_CHI
 SPHI_CHI.pu            00 000 000 000:  SPHI_CHI
 RT10_OH.ohmm           00 000 000 000:  RT10_OH
 RT10_CHI.ohmm          00 000 000 000:  RT10_CHI
 RT30_OH.ohmm           00 000 000 000:  RT30_OH
 RT30_CHI.ohmm          00 000 000 000:  RT30_CHI
 RT90_OH.ohmm           00 000 000 000:  RT90_OH
 RT90_CHI.ohmm          00 000 000 000:  RT90_CHI
 SGF .cu                00 000 000 000:  Formation Sigma
 CRNF.NONE              00 000 000 000:  CaptMode Capt Ratio
 RIN .NONE              00 000 000 000:  CaptMode Gross Inel Ratio
#Other Information
#
#WARRANTY: Halliburton will use its best efforts to furnish customers with 
#accurate information and interpretations that are part of, and incident to, the services 
#provided.  However, Halliburton cannot and does not warrant the accuracy 
#or correctness of such information and interpretations.  Under no circumstances should any 
#such information or interpretation be relied upon as the sole basis for any drilling, 
#completion, production, or financial decision or any procedure involving any risk to the 
#safety of any drilling venture, drilling rig or its crew or any other third party.  The 
#Customer has full responsibility for all drilling, completion and production operation.  
#Halliburton makes no representations or warranties, either expressed or 
#implied, including, but not limited to, the implied warranties of merchantability or fitness 
#for a particular purpose, with respect to the services rendered.  In no event will 
#Halliburton be liable for failure to obtain any particular results or for 
#any damages, including, but not limited to, indirect, special or consequential damages, 
#resulting from the use of any information or interpretation provided by Halliburton.
#
~A    DEPT       CCL    NPHI_OH NPHI_CHI  GR_OH    GR_CHI  RHOB_OH RHOB_CHI  PE_OH   PE_CHI   DTC_OH  DTC_CHI SPHI_CHI RT10_OH  RT10_CHI RT30_OH  RT30_CHI RT90_OH  RT90_CHI   SGF    CRNF   RIN   
# ...
   12260.0000   -0.6417 -999.25   9.0153  -999.25  73.5340 -999.25   2.6086 -999.25    3.0554 -999.25 67.4584  14.0400  -999.25  45.0374  -999.25  43.3558  -999.25  47.4346 27.7018 0.9543 1.0857
   12260.5000   -0.6417 -999.25   9.3694  -999.25  81.6603 -999.25   2.6054 -999.25    3.0195 -999.25 67.5989  14.1400  -999.25  40.7017  -999.25  38.5403  -999.25  41.9530 27.7509 0.9549 1.0913
   12261.0000   -0.6417 -999.25  10.3490  -999.25 102.5725 -999.25   2.5980 -999.25    3.0136 -999.25 68.4011  14.7100  -999.25  31.1905  -999.25  28.5672  -999.25  30.7605 27.6739 0.9556 1.0991
   12261.5000   -0.6417 -999.25   9.8728  -999.25  91.8627 -999.25   2.6030 -999.25    3.0404 -999.25 67.9496  14.3900  -999.25  33.0266  -999.25  30.5344  -999.25  32.8810 27.4918 0.9600 1.1025
   12262.0000   -0.6417 -999.25  10.1063  -999.25  94.6717 -999.25   2.6024 -999.25    3.0665 -999.25 68.1850  14.5600  -999.25  29.2652  -999.25  26.7990  -999.25  28.6630 27.2738 0.9584 1.1021
   12262.5000   -0.6417 -999.25   9.8416  -999.25  86.9046 -999.25   2.6059 -999.25    3.1110 -999.25 68.0748  14.4800  -999.25  29.5987  -999.25  27.3332  -999.25  29.2224 26.9654 0.9583 1.0995
   12263.0000   -0.6417 -999.25  10.1320  -999.25  91.9416 -999.25   2.6028 -999.25    3.1027 -999.25 68.6340  14.8800  -999.25  28.4220  -999.25  26.1721  -999.25  27.9808 26.6588 0.9557 1.0963
   12263.5000   -0.6417 -999.25   9.9364  -999.25  89.8148 -999.25   2.6038 -999.25    3.1130 -999.25 68.5688  14.8300  -999.25  31.3526  -999.25  29.1807  -999.25  31.4176 26.4417 0.9532 1.0953
   12264.0000   -0.6417 -999.25   9.9422  -999.25  91.4661 -999.25   2.6030 -999.25    3.1156 -999.25 68.6680  14.9000  -999.25  33.1637  -999.25  31.0505  -999.25  33.6178 26.2354 0.9534 1.0938
   12264.5000   -0.6417 -999.25  10.4765  -999.25 104.3069 -999.25   2.5984 -999.25    3.1263 -999.25 69.0808  15.1900  -999.25  30.0656  -999.25  27.8319  -999.25  30.1125 26.1562 0.9488 1.0909
   12265.0000   -0.6417 -999.25  10.0093  -999.25  95.5195 -999.25   2.6027 -999.25    3.1478 -999.25 68.6423  14.8800  -999.25  33.5215  -999.25  31.4352  -999.25  34.1750 26.1244 0.9449 1.0873
   12265.5000   -0.6417 -999.25   9.7660  -999.25  90.6555 -999.25   2.6046 -999.25    3.1592 -999.25 68.4761  14.7600  -999.25  36.2008  -999.25  34.2839  -999.25  37.4221 26.0733 0.9346 1.0868
   12266.0000   -0.6417 -999.25  10.1501  -999.25 100.1820 -999.25   2.6015 -999.25    3.1626 -999.25 68.6796  14.9100  -999.25  33.2421  -999.25  31.1368  -999.25  33.9286 26.0856 0.9239 1.0889
   12266.5000   -0.6417 -999.25   9.7047  -999.25  91.6471 -999.25   2.6059 -999.25    3.1922 -999.25 68.2612  14.6100  -999.25  36.6556  -999.25  34.7591  -999.25  38.0261 26.0347 0.9201 1.0907
   12267.0000   -0.6417 -999.25   9.9655  -999.25  98.6941 -999.25   2.6055 -999.25    3.2334 -999.25 68.3055  14.6400  -999.25  32.5178  -999.25  30.4466  -999.25  33.1611 25.9873 0.9236 1.0883
   12267.5000   -0.6417 -999.25   9.5688  -999.25  93.5405 -999.25   2.6114 -999.25    3.3122 -999.25 67.6537  14.1800  -999.25  34.0354  -999.25  32.0705  -999.25  35.0196 25.7501 0.9315 1.0825
   12268.0000   -0.6417 -999.25   9.3628  -999.25  92.8155 -999.25   2.6136 -999.25    3.3371 -999.25 67.1836  13.8500  -999.25  36.6875  -999.25  34.7473  -999.25  38.1316 25.6388 0.9438 1.0796
   12268.5000   -0.6417 -999.25   9.3162  -999.25  92.6760 -999.25   2.6123 -999.25    3.3104 -999.25 67.1688  13.8400  -999.25  40.4043  -999.25  38.6110  -999.25  42.6533 25.5045 0.9555 1.0814
   12269.0000   -0.6417 -999.25   9.6091  -999.25  97.5182 -999.25   2.6077 -999.25    3.2575 -999.25 67.5309  14.1000  -999.25  40.1094  -999.25  38.2612  -999.25  42.3213 25.4811 0.9694 1.0902
   12269.5000   -0.6417 -999.25   9.4537  -999.25  90.0877 -999.25   2.6074 -999.25    3.2212 -999.25 67.8114  14.2900  -999.25  42.7768  -999.25  41.2499  -999.25  45.6710 25.5854 0.9767 1.0968
   12270.0000   -0.6417 -999.25   9.6388  -999.25  88.6564 -999.25   2.6054 -999.25    3.1983 -999.25 68.5434  14.8100  -999.25  39.6763  -999.25  38.1489  -999.25  42.0010 25.6656 0.9759 1.0988
   12270.5000   -0.6417 -999.25  10.0248  -999.25  91.3831 -999.25   2.6009 -999.25    3.1453 -999.25 69.3530  15.3800  -999.25  36.0896  -999.25  34.4318  -999.25  37.6757 25.8898 0.9726 1.1006
   12271.0000   -0.6417 -999.25  10.1400  -999.25  90.8036 -999.25   2.6000 -999.25    3.1329 -999.25 69.7043  15.6300  -999.25  34.1101  -999.25  32.4168  -999.25  35.3149 26.1425 0.9722 1.1032
   12271.5000   -0.6417 -999.25  10.3752  -999.25  94.6665 -999.25   2.5981 -999.25    3.1227 -999.25 69.9444  15.8000  -999.25  31.6487  -999.25  29.8260  -999.25  32.3552 26.6478 0.9913 1.1091
   12272.0000   -0.6417 -999.25  10.7012  -999.25 102.1138 -999.25   2.5955 -999.25    3.1097 -999.25 70.0428  15.8700  -999.25  28.9322  -999.25  26.9149  -999.25  29.0586 27.5054 1.0155 1.1127
   12272.5000   -0.6417 -999.25  10.1541  -999.25  91.0766 -999.25   2.6004 -999.25    3.0838 -999.25 69.2691  15.3200  -999.25  31.3742  -999.25  29.2992  -999.25  31.5836 28.2226 1.0316 1.1131
   12273.0000   -0.6417 -999.25  11.0248  -999.25 101.8983 -999.25   2.5909 -999.25    2.9441 -999.25 70.3092  16.0600  -999.25  26.5486  -999.25  24.1632  -999.25  25.6721 28.7931 1.0271 1.1095
   12273.5000   -0.6417 -999.25  10.8199  -999.25  89.1783 -999.25   2.5907 -999.25    2.8300 -999.25 70.3994  16.1200  -999.25  28.3204  -999.25  25.8723  -999.25  27.3400 28.8903 1.0135 1.1085
   12274.0000   -0.6417 -999.25  11.5009  -999.25  97.7184 -999.25   2.5849 -999.25    2.7623 -999.25 71.2147  16.7000  -999.25  25.4597  -999.25  22.8664  -999.25  23.9275 28.8941 1.0044 1.1127
   12274.5000   -0.6417 -999.25  11.3072  -999.25  94.6347 -999.25   2.5870 -999.25    2.7736 -999.25 70.8235  16.4200  -999.25  25.5886  -999.25  23.0025  -999.25  24.0635 28.9925 1.0102 1.1178
   12275.0000   -0.6417 -999.25  10.6773  -999.25  84.7434 -999.25   2.5934 -999.25    2.8223 -999.25 69.7072  15.6300  -999.25  26.8197  -999.25  24.3061  -999.25  25.4820 29.1861 1.0267 1.1209
   12275.5000   -0.6417 -999.25  10.9192  -999.25  92.6760 -999.25   2.5922 -999.25    2.8463 -999.25 69.7435  15.6600  -999.25  25.2025  -999.25  22.6469  -999.25  23.7133 29.5054 1.0427 1.1202
   12276.0000   -0.6417 -999.25  11.4522  -999.25 102.5931 -999.25   2.5882 -999.25    2.8396 -999.25 70.2328  16.0100  -999.25  22.9836  -999.25  20.4131  -999.25  21.2727 29.8014 1.0511 1.1177
   12276.5000   -0.6417 -999.25  11.7750  -999.25 106.0217 -999.25   2.5851 -999.25    2.7982 -999.25 70.7336  16.3600  -999.25  22.5710  -999.25  19.9562  -999.25  20.7315 30.0960 1.0547 1.1177
   12277.0000   -0.6417 -999.25  11.9067  -999.25 102.7071 -999.25   2.5834 -999.25    2.7406 -999.25 71.1319  16.6400  -999.25  22.7955  -999.25  20.1340  -999.25  20.8308 30.6157 1.0500 1.1195
   12277.5000   -0.6417 -999.25  11.9538  -999.25  99.5891 -999.25   2.5830 -999.25    2.7049 -999.25 71.2395  16.7200  -999.25  22.9495  -999.25  20.2489  -999.25  20.8834 30.7925 1.0474 1.1210
   12278.0000   -0.6417 -999.25  12.0527  -999.25  97.8477 -999.25   2.5837 -999.25    2.6866 -999.25 70.8140  16.4200  -999.25  22.0095  -999.25  19.2790  -999.25  19.7387 30.8579 1.0428 1.1209
   12278.5000   -0.6417 -999.25  12.5489  -999.25 109.3002 -999.25   2.5805 -999.25    2.6956 -999.25 71.1485  16.6500  -999.25  21.1634  -999.25  18.4070  -999.25  18.8173 30.8872 1.0522 1.1211
   12279.0000   -0.6417 -999.25  11.8918  -999.25  96.6454 -999.25   2.5852 -999.25    2.6837 -999.25 70.2831  16.0400  -999.25  22.2371  -999.25  19.4577  -999.25  19.9237 30.9581 1.0558 1.1247
   12279.5000   -0.6417 -999.25  11.8534  -999.25  98.3213 -999.25   2.5847 -999.25    2.6674 -999.25 70.3321  16.0800  -999.25  23.0891  -999.25  20.2246  -999.25  20.7735 31.3606 1.0621 1.1303
   12280.0000   -0.6417 -999.25  12.4129  -999.25 106.9682 -999.25   2.5805 -999.25    2.6564 -999.25 71.1640  16.6600  -999.25  22.4272  -999.25  19.5471  -999.25  20.0304 31.7738 1.0569 1.1347
   12280.5000   -0.6417 -999.25  12.6647  -999.25 110.6588 -999.25   2.5791 -999.25    2.6530 -999.25 71.3658  16.8100  -999.25  22.0727  -999.25  19.1805  -999.25  19.6145 32.1030 1.0471 1.1347
