###############################################
##         ENVERUS                           ##
##         ESS - Open Hole                   ##
##         PERMIAN / DELAWARE                ##
##         Nov 02 2023  V4.0                 ##
##         42-109-32297-90-00                ##
###############################################
## Copyright 2017-2023  ENVERUS.  All Rights Reserved. 
## Confidential - Property of ENVERUS, use governed by terms and 
## conditions found within the existing Information Services Subscription Agreement 
## (as may be amended, the “ISSA”) between Customer and ENVERUS. 
## 
~VERSION INFORMATION
# MNEM.UNIT                               DATA : DESCRIPTION OF MNEMONIC
#-----.-----     ----------------------------- : -----------------------------
VERS.                                     2.00 : CWLS LOG ASCII STANDARD - VERSION 2.00
WRAP.                                       NO : MULTIPLE LINES PER DEPTH STEP
VEND.                                  ENVERUS : VENDOR
TYPE.                          ESS - OPEN HOLE : ENVERUS ESSENTIAL CURVES – ACCESSIBLE THROUGH ENVERUS PRISM(TM)
DOC.                                  52921007 : ENVERUS HEADER RAW DOCUMENT ID
#___________________________________________________________________________________________________ 
~WELL INFORMATION 
# EM3SY5Bwx6x9YoJmjxbMXtwK21/gMzSEmeWIZ71LA4UD3Y8PQw/mHJ0IHc4n7dRi3zAL189RIdETacnakexX1Q== 
# MNEM.UNIT                                              DATA : DESCRIPTION OF MNEMONIC 
#-----.-----                    ----------------------------- : ----------------------------- 
CNTY.                                               CULBERSON : COUNTY 
STATE.                                                  TEXAS : STATE 
CNTRY.                                                    USA : COUNTRY 
API.                                             42-109-32297 : API (10 Digit) 
API_14.                                    42-109-32297-90-00 : API (14 Digits) 
API_14_std.                                 42-109-32297-9000 : API (14 Digits Standard) 
UWI.                                           42109322979000 : UNIQUE WELL ID 
WELL.                          MELISSA TAYLOR STATE 105-3  1H : WELL NAME
STRT.FT                                                 200.0 : START DEPTH
STOP.FT                                               10260.0 : STOP DEPTH
STEP.FT                                                   0.5 : STEP BETWEEN DEPTHS
NULL.                                                 -999.25 : NULL VALUE
PREV_API.                                        421093229700 : API NUMBER 
COMP.                              CHESAPEAKE OPERATING  INC. : COMPANY 
DATE.                                             17-JUN-2008 : LOG DATE
#___________________________________________________________________________________________________ 
~CURVE INFORMATION 
# MNEM.UNIT           : CURVE DESCRIPTION 
#-----.-----          : ----------------------------- 
 DEPT.FT               : MEASURED DEPTH 
 CALI.IN               : CALIPER (CAL - CAL) 
 GR.API                : GAMMA RAY (GR) 
 DT.US/FT              : SONIC DELTA TRANSIT TIME (DT) 
 RESS.OHMM             : SHALLOW INDUCTION RESISTIVITY (ILS - ILS) 
 RESD.OHMM             : DEEP INDUCTION RESISTIVITY (ILD - ILD) 
 DPHI.V/V              : DENSITY POROSITY (DPHI) 
 NPHI.V/V              : NEUTRON POROSITY (NPHI) 
 RHOB.G/CC             : BULK DENSITY (RHOB) 
 #___________________________________________________________________________________________________ 
~A         DEPT           CALI             GR             DT           RESS           RESD           DPHI           NPHI           RHOB
# ...
         4861.0         12.718         87.492         68.127         22.867         24.901        0.06232        0.09135         2.6210
         4861.5         12.700         89.396         67.791         24.931         25.951        0.05507        0.09349         2.6210
         4862.0         12.681         91.478         67.595         26.732         27.001        0.05150        0.09559         2.6200
         4862.5         12.662         93.560         67.626         27.618         28.002        0.05186        0.09642         2.6190
         4863.0         12.658         94.959         67.497         23.771         28.988        0.05222        0.09726         2.6190
         4863.5         12.660         94.863         67.334         23.491         28.181        0.05178        0.09809         2.6220
         4864.0         12.662         94.767         67.387         26.279         27.718        0.04832        0.10403         2.6320
         4864.5         12.664         94.235         67.522         27.975         28.711        0.04385        0.10458         2.6440
         4865.0         12.666         94.604         67.656         26.732         29.242        0.03955        0.10512         2.6420
         4865.5         12.668         95.357         67.774         25.489         29.092        0.03915        0.10567         2.6370
         4866.0         12.670         96.111         67.727         25.287         28.943        0.04168        0.10622         2.6280
         4866.5         12.630         96.864         67.677         25.774         28.883        0.04601        0.10626         2.6260
         4867.0         12.570         97.393         67.321         25.774         29.078        0.04897        0.10428         2.6240
         4867.5         12.511         96.588         66.975         25.774         29.274        0.04937        0.10230         2.6220
         4868.0         12.476         94.871         66.737         25.774         28.338        0.04976        0.10187         2.6210
         4868.5         12.493         94.055         66.500         26.037         27.210        0.05010        0.10375         2.6170
         4869.0         12.518         94.053         66.642         26.585         27.297        0.05169        0.10564         2.6130
         4869.5         12.543         93.373         66.811         27.133         28.863        0.05401        0.10752         2.6150
         4870.0         12.552         91.977         66.366         27.849         30.428        0.05698        0.10818         2.6230
         4870.5         12.555         90.315         65.320         28.835         33.281        0.05435        0.10800         2.6320
         4871.0         12.557         87.258         64.273         29.820         39.065        0.04880        0.10286         2.6400
         4871.5         12.560         83.332         63.558         33.514         44.849        0.04169        0.09685         2.6430
         4872.0         12.562         80.498         63.101         37.750         50.633        0.03667        0.09084         2.6460
         4872.5         12.565         79.603         62.807         41.326         47.072        0.03707        0.08617         2.6430
         4873.0         12.563         79.404         62.843         38.933         43.241        0.04254        0.08431         2.6410
         4873.5         12.561         79.519         63.269         35.783         39.680        0.03947        0.08663         2.6460
         4874.0         12.558         81.287         63.927         32.215         37.202        0.03614        0.09034         2.6400
         4874.5         12.556         83.691         64.585         28.646         34.724        0.03397        0.09404         2.6340
         4875.0         12.554         86.094         65.242         27.554         32.246        0.04039        0.09775         2.6280
         4875.5         12.551         88.497         65.900         27.368         30.745        0.04682        0.10146         2.6230
         4876.0         12.547         90.656         66.374         27.183         30.220        0.04975        0.10516         2.6210
         4876.5         12.537         92.300         66.786         26.997         29.695        0.05163        0.10887         2.6190
         4877.0         12.527         93.945         66.915         26.812         29.170        0.05361        0.11258         2.6170
         4877.5         12.517         94.737         66.587         26.626         30.645        0.05567        0.11429         2.6170
         4878.0         12.507         92.957         66.225         28.596         32.615        0.05724        0.11341         2.6200
         4878.5         12.504         90.257         66.140         30.794         33.475        0.05292        0.10800         2.6230
         4879.0         12.504         88.585         66.335         28.014         30.178        0.05138        0.10259         2.6220
         4879.5         12.504         90.257         66.835         23.576         27.164        0.05153        0.10357         2.6130
         4880.0         12.504         92.489         67.431         23.519         25.467        0.05083        0.10622         2.6040
         4880.5         12.504         92.005         67.537         23.462         24.594        0.05992        0.10783         2.6000
         4881.0         12.509         88.531         67.134         24.172         25.413        0.06276        0.10534         2.6030
         4881.5         12.525         82.809         66.324         26.314         27.815        0.06549        0.10286         2.6060
         4882.0         12.521         80.999         65.515         28.455         30.501        0.06163        0.10038         2.6090
         4882.5         12.489         82.328         64.705         29.199         31.131        0.05394        0.09789         2.6120
         4883.0         12.458         84.520         63.896         29.072         31.284        0.05223        0.09541         2.6150
         4883.5         12.427         81.029         61.956         28.945         31.437        0.05223        0.09293         2.6180
         4884.0         12.422         75.944         59.899         28.819         42.545        0.05082        0.08621         2.6320
         4884.5         12.436         72.022         59.323         57.873         65.435        0.04183        0.07250         2.6510
         4885.0         12.451         71.346         59.800         87.715         74.416        0.03385        0.06856         2.6650
         4885.5         12.465         73.119         61.988         62.366         42.360        0.02662        0.06771         2.6570
         4886.0         12.484         78.401         64.320         31.220         30.780        0.02507        0.08042         2.6490
         4886.5         12.510         83.684         64.779         30.276         31.328        0.03174        0.09564         2.6410
         4887.0         12.498         86.188         63.832         37.344         33.367        0.03964        0.09537         2.6320
         4887.5         12.468         83.151         61.949         58.234         47.491        0.04334        0.08344         2.6500
         4888.0         12.438         78.733         60.065         79.124         77.605        0.03984        0.06588         2.6690
         4888.5         12.418         74.661         58.863        100.014        107.720        0.02796        0.06451         2.6850
         4889.0         12.451         74.353         58.830         86.733         82.653        0.01249        0.06369         2.7010
         4889.5         12.483         76.644         59.467         67.663         67.405        0.00369        0.06413         2.6850
         4890.0         12.516         78.934         59.860         65.655         64.976        0.01072        0.07032         2.6740
