###############################################
##         ENVERUS                           ##
##         ESS - Open Hole                   ##
##         PERMIAN / DELAWARE                ##
##         Nov 02 2023  V4.0                 ##
##         42-109-32346-90-00                ##
###############################################
## Copyright 2017-2023  ENVERUS.  All Rights Reserved. 
## Confidential - Property of ENVERUS, use governed by terms and 
## conditions found within the existing Information Services Subscription Agreement 
## (as may be amended, the “ISSA”) between Customer and ENVERUS. 
## 
~VERSION INFORMATION
# MNEM.UNIT                               DATA : DESCRIPTION OF MNEMONIC
#-----.-----     ----------------------------- : -----------------------------
VERS.                                     2.00 : CWLS LOG ASCII STANDARD - VERSION 2.00
WRAP.                                       NO : MULTIPLE LINES PER DEPTH STEP
VEND.                                  ENVERUS : VENDOR
TYPE.                          ESS - OPEN HOLE : ENVERUS ESSENTIAL CURVES – ACCESSIBLE THROUGH ENVERUS PRISM(TM)
DOC.                                  51092887 : ENVERUS HEADER RAW DOCUMENT ID
#___________________________________________________________________________________________________ 
~WELL INFORMATION 
# XhrHiXkIrwGIJmPLTIo0+WseqdI1VWn+o0JF90EYfb9BJ/ikjsIPmHpj3yVLlwnYQ/npclNvflN3Ll99f4ZCqQ== 
# MNEM.UNIT                                              DATA : DESCRIPTION OF MNEMONIC 
#-----.-----                    ----------------------------- : ----------------------------- 
CNTY.                                               CULBERSON : COUNTY 
STATE.                                                  TEXAS : STATE 
CNTRY.                                                    USA : COUNTRY 
API.                                             42-109-32346 : API (10 Digit) 
API_14.                                    42-109-32346-90-00 : API (14 Digits) 
API_14_std.                                 42-109-32346-9000 : API (14 Digits Standard) 
UWI.                                           42109323469000 : UNIQUE WELL ID 
WELL.                                                  DRD_55 : WELL NAME
STRT.FT                                                 334.5 : START DEPTH
STOP.FT                                                4950.0 : STOP DEPTH
STEP.FT                                                   0.5 : STEP BETWEEN DEPTHS
NULL.                                                 -999.25 : NULL VALUE
PREV_APII.                                     42109323460000 : WELL IDENTIFIER
#___________________________________________________________________________________________________ 
~PARAMETER INFORMATION 
# MNEM.UNIT                                              DATA : DESCRIPTION OF MNEMONIC 
#-----.-----                    ----------------------------- : -----------------------------
#___________________________________________________________________________________________________ 
~CURVE INFORMATION 
# MNEM.UNIT           : CURVE DESCRIPTION 
#-----.-----          : ----------------------------- 
 DEPT.FT               : MEASURED DEPTH 
 CALI.IN               : CALIPER (CAL - CALIPER) 
 GR.API                : GAMMA RAY (GAMMA RAY) 
 DT.US/FT              : SONIC DELTA TRANSIT TIME (SONIC) 
 #___________________________________________________________________________________________________ 
~A         DEPT           CALI             GR             DT
          334.5          8.691         12.271         99.831
          335.0          8.727         11.091         99.792
          335.5          8.690         10.331        101.296
          336.0          8.690         10.291        100.940
          336.5          8.671          9.357         99.456
          337.0          8.684          9.101         98.419
          337.5          8.710          7.788         98.329
          338.0          8.701          7.489         98.912
          338.5          8.710          8.279         97.873
          339.0          8.680          8.874         98.709
          339.5          8.710          9.524         97.198
          340.0          8.710          9.820        105.209
          340.5          8.690         10.004         98.896
          341.0          8.729         10.474        100.664
          341.5          8.729         11.924         97.843
          342.0          8.710         12.703         97.800
          342.5          8.766         10.961         98.321
          343.0          8.786         10.344        101.463
          343.5          8.788          9.749         97.868
          344.0          8.788          9.942         99.279
          344.5          8.786         10.331        101.603
          345.0          8.788          9.328         97.800
          345.5          8.788          8.733         96.287
          346.0          8.768          8.626         98.233
          346.5          8.749          9.026         99.158
          347.0          8.749          9.093         96.035
          347.5          8.749          8.382         95.852
          348.0          8.749          8.772         97.528
          348.5          8.758          9.261        103.166
          349.0          8.749         10.204        104.515
          349.5          8.749         11.036         98.703
          350.0          8.737         11.733         96.525
          350.5          8.737         10.617         96.777
          351.0          8.737          9.661         98.859
          351.5          8.737          8.717        101.465
          352.0          8.704          8.403         96.062
          352.5          8.673          9.013         96.602
          353.0          8.639          9.291         98.273
          353.5          8.575          7.474         96.070
          354.0          8.673          4.646         95.252
          354.5          8.693          2.884         96.368
          355.0          8.752          1.754         94.623
          355.5          8.872          1.365         96.452
          356.0          9.099          2.006         99.161
          356.5          9.119          3.253        104.033
          357.0          9.099          4.561        103.447
          357.5          9.041          4.591         99.368
          358.0          8.968          3.606         95.825
          358.5          8.874          2.924         96.967
          359.0          8.846          3.432         96.349
          359.5          8.794          3.704        103.886
          360.0          8.715          3.371         96.266
          360.5          8.693          3.462        102.546
          361.0          8.725          3.740        106.386
          361.5          8.749          3.509         95.259
          362.0          8.749          4.078        101.623
          362.5          8.729          4.867        103.919
          363.0          8.671          5.259         99.852
          363.5          8.671          4.483         96.917
          364.0          8.651          3.704         97.478
          364.5          8.651          3.704         96.242
          365.0          8.632          3.944         95.067
          365.5          8.651          4.289        102.115
          366.0          8.664          3.833        110.513
          366.5          8.710          2.849         96.595
          367.0          8.738          3.204        101.351
          367.5          8.729          3.704         98.119
          368.0          8.690          3.013         96.816
          368.5          8.620          2.028         96.126
          369.0          8.593          2.270        101.041
          369.5          8.593          3.421        106.021
          370.0          8.554          4.483        107.504
          370.5          8.554          4.522        103.223
          371.0          8.551          3.704         99.258
          371.5          8.573          3.704         98.719
          372.0          8.535          3.322         96.867
          372.5          8.534          2.924        100.255
          373.0          8.515          3.119         98.641
          373.5          8.515          3.921         95.742
          374.0          8.514          4.711        100.404
          374.5          8.519          4.441        102.269
          375.0          8.598          4.147         94.855
          375.5          8.696          4.937        105.505
          376.0          8.788          4.800        100.028
          376.5          8.835          3.815        101.352
          377.0          8.866          2.830        101.689
          377.5          8.885          2.144         98.568
          378.0          8.905          3.119        104.035
          378.5          8.923          4.023         98.961
          379.0          8.923          3.764        102.079
          379.5          8.909          3.169         95.608
          380.0          8.886          2.729         97.807
          380.5          8.862          2.369         96.313
          381.0          8.849          2.407         98.342
          381.5          8.849          4.751        104.055
          382.0          8.818          5.653        104.423
          382.5          8.777          5.253         98.965
          383.0          8.737          4.073        100.944
          383.5          8.696          3.704         97.059
          384.0          8.655          4.094         98.211
          384.5          8.626          4.483        103.192
          385.0          8.629          3.899         96.044
          385.5          8.666          2.719         98.585
          386.0          8.702          1.560         97.718
          386.5          8.733          1.651         96.435
          387.0          8.806          2.636         96.848
          387.5          8.855          3.621         97.758
          388.0          8.873          3.899         96.386
          388.5          8.890          3.182         97.912
          389.0          8.915          2.729         96.793
          389.5          8.930          3.467        106.788
          390.0          8.951          3.704        113.917
          390.5          8.996          3.531         97.275
          391.0          9.031          3.692         97.655
          391.5          9.074          4.872         97.750
          392.0          9.116          5.458         97.820
          392.5          9.159          5.848        103.296
          393.0          9.201          5.624         99.590
          393.5          9.252          4.425        107.518
          394.0          9.280          3.509         98.155
          394.5          9.280          2.924         98.980
          395.0          9.266          3.188        107.008
          395.5          9.249          3.704        100.171
          396.0          9.233          3.899        106.763
          396.5          9.216          3.704        101.364
          397.0          9.200          3.814         97.549
          397.5          9.183          4.094         96.402
          398.0          9.167          4.094         98.075
          398.5          9.150          3.758         95.557
          399.0          9.133          3.704         96.763
          399.5          9.107          3.704         95.263
          400.0          9.055          3.899        103.747
