###############################################
##         ENVERUS                           ##
##         ESS - Open Hole                   ##
##         PERMIAN / DELAWARE                ##
##         Nov 02 2023  V4.0                 ##
##         42-109-31391-00-00                ##
###############################################
## Copyright 2017-2023  ENVERUS.  All Rights Reserved. 
## Confidential - Property of ENVERUS, use governed by terms and 
## conditions found within the existing Information Services Subscription Agreement 
## (as may be amended, the “ISSA”) between Customer and ENVERUS. 
## 
~VERSION INFORMATION
# MNEM.UNIT                               DATA : DESCRIPTION OF MNEMONIC
#-----.-----     ----------------------------- : -----------------------------
VERS.                                     2.00 : CWLS LOG ASCII STANDARD - VERSION 2.00
WRAP.                                       NO : MULTIPLE LINES PER DEPTH STEP
VEND.                                  ENVERUS : VENDOR
TYPE.                          ESS - OPEN HOLE : ENVERUS ESSENTIAL CURVES – ACCESSIBLE THROUGH ENVERUS PRISM(TM)
DOC.                                  31999167 : ENVERUS HEADER RAW DOCUMENT ID
#___________________________________________________________________________________________________ 
~WELL INFORMATION 
# BOC9FSWoKCUsCFcWObZ1iTDYvHtSUwfaSl9bEava01AYiR20s/sWwY1hBaxvFz+VJj0aOQNxXrzxY9t5EPBGbg== 
# MNEM.UNIT                                              DATA : DESCRIPTION OF MNEMONIC 
#-----.-----                    ----------------------------- : ----------------------------- 
CNTY.                                               CULBERSON : COUNTY 
STATE.                                                  TEXAS : STATE 
CNTRY.                                                    USA : COUNTRY 
API.                                             42-109-31391 : API (10 Digit) 
API_14.                                    42-109-31391-00-00 : API (14 Digits) 
API_14_std.                                 42-109-31391-0000 : API (14 Digits Standard) 
UWI.                                           42109313910000 : UNIQUE WELL ID 
WELL.                                            TRES ALAS  1 : WELL NAME
STRT.FT                                                     0 : START DEPTH
STOP.FT                                               15494.0 : STOP DEPTH
STEP.FT                                                   0.5 : STEP BETWEEN DEPTHS
NULL.                                                 -999.25 : NULL VALUE
COMP.                           AMERICAN QUASAR PETROLEUM CO. : COMPANY
#___________________________________________________________________________________________________ 
~CURVE INFORMATION 
# MNEM.UNIT           : CURVE DESCRIPTION 
#-----.-----          : ----------------------------- 
 DEPT.FT               : MEASURED DEPTH 
 CALI.IN               : CALIPER (CAL - CAL) 
 GR.API                : GAMMA RAY (GR) 
 DT.US/FT              : SONIC DELTA TRANSIT TIME (DT) 
 #___________________________________________________________________________________________________ 
~A         DEPT           CALI             GR             DT
# ...
        10230.0          9.648         88.952         83.589
        10230.5          9.646         90.565         84.350
        10231.0          9.643         89.334         83.484
        10231.5          9.641         88.103         81.684
        10232.0          9.639         87.596         80.746
        10232.5          9.636         89.192         81.312
        10233.0          9.634         90.788         82.011
        10233.5          9.632         92.384         83.507
        10234.0          9.629         92.074         84.534
        10234.5          9.627         88.061         84.103
        10235.0          9.625         78.352         82.668
        10235.5          9.622         68.642         80.842
        10236.0          9.620         58.932         75.168
        10236.5          9.618         47.834         65.001
        10237.0          9.615         36.701         58.259
        10237.5          9.613         25.568         52.424
        10238.0          9.611         21.916         52.612
        10238.5          9.608         28.573         56.689
        10239.0          9.606         37.830         64.408
        10239.5          9.605         58.245         72.534
        10240.0          9.613         79.328         82.380
        10240.5          9.620         78.400         83.546
        10241.0          9.627         77.472         84.711
        10241.5          9.635         76.544         84.646
        10242.0          9.642         75.616         81.528
        10242.5          9.650         74.688         81.057
        10243.0          9.657         74.813         82.216
        10243.5          9.664         76.697         83.375
        10244.0          9.672         78.581         83.504
        10244.5          9.679         78.550         83.211
        10245.0          9.686         74.991         82.596
        10245.5          9.694         71.431         81.921
        10246.0          9.696         69.611         79.752
        10246.5          9.696         71.182         79.243
        10247.0          9.696         72.754         77.596
        10247.5          9.696         72.027         77.121
        10248.0          9.696         69.550         77.425
        10248.5          9.696         75.296         78.297
        10249.0          9.696         83.480         80.828
        10249.5          9.696         92.076         83.234
        10250.0          9.696        100.533         85.393
        10250.5          9.696         97.325         83.469
        10251.0          9.696         82.623         78.700
        10251.5          9.696         64.256         73.778
        10252.0          9.687         61.942         74.786
        10252.5          9.677         64.435         80.332
        10253.0          9.668         76.198         83.439
        10253.5          9.659         82.070         85.339
        10254.0          9.650         83.412         85.923
        10254.5          9.641         79.738         84.137
        10255.0          9.654         73.020         78.925
        10255.5          9.669         64.370         75.398
        10256.0          9.684         61.256         75.647
        10256.5          9.700         63.939         76.551
        10257.0          9.717         69.338         77.820
        10257.5          9.766         73.121         79.089
        10258.0          9.815         67.913         76.153
        10258.5          9.851         62.705         75.749
        10259.0          9.884         61.625         76.665
        10259.5          9.910         73.540         81.117
        10260.0          9.930         82.616         83.921
        10260.5          9.949         88.566         84.416
        10261.0          9.969         89.599         84.266
        10261.5          9.989         89.851         83.565
        10262.0         10.009         84.502         82.039
        10262.5         10.032         79.153         79.733
        10263.0         10.054         71.717         73.847
        10263.5         10.077         63.961         71.502
        10264.0         10.100         60.076         71.686
        10264.5         10.122         63.029         72.535
        10265.0         10.145         65.934         75.117
        10265.5         10.168         68.371         79.278
        10266.0         10.190         70.461         82.382
        10266.5         10.287         72.303         82.911
        10267.0         10.401         74.145         82.991
        10267.5         10.470         76.373         84.410
        10268.0         10.465         79.476         82.810
        10268.5         10.460         84.181         82.773
        10269.0         10.455         89.134         83.096
        10269.5         10.450         88.245         81.561
        10270.0         10.445         85.441         80.621
        10270.5         10.440         80.865         80.460
        10271.0         10.435         79.470         80.299
        10271.5         10.430         79.071         80.138
        10272.0         10.425         75.732         76.449
        10272.5         10.420         63.440         74.558
        10273.0         10.418         55.144         73.060
        10273.5         10.437         48.195         63.030
        10274.0         10.456         41.246         56.783
        10274.5         10.476         34.298         53.796
        10275.0         10.500         27.349         54.890
        10275.5         10.539         24.793         55.010
        10276.0         10.577         23.841         55.131
        10276.5         10.616         27.215         55.802
        10277.0         10.638         30.719         58.472
        10277.5         10.638         43.042         65.565
        10278.0         10.638         67.272         73.306
        10278.5         10.609         80.384         81.096
        10279.0         10.574         93.496         85.973
        10279.5         10.540         94.331         86.430
        10280.0         10.505         93.285         86.269
        10280.5         10.471         89.283         85.324
        10281.0         10.436         85.281         84.177
        10281.5         10.413         81.073         83.798
        10282.0         10.391         76.183         83.727
        10282.5         10.369         77.071         82.377
        10283.0         10.346         77.958         81.242
        10283.5         10.324         78.846         82.373
        10284.0         10.302         79.244         87.391
        10284.5         10.280         78.527         99.475
        10285.0         10.257         75.859        101.773
        10285.5         10.239         73.707        100.442
        10286.0         10.224         77.826         95.273
        10286.5         10.209         81.945         91.194
        10287.0         10.194         83.780         86.799
        10287.5         10.178         83.779         84.373
        10288.0         10.163         87.370         84.456
        10288.5         10.148         89.829         86.393
        10289.0         10.133         90.494         88.900
        10289.5         10.114         90.696         88.739
        10290.0         10.054         90.504         88.435
        10290.5          9.995         92.720         87.884
        10291.0          9.935         93.159         85.436
        10291.5          9.875         91.824         81.828
        10292.0          9.866         72.561         75.627
        10292.5          9.876         64.921         74.646
        10293.0          9.895         57.408         72.998
        10293.5          9.916         57.556         69.931
        10294.0          9.938         64.459         75.233
        10294.5          9.938         71.220         80.744
        10295.0          9.899         77.976         85.269
        10295.5          9.886         84.733         87.055
