###############################################
##         ENVERUS                           ##
##         ESS - Open Hole                   ##
##         PERMIAN / DELAWARE                ##
##         Nov 03 2023  V4.0                 ##
##         42-109-32572-90-00                ##
###############################################
## Copyright 2017-2023  ENVERUS.  All Rights Reserved. 
## Confidential - Property of ENVERUS, use governed by terms and 
## conditions found within the existing Information Services Subscription Agreement 
## (as may be amended, the “ISSA”) between Customer and ENVERUS. 
## 
~VERSION INFORMATION
# MNEM.UNIT                               DATA : DESCRIPTION OF MNEMONIC
#-----.-----     ----------------------------- : -----------------------------
VERS.                                     2.00 : CWLS LOG ASCII STANDARD - VERSION 2.00
WRAP.                                       NO : MULTIPLE LINES PER DEPTH STEP
VEND.                                  ENVERUS : VENDOR
TYPE.                          ESS - OPEN HOLE : ENVERUS ESSENTIAL CURVES – ACCESSIBLE THROUGH ENVERUS PRISM(TM)
DOC.                                  51093105 : ENVERUS HEADER RAW DOCUMENT ID
#___________________________________________________________________________________________________ 
~WELL INFORMATION 
# JLMmoJa/ja/TVcwAQvDk33OYEn4U2aLD16xKSNtVAxpK3Y/5Eg5lhKgsZNDQ5ZP0fRHfEZLFMAnipg5oeA7W3g== 
# MNEM.UNIT                                              DATA : DESCRIPTION OF MNEMONIC 
#-----.-----                    ----------------------------- : ----------------------------- 
CNTY.                                               CULBERSON : COUNTY 
STATE.                                                  TEXAS : STATE 
CNTRY.                                                    USA : COUNTRY 
API.                                             42-109-32572 : API (10 Digit) 
API_14.                                    42-109-32572-90-00 : API (14 Digits) 
API_14_std.                                 42-109-32572-9000 : API (14 Digits Standard) 
UWI.                                           42109325729000 : UNIQUE WELL ID 
WELL.                               42109325720000_PREV_API14 : WELL NAME
STRT.FT                                                2248.5 : START DEPTH
STOP.FT                                               10721.5 : STOP DEPTH
STEP.FT                                                   0.5 : STEP BETWEEN DEPTHS
NULL.                                                 -999.25 : NULL VALUE
PREV_APII.                                     42109325720000 : WELL IDENTIFIER
#___________________________________________________________________________________________________ 
~PARAMETER INFORMATION 
# MNEM.UNIT                                              DATA : DESCRIPTION OF MNEMONIC 
#-----.-----                    ----------------------------- : ----------------------------- 
EKB.FT                                                   3340 : ELEVATION ABOVE MSL
#___________________________________________________________________________________________________ 
~CURVE INFORMATION 
# MNEM.UNIT           : CURVE DESCRIPTION 
#-----.-----          : ----------------------------- 
 DEPT.FT               : MEASURED DEPTH 
 GR__A.API             : GAMMA RAY (GAMMA RAY) 
 DT__A.US/FT           : SONIC DELTA TRANSIT TIME (SONIC) 
 #___________________________________________________________________________________________________ 
~A         DEPT          GR__A          DT__A
# ...
         3379.5        185.461        103.421
         3380.0        180.075        104.720
         3380.5        166.043        105.820
         3381.0        167.552        105.391
         3381.5        176.525        104.659
         3382.0        180.429        104.171
         3382.5        187.971        104.648
         3383.0        192.835        104.551
         3383.5        197.602        102.837
         3384.0        210.111        102.402
         3384.5        217.923        101.180
         3385.0        215.350        100.704
         3385.5        205.205        101.257
         3386.0        197.971        102.500
         3386.5        194.583        102.223
         3387.0        205.650        101.051
         3387.5        222.591         99.166
         3388.0        220.443        100.754
         3388.5        169.114        112.480
         3389.0        146.844        118.169
         3389.5        146.463        117.723
         3390.0        148.651        116.052
         3390.5        147.205        108.087
         3391.0        127.193        107.893
         3391.5        124.462        112.730
         3392.0        125.905        114.248
         3392.5        134.918        116.687
         3393.0        143.570        114.789
         3393.5        156.246        113.627
         3394.0        158.810        112.076
         3394.5        163.028        109.128
         3395.0        184.096        106.431
         3395.5        192.022        109.144
         3396.0        177.676        113.237
         3396.5        146.745        116.572
         3397.0        143.355        116.980
         3397.5        134.257        112.656
         3398.0        131.618        112.404
         3398.5        128.323        119.143
         3399.0        125.360        117.665
         3399.5        127.633        115.976
         3400.0        131.388        114.586
         3400.5        148.602        112.784
         3401.0        157.607        111.654
         3401.5        168.376        109.660
         3402.0        170.000        108.250
         3402.5        165.284        103.410
         3403.0        170.445        101.947
         3403.5        181.452        100.647
         3404.0        186.549         99.509
         3404.5        207.419         98.131
         3405.0        231.128         95.797
         3405.5        233.357         93.777
         3406.0        230.250         93.711
         3406.5        228.180         94.260
         3407.0        229.354         96.604
         3407.5        230.137         97.133
         3408.0        227.941         97.804
         3408.5        216.593        101.446
         3409.0        216.282        102.539
         3409.5        210.485        103.320
         3410.0        202.901        104.086
         3410.5        180.772        105.763
         3411.0        163.787        106.262
         3411.5        166.540        107.048
         3412.0        174.496        107.578
         3412.5        178.698        106.058
         3413.0        171.602        104.551
         3413.5        181.152        103.760
         3414.0        186.339        103.072
         3414.5        182.388        102.154
         3415.0        188.174        101.907
         3415.5        198.179        101.816
         3416.0        194.790        101.816
         3416.5        184.533        103.043
         3417.0        184.747        104.642
         3417.5        208.701        100.838
         3418.0        219.288         99.420
         3418.5        242.270         97.080
         3419.0        230.159         98.516
         3419.5        210.626        103.826
         3420.0        203.875        105.439
         3420.5        166.254        117.372
         3421.0        147.680        119.220
         3421.5        144.176        122.038
         3422.0        139.275        122.625
         3422.5        130.154        121.241
         3423.0        128.219        118.850
         3423.5        126.463        114.554
         3424.0        129.589        110.313
         3424.5        123.901        108.460
         3425.0        122.281        109.559
         3425.5        123.988        114.444
         3426.0        122.114        116.115
         3426.5        125.835        117.304
         3427.0        135.972        116.503
         3427.5        139.958        115.977
         3428.0        136.129        117.524
         3428.5        143.164        120.605
         3429.0        144.579        120.469
         3429.5        134.880        121.639
         3430.0        136.350        120.762
         3430.5        143.487        116.223
         3431.0        149.122        109.339
         3431.5        167.090        104.926
         3432.0        175.575         99.831
         3432.5        192.709        103.088
         3433.0        194.319        103.820
         3433.5        183.939        109.340
         3434.0        175.345        111.484
         3434.5        154.994        117.945
         3435.0        149.670        119.498
         3435.5        126.785        121.348
         3436.0        121.712        121.845
         3436.5        134.590        123.011
         3437.0        140.314        120.474
         3437.5        143.711        120.176
         3438.0        148.898        119.645
         3438.5        155.382        115.949
         3439.0        150.466        111.262
         3439.5        149.886        110.805
         3440.0        153.936        112.631
         3440.5        157.339        118.051
         3441.0        156.064        120.098
         3441.5        146.281        119.112
         3442.0        147.400        118.041
         3442.5        158.285        117.064
         3443.0        168.392        116.832
         3443.5        150.743        116.172
         3444.0        140.496        115.879
         3444.5        136.595        115.405
         3445.0        138.245        118.341
         3445.5        138.962        119.032
         3446.0        144.436        118.406
         3446.5        152.251        116.192
         3447.0        152.326        115.781
         3447.5        155.064        115.724
         3448.0        156.164        116.793
         3448.5        157.408        114.685
         3449.0        166.885        111.703
         3449.5        156.490        111.083
         3450.0        151.194        112.617
         3450.5        142.796        120.690
         3451.0        139.763        122.715
         3451.5        140.350        122.052
         3452.0        145.422        120.760
         3452.5        153.113        113.397
         3453.0        156.096        109.354
         3453.5        165.508        107.706
         3454.0        168.735        110.859
         3454.5        163.948        112.628
         3455.0        156.122        112.120
         3455.5        154.990        109.228
         3456.0        166.718        110.023
         3456.5        176.944        110.811
         3457.0        176.806        114.195
         3457.5        170.254        113.633
         3458.0        169.472        113.340
         3458.5        167.334        111.781
         3459.0        152.773        109.336
         3459.5        150.062        111.111
         3460.0        158.143        111.783
         3460.5        154.335        115.310
         3461.0        144.437        117.703
         3461.5        124.055        119.214
         3462.0        122.909        120.376
         3462.5        129.186        121.649
         3463.0        133.282        120.316
         3463.5        133.848        121.058
         3464.0        131.695        123.215
         3464.5        131.510        120.371
         3465.0        133.660        120.665
         3465.5        136.982        122.957
         3466.0        136.990        121.446
