###############################################
##         ENVERUS                           ##
##         ESS - Open Hole                   ##
##         PERMIAN / DELAWARE                ##
##         Nov 03 2023  V4.0                 ##
##         42-109-32508-00-00                ##
###############################################
## Copyright 2017-2023  ENVERUS.  All Rights Reserved. 
## Confidential - Property of ENVERUS, use governed by terms and 
## conditions found within the existing Information Services Subscription Agreement 
## (as may be amended, the “ISSA”) between Customer and ENVERUS. 
## 
~VERSION INFORMATION
# MNEM.UNIT                               DATA : DESCRIPTION OF MNEMONIC
#-----.-----     ----------------------------- : -----------------------------
VERS.                                     2.00 : CWLS LOG ASCII STANDARD - VERSION 2.00
WRAP.                                       NO : MULTIPLE LINES PER DEPTH STEP
VEND.                                  ENVERUS : VENDOR
TYPE.                          ESS - OPEN HOLE : ENVERUS ESSENTIAL CURVES – ACCESSIBLE THROUGH ENVERUS PRISM(TM)
DOC.                                  51093165 : ENVERUS HEADER RAW DOCUMENT ID
#___________________________________________________________________________________________________ 
~WELL INFORMATION 
# 1l9uGBxUQQhBCtjIwzslcirW42fLV8cokTOAxV7sfA093x4JFuWG6+twQwU/7oNL7vvW02EVanlAmdL+peO2nw== 
# MNEM.UNIT                                              DATA : DESCRIPTION OF MNEMONIC 
#-----.-----                    ----------------------------- : ----------------------------- 
CNTY.                                               CULBERSON : COUNTY 
STATE.                                                  TEXAS : STATE 
CNTRY.                                                    USA : COUNTRY 
API.                                             42-109-32508 : API (10 Digit) 
API_14.                                    42-109-32508-00-00 : API (14 Digits) 
API_14_std.                                 42-109-32508-0000 : API (14 Digits Standard) 
UWI.                                           42109325080000 : UNIQUE WELL ID 
WELL.                                  LT. GIBSON 12 STATE 1H : WELL NAME
STRT.FT                                                1970.5 : START DEPTH
STOP.FT                                                8727.0 : STOP DEPTH
STEP.FT                                                   0.5 : STEP BETWEEN DEPTHS
NULL.                                                 -999.25 : NULL VALUE
PREV_APII.                                     42109325080000 : WELL IDENTIFIER
#___________________________________________________________________________________________________ 
~PARAMETER INFORMATION 
# MNEM.UNIT                                              DATA : DESCRIPTION OF MNEMONIC 
#-----.-----                    ----------------------------- : ----------------------------- 
EKB.FT                                                   3552 : ELEVATION ABOVE MSL
#___________________________________________________________________________________________________ 
~CURVE INFORMATION 
# MNEM.UNIT           : CURVE DESCRIPTION 
#-----.-----          : ----------------------------- 
 DEPT.FT               : MEASURED DEPTH 
 GR__A.API             : GAMMA RAY (GAMMA RAY) 
 DT__A.US/FT           : SONIC DELTA TRANSIT TIME (SONIC) 
 #___________________________________________________________________________________________________ 
~A         DEPT          GR__A          DT__A
# ...
         6842.5        392.140        131.941
         6843.0        350.573        138.600
         6843.5        323.638        140.499
         6844.0        311.328        125.449
         6844.5        314.633        118.285
         6845.0        333.083        116.324
         6845.5        360.870        104.517
         6846.0        385.257         97.146
         6846.5        383.594         94.795
         6847.0        379.097         96.234
         6847.5        368.227        105.831
         6848.0        353.942        111.625
         6848.5        340.469        115.192
         6849.0        333.885        115.301
         6849.5        332.920        111.711
         6850.0        335.662        108.519
         6850.5        337.891        105.507
         6851.0        335.800        105.787
         6851.5        328.664        110.331
         6852.0        324.427        111.871
         6852.5        322.813        115.478
         6853.0        334.252        114.343
         6853.5        338.063        119.539
         6854.0        339.996        118.728
         6854.5        340.625        116.481
         6855.0        330.851        117.741
         6855.5        317.537        117.431
         6856.0        316.229        117.066
         6856.5        321.137        117.185
         6857.0        322.817        113.530
         6857.5        332.898        109.338
         6858.0        325.787        102.462
         6858.5        323.301        102.221
         6859.0        359.538        101.170
         6859.5        377.375        110.303
         6860.0        366.741        117.934
         6860.5        355.905        126.213
         6861.0        322.266        128.850
         6861.5        302.821        124.756
         6862.0        301.638        123.626
         6862.5        312.080        117.789
         6863.0        318.013        117.193
         6863.5        312.771        120.636
         6864.0        305.217        120.296
         6864.5        315.636        114.809
         6865.0        341.380        110.137
         6865.5        348.636        111.664
         6866.0        337.270        123.568
         6866.5        322.287        136.437
         6867.0        297.627        141.521
         6867.5        286.306        140.540
         6868.0        286.757        135.196
         6868.5        297.040        127.584
         6869.0        322.018        122.240
         6869.5        338.285        122.676
         6870.0        335.834        119.688
         6870.5        325.901        119.268
         6871.0        318.613        119.103
         6871.5        322.342        119.531
         6872.0        323.828        124.857
         6872.5        323.735        123.838
         6873.0        328.240        122.172
         6873.5        337.093        119.556
         6874.0        350.314        113.645
         6874.5        356.487        119.096
         6875.0        356.641        120.663
         6875.5        356.783        120.663
         6876.0        362.710        116.525
         6876.5        367.747        109.589
         6877.0        365.740        109.552
         6877.5        355.161        108.444
         6878.0        353.308        107.681
         6878.5        358.742        107.507
         6879.0        369.348        106.528
         6879.5        373.071        106.341
         6880.0        376.994        108.967
         6880.5        377.568        109.747
         6881.0        375.159        108.547
         6881.5        377.043        103.645
         6882.0        376.847        105.121
         6882.5        366.320        106.872
         6883.0        355.859         98.931
         6883.5        356.523        104.678
         6884.0        352.783        105.793
         6884.5        347.656        102.982
         6885.0        351.376        107.666
         6885.5        359.390         99.993
         6886.0        378.681        103.081
         6886.5        401.496        103.451
         6887.0        408.863        101.065
         6887.5        409.089         95.415
         6888.0        406.685         88.109
         6888.5        405.823         87.135
         6889.0        409.291         82.665
         6889.5        406.739         91.315
         6890.0        384.916         95.322
         6890.5        363.325         96.486
         6891.0        348.028        103.136
         6891.5        343.724        108.616
         6892.0        338.239        113.851
         6892.5        341.074        107.773
         6893.0        351.938         95.161
         6893.5        366.635         79.476
         6894.0        369.477         80.924
         6894.5        359.580         83.883
         6895.0        347.946         95.523
         6895.5        340.078        107.798
         6896.0        339.930        108.967
         6896.5        344.413        110.083
         6897.0        355.099        108.812
         6897.5        353.573        104.483
         6898.0        345.617        103.525
         6898.5        342.315        100.199
         6899.0        346.891         97.593
         6899.5        353.413         97.466
         6900.0        355.230         97.661
         6900.5        356.641         98.875
         6901.0        352.452        118.828
         6901.5        345.703        120.468
         6902.0        351.911        120.181
         6902.5        357.412        110.075
         6903.0        356.049         88.832
         6903.5        354.897         82.651
         6904.0        355.251         83.453
         6904.5        349.428         87.338
         6905.0        344.608         99.645
         6905.5        350.391        103.240
         6906.0        347.937        109.669
         6906.5        341.564        119.626
         6907.0        347.178        104.190
         6907.5        360.864        100.564
         6908.0        364.345         87.108
         6908.5        369.133         87.956
         6909.0        372.632         94.749
         6909.5        362.161         97.146
         6910.0        344.907        100.547
         6910.5        341.797        101.949
         6911.0        342.188        102.729
         6911.5        339.656        103.119
         6912.0        336.761        104.636
         6912.5        334.504        112.924
         6913.0        334.366        115.387
         6913.5        332.710        118.420
         6914.0        325.516        118.533
         6914.5        323.830        117.937
         6915.0        323.835        116.764
         6915.5        322.656        116.974
         6916.0        325.046        113.152
         6916.5        334.296         99.977
         6917.0        351.096         95.107
         6917.5        372.788         86.826
         6918.0        389.843         96.184
         6918.5        392.586        110.622
         6919.0        370.578        112.548
         6919.5        335.756        115.330
         6920.0        326.651        108.929
         6920.5        330.855        114.129
         6921.0        365.796        116.037
         6921.5        364.947        115.876
         6922.0        344.640        124.796
         6922.5        326.175        130.344
         6923.0        309.585        132.048
         6923.5        285.752        146.291
         6924.0        269.473        138.986
         6924.5        267.769        132.506
         6925.0        289.492        128.501
         6925.5        336.490        101.665
         6926.0        382.859        126.196
         6926.5        395.121        138.496
         6927.0        343.117        149.972
         6927.5        287.396        154.592
         6928.0        268.140        137.120
         6928.5        279.420        134.328
         6929.0        305.400        131.491
