###############################################
##         ENVERUS                           ##
##         ESS - Open Hole                   ##
##         PERMIAN / DELAWARE                ##
##         Nov 03 2023  V4.0                 ##
##         42-109-33144-00-00                ##
###############################################
## Copyright 2017-2023  ENVERUS.  All Rights Reserved. 
## Confidential - Property of ENVERUS, use governed by terms and 
## conditions found within the existing Information Services Subscription Agreement 
## (as may be amended, the “ISSA”) between Customer and ENVERUS. 
## 
~VERSION INFORMATION
# MNEM.UNIT                               DATA : DESCRIPTION OF MNEMONIC
#-----.-----     ----------------------------- : -----------------------------
VERS.                                     2.00 : CWLS LOG ASCII STANDARD - VERSION 2.00
WRAP.                                       NO : MULTIPLE LINES PER DEPTH STEP
VEND.                                  ENVERUS : VENDOR
TYPE.                          ESS - OPEN HOLE : ENVERUS ESSENTIAL CURVES – ACCESSIBLE THROUGH ENVERUS PRISM(TM)
DOC.                                  44408038 : ENVERUS HEADER RAW DOCUMENT ID
#___________________________________________________________________________________________________ 
~WELL INFORMATION 
# jhvnPe+1QU9E4rmF00QVhgJB4IQXrbTj+4JQBaOQ+xeerJB1ro+a2ny8/YeKPBUHGPa8yPZn1kHe7+9ZkyRs1A== 
# MNEM.UNIT                                              DATA : DESCRIPTION OF MNEMONIC 
#-----.-----                    ----------------------------- : ----------------------------- 
CNTY.                                               CULBERSON : COUNTY 
STATE.                                                  TEXAS : STATE 
CNTRY.                                                    USA : COUNTRY 
API.                                             42-109-33144 : API (10 Digit) 
API_14.                                    42-109-33144-00-00 : API (14 Digits) 
API_14_std.                                 42-109-33144-0000 : API (14 Digits Standard) 
UWI.                                           42109331440000 : UNIQUE WELL ID 
WELL.                                        PAT FEE 4 NO. 3H : WELL NAME
STRT.FT                                                8880.0 : START DEPTH
STOP.FT                                               14320.0 : STOP DEPTH
STEP.FT                                                   0.5 : STEP BETWEEN DEPTHS
NULL.                                                 -999.25 : NULL VALUE
LOC.                                     API  42-109-33144LAT : LOCATION 
FL1.                                     API  42-109-33144LAT : LOCATIONLINE1 
DMF.                                                       KB : DRILL MEAS FROM 
PDAT.                                                      GL : PERMANENT DATUM 
FLD.                                    FORD, WEST (WOLFCAMP) : FIELD NAME 
COMP.                            CAPITAN ENERGY, INCORPORATED : COMPANY 
DATE.                                             21-SEP-2017 : DATE 
SVCO.                                             HALLIBURTON : SERVICECONAME 
PROV.                                                   TEXAS : PROVINCE 
BASI.                                                 PERMIAN : BASIN 
RANG.                                                     N/A : RANGE 
TOWN.                                                     N/A : TOWNSHIP 
SECT.                                                     N/A : SECTION 
SON.                                                      N/A : JOB NUMBER 
SRVC.                                             HALLIBURTON : SERVICE COMPANY 
LMF.                                                       KB : LOG MEASURED FROM 
EGL.FT                                              3093.0000 : GROUND ELEVATION 
BAP.FT                                                 0.0000 : GL ELEV ONSHORE 
GVFD.G                                                 1.0000 : GRAVITY FIELD 
EKB.FT                                              3114.0000 : KB ELEVATION 
EDF.FT                                              3113.0000 : DF ELEVATION
#___________________________________________________________________________________________________ 
~CURVE INFORMATION 
# MNEM.UNIT           : CURVE DESCRIPTION 
#-----.-----          : ----------------------------- 
 DEPT.FT               : MEASURED DEPTH 
 GR.API                : GAMMA RAY (GR_CHI - GR_CHI) 
 GR__01.API            : GAMMA RAY (GR_OH - GR_OH) 
 DT.US/FT              : SONIC DELTA TRANSIT TIME (DTC_CHI - DTC_CHI) 
 DT__01.US/FT          : SONIC DELTA TRANSIT TIME (DTC_OH - DTC_OH) 
 PE.B/E                : PHOTOELECTRIC EFFECT/FACTOR (PE_CHI - PE_CHI) 
 PE__01.B/E            : PHOTOELECTRIC EFFECT/FACTOR (PE_OH - PE_OH) 
 RESS_LL.OHMM          : SHALLOW LATEROLOG (LLS_CHI - LLS_CHI) 
 RESS_LL__01.OHMM      : SHALLOW LATEROLOG (LLS_OH - LLS_OH) 
 RESD_LL.OHMM          : DEEP LATEROLOG (LLD_CHI - LLD_CHI) 
 RESD_LL__01.OHMM      : DEEP LATEROLOG (LLD_OH - LLD_OH) 
 NPHI.V/V              : NEUTRON POROSITY (NPHI_CHI - NPHI_CHI) 
 NPHI__01.V/V          : NEUTRON POROSITY (NPHI_OH - NPHI_OH) 
 SPHI.V/V              : SONIC POROSITY (SPHI_CHI - SPHI_CHI) 
 RHOB.G/CC             : BULK DENSITY (RHOB_CHI - RHOB_CHI) 
 RHOB__01.G/CC         : BULK DENSITY (RHOB_OH - RHOB_OH) 
 #___________________________________________________________________________________________________ 
~A         DEPT             GR         GR__01             DT         DT__01             PE         PE__01        RESS_LL    RESS_LL__01        RESD_LL    RESD_LL__01           NPHI       NPHI__01           SPHI           RHOB       RHOB__01
# ...
        10682.0         97.117       -999.250         67.256       -999.250         3.7887      -999.2500        93.7577      -999.2500       102.5197      -999.2500        0.12219     -999.25000        0.13900         2.5781      -999.2500
        10682.5         97.671       -999.250         67.078       -999.250         3.7872      -999.2500        92.8284      -999.2500       101.1426      -999.2500        0.12163     -999.25000        0.13780         2.5790      -999.2500
        10683.0         86.581       -999.250         66.203       -999.250         3.8401      -999.2500        86.6994      -999.2500        93.7856      -999.2500        0.11872     -999.25000        0.13160         2.5843      -999.2500
        10683.5         88.050       -999.250         66.370       -999.250         3.8111      -999.2500        84.6425      -999.2500        91.6199      -999.2500        0.12046     -999.25000        0.13270         2.5831      -999.2500
        10684.0         98.545       -999.250         67.230       -999.250         3.7395      -999.2500        86.6784      -999.2500        94.4347      -999.2500        0.12448     -999.25000        0.13880         2.5774      -999.2500
        10684.5         86.931       -999.250         66.729       -999.250         3.7920      -999.2500        83.8237      -999.2500        91.1275      -999.2500        0.12314     -999.25000        0.13530         2.5811      -999.2500
        10685.0         82.574       -999.250         66.597       -999.250         3.8075      -999.2500        82.9323      -999.2500        90.0723      -999.2500        0.12323     -999.25000        0.13430         2.5824      -999.2500
        10685.5         93.310       -999.250         67.412       -999.250         3.7539      -999.2500        88.2753      -999.2500        96.3849      -999.2500        0.12639     -999.25000        0.14010         2.5774      -999.2500
        10686.0         92.409       -999.250         67.255       -999.250         3.7641      -999.2500        88.8654      -999.2500        96.7604      -999.2500        0.12575     -999.25000        0.13900         2.5786      -999.2500
        10686.5         87.551       -999.250         66.818       -999.250         3.8037      -999.2500        89.0059      -999.2500        96.5356      -999.2500        0.12347     -999.25000        0.13590         2.5816      -999.2500
        10687.0         82.290       -999.250         66.348       -999.250         3.8500      -999.2500        89.3714      -999.2500        96.5730      -999.2500        0.12084     -999.25000        0.13260         2.5849      -999.2500
        10687.5         74.242       -999.250         65.597       -999.250         3.9162      -999.2500        87.4753      -999.2500        94.1029      -999.2500        0.11674     -999.25000        0.12730         2.5896      -999.2500
        10688.0         84.102       -999.250         66.172       -999.250         3.8838      -999.2500        93.8941      -999.2500       101.4274      -999.2500        0.11769     -999.25000        0.13130         2.5858      -999.2500
        10688.5         90.259       -999.250         65.918       -999.250         3.9657      -999.2500       121.8916      -999.2500       130.3044      -999.2500        0.11320     -999.25000        0.12950         2.5902      -999.2500
        10689.0         84.845       -999.250         65.438       -999.250         4.0138      -999.2500       123.3842      -999.2500       131.1439      -999.2500        0.11092     -999.25000        0.12610         2.5935      -999.2500
        10689.5         83.157       -999.250         64.418       -999.250         4.0739      -999.2500       117.7543      -999.2500       123.9831      -999.2500        0.10426     -999.25000        0.11890         2.5982      -999.2500
        10690.0         76.237       -999.250         63.809       -999.250         4.1213      -999.2500       114.5404      -999.2500       119.8800      -999.2500        0.10207     -999.25000        0.11460         2.6021      -999.2500
        10690.5         83.410       -999.250         64.195       -999.250         4.0894      -999.2500       120.5040      -999.2500       126.2823      -999.2500        0.10323     -999.25000        0.11740         2.5997      -999.2500
        10691.0         74.852       -999.250         63.554       -999.250         4.1436      -999.2500       115.9559      -999.2500       120.9118      -999.2500        0.10089     -999.25000        0.11280         2.6037      -999.2500
        10691.5         78.676       -999.250         63.746       -999.250         4.1209      -999.2500       118.1198      -999.2500       123.1485      -999.2500        0.10186     -999.25000        0.11420         2.6024      -999.2500
        10692.0         68.846       -999.250         63.046       -999.250         4.1738      -999.2500       110.7760      -999.2500       114.9883      -999.2500        0.09959     -999.25000        0.10920         2.6069      -999.2500
        10692.5         69.717       -999.250         63.069       -999.250         4.1715      -999.2500       112.1936      -999.2500       116.3504      -999.2500        0.09979     -999.25000        0.10940         2.6067      -999.2500
        10693.0         84.225       -999.250         63.901       -999.250         4.0987      -999.2500       122.3158      -999.2500       127.2938      -999.2500        0.10256     -999.25000        0.11530         2.6011      -999.2500
        10693.5         78.197       -999.250         63.386       -999.250         4.1514      -999.2500       121.5999      -999.2500       126.0344      -999.2500        0.10007     -999.25000        0.11160         2.6045      -999.2500
        10694.0         73.364       -999.250         62.964       -999.250         4.1951      -999.2500       121.6138      -999.2500       125.5772      -999.2500        0.09814     -999.25000        0.10870         2.6073      -999.2500
        10694.5         80.296       -999.250         63.220       -999.250         4.1673      -999.2500       125.3489      -999.2500       129.5593      -999.2500        0.09852     -999.25000        0.11050         2.6051      -999.2500
        10695.0         76.783       -999.250         62.761       -999.250         4.2000      -999.2500       120.6556      -999.2500       124.4330      -999.2500        0.09615     -999.25000        0.10720         2.6073      -999.2500
        10695.5         74.302       -999.250         62.305       -999.250         4.2191      -999.2500       113.8918      -999.2500       117.2201      -999.2500        0.09421     -999.25000        0.10400         2.6091      -999.2500
        10696.0         72.424       -999.250         62.053       -999.250         4.2298      -999.2500       110.1285      -999.2500       113.2378      -999.2500        0.09328     -999.25000        0.10220         2.6103      -999.2500
        10696.5         72.283       -999.250         62.199       -999.250         4.2277      -999.2500       113.2935      -999.2500       116.4473      -999.2500        0.09422     -999.25000        0.10320         2.6100      -999.2500
        10697.0         67.874       -999.250         62.305       -999.250         4.2512      -999.2500       119.2171      -999.2500       122.4647      -999.2500        0.09503     -999.25000        0.10400         2.6110      -999.2500
        10697.5         72.677       -999.250         62.947       -999.250         4.2343      -999.2500       134.6949      -999.2500       138.7367      -999.2500        0.09718     -999.25000        0.10850         2.6085      -999.2500
        10698.0         71.175       -999.250         62.905       -999.250         4.2718      -999.2500       146.0658      -999.2500       150.3056      -999.2500        0.09616     -999.25000        0.10820         2.6098      -999.2500
        10698.5         61.079       -999.250         62.085       -999.250         4.3651      -999.2500       145.1156      -999.2500       148.4571      -999.2500        0.09211     -999.25000        0.10240         2.6149      -999.2500
