###############################################
##         ENVERUS                           ##
##         ESS - Open Hole                   ##
##         PERMIAN / DELAWARE                ##
##         Nov 03 2023  V4.0                 ##
##         42-109-32620-90-00                ##
###############################################
## Copyright 2017-2023  ENVERUS.  All Rights Reserved. 
## Confidential - Property of ENVERUS, use governed by terms and 
## conditions found within the existing Information Services Subscription Agreement 
## (as may be amended, the “ISSA”) between Customer and ENVERUS. 
## 
~VERSION INFORMATION
# MNEM.UNIT                               DATA : DESCRIPTION OF MNEMONIC
#-----.-----     ----------------------------- : -----------------------------
VERS.                                     2.00 : CWLS LOG ASCII STANDARD - VERSION 2.00
WRAP.                                       NO : MULTIPLE LINES PER DEPTH STEP
VEND.                                  ENVERUS : VENDOR
TYPE.                          ESS - OPEN HOLE : ENVERUS ESSENTIAL CURVES – ACCESSIBLE THROUGH ENVERUS PRISM(TM)
DOC.                                  51092896 : ENVERUS HEADER RAW DOCUMENT ID
#___________________________________________________________________________________________________ 
~WELL INFORMATION 
# mS4wxE9S4ErBCd3MEwtzWWb7vaBLyBp2a6hoNdhJ+t1pinRta8/5SsS3wr5CrR4pTncMCKeAGTUU45xlgh6yRQ== 
# MNEM.UNIT                                              DATA : DESCRIPTION OF MNEMONIC 
#-----.-----                    ----------------------------- : ----------------------------- 
CNTY.                                               CULBERSON : COUNTY 
STATE.                                                  TEXAS : STATE 
CNTRY.                                                    USA : COUNTRY 
API.                                             42-109-32620 : API (10 Digit) 
API_14.                                    42-109-32620-90-00 : API (14 Digits) 
API_14_std.                                 42-109-32620-9000 : API (14 Digits Standard) 
UWI.                                           42109326209000 : UNIQUE WELL ID 
WELL.                               42109326200000_PREV_API14 : WELL NAME
STRT.FT                                                2338.5 : START DEPTH
STOP.FT                                               10866.0 : STOP DEPTH
STEP.FT                                                   0.5 : STEP BETWEEN DEPTHS
NULL.                                                 -999.25 : NULL VALUE
PREV_APII.                                     42109326200000 : WELL IDENTIFIER
#___________________________________________________________________________________________________ 
~PARAMETER INFORMATION 
# MNEM.UNIT                                              DATA : DESCRIPTION OF MNEMONIC 
#-----.-----                    ----------------------------- : ----------------------------- 
EKB.FT                                                   3330 : ELEVATION ABOVE MSL
#___________________________________________________________________________________________________ 
~CURVE INFORMATION 
# MNEM.UNIT           : CURVE DESCRIPTION 
#-----.-----          : ----------------------------- 
 DEPT.FT               : MEASURED DEPTH 
 CALI.IN               : CALIPER (CAL - CALIPER) 
 GR.API                : GAMMA RAY (GAMMA RAY) 
 DT.US/FT              : SONIC DELTA TRANSIT TIME (PRESSURE WAVE SONIC) 
 #___________________________________________________________________________________________________ 
~A         DEPT           CALI             GR             DT
# ...
         6826.5          9.967         23.552         52.652
         6827.0          9.932         25.341         53.258
         6827.5          9.905         25.078         53.480
         6828.0          9.892         25.233         53.686
         6828.5          9.883         26.841         53.693
         6829.0          9.852         26.589         53.327
         6829.5          9.852         24.518         52.861
         6830.0          9.852         25.404         53.338
         6830.5          9.852         27.453         53.126
         6831.0          9.852         26.598         52.773
         6831.5          9.852         22.971         52.415
         6832.0          9.852         22.014         52.389
         6832.5          9.852         26.387         53.197
         6833.0          9.852         31.294         53.601
         6833.5          9.852         32.327         53.479
         6834.0          9.852         28.003         53.170
         6834.5          9.852         24.809         52.870
         6835.0          9.832         23.952         52.710
         6835.5          9.792         24.401         53.180
         6836.0          9.792         25.441         52.418
         6836.5          9.753         28.060         54.712
         6837.0          9.733         33.798         56.209
         6837.5          9.674         42.828         56.550
         6838.0          9.593         45.800         55.435
         6838.5          9.573         32.046         52.508
         6839.0          9.513         21.111         51.735
         6839.5          9.493         20.792         54.541
         6840.0          9.473         34.506         57.159
         6840.5          9.473         44.821         58.308
         6841.0          9.473         41.783         57.636
         6841.5          9.453         36.968         55.370
         6842.0          9.453         37.112         57.416
         6842.5          9.433         44.245         57.056
         6843.0          9.412         48.046         56.357
         6843.5          9.390         41.353         55.819
         6844.0          9.353         35.756         56.042
         6844.5          9.353         47.655         59.536
         6845.0          9.333         60.522         60.461
         6845.5          9.333         58.806         58.559
         6846.0          9.333         45.226         55.602
         6846.5          9.333         28.508         53.686
         6847.0          9.333         24.782         55.823
         6847.5          9.313         30.882         57.886
         6848.0          9.313         35.814         58.394
         6848.5          9.313         31.971         56.131
         6849.0          9.274         25.673         54.142
         6849.5          9.274         23.231         53.842
         6850.0          9.274         22.927         55.080
         6850.5          9.274         24.310         56.959
         6851.0          9.274         27.427         57.753
         6851.5          9.274         30.647         57.452
         6852.0          9.274         33.350         57.445
         6852.5          9.254         38.334         58.037
         6853.0          9.254         42.715         57.693
         6853.5          9.254         39.093         57.414
         6854.0          9.254         30.677         55.883
         6854.5          9.254         23.172         54.804
         6855.0          9.254         21.956         54.985
         6855.5          9.254         22.844         55.025
         6856.0          9.254         26.852         56.433
         6856.5          9.254         37.128         59.419
         6857.0          9.254         43.326         60.940
         6857.5          9.254         46.963         64.285
         6858.0          9.254         52.446         67.909
         6858.5          9.254         73.177         72.896
         6859.0          9.254         87.302         74.902
         6859.5          9.254         86.991         75.502
         6860.0          9.254         85.624         76.173
         6860.5          9.254         94.577         72.800
         6861.0          9.254        108.281         74.527
         6861.5          9.254        118.049         77.655
         6862.0          9.254        117.308         81.051
         6862.5          9.254        109.426         78.973
         6863.0          9.254        104.000         78.117
         6863.5          9.254        102.151         79.563
         6864.0          9.254        107.810         81.487
         6864.5          9.254        126.180         80.567
         6865.0          9.234        123.355         77.170
         6865.5          9.234        109.202         76.627
         6866.0          9.234        111.106         76.749
         6866.5          9.234        124.509         78.636
         6867.0          9.234        120.152         73.933
         6867.5          9.234        103.913         72.798
         6868.0          9.234        106.161         73.659
         6868.5          9.234        131.373         81.043
         6869.0          9.234        139.791         85.236
         6869.5          9.234        140.925         85.525
         6870.0          9.234        126.382         83.901
         6870.5          9.234        104.876         83.038
         6871.0          9.234        101.418         82.866
         6871.5          9.234        100.422         83.583
         6872.0          9.234         97.879         81.546
         6872.5          9.234         85.553         77.757
         6873.0          9.234         84.110         76.770
         6873.5          9.234         97.039         77.630
         6874.0          9.254        103.631         79.887
         6874.5          9.254        104.638         81.457
         6875.0          9.234        102.994         81.804
         6875.5          9.214        105.049         81.200
         6876.0          9.236        107.837         81.450
         6876.5          9.234        113.340         83.177
         6877.0          9.234        117.166         83.924
         6877.5          9.274        111.144         83.610
         6878.0          9.274        106.028         83.091
         6878.5          9.274        108.190         82.967
         6879.0          9.274        115.037         82.346
         6879.5          9.274        117.408         83.193
         6880.0          9.274        120.797         83.270
         6880.5          9.274        133.451         84.317
         6881.0          9.293        133.471         85.756
         6881.5          9.293        129.728         85.535
         6882.0          9.293        127.461         85.402
         6882.5          9.293        128.634         85.436
         6883.0          9.293        130.938         86.372
         6883.5          9.293        131.737         83.325
         6884.0          9.313        130.032         81.913
         6884.5          9.353        122.715         80.902
         6885.0          9.373        112.884         79.608
         6885.5          9.389        104.936         81.299
         6886.0          9.393        101.890         80.784
         6886.5          9.315         94.428         79.620
         6887.0          9.353         82.586         74.690
         6887.5          9.474         74.844         73.641
         6888.0          9.595         75.873         73.887
         6888.5          9.610         85.404         75.384
         6889.0          9.509         96.926         77.699
         6889.5          9.423        101.295         74.754
         6890.0          9.531         97.879         74.423
         6890.5          9.662         98.321         75.554
         6891.0          9.485        135.199         81.228
         6891.5          9.413        158.999         85.380
         6892.0          9.413        158.496         85.890
