~Version Information
 VERS.                  2.0:   CWLS log ASCII Standard -VERSION 2.0
 WRAP.                   NO:   One line per depth step
~Well Information Block
#MNEM.UNIT       Data Type    Information
#---------     -----------    ---------------------------
 STRT.F              3503.5000:
 STOP.F             12186.0000:
 STEP.F                 0.5000:
 NULL.               -999.2500:
 UWI .            42-109-32278:  API WELLHOLE NUMBER
 COMP.     SAMSON LONE STAR LP:  COMPANY NAME
 COUN.               CULBERSON:  COUNTY
 DAT2.                   02000:  LOGGING DATE 2
 DAT3.                   02000:  LOGGING DATE 3
 DAT4.                   02000:  LOGGING DATE 4
 DATE.                   02000:  LOGGING DATE
 DMF .           KELLY BUSHING:  DRILLING MEASURED
 LOC .    1521' FWL AND 2040' FSL:  FIELD LOCATION
 FL1 .    1521' FWL AND 2040' FSL:  FIELD LOCATION LINE 1
 FL2 .        SEC. 14, BLK. 46:  FIELD LOCATION LINE 2
 FLD .                 WILDCAT:  FIELD NAME
 HDAT.                   02000:  DATUM
 LMF .                    K.B.:  LOG MEASURED FROM
 OS1 .                    XRMI:  OTHER SERVICES LINE 1
 OS2 .               LSS / FWS:  OTHER SERVICES LINE 2
 OS3 .                 SDL/DSN:  OTHER SERVICES LINE 3
 OS4 .                DLL/MGRD:  OTHER SERVICES LINE 4
 PDAT.            GROUND LEVEL:  PERMANENT DATUM
 R1  .    TOOLSTRING: RWCH/D4TS/NGRT/LFS_D2/XRMI/CENT:  REMARKS LINE 1
 R2  .    LOGGING INTERVALS AS PER CUSTOMER REQUEST.:  REMARKS LINE 2
 RDT2.                   02000:  CASING DATE 2
 RDT3.                   02000:  CASING DATE 3
 RDT4.                   02000:  CASING DATE 4
 RDT5.                   02000:  CASING DATE 5
 SON .                 4992511:  SERVICE/TICKET ORDER NUMBER
 PROV.                   TEXAS:  STATE
 WELL.    UNIVERSITY LANDS 46-14 No. 2:  WELL NAME
~Parameter Information Block
#MNEM.UNIT       Value        Description
#---------     -----------    ---------------------------
~Curve Information Block
#MNEM.UNIT                 API CODE     Curve Description
#---------               -----------    ---------------------------
 DEPT.F                 00 000 000 000:  
 LLD .ohmm              00 000 000 000:  LLD                                    
 LLS .ohmm              00 000 000 000:  LLS                                    
 NPHI.decp              00 000 000 000:  Neutron Porosity                       
 GR  .api               00 000 000 000:  Gamma API                              
 MGRD.ohmm              00 000 000 000:  MCGRD                                  
 DRHO.g/cc              00 000 000 000:  DensityCorr                            
 DPHI.decp              00 000 000 000:  DensityPorosity                        
 PE  .b/e               00 000 000 000:  Pe                                     
 RHOB.g/cc              00 000 000 000:  Density                                
 XPHI.decp              00 000 000 000:  CrossplotPhi                           
 CALI.in                00 000 000 000:  Caliper                                
 DTC .                  00 000 000 000:  DELTA-T COMPRESSIONAL - FWS
 GR2 .GAPI              00 000 000 000:  NATURAL GAMMA - FWS
 SPHI.DECP              00 000 000 000:  SONIC POROSITY MTX=47.6 (DTC)
~A  DEPT        LLD        LLS        NPHI       GR         MGRD       DRHO       DPHI       PE         RHOB       XPHI       CALI       DTC        GR2        SPHI   
# ...
 8183.0000    60.1075    44.4189     0.1522    90.4020    32.5560     0.1055     0.1290     3.6369     2.4893     0.1462    10.5786    66.5934    87.9116     0.1343 
 8183.5000    72.9591    56.0753     0.1520    91.1665    88.8583     0.0833     0.1023     3.7936     2.5351     0.1352    10.5252    64.8903    84.3293     0.1223 
 8184.0000    90.2003    72.3662     0.1207    91.1487   117.0677     0.0393     0.0657     3.6029     2.5977     0.1184    10.3802    61.5892    82.3977     0.0989 
 8184.5000   103.8848    82.8456     0.1150    92.0554   119.8123     0.0170     0.0478     3.4539     2.6282     0.0938    10.3267    59.7303    84.8654     0.0858 
 8185.0000   113.5843    91.2588     0.1224    95.7177    74.3564     0.0269     0.0418     3.4971     2.6385     0.0962    10.2885    58.4986    89.5284     0.0771 
 8185.5000   111.1274    87.6783     0.1301   102.2956    57.7586     0.0509     0.0352     3.5768     2.6498     0.0987    10.2885    59.2233    88.4435     0.0822 
 8186.0000   103.4938    85.2142     0.1344    96.3577    89.6850     0.0789     0.0315     3.5708     2.6561     0.1001    10.2809    61.2366    86.4991     0.0964 
 8186.5000    98.9549    83.4001     0.1288    89.5131    92.0723     0.0980     0.0382     3.3933     2.6447     0.0989    10.2656    62.5240    89.5709     0.1055 
 8187.0000    94.2026    79.1439     0.1232   100.9978    45.9158     0.1114     0.0375     3.2913     2.6459     0.0953    10.2580    61.5194    94.1318     0.0984 
 8187.5000    97.1562    79.1974     0.1352   103.9846    41.4514     0.1245     0.0308     3.5753     2.6573     0.1003    10.2656    58.7644    91.8173     0.0790 
 8188.0000   117.5816   102.0753     0.1424    82.1530    98.6642     0.1432     0.0349     3.8904     2.6502     0.1050    10.2122    57.4666    79.2409     0.0698 
 8188.5000   162.6967   168.1413     0.0981    62.7036   596.1515     0.1628     0.0306     3.7800     2.6577     0.0778    10.1664    57.0273    67.3579     0.0667 
 8189.0000   220.1968   250.0031     0.0436    61.5125  2432.8416     0.1489     0.0183     3.5261     2.6787     0.0388    10.1435    56.2749    64.5925     0.0613 
 8189.5000   223.4598   264.9641     0.0350    71.4149   308.0128     0.1143     0.0191     3.4022     2.6774     0.0332    10.1359    56.1620    75.2714     0.0606 
 8190.0000   153.0027   178.8909     0.0599    89.6553    80.8842     0.0965     0.0202     3.3275     2.6754     0.0503    10.1282    57.9397    93.5489     0.0731 
 8190.5000   104.1680   107.5758     0.0953   107.6291    48.1321     0.0859     0.0183     3.3710     2.6787     0.0724    10.1282    60.6149   109.5885     0.0920 
 8191.0000    83.5450    81.1369     0.1333   111.5225    48.9524     0.0754     0.0231     3.4863     2.6705     0.0850    10.1282    61.6338   113.6814     0.0992 
 8191.5000    79.1285    76.4368     0.1409   107.7357    53.7241     0.0666     0.0345     3.5054     2.6509     0.1048    10.1282    61.7516   112.2604     0.1001 
 8192.0000    81.5430    80.5922     0.1166   111.9847    46.2267     0.0620     0.0394     3.4256     2.6427     0.0987    10.1359    61.3309   104.4916     0.0971 
 8192.5000    86.2861    87.2049     0.1058   104.8557    60.5550     0.0602     0.0298     3.3728     2.6591     0.0824    10.1206    60.4742    98.4033     0.0910 
 8193.0000    85.7279    90.1725     0.1026    93.2643    66.7620     0.0550     0.0170     3.4050     2.6809     0.0799    10.1053    61.0968    94.3956     0.0955 
 8193.5000    80.2972    85.0020     0.0985    97.6555    37.8666     0.0561     0.0089     3.4425     2.6948     0.0716    10.0977    61.5688    95.8847     0.0988 
 8194.0000    73.7067    79.3424     0.1163   101.0156    29.4280     0.0625     0.0135     3.4686     2.6869     0.0755    10.0824    60.9544    97.6333     0.0944 
 8194.5000    68.5442    73.4650     0.1305    99.2733    31.9196     0.0687     0.0218     3.4734     2.6727     0.0947    10.0901    62.0526   100.0924     0.1022 
 8195.0000    66.9551    72.5241     0.1367    94.2421    36.7985     0.0791     0.0181     3.4693     2.6790     0.0955    10.0748    62.3041    97.8630     0.1040 
 8195.5000    67.7804    73.7464     0.1472    98.2066    38.8317     0.0893     0.0149     3.5547     2.6846     0.1024    10.0977    62.3198    97.0334     0.1041 
 8196.0000    69.3913    74.8342     0.1491   110.9714    35.6761     0.0981     0.0227     3.6039     2.6711     0.1033    10.0977    62.6694   101.0582     0.1066 
 8196.5000    74.7451    80.1207     0.1498   112.0736    38.9537     0.1031     0.0315     3.4719     2.6561     0.1090    10.0748    63.4542   103.4833     0.1121 
 8197.0000    80.2355    84.2499     0.1330   107.9135    42.4415     0.0998     0.0317     3.3910     2.6558     0.1053    10.0748    63.0042   104.3172     0.1089 
 8197.5000    91.3311    96.7310     0.1204   104.5535    48.5338     0.0976     0.0252     3.4895     2.6668     0.0898    10.0672    61.3715   100.5732     0.0974 
 8198.0000   104.9563   112.4386     0.1017    96.8733    50.6355     0.0981     0.0233     3.5574     2.6701     0.0778    10.0672    61.1586    95.6294     0.0959 
 8198.5000   112.4961   121.0689     0.0809    86.3486    46.9267     0.0965     0.0324     3.4848     2.6546     0.0676    10.0748    62.3584    86.8259     0.1044 
 8199.0000   119.6526   126.0683     0.0714    84.3930    40.0370     0.0970     0.0433     3.4250     2.6360     0.0650    10.0901    60.2001    80.4296     0.0891 
 8199.5000   113.3044   118.2369     0.0806    88.5353    19.1198     0.1108     0.0387     3.5107     2.6438     0.0695    10.0901    59.2803    78.4768     0.0826 
 8200.0000    95.5633   102.3127     0.0971    83.8774    23.0418     0.1199     0.0253     3.7251     2.6667     0.0756    10.0977    60.4652    80.7657     0.0910 
 8200.5000    72.4516    82.5449     0.1124    76.9617    30.3901     0.1010     0.0271     3.9665     2.6637     0.0855    10.1206    62.9683    84.4552     0.1087 
 8201.0000    50.8482    58.1612     0.1466    86.2953    13.7051     0.0985     0.0816     3.9936     2.5704     0.1243    10.1435    67.9071    89.5011     0.1436 
 8201.5000    36.9377    40.9756     0.2155   110.8469     3.2612     0.1273     0.2631     3.6366     2.2601     0.2464    10.1817    72.0142   101.0803     0.1727 
 8202.0000    29.4360    30.5415     0.2880   131.2918     0.8846     0.1650     0.4638     3.1870     1.9169     0.4136    10.4107    76.6413   108.6449     0.2054 
 8202.5000    27.3431    27.7434     0.3445   145.9588     1.2995     0.2099     0.5068     3.0038     1.8433     0.4655    10.7542    76.6750   126.9734     0.2056 
 8203.0000    29.1141    30.2492     0.3424   154.4390     3.9360     0.2282     0.4491     2.9995     1.9420     0.4204    10.3725    78.0465   134.7933     0.2153 
 8203.5000    33.7793    35.5782     0.2997   148.5189    10.0580     0.2254     0.3176     3.1076     2.1669     0.3161    10.2733    71.4325   132.9792     0.1685 
 8204.0000    39.9836    41.5452     0.2419   138.4742    14.3237     0.2387     0.1413     3.3936     2.4683     0.1992    10.2580    66.8653   125.4912     0.1362 
 8204.5000    46.6579    46.2554     0.1937   131.2029     7.8180     0.2773     0.0622     3.6835     2.6036     0.1436    10.2656    62.2702   122.4662     0.1037 
 8205.0000    56.1580    54.4505     0.1783   124.3761     5.0090     0.2906     0.0852     3.7683     2.5643     0.1434    10.2580    61.0398   119.9015     0.0950 
 8205.5000    72.7964    70.7640     0.1616   118.9182     8.0370     0.2109     0.1068     3.6515     2.5274     0.1474    10.2733    60.7350   112.9786     0.0929 
 8206.0000   103.4584   103.9041     0.1084   108.9269    28.1211     0.1016     0.0797     3.4600     2.5738     0.1010    10.2962    61.1272   101.6666     0.0957 
 8206.5000   162.3964   155.6327     0.0597    93.2465   113.8024     0.0573     0.0363     3.3665     2.6479     0.0551    10.2809    60.3422    89.4186     0.0901 
 8207.0000   255.6921   217.2649     0.0385    74.3306   204.8459     0.0599     0.0141     3.4449     2.6859     0.0341    10.2275    56.0680    81.3060     0.0599 
