###############################################
##         ENVERUS                           ##
##         ESS - Open Hole                   ##
##         PERMIAN / DELAWARE                ##
##         Nov 03 2023  V4.0                 ##
##         42-109-32572-90-00                ##
###############################################
## Copyright 2017-2023  ENVERUS.  All Rights Reserved. 
## Confidential - Property of ENVERUS, use governed by terms and 
## conditions found within the existing Information Services Subscription Agreement 
## (as may be amended, the “ISSA”) between Customer and ENVERUS. 
## 
~VERSION INFORMATION
# MNEM.UNIT                               DATA : DESCRIPTION OF MNEMONIC
#-----.-----     ----------------------------- : -----------------------------
VERS.                                     2.00 : CWLS LOG ASCII STANDARD - VERSION 2.00
WRAP.                                       NO : MULTIPLE LINES PER DEPTH STEP
VEND.                                  ENVERUS : VENDOR
TYPE.                          ESS - OPEN HOLE : ENVERUS ESSENTIAL CURVES – ACCESSIBLE THROUGH ENVERUS PRISM(TM)
DOC.                                  51093467 : ENVERUS HEADER RAW DOCUMENT ID
#___________________________________________________________________________________________________ 
~WELL INFORMATION 
# 8gl1O6v4swiPFL4GH+dnL3Th7drW/gNnufiOMC39xBbatiyIUGjWQRxOO2UkOAKZqu0QrDKM70MxnzzovQmAYg== 
# MNEM.UNIT                                              DATA : DESCRIPTION OF MNEMONIC 
#-----.-----                    ----------------------------- : ----------------------------- 
CNTY.                                               CULBERSON : COUNTY 
STATE.                                                  TEXAS : STATE 
CNTRY.                                                    USA : COUNTRY 
API.                                             42-109-32572 : API (10 Digit) 
API_14.                                    42-109-32572-90-00 : API (14 Digits) 
API_14_std.                                 42-109-32572-9000 : API (14 Digits Standard) 
UWI.                                           42109325729000 : UNIQUE WELL ID 
WELL.                               42109325720000_PREV_API14 : WELL NAME
STRT.FT                                                2248.5 : START DEPTH
STOP.FT                                               10757.5 : STOP DEPTH
STEP.FT                                                   0.5 : STEP BETWEEN DEPTHS
NULL.                                                 -999.25 : NULL VALUE
PREV_APII.                                     42109325720000 : WELL IDENTIFIER
#___________________________________________________________________________________________________ 
~PARAMETER INFORMATION 
# MNEM.UNIT                                              DATA : DESCRIPTION OF MNEMONIC 
#-----.-----                    ----------------------------- : ----------------------------- 
EKB.FT                                                   3340 : ELEVATION ABOVE MSL
#___________________________________________________________________________________________________ 
~CURVE INFORMATION 
# MNEM.UNIT           : CURVE DESCRIPTION 
#-----.-----          : ----------------------------- 
 DEPT.FT               : MEASURED DEPTH 
 CALI.IN               : CALIPER (CAL - CALIPER) 
 GR.API                : GAMMA RAY (GAMMA RAY) 
 DT.US/FT              : SONIC DELTA TRANSIT TIME (SONIC) 
 #___________________________________________________________________________________________________ 
~A         DEPT           CALI             GR             DT
# ...
         9508.5          9.757        107.879         83.655
         9509.0          9.757        116.181         87.263
         9509.5          9.757        120.339         89.707
         9510.0          9.757        121.808         90.014
         9510.5          9.805        122.505         87.606
         9511.0          9.769        120.748         86.875
         9511.5          9.738        116.160         86.816
         9512.0          9.718        116.324         87.017
         9512.5          9.718        115.962         87.641
         9513.0          9.699        113.228         88.657
         9513.5          9.691        114.715         88.165
         9514.0          9.679        117.061         87.028
         9514.5          9.632        122.096         86.816
         9515.0          9.620        125.124         86.911
         9515.5          9.613        123.125         86.688
         9516.0          9.594        118.982         86.966
         9516.5          9.562        119.178         88.164
         9517.0          9.523        117.071         87.754
         9517.5       -999.250        113.692         87.775
         9518.0          9.465        113.572         87.616
         9518.5          9.460        116.506         82.690
         9519.0          9.439        112.194         80.761
         9519.5          9.418        102.738         80.488
         9520.0          9.395        101.566         80.625
         9520.5          9.353        102.150         80.887
         9521.0          9.316        103.131         81.512
         9521.5          9.284        104.067         82.305
         9522.0          9.264        105.540         82.264
         9522.5          9.240        104.187         82.733
         9523.0          9.219        103.385         83.578
         9523.5          9.219        104.195         87.533
         9524.0          9.219        105.368         91.162
         9524.5          9.219        110.449         90.707
         9525.0          9.219        112.079         89.780
         9525.5          9.217        110.906         89.515
         9526.0          9.175        110.959         88.734
         9526.5          9.152        110.959         88.128
         9527.0          9.152        108.240         91.958
         9527.5          9.152        104.404         89.505
         9528.0          9.152         98.778         88.853
         9528.5          9.152         85.955         82.124
         9529.0          9.107         77.883         69.699
         9529.5          9.101         62.924         76.080
         9530.0          9.092         61.013         80.443
         9530.5          9.085        100.885         81.497
         9531.0          9.085        108.219         85.792
         9531.5          9.085        106.276         88.223
         9532.0          9.088        104.383         85.516
         9532.5          9.097         92.163         76.492
         9533.0          9.106         87.122         72.406
         9533.5          9.114         89.085         71.946
         9534.0          9.123         96.121         74.522
         9534.5          9.129        101.991         78.662
         9535.0          9.129        102.740         78.739
         9535.5          9.129        101.848         78.086
         9536.0          9.124         95.272         77.725
         9536.5          9.117         88.845         77.559
         9537.0          9.111         88.823         79.833
         9537.5          9.095         94.157         80.300
         9538.0          9.067         92.145         78.722
         9538.5          9.123         82.676         75.566
         9539.0          9.107         75.733         74.992
         9539.5          9.107         74.423         75.684
         9540.0          9.107         75.952         77.682
         9540.5          9.129         88.312         81.022
         9541.0          9.152         95.453         81.011
         9541.5          9.152         91.644         78.754
         9542.0          9.152         87.457         77.090
         9542.5          9.152         85.519         73.878
         9543.0          9.152         87.240         70.368
         9543.5          9.143         84.371         68.163
         9544.0          9.133         77.500         67.442
         9544.5          9.152         81.041         70.978
         9545.0          9.197         96.392         79.366
         9545.5          9.198        125.055         80.374
         9546.0          9.199        130.733         80.371
         9546.5          9.200        122.833         80.315
         9547.0          9.201        112.500         80.547
         9547.5          9.202        106.129         80.511
         9548.0          9.203        104.898         79.783
         9548.5          9.204        108.469         78.260
         9549.0          9.205        117.141         77.821
         9549.5          9.206        124.095         77.122
         9550.0          9.207        127.699         77.969
         9550.5          9.208        129.549         79.114
         9551.0          9.209        127.692         79.785
         9551.5          9.210        122.805         79.843
         9552.0          9.212        120.070         80.253
         9552.5          9.213        117.719         80.432
         9553.0          9.214        111.764         79.962
         9553.5          9.215         99.297         79.728
         9554.0          9.216         87.568         79.494
         9554.5          9.217         85.323         79.260
         9555.0          9.218         87.654         78.672
         9555.5          9.219         90.064         79.670
         9556.0          9.220         92.162         79.899
         9556.5          9.221         98.002         80.023
         9557.0          9.222        101.566         79.844
         9557.5          9.223         99.098         79.957
         9558.0          9.224        100.226         80.542
         9558.5          9.225        107.772         80.845
         9559.0          9.227        109.172         80.669
         9559.5          9.228        107.003         79.921
         9560.0          9.229        103.542         79.779
         9560.5          9.230         98.063         82.868
         9561.0          9.231         99.918         83.763
         9561.5          9.232        107.988         83.828
         9562.0          9.233        109.801         83.828
         9562.5          9.234        102.580         82.488
         9563.0          9.235         92.486         79.441
         9563.5          9.236         86.531         78.106
         9564.0          9.237         83.198         77.969
         9564.5          9.238         82.094         78.358
         9565.0          9.239         83.200         79.318
         9565.5          9.240         77.780         79.796
         9566.0          9.241         76.125         80.127
         9566.5          9.241         78.637         80.361
         9567.0          9.241         82.941         80.264
         9567.5          9.241         84.488         80.195
         9568.0          9.241         84.185         79.913
         9568.5          9.241         81.642         78.064
         9569.0          9.241         77.161         77.511
         9569.5          9.241         77.496         77.441
         9570.0          9.240         80.195         77.500
         9570.5          9.230         88.609         79.993
         9571.0          9.219         96.330         81.530
         9571.5          9.209         98.055         80.683
         9572.0          9.199        100.789         80.384
         9572.5          9.197        103.086         79.506
         9573.0          9.197        103.281         77.593
         9573.5          9.197        106.417         77.280
         9574.0          9.198        107.974         78.819
