~Version Information
 VERS.                  2.0:   CWLS log ASCII Standard -VERSION 2.0
 WRAP.                   NO:   One line per depth step
~Well Information Block
#MNEM.UNIT     VALUE/NAME     DESCRIPTION
#---------     -----------    ---------------------------
 STRT.F              8400.0000: START DEPTH
 STOP.F             13890.0000: STOP DEPTH
 STEP.F                 0.5000: STEP DEPTH
 NULL.                 -999.25: NULL VALUE
 LOC .     506' FEL & 344' FSL:  LOCATION
 FL6 .       API  42-109-33224:  LOCATIONLINE6
 FL4 .           ABSTRACT 4479:  LOCATIONLINE4
 FL3 .        T&P RR CO SURVEY:  LOCATIONLINE3
 FL2 .     SECTION 30, BLOCK 58 T2:  LOCATIONLINE2
 FL1 .     506' FEL & 344' FSL:  LOCATIONLINE1
 DMF .                      KB:  DRILL MEAS FROM
 PDAT.                      GL:  PERMANENT DATUM
 CNTY.               CULBERSON:  COUNTY NAME
 FLD .     FORD, WEST (WOLFCAMP):  FIELD NAME
 WELL.      LAUREN STATE 30 2H:  WELL NAME
 COMP.     CAPITAN ENERGY, INC.:  COMPANY
 DATE.             19-Feb-2018:  DATE
 SVCO.             Halliburton:  SERVICECONAME
 PROV.                   TEXAS:  PROVINCE
 STAT.                   TEXAS:  STATE NAME
 CTRY.                     USA:  COUNTRY NAME
 HIDE.                        :  WELLNAMEOPERAT
 BASI.                 PERMIAN:  BASIN
 UWI .            42-109-33224:  UNIQUE WELL IDENTIFIER
 API .            42-109-33224:  API NUMBER
 RANG.                     N/A:  RANGE
 TOWN.                     N/A:  TOWNSHIP
 SECT.                     N/A:  SECTION
 SON .               904646015:  JOB NUMBER
 SRVC.             Halliburton:  SERVICE COMPANY
 LMF .                      KB:  LOG MEASURED FROM
 EGL .ft             3168.0000:  GROUND ELEVATION
 BAP .ft                0.0000:  GL ELEV ONSHORE
 GVFD.g                 1.0000:  GRAVITY FIELD
 EKB .ft             3194.0000:  KB ELEVATION
 EDF .ft             3193.0000:  DF ELEVATION
~Curve Information Block
#MNEM.UNIT                 API CODE     Curve Description
#---------               -----------    ---------------------------
 DEPT.F                 00 000 000 000:  Depth
 CCL .V                 00 000 000 000:  Casing Collar Locator
 NPHI_OH.pu             00 000 000 000:  NPHI_OH
 NPHI_CHI.pu            00 000 000 000:  NPHI_CHI
 GR_OH.api              00 000 000 000:  GR_OH
 GR_CHI.api             00 000 000 000:  GR_CHI
 RHOB_OH.g/cc           00 000 000 000:  RHOB_OH
 RHOB_CHI.g/cc          00 000 000 000:  RHOB_CHI
 PE_OH.b/e              00 000 000 000:  PE_OH
 PE_CHI.b/e             00 000 000 000:  PE_CHI
 RT10_OH.ohmm           00 000 000 000:  RT10_OH
 RT10_CHI.ohmm          00 000 000 000:  RT10_CHI
 RT30_OH.ohmm           00 000 000 000:  RT30_OH
 RT30_CHI.ohmm          00 000 000 000:  RT30_CHI
 RT90_OH.ohmm           00 000 000 000:  RT90_OH
 RT90_CHI.ohmm          00 000 000 000:  RT90_CHI
 DTC_OH.uspf            00 000 000 000:  DTC_OH
 DTC_CHI.uspf           00 000 000 000:  DTC_CHI
 SPHI_CHI.pu            00 000 000 000:  SPHI_CHI
 SGF .cu                00 000 000 000:  Formation Sigma
 CRNF.NONE              00 000 000 000:  CM GrsCaptRatio
 RIN .NONE              00 000 000 000:  CM GrsInelRatio
#Other Information
#
#WARRANTY: Halliburton will use its best efforts to furnish customers with 
#accurate information and interpretations that are part of, and incident to, the services 
#provided.  However, Halliburton cannot and does not warrant the accuracy 
#or correctness of such information and interpretations.  Under no circumstances should any 
#such information or interpretation be relied upon as the sole basis for any drilling, 
#completion, production, or financial decision or any procedure involving any risk to the 
#safety of any drilling venture, drilling rig or its crew or any other third party.  The 
#Customer has full responsibility for all drilling, completion and production operation.  
#Halliburton makes no representations or warranties, either expressed or 
#implied, including, but not limited to, the implied warranties of merchantability or fitness 
#for a particular purpose, with respect to the services rendered.  In no event will 
#Halliburton be liable for failure to obtain any particular results or for 
#any damages, including, but not limited to, indirect, special or consequential damages, 
#resulting from the use of any information or interpretation provided by Halliburton.
#
~A    DEPT      CCL   NPHI_OH NPHI_CHI  GR_OH    GR_CHI  RHOB_OH RHOB_CHI  PE_OH  PE_CHI  RT10_OH  RT10_CHI RT30_OH  RT30_CHI RT90_OH  RT90_CHI DTC_OH  DTC_CHI SPHI_CHI   SGF    CRNF   RIN   
# ...
    8757.0000  0.0000 13.0100  12.1386  81.1815  75.2681  2.5952   2.5826  2.6839  2.6680   4.3148   6.3114   4.1624   5.5840   4.1194   5.5555 72.0691 72.7754  17.8000 29.5146 1.1438 1.2372
    8757.5000  0.0000 12.7900  12.7794  81.7152  87.5060  2.5867   2.5751  2.6436  2.6600   4.8966   6.1429   4.8192   5.4531   4.7655   5.4387 70.5884 73.6596  18.4300 29.1023 1.1285 1.2401
    8758.0000  0.0000 12.7700  12.7411  77.4850  91.1207  2.5865   2.5750  2.7675  2.6642   5.4837   6.1900   5.4173   5.4749   5.3544   5.4181 68.6062 73.8713  18.5800 28.1903 1.1318 1.2366
    8758.5000  0.0000 12.6700  12.2363  64.1850  87.0610  2.6185   2.5800  3.2239  2.6911   5.2365   6.5139   5.1341   5.7462   5.0791   5.6518 67.4889 73.4997  18.3200 26.9141 1.1522 1.2320
    8759.0000  0.0000 10.2400  11.5188  53.7594  74.6801  2.6688   2.5877  3.8332  2.7345   5.6989   6.9644   5.7020   6.1591   5.6298   6.0787 67.0998 72.4942  17.6100 26.3906 1.1639 1.2290
    8759.5000  0.0000  9.2100  11.2890  58.9737  69.0741  2.6788   2.5893  3.9282  2.7993   6.6687   7.0861   6.6523   6.3036   6.5370   6.3018 67.2650 72.0137  17.2700 26.5391 1.1618 1.2302
    8760.0000  0.0000  9.3500  11.5003  74.0953  68.7396  2.6401   2.5867  3.3874  2.8189   5.7491   7.1388   5.3887   6.3896   5.2955   6.4628 67.9172 72.0580  17.3000 27.0916 1.1494 1.2327
    8760.5000  0.0000 10.9700  12.4951  85.6540  88.9531  2.6073   2.5736  2.8714  2.7942   5.1843   7.4770   4.8483   6.6877   4.7573   6.7820 68.8445 73.9134  18.6100 27.4212 1.1569 1.2327
    8761.0000  0.0000 13.1800  12.7112  88.7637  94.3360  2.5896   2.5711  2.6802  2.7537   4.9537   7.3621   4.6704   6.5331   4.5726   6.5847 69.7128 74.4778  19.0100 27.4139 1.1651 1.2291
    8761.5000  0.0000 13.0400  12.2373  85.0020  86.1675  2.5972   2.5773  2.7222  2.7278   4.6547   7.4627   4.4751   6.5740   4.3750   6.5720 70.2223 73.9038  18.6000 27.2068 1.1744 1.2245
    8762.0000  0.0000 12.1900  11.8202  79.8988  74.1612  2.6373   2.5833  2.9337  2.7212   5.1701   7.5546   5.0193   6.6635   4.8829   6.6644 70.3762 72.9736  17.9400 27.1870 1.1622 1.2238
    8762.5000  0.0000 10.9200  12.3673  80.0320  85.1246  2.6475   2.5761  3.0410  2.7437   5.0383   7.3071   4.8562   6.4794   4.7188   6.5243 70.5031 73.7690  18.5100 27.4252 1.1328 1.2259
    8763.0000  0.0000 10.7600  12.0128  81.9355  74.2931  2.6093   2.5817  2.8901  2.7673   4.7559   6.9026   4.4806   6.1760   4.3552   6.2508 71.1983 72.6340  17.7000 27.5742 1.1077 1.2306
    8763.5000  0.0000 11.8400  12.3588  82.2217  85.9481  2.5803   2.5772  2.7520  2.7909   4.7512   6.7650   4.3389   6.0686   4.2142   6.1060 71.6581 73.2303  18.1300 27.5132 1.0855 1.2309
    8764.0000  0.0000 12.7800  12.0013  82.1424  85.6827  2.5824   2.5815  2.7734  2.8290   4.3259   6.6179   3.8958   5.9236   3.7905   5.8865 72.0933 72.7530  17.7900 27.1610 1.0762 1.2301
    8764.5000  0.0000 12.3900  11.9289  80.0214  91.0370  2.5950   2.5815  2.8305  2.8601   4.3297   6.8410   3.8708   6.1125   3.7648   6.0195 72.1543 72.9161  17.9000 26.9696 1.0770 1.2267
    8765.0000  0.0000 12.2700  11.0116  77.3111  75.8523  2.6056   2.5928  2.8890  2.9091   4.9753   6.7700   4.3847   6.0826   4.2501   5.9837 72.3054 71.3458  16.7900 27.1077 1.0782 1.2251
    8765.5000  0.0000 11.9200  10.5568  78.0924  67.8928  2.6032   2.5985  2.9013  2.9367   5.0154   6.7814   4.4244   6.1144   4.2923   6.0175 72.2118 70.4869  16.1900 27.4264 1.0850 1.2252
    8766.0000  0.0000 12.9500  10.8588  82.8897  74.7684  2.5896   2.5947  2.7573  2.9368   4.5925   7.0228   4.1056   6.3130   4.0000   6.1872 71.7691 70.9971  16.5500 27.3828 1.0844 1.2261
    8766.5000  0.0000 13.0500  11.5631  85.9722  90.8687  2.5765   2.5857  2.5896  2.9218   4.6550   7.5553   4.1831   6.7443   4.0874   6.5562 70.9507 72.3191  17.4800 26.7840 1.0642 1.2227
    8767.0000  0.0000 12.5700  11.0709  84.4263  77.4469  2.5707   2.5927  2.5799  2.9274   5.8515   7.1868   5.1768   6.4361   5.0598   6.2901 69.9625 71.1700  16.6700 24.7076 1.0250 1.2161
    8767.5000  0.0000 11.7300  11.2351  81.0640  81.9405  2.5998   2.5899  2.7349  2.9762   6.4927   8.1097   5.7851   7.2648   5.6840   7.1002 68.3725 71.3467  16.7900 22.5256 0.9741 1.2082
    8768.0000  0.0000 11.3200  11.4116  75.3340  93.0438  2.6421   2.5841  3.0519  3.1246   5.8352  11.3978   5.4828  10.2949   5.4381  10.0895 66.2379 71.8260  17.1300 20.4186 0.9373 1.2007
    8768.5000  0.0000 10.5800  10.1681  62.0058  76.0600  2.6598   2.5966  3.3424  3.2785   7.0229  12.4399   6.7116  11.4941   6.7137  11.4080 64.4987 70.0088  15.8500 18.9136 0.9345 1.1940
    8769.0000  0.0000  8.8900   8.6631  46.6963  55.4174  2.6753   2.6121  3.3996  3.4240   8.6535  12.2668   8.3899  11.7161   8.4790  11.8368 64.0506 67.7751  14.2700 18.3416 0.9505 1.1878
    8769.5000  0.0000  6.3600   7.9048  41.7771  47.5692  2.6582   2.6186  3.2484  3.5007   8.2799  11.1448   7.9340  10.8925   8.0730  11.2245 64.7779 66.9532  13.6900 18.7983 0.9859 1.1841
    8770.0000  0.0000  6.6400   8.2925  52.0625  58.0356  2.6097   2.6118  2.9589  3.4910   7.3939  10.1291   6.8437   9.8191   6.9798  10.2318 66.6380 68.2698  14.6200 20.0294 1.0292 1.1848
    8770.5000  0.0000  8.3100   8.7109  70.9125  63.4203  2.5914   2.6069  2.7042  3.4304   6.9405   9.4746   6.2017   9.0555   6.3354   9.4397 67.8184 69.1495  15.2400 21.8944 1.0658 1.1907
    8771.0000  0.0000  9.2000   9.4982  83.6679  71.6525  2.5926   2.5989  2.6138  3.3147   5.6990   8.8546   5.0978   8.2927   5.2021   8.5953 69.2181 70.4673  16.1700 24.2465 1.1039 1.2006
    8771.5000  0.0000 10.5700   9.9455  83.9052  69.1496  2.5892   2.5972  2.6184  3.1808   4.7324   8.2587   4.3416   7.6396   4.4286   7.8333 70.6122 70.6954  16.3300 26.5165 1.1285 1.2139
    8772.0000  0.0000 11.1500  10.7265  81.7239  76.1029  2.5851   2.5914  2.6502  3.0425   4.7539   7.4896   4.4621   6.8323   4.5673   6.8892 71.5239 71.5143  16.9100 27.6868 1.1307 1.2252
    8772.5000  0.0000 11.5700  11.3866  84.8243  79.8610  2.5795   2.5874  2.6787  2.9160   4.9915   6.8963   4.7775   6.2129   4.9132   6.1789 71.9773 71.9427  17.2200 27.6358 1.1069 1.2314
    8773.0000  0.0000 11.5700  12.2809  86.8790  93.6293  2.5795   2.5780  2.6787  2.8557   4.8966   7.2993   4.7286   6.5212   4.8685   6.4331 71.7356 73.0517  18.0000 26.3920 1.0550 1.2284
    8773.5000  0.0000 12.6900  12.1641  84.9805  90.2750  2.5739   2.5797  2.6542  2.8575   4.3782   7.2108   4.3001   6.4498   4.4269   6.3756 71.0177 72.7858  17.8100 24.4744 1.0105 1.2165
    8774.0000  0.0000 12.0400  12.1324  71.9103  95.7112  2.5665   2.5802  2.6287  2.8339   4.1087   7.0125   4.1044   6.2255   4.2313   6.0597 70.3362 73.0983  18.0300 22.8054 0.9766 1.2000
    8774.5000  0.0000 11.2300  10.5557  58.4619  74.0684  2.5550   2.5970  2.5983  2.9766   4.0196   7.1951   4.0856   6.5074   4.2131   6.3917 69.7876 70.8593  16.4500 21.4447 0.9560 1.1851
    8775.0000  0.0000  9.8400   9.5324  53.4670  63.1914  2.5486   2.6068  2.4333  3.0945   4.1745   7.7452   4.3026   7.1388   4.4294   7.0878 69.3576 69.5458  15.5200 20.5668 0.9444 1.1725
    8775.5000  0.0000  8.4100   9.3993  53.9830  70.2793  2.5417   2.6054  2.2337  3.1925   4.2858   8.4036   4.4352   7.8230   4.5515   7.8155 69.3773 69.8382  15.7300 20.0977 0.9399 1.1652
    8776.0000  0.0000  8.3300   8.6124  55.3650  57.4585  2.5288   2.6140  2.1743  3.2437   4.1303   8.6368   4.2444   8.1377   4.3360   8.2179 69.4072 68.5729  14.8300 20.1126 0.9452 1.1615
    8776.5000  0.0000  7.9400   8.7709  56.5601  64.8353  2.5253   2.6107  2.2403  3.2785   3.9503   8.8006   3.9936   8.3003   4.0575   8.3957 69.9081 69.1103  15.2100 20.3483 0.9622 1.1666
    8777.0000  0.0000  8.3800   8.6171  58.0231  62.4174  2.5268   2.6128  2.3524  3.2934   3.8635   9.0112   3.8660   8.5348   3.9163   8.6158 70.3487 68.7354  14.9500 20.9993 0.9923 1.1796
    8777.5000  0.0000  8.9900   8.7547  62.6558  64.2706  2.5216   2.6117  2.4116  3.2941   3.7002   9.2553   3.6362   8.7560   3.6601   8.7864 71.5862 68.8022  14.9900 21.9895 1.0345 1.1996
