###############################################
##         ENVERUS                           ##
##         ESS - Open Hole                   ##
##         PERMIAN / DELAWARE                ##
##         Nov 02 2023  V4.0                 ##
##         42-109-00406-00-00                ##
###############################################
## Copyright 2017-2023  ENVERUS.  All Rights Reserved. 
## Confidential - Property of ENVERUS, use governed by terms and 
## conditions found within the existing Information Services Subscription Agreement 
## (as may be amended, the “ISSA”) between Customer and ENVERUS. 
## 
~VERSION INFORMATION
# MNEM.UNIT                               DATA : DESCRIPTION OF MNEMONIC
#-----.-----     ----------------------------- : -----------------------------
VERS.                                     2.00 : CWLS LOG ASCII STANDARD - VERSION 2.00
WRAP.                                       NO : MULTIPLE LINES PER DEPTH STEP
VEND.                                  ENVERUS : VENDOR
TYPE.                          ESS - OPEN HOLE : ENVERUS ESSENTIAL CURVES – ACCESSIBLE THROUGH ENVERUS PRISM(TM)
DOC.                                  31976272 : ENVERUS HEADER RAW DOCUMENT ID
#___________________________________________________________________________________________________ 
~WELL INFORMATION 
# f03iSNYnaQ7mQXX2RIaOYtiytuBBABKYYIB1smJtyZkBcGMChrfvYQpeE0DESEj4BN+caz3q2IoGlEPFhwFUwg== 
# MNEM.UNIT                                              DATA : DESCRIPTION OF MNEMONIC 
#-----.-----                    ----------------------------- : ----------------------------- 
CNTY.                                               CULBERSON : COUNTY 
STATE.                                                  TEXAS : STATE 
CNTRY.                                                    USA : COUNTRY 
API.                                             42-109-00406 : API (10 Digit) 
API_14.                                    42-109-00406-00-00 : API (14 Digits) 
API_14_std.                                 42-109-00406-0000 : API (14 Digits Standard) 
UWI.                                           42109004060000 : UNIQUE WELL ID 
WELL.                                                  DRD_55 : WELL NAME
STRT.FT                                                 100.5 : START DEPTH
STOP.FT                                               12629.5 : STOP DEPTH
STEP.FT                                                   0.5 : STEP BETWEEN DEPTHS
NULL.                                                 -999.25 : NULL VALUE
#___________________________________________________________________________________________________ 
~PARAMETER INFORMATION 
# MNEM.UNIT                                              DATA : DESCRIPTION OF MNEMONIC 
#-----.-----                    ----------------------------- : -----------------------------
#___________________________________________________________________________________________________ 
~CURVE INFORMATION 
# MNEM.UNIT           : CURVE DESCRIPTION 
#-----.-----          : ----------------------------- 
 DEPT.FT               : MEASURED DEPTH 
 GR__A.API             : GAMMA RAY (GAMMA RAY) 
 DT__A.US/FT           : SONIC DELTA TRANSIT TIME (SONIC) 
 #___________________________________________________________________________________________________ 
~A         DEPT          GR__A          DT__A
# ...
         6712.5         45.982         67.425
         6713.0         44.180         66.777
         6713.5         43.750         68.504
         6714.0         43.949         69.762
         6714.5         45.290         70.979
         6715.0         47.539         71.897
         6715.5         50.747         72.376
         6716.0         54.289         72.634
         6716.5         55.521         71.928
         6717.0         54.611         71.256
         6717.5         53.869         71.478
         6718.0         54.202         72.071
         6718.5         55.163         73.257
         6719.0         57.348         73.579
         6719.5         59.364         73.319
         6720.0         60.518         73.133
         6720.5         60.745         73.366
         6721.0         60.417         73.881
         6721.5         60.417         74.253
         6722.0         60.585         74.874
         6722.5         61.531         75.508
         6723.0         63.154         76.955
         6723.5         65.388         80.285
         6724.0         68.501         82.052
         6724.5         72.237         80.154
         6725.0         76.882         79.419
         6725.5         79.565         78.683
         6726.0         81.857         78.557
         6726.5         79.974         76.493
         6727.0         70.843         73.406
         6727.5         63.762         73.917
         6728.0         61.976         74.786
         6728.5         62.202         75.544
         6729.0         62.903         75.527
         6729.5         63.095         75.340
         6730.0         62.064         75.046
         6730.5         61.607         75.332
         6731.0         62.311         75.742
         6731.5         62.202         75.198
         6732.0         61.448         73.494
         6732.5         59.381         71.129
         6733.0         56.755         67.735
         6733.5         52.901         64.529
         6734.0         46.013         60.817
         6734.5         36.409         58.944
         6735.0         31.208         59.059
         6735.5         28.101         60.832
         6736.0         28.782         63.692
         6736.5         31.861         65.672
         6737.0         40.030         67.216
         6737.5         44.806         67.881
         6738.0         47.997         67.741
         6738.5         48.609         67.435
         6739.0         46.819         66.385
         6739.5         44.908         65.500
         6740.0         43.016         64.675
         6740.5         40.157         63.627
         6741.0         37.307         62.964
         6741.5         34.780         62.573
         6742.0         33.687         64.299
         6742.5         33.498         65.963
         6743.0         35.062         67.721
         6743.5         38.214         69.533
         6744.0         41.423         71.694
         6744.5         44.516         72.788
         6745.0         46.368         73.434
         6745.5         47.531         73.076
         6746.0         47.994         71.325
         6746.5         48.214         70.612
         6747.0         48.214         71.713
         6747.5         47.938         72.769
         6748.0         47.475         71.494
         6748.5         46.708         71.988
         6749.0         45.656         72.837
         6749.5         45.581         72.741
         6750.0         46.342         72.131
         6750.5         46.647         71.944
         6751.0         46.184         71.114
         6751.5         47.064         70.178
         6752.0         49.792         68.890
         6752.5         51.039         67.224
         6753.0         50.519         64.147
         6753.5         45.320         62.250
         6754.0         41.572         61.648
         6754.5         39.540         60.821
         6755.0         37.218         60.696
         6755.5         35.766         61.526
         6756.0         35.600         63.011
         6756.5         35.994         64.558
         6757.0         36.976         63.835
         6757.5         38.408         63.530
         6758.0         39.169         66.112
         6758.5         39.930         67.823
         6759.0         40.393         69.241
         6759.5         41.318         69.907
         6760.0         44.220         69.361
         6760.5         47.395         68.151
         6761.0         49.967         66.094
         6761.5         50.074         65.449
         6762.0         47.765         65.140
         6762.5         40.174         64.754
         6763.0         35.291         65.130
         6763.5         34.010         65.699
         6764.0         35.663         66.430
         6764.5         40.158         65.847
         6765.0         40.544         65.438
         6765.5         39.003         66.275
         6766.0         39.809         67.938
         6766.5         41.582         70.572
         6767.0         45.449         73.341
         6767.5         49.069         75.134
         6768.0         53.336         75.614
         6768.5         58.143         75.081
         6769.0         61.741         74.497
         6769.5         64.374         73.940
         6770.0         65.754         73.538
         6770.5         58.304         72.989
         6771.0         54.583         74.483
         6771.5         54.352         76.129
         6772.0         55.113         74.989
         6772.5         55.357         73.196
         6773.0         54.694         72.610
         6773.5         52.562         72.695
         6774.0         49.937         72.274
         6774.5         47.792         72.314
         6775.0         47.254         73.914
         6775.5         49.331         76.921
         6776.0         51.939         77.778
         6776.5         54.045         77.964
         6777.0         54.244         77.875
         6777.5         54.255         77.844
         6778.0         55.567         77.622
         6778.5         55.831         76.884
         6779.0         55.655         76.527
         6779.5         55.357         76.465
         6780.0         55.678         76.158
         6780.5         55.952         75.852
         6781.0         55.952         75.768
         6781.5         55.433         76.661
         6782.0         54.672         75.771
         6782.5         53.784         74.182
         6783.0         52.606         72.812
         6783.5         50.902         73.410
         6784.0         49.232         72.833
         6784.5         47.595         72.208
         6785.0         47.607         72.532
         6785.5         49.786         74.115
         6786.0         54.467         73.802
         6786.5         57.131         72.816
         6787.0         57.481         72.798
         6787.5         57.018         73.104
         6788.0         56.845         73.410
         6788.5         57.004         74.334
         6789.0         58.224         76.166
         6789.5         59.120         77.259
         6790.0         60.476         77.832
         6790.5         61.350         78.550
         6791.0         62.342         79.439
         6791.5         63.354         79.401
         6792.0         63.988         79.350
         6792.5         64.286         78.986
         6793.0         64.286         78.618
         6793.5         63.649         78.116
         6794.0         61.430         77.330
         6794.5         58.478         77.246
         6795.0         56.088         77.154
         6795.5         53.295         76.968
         6796.0         50.671         76.236
         6796.5         48.490         76.459
         6797.0         46.588         77.179
         6797.5         44.295         77.420
         6798.0         42.487         77.027
         6798.5         41.174         77.941
         6799.0         41.792         78.724
