~Version Information
 VERS.                  2.0:   CWLS log ASCII Standard -VERSION 2.0
 WRAP.                   NO:   One line per depth step
~Well Information Block
#MNEM.UNIT     VALUE/NAME     DESCRIPTION
#---------     -----------    ---------------------------
 STRT.F              8683.0000: START DEPTH
 STOP.F             14089.5000: STOP DEPTH
 STEP.F                 0.5000: STEP DEPTH
 NULL.                 -999.25: NULL VALUE
 LOC .       API  42-109-32906:  LOCATION
 FL1 .       API  42-109-32906:  LOCATIONLINE1
 DMF .                      KB:  DRILL MEAS FROM
 PDAT.                      GL:  PERMANENT DATUM
 PROV.                   TEXAS:  PROVINCE
 STAT.                   TEXAS:  STATE NAME
 CNTY.               CULBERSON:  COUNTY NAME
 LUL .                  ODESSA:  LOGGINGUNITLOC
 FLD .     FORD, WEST (WOLFCAMP):  FIELD NAME
 WELL.     SHELLY FEE 40 No. 2H:  WELL NAME
 COMP.     CAPITAN ENERGY, INC.:  COMPANY
 DATE.             08-Jun-2018:  DATE
 SVCO.             Halliburton:  SERVICECONAME
 HIDE.                        :  WELLNAMEOPERAT
 BASI.                   BACIA:  BASIN
 UWI .            42-109-32906Lat:  UNIQUE WELL IDENTIFIER
 API .            42-109-32906Lat:  API NUMBER
 RANG.                     N/A:  RANGE
 TOWN.                     N/A:  TOWNSHIP
 SECT.                     N/A:  SECTION
 SON .               902848974:  JOB NUMBER
 CTRY.                        :  COUNTRY
 SRVC.             Halliburton:  SERVICE COMPANY
 LMF .                      KB:  LOG MEASURED FROM
 BAP .ft                0.0000:  GL ELEV ONSHORE
 GVFD.g                 1.0000:  GRAVITY FIELD
~Curve Information Block
#MNEM.UNIT                 API CODE     Curve Description
#---------               -----------    ---------------------------
 DEPT.F                 00 000 000 000:  Depth
 CCL .mV                00 000 000 000:  Casing Collar Locator
 DTC_CHI.uspf           00 000 000 000:  DTC_CHI
 DTC_OH.uspf            00 000 000 000:  DTC_OH
 GR_CHI.api             00 000 000 000:  GR_CHI
 GR_OH.api              00 000 000 000:  GR_OH
 LLD_CHI.ohmm           00 000 000 000:  LLD_CHI
 LLD_OH.ohmm            00 000 000 000:  LLD_OH
 LLS_CHI.ohmm           00 000 000 000:  LLS_CHI
 LLS_OH.ohmm            00 000 000 000:  LLS_OH
 MSFL_CHI.ohmm          00 000 000 000:  MSFL_CHI
 MSFL_OH.ohmm           00 000 000 000:  MSFL_OH
 NPHI_CHI.pu            00 000 000 000:  NPHI_CHI
 NPHI_OH.pu             00 000 000 000:  NPHI_OH
 PE_CHI.b/e             00 000 000 000:  PE_CHI
 PE_OH.NONE             00 000 000 000:  Pe_OH
 RHOB_CHI.g/cc          00 000 000 000:  RHOB_CHI
 RHOB_OH.g/cc           00 000 000 000:  RHOB_OH
 SPHI_CHI.pu            00 000 000 000:  SPHI_CHI
#Other Information
#
#WARRANTY: Halliburton will use its best efforts to furnish customers with 
#accurate information and interpretations that are part of, and incident to, the services 
#provided.  However, Halliburton cannot and does not warrant the accuracy 
#or correctness of such information and interpretations.  Under no circumstances should any 
#such information or interpretation be relied upon as the sole basis for any drilling, 
#completion, production, or financial decision or any procedure involving any risk to the 
#safety of any drilling venture, drilling rig or its crew or any other third party.  The 
#Customer has full responsibility for all drilling, completion and production operation.  
#Halliburton makes no representations or warranties, either expressed or 
#implied, including, but not limited to, the implied warranties of merchantability or fitness 
#for a particular purpose, with respect to the services rendered.  In no event will 
#Halliburton be liable for failure to obtain any particular results or for 
#any damages, including, but not limited to, indirect, special or consequential damages, 
#resulting from the use of any information or interpretation provided by Halliburton.
#
~A    DEPT       CCL    DTC_CHI DTC_OH   GR_CHI   GR_OH   LLD_CHI   LLD_OH   LLS_CHI   LLS_OH   MSFL_CHI  MSFL_OH     NPHI_CHI   NPHI_OH   PE_CHI    PE_OH   RHOB_CHI  RHOB_OH SPHI_CHI 
# ...
   11895.0000   -2.4279 67.6997 -999.25 104.2520  -999.25  69.4382   -999.25  64.5259   -999.25  32.5986    -999.25      13.0353 -999.25     3.4994 -999.25     2.5578 -999.25 14.2100
   11895.5000   -2.4406 67.7706 -999.25 103.6758  -999.25  69.9794   -999.25  65.2563   -999.25  32.9563    -999.25      13.1829 -999.25     3.5159 -999.25     2.5571 -999.25 14.2600
   11896.0000   -2.4511 67.7237 -999.25 101.2306  -999.25  71.6091   -999.25  67.0712   -999.25  33.7310    -999.25      13.1095 -999.25     3.5539 -999.25     2.5597 -999.25 14.2300
   11896.5000   -2.4637 67.1408 -999.25  94.7707  -999.25  72.5820   -999.25  67.5463   -999.25  34.0664    -999.25      12.3553 -999.25     3.5765 -999.25     2.5725 -999.25 13.8200
   11897.0000   -2.4764 67.1880 -999.25  95.5672  -999.25  71.4477   -999.25  66.3491   -999.25  33.4866    -999.25      12.3875 -999.25     3.5475 -999.25     2.5706 -999.25 13.8500
   11897.5000   -2.4932 67.2528 -999.25  95.7694  -999.25  69.5526   -999.25  64.4803   -999.25  32.7628    -999.25      12.5845 -999.25     3.5140 -999.25     2.5681 -999.25 13.9000
   11898.0000   -2.5058 67.9692 -999.25 112.8915  -999.25  65.2300   -999.25  60.0439   -999.25  31.0116    -999.25      13.7468 -999.25     3.4203 -999.25     2.5475 -999.25 14.4100
   11898.5000   -2.5185 67.3781 -999.25 105.5430  -999.25  64.0498   -999.25  58.5750   -999.25  30.9840    -999.25      13.4762 -999.25     3.4332 -999.25     2.5592 -999.25 13.9900
   11899.0000   -2.5290 66.5812 -999.25  95.9826  -999.25  64.7443   -999.25  58.9599   -999.25  31.7391    -999.25      12.8096 -999.25     3.4955 -999.25     2.5772 -999.25 13.4200
   11899.5000   -2.5416 66.6711 -999.25  98.6640  -999.25  66.3116   -999.25  60.5985   -999.25  32.4357    -999.25      12.8177 -999.25     3.5310 -999.25     2.5763 -999.25 13.4900
   11900.0000   -2.5543 67.0022 -999.25  96.6480  -999.25  70.3474   -999.25  65.2581   -999.25  33.8908    -999.25      12.7715 -999.25     3.5888 -999.25     2.5737 -999.25 13.7200
   11900.5000   -2.5669 67.3150 -999.25  96.9706  -999.25  71.8359   -999.25  67.1375   -999.25  34.2747    -999.25      12.9059 -999.25     3.5948 -999.25     2.5687 -999.25 13.9400
   11901.0000   -2.5775 67.8110 -999.25 106.3923  -999.25  67.9751   -999.25  63.1327   -999.25  32.3949    -999.25      13.5448 -999.25     3.4920 -999.25     2.5542 -999.25 14.2900
   11901.5000   -2.5901 67.4124 -999.25 101.5274  -999.25  64.8553   -999.25  59.6380   -999.25  31.2821    -999.25      13.4049 -999.25     3.4458 -999.25     2.5603 -999.25 14.0100
   11902.0000   -2.6001 67.3703 -999.25 107.2430  -999.25  62.3824   -999.25  56.7378   -999.25  30.2994    -999.25      13.6167 -999.25     3.3984 -999.25     2.5575 -999.25 13.9800
   11902.5000   10.3660 67.3605 -999.25 111.0714  -999.25  62.1374   -999.25  56.2966   -999.25  30.3095    -999.25      13.7552 -999.25     3.4004 -999.25     2.5563 -999.25 13.9700
   11903.0000   11.0764 66.9433 -999.25 107.4954  -999.25  62.7085   -999.25  56.7006   -999.25  30.8891    -999.25      13.4610 -999.25     3.4453 -999.25     2.5656 -999.25 13.6800
   11903.5000    0.0000 66.4552 -999.25  96.5179  -999.25  63.9721   -999.25  58.0885   -999.25  31.7730    -999.25      12.9865 -999.25     3.5059 -999.25     2.5788 -999.25 13.3300
   11904.0000    0.0000 66.4207 -999.25  95.8590  -999.25  64.6254   -999.25  58.8116   -999.25  32.2010    -999.25      12.9872 -999.25     3.5317 -999.25     2.5803 -999.25 13.3100
   11904.5000  -40.2935 66.9517 -999.25 103.8694  -999.25  64.4984   -999.25  58.8334   -999.25  31.9289    -999.25      13.5005 -999.25     3.5020 -999.25     2.5681 -999.25 13.6900
   11905.0000    0.0000 67.2737 -999.25 106.7445  -999.25  64.1189   -999.25  58.6050   -999.25  31.7118    -999.25      13.9005 -999.25     3.4799 -999.25     2.5608 -999.25 13.9100
   11905.5000    0.0000 67.3705 -999.25 100.4392  -999.25  64.6621   -999.25  59.5574   -999.25  31.8592    -999.25      13.8867 -999.25     3.4801 -999.25     2.5612 -999.25 13.9800
   11906.0000   72.4851 67.6728 -999.25  97.5514  -999.25  65.0514   -999.25  60.4026   -999.25  31.8938    -999.25      14.0997 -999.25     3.4719 -999.25     2.5569 -999.25 14.2000
   11906.5000    0.0000 68.1596 -999.25 102.3366  -999.25  65.3374   -999.25  60.9405   -999.25  31.6427    -999.25      14.3737 -999.25     3.4449 -999.25     2.5470 -999.25 14.5400
   11907.0000    0.0000 68.4298 -999.25 105.3610  -999.25  65.9657   -999.25  61.7335   -999.25  31.6762    -999.25      14.4754 -999.25     3.4395 -999.25     2.5418 -999.25 14.7300
   11907.5000  -16.0902 68.0796 -999.25 101.5736  -999.25  67.0486   -999.25  62.6930   -999.25  32.0751    -999.25      13.9406 -999.25     3.4672 -999.25     2.5499 -999.25 14.4800
   11908.0000    0.0000 68.0073 -999.25 102.6869  -999.25  68.3643   -999.25  63.9645   -999.25  32.6053    -999.25      13.7721 -999.25     3.4954 -999.25     2.5518 -999.25 14.4300
   11908.5000  -19.4111 67.8413 -999.25 105.4272  -999.25  68.1221   -999.25  63.3693   -999.25  32.4556    -999.25      13.5677 -999.25     3.4935 -999.25     2.5540 -999.25 14.3100
   11909.0000    0.0000 67.2173 -999.25  93.2219  -999.25  69.0886   -999.25  64.2215   -999.25  33.0331    -999.25      12.8873 -999.25     3.5326 -999.25     2.5692 -999.25 13.8700
   11909.5000    0.0000 67.2569 -999.25  93.7224  -999.25  68.3208   -999.25  63.4263   -999.25  32.6609    -999.25      12.9377 -999.25     3.5136 -999.25     2.5678 -999.25 13.9000
   11910.0000  -15.8201 68.3394 -999.25 111.0326  -999.25  66.1832   -999.25  61.5250   -999.25  31.1818    -999.25      13.9123 -999.25     3.4179 -999.25     2.5421 -999.25 14.6700
   11910.5000    0.0000 68.2304 -999.25 104.7810  -999.25  66.5839   -999.25  62.1329   -999.25  31.3808    -999.25      13.7472 -999.25     3.4287 -999.25     2.5461 -999.25 14.5900
   11911.0000  -34.2090 67.6761 -999.25  93.2624  -999.25  67.3743   -999.25  62.8886   -999.25  31.9480    -999.25      13.2095 -999.25     3.4684 -999.25     2.5597 -999.25 14.2000
   11911.5000    0.0000 68.2404 -999.25 107.2370  -999.25  66.5283   -999.25  61.9955   -999.25  31.5538    -999.25      13.9441 -999.25     3.4377 -999.25     2.5451 -999.25 14.6000
   11912.0000    0.0000 67.8840 -999.25  99.3107  -999.25  67.0381   -999.25  62.5650   -999.25  32.0827    -999.25      13.7142 -999.25     3.4719 -999.25     2.5540 -999.25 14.3500
   11912.5000    0.0000 67.9846 -999.25  98.7709  -999.25  67.5991   -999.25  63.3538   -999.25  32.5205    -999.25      13.9513 -999.25     3.4925 -999.25     2.5528 -999.25 14.4200
   11913.0000    0.0000 68.2676 -999.25 101.7051  -999.25  68.9113   -999.25  64.9927   -999.25  33.1571    -999.25      14.2704 -999.25     3.5195 -999.25     2.5479 -999.25 14.6200
   11913.5000    0.0000 68.0313 -999.25  97.4906  -999.25  71.0333   -999.25  67.2656   -999.25  34.1449    -999.25      13.9213 -999.25     3.5747 -999.25     2.5548 -999.25 14.4500
   11914.0000  -24.7135 67.2259 -999.25  89.4899  -999.25  73.0729   -999.25  68.7344   -999.25  34.9681    -999.25      12.8577 -999.25     3.6275 -999.25     2.5728 -999.25 13.8800
   11914.5000    0.0000 67.3819 -999.25  98.8411  -999.25  72.2658   -999.25  67.6171   -999.25  34.4699    -999.25      12.9629 -999.25     3.6053 -999.25     2.5674 -999.25 13.9900
   11915.0000    0.0000 67.1632 -999.25 103.1363  -999.25  70.4181   -999.25  65.1184   -999.25  33.5558    -999.25      12.7219 -999.25     3.5680 -999.25     2.5692 -999.25 13.8400
   11915.5000  -10.7104 66.4750 -999.25  89.6816  -999.25  70.4401   -999.25  64.8405   -999.25  33.6861    -999.25      12.0233 -999.25     3.5816 -999.25     2.5847 -999.25 13.3500
   11916.0000    0.0000 66.9822 -999.25  95.2142  -999.25  67.6448   -999.25  62.3343   -999.25  32.4466    -999.25      12.7119 -999.25     3.5120 -999.25     2.5720 -999.25 13.7100
   11916.5000  -14.2761 67.1307 -999.25  93.4653  -999.25  67.1862   -999.25  62.1566   -999.25  32.3969    -999.25      13.0088 -999.25     3.5067 -999.25     2.5694 -999.25 13.8100
