###############################################
##         ENVERUS                           ##
##         ESS - Open Hole                   ##
##         PERMIAN / DELAWARE                ##
##         Nov 02 2023  V4.0                 ##
##         42-109-31448-00-00                ##
###############################################
## Copyright 2017-2023  ENVERUS.  All Rights Reserved. 
## Confidential - Property of ENVERUS, use governed by terms and 
## conditions found within the existing Information Services Subscription Agreement 
## (as may be amended, the “ISSA”) between Customer and ENVERUS. 
## 
~VERSION INFORMATION
# MNEM.UNIT                               DATA : DESCRIPTION OF MNEMONIC
#-----.-----     ----------------------------- : -----------------------------
VERS.                                     2.00 : CWLS LOG ASCII STANDARD - VERSION 2.00
WRAP.                                       NO : MULTIPLE LINES PER DEPTH STEP
VEND.                                  ENVERUS : VENDOR
TYPE.                          ESS - OPEN HOLE : ENVERUS ESSENTIAL CURVES – ACCESSIBLE THROUGH ENVERUS PRISM(TM)
DOC.                                  31981796 : ENVERUS HEADER RAW DOCUMENT ID
#___________________________________________________________________________________________________ 
~WELL INFORMATION 
# ZFHslD71edIju97HcKZ52TF5U8X6gSJhIkoGhJkY8ckYnZzQD/y6zifgDis2Hn4asra90GxYkgpqCQaJUi2DCw== 
# MNEM.UNIT                                              DATA : DESCRIPTION OF MNEMONIC 
#-----.-----                    ----------------------------- : ----------------------------- 
CNTY.                                               CULBERSON : COUNTY 
STATE.                                                  TEXAS : STATE 
CNTRY.                                                    USA : COUNTRY 
API.                                             42-109-31448 : API (10 Digit) 
API_14.                                    42-109-31448-00-00 : API (14 Digits) 
API_14_std.                                 42-109-31448-0000 : API (14 Digits Standard) 
UWI.                                           42109314480000 : UNIQUE WELL ID 
WELL.                                               TRIKEN  1 : WELL NAME
STRT.FT                                                   4.0 : START DEPTH
STOP.FT                                               13097.0 : STOP DEPTH
STEP.FT                                                   0.5 : STEP BETWEEN DEPTHS
NULL.                                                 -999.25 : NULL VALUE
COMP.                                             MARALO  LLC : COMPANY 
DATE.                                             04-NOV-1984 : LOG DATE
#___________________________________________________________________________________________________ 
~CURVE INFORMATION 
# MNEM.UNIT           : CURVE DESCRIPTION 
#-----.-----          : ----------------------------- 
 DEPT.FT               : MEASURED DEPTH 
 CALI.IN               : CALIPER (CAL - CAL) 
 GR.API                : GAMMA RAY (GR) 
 DT.US/FT              : SONIC DELTA TRANSIT TIME (DT) 
 #___________________________________________________________________________________________________ 
~A         DEPT           CALI             GR             DT
# ...
         4030.0         13.066         67.072         62.405
         4030.5         13.065         78.144         62.765
         4031.0         13.064         89.216         63.588
         4031.5         13.063        100.288         64.473
         4032.0         13.061        116.508         65.358
         4032.5         13.060        127.499         66.242
         4033.0         13.059        131.545         67.127
         4033.5         13.058        129.310         68.012
         4034.0         13.057        112.445         68.896
         4034.5         13.056        101.491         68.001
         4035.0         13.054         91.476         67.074
         4035.5         13.053         81.461         66.146
         4036.0         13.052         77.485         65.218
         4036.5         13.051         80.705         64.290
         4037.0         13.051         83.925         63.363
         4037.5         13.051         87.145         62.965
         4038.0         13.051         90.365         63.085
         4038.5         13.051         93.585         63.206
         4039.0         13.051         93.170         63.327
         4039.5         13.051         84.873         63.448
         4040.0         13.051         76.576         63.569
         4040.5         13.051         68.279         62.079
         4041.0         13.051         64.039         59.919
         4041.5         13.051         70.219         60.746
         4042.0         13.051         76.398         61.573
         4042.5         13.051         82.577         62.401
         4043.0         13.051         88.756         63.228
         4043.5         13.051         94.935         64.055
         4044.0         13.051        101.114         64.883
         4044.5         13.051         97.539         65.427
         4045.0         13.051         89.241         64.845
         4045.5         13.051         80.944         64.262
         4046.0         13.051         72.647         63.679
         4046.5         13.051         67.290         63.097
         4047.0         13.051         63.599         62.514
         4047.5         13.051         59.980         61.931
         4048.0         13.051         57.847         61.349
         4048.5         13.051         55.713         60.766
         4049.0         13.051         53.579         60.183
         4049.5         13.052         51.445         59.601
         4050.0         13.052         45.481         59.018
         4050.5         13.052         39.946         58.435
         4051.0         13.052         47.472         58.053
         4051.5         13.052         54.998         59.743
         4052.0         13.052         62.524         61.434
         4052.5         13.052         64.860         63.124
         4053.0         13.052         64.355         64.012
         4053.5         13.052         64.201         64.205
         4054.0         13.052         66.655         64.398
         4054.5         13.052         69.109         64.591
         4055.0         13.052         71.563         64.784
         4055.5         13.052         74.018         64.978
         4056.0         13.052         79.237         65.171
         4056.5         13.052         95.133         65.364
         4057.0         13.052         85.842         65.503
         4057.5         13.052         76.551         65.239
         4058.0         13.052         70.339         64.975
         4058.5         13.052         69.584         64.712
         4059.0         13.052         68.829         64.448
         4059.5         13.052         68.074         64.184
         4060.0         13.052         64.045         63.683
         4060.5         13.052         57.442         62.675
         4061.0         13.051         50.839         61.666
         4061.5         13.048         55.841         60.657
         4062.0         13.044         62.090         60.257
         4062.5         13.040         68.340         61.425
         4063.0         13.037         74.589         62.593
         4063.5         13.033         80.829         63.761
         4064.0         13.029         86.987         64.928
         4064.5         13.026         93.145         65.998
         4065.0         13.022         97.365         65.228
         4065.5         13.018         84.191         64.459
         4066.0         13.015         71.016         63.689
         4066.5         13.011         57.842         62.919
         4067.0         13.007         51.299         62.150
         4067.5         13.004         49.375         61.380
         4068.0         13.000         47.451         60.610
         4068.5         13.004         45.526         59.841
         4069.0         13.009         44.314         59.071
         4069.5         13.015         48.667         58.302
         4070.0         13.020         53.021         58.387
         4070.5         13.025         57.374         59.465
         4071.0         13.031         61.728         60.543
         4071.5         13.036         66.081         61.622
         4072.0         13.041         70.300         62.602
         4072.5         13.047         70.300         62.867
         4073.0         13.052         70.300         63.132
         4073.5         13.057         70.300         63.397
         4074.0         13.063         70.300         63.662
         4074.5         13.068         70.301         63.342
         4075.0         13.073         67.708         62.958
         4075.5         13.079         65.103         62.573
         4076.0         13.084         62.498         62.189
         4076.5         13.089         59.894         61.805
         4077.0         13.095         57.289         61.421
         4077.5         13.100         58.529         61.036
         4078.0         13.105         60.441         60.948
         4078.5         13.111         62.352         61.190
         4079.0         13.116         64.264         61.431
         4079.5         13.121         68.653         61.672
         4080.0         13.127         75.411         61.913
         4080.5         13.132         82.169         62.154
         4081.0         13.137         88.926         64.602
         4081.5         13.143         95.684         64.883
         4082.0         13.148         99.233         65.164
         4082.5         13.153         81.110         65.252
         4083.0         13.159         62.987         63.846
         4083.5         13.164         47.764         62.441
         4084.0         13.169         44.989         61.036
         4084.5         13.174         42.214         61.414
         4085.0         13.180         39.439         61.935
         4085.5         13.185         41.803         62.456
         4086.0         13.190         44.332         62.978
         4086.5         13.196         46.861         63.499
         4087.0         13.201         49.390         64.020
         4087.5         13.206         51.919         64.541
         4088.0         13.212         53.364         65.063
         4088.5         13.217         53.291         65.584
         4089.0         13.222         53.219         65.408
         4089.5         13.228         53.147         64.676
         4090.0         13.233         53.058         63.945
         4090.5         13.238         50.739         63.213
         4091.0         13.239         48.420         62.482
         4091.5         13.237         46.101         61.750
         4092.0         13.235         44.274         62.101
         4092.5         13.233         45.149         62.646
         4093.0         13.231         46.024         63.192
         4093.5         13.229         46.900         63.738
         4094.0         13.226         47.775         64.283
         4094.5         13.224         51.285         64.829
         4095.0         13.222         55.546         64.458
         4095.5         13.220         59.806         63.963
