###############################################
##         ENVERUS                           ##
##         ESS - Open Hole                   ##
##         PERMIAN / DELAWARE                ##
##         Nov 02 2023  V4.0                 ##
##         42-109-31448-00-00                ##
###############################################
## Copyright 2017-2023  ENVERUS.  All Rights Reserved. 
## Confidential - Property of ENVERUS, use governed by terms and 
## conditions found within the existing Information Services Subscription Agreement 
## (as may be amended, the “ISSA”) between Customer and ENVERUS. 
## 
~VERSION INFORMATION
# MNEM.UNIT                               DATA : DESCRIPTION OF MNEMONIC
#-----.-----     ----------------------------- : -----------------------------
VERS.                                     2.00 : CWLS LOG ASCII STANDARD - VERSION 2.00
WRAP.                                       NO : MULTIPLE LINES PER DEPTH STEP
VEND.                                  ENVERUS : VENDOR
TYPE.                          ESS - OPEN HOLE : ENVERUS ESSENTIAL CURVES – ACCESSIBLE THROUGH ENVERUS PRISM(TM)
DOC.                                  31981796 : ENVERUS HEADER RAW DOCUMENT ID
#___________________________________________________________________________________________________ 
~WELL INFORMATION 
# ZFHslD71edIju97HcKZ52TF5U8X6gSJhIkoGhJkY8ckYnZzQD/y6zifgDis2Hn4asra90GxYkgpqCQaJUi2DCw== 
# MNEM.UNIT                                              DATA : DESCRIPTION OF MNEMONIC 
#-----.-----                    ----------------------------- : ----------------------------- 
CNTY.                                               CULBERSON : COUNTY 
STATE.                                                  TEXAS : STATE 
CNTRY.                                                    USA : COUNTRY 
API.                                             42-109-31448 : API (10 Digit) 
API_14.                                    42-109-31448-00-00 : API (14 Digits) 
API_14_std.                                 42-109-31448-0000 : API (14 Digits Standard) 
UWI.                                           42109314480000 : UNIQUE WELL ID 
WELL.                                               TRIKEN  1 : WELL NAME
STRT.FT                                                   4.0 : START DEPTH
STOP.FT                                               13097.0 : STOP DEPTH
STEP.FT                                                   0.5 : STEP BETWEEN DEPTHS
NULL.                                                 -999.25 : NULL VALUE
COMP.                                             MARALO  LLC : COMPANY 
DATE.                                             04-NOV-1984 : LOG DATE
#___________________________________________________________________________________________________ 
~CURVE INFORMATION 
# MNEM.UNIT           : CURVE DESCRIPTION 
#-----.-----          : ----------------------------- 
 DEPT.FT               : MEASURED DEPTH 
 CALI.IN               : CALIPER (CAL - CAL) 
 GR.API                : GAMMA RAY (GR) 
 DT.US/FT              : SONIC DELTA TRANSIT TIME (DT) 
 #___________________________________________________________________________________________________ 
~A         DEPT           CALI             GR             DT
# ...
        12214.0         10.263        117.989         81.240
        12214.5         10.257        122.510         81.286
        12215.0         10.236        120.121         80.614
        12215.5         10.215        115.592         79.379
        12216.0         10.193        111.063         78.144
        12216.5         10.172        106.533         76.910
        12217.0         10.151        102.004         75.675
        12217.5         10.129         97.475         74.440
        12218.0         10.108         92.946         74.227
        12218.5         10.087        113.676         77.008
        12219.0         10.065        128.275         79.697
        12219.5         10.044        135.595         80.480
        12220.0         10.038        142.915         81.263
        12220.5         10.038        146.076         81.913
        12221.0         10.038        144.718         81.933
        12221.5         10.038        143.360         81.953
        12222.0         10.038        142.002         81.973
        12222.5         10.038        140.644         81.993
        12223.0         10.038        139.286         81.496
        12223.5         10.038        139.831         80.944
        12224.0         10.038        146.069         80.418
        12224.5         10.038        152.306         80.174
        12225.0         10.038        158.543         79.929
        12225.5         10.038        154.951         79.685
        12226.0         10.038        145.645         79.094
        12226.5         10.038        136.339         78.202
        12227.0         10.039        127.033         77.310
        12227.5         10.046        122.301         76.418
        12228.0         10.056        118.205         75.526
        12228.5         10.065        114.832         74.634
        12229.0         10.074        113.772         75.911
        12229.5         10.084        112.713         76.908
        12230.0         10.093        111.653         77.325
        12230.5         10.103        110.593         77.741
        12231.0         10.112        109.534         78.158
        12231.5         10.121        111.161         78.574
        12232.0         10.131        113.119         78.991
        12232.5         10.140        115.077         79.381
        12233.0         10.149        117.035         78.793
        12233.5         10.159        118.993         78.204
        12234.0         10.168        118.739         77.616
        12234.5         10.178        116.624         78.322
        12235.0         10.187        114.509         80.230
        12235.5         10.170        112.394         79.393
        12236.0         10.141        110.279         78.557
        12236.5         10.111        108.163         77.720
        12237.0         10.082        106.048         76.884
        12237.5         10.053        103.933         76.048
        12238.0         10.023        105.307         75.211
        12238.5          9.994        112.636         74.382
        12239.0         10.018        119.966         76.778
        12239.5         10.052        119.062         79.175
        12240.0         10.086        115.578         79.480
        12240.5         10.116        112.094         79.263
        12241.0         10.126        108.610         79.046
        12241.5         10.136        105.126         78.829
        12242.0         10.145         99.808         78.612
        12242.5         10.155         93.897         78.395
        12243.0         10.165         96.459         78.021
        12243.5         10.174         99.020         77.428
        12244.0         10.184        101.582         76.836
        12244.5         10.194        104.143         76.243
        12245.0         10.203        106.705         75.790
        12245.5         10.213        109.266         75.963
        12246.0         10.223        110.503         76.136
        12246.5         10.232        107.141         76.310
        12247.0         10.240        103.779         76.483
        12247.5         10.229        100.417         76.465
        12248.0         10.218         78.668         75.648
        12248.5         10.206         63.505         74.832
        12249.0         10.195         70.145         74.016
        12249.5         10.184         76.785         73.200
        12250.0         10.173         83.425         72.384
        12250.5         10.162         90.065         71.567
        12251.0         10.151         96.705         70.751
        12251.5         10.139        101.107         71.633
        12252.0         10.128        101.920         73.907
        12252.5         10.117        102.734         75.919
        12253.0         10.106        103.547         77.931
        12253.5         10.095        104.361         78.282
        12254.0         10.084        108.863         78.195
        12254.5         10.072        113.747         78.108
        12255.0         10.061        118.632         78.020
        12255.5         10.050        123.516         77.933
        12256.0         10.039        140.366         78.299
        12256.5         10.028        148.581         78.765
        12257.0         10.017        156.797         79.231
        12257.5         10.005        165.012         79.697
        12258.0          9.994        172.411         80.163
        12258.5          9.983        165.535         80.043
        12259.0          9.972        158.659         79.784
        12259.5          9.961        151.783         79.524
        12260.0          9.949        147.325         79.264
        12260.5          9.938        143.249         79.005
        12261.0          9.927        139.174         78.691
        12261.5          9.916        133.680         78.042
        12262.0          9.905        127.612         77.393
        12262.5          9.894        125.731         76.744
        12263.0          9.882        124.892         76.095
        12263.5          9.871        124.052         75.603
        12264.0          9.870        122.853         75.724
        12264.5          9.876        117.028         75.845
        12265.0          9.882        111.202         76.059
        12265.5          9.889        109.853         76.442
        12266.0          9.895        112.251         76.825
        12266.5          9.901        114.649         77.209
        12267.0          9.908        117.048         77.564
        12267.5          9.914        119.446         77.518
        12268.0          9.921        121.844         77.473
        12268.5          9.927        124.939         77.427
        12269.0          9.933        129.067         77.381
        12269.5          9.940        129.883         77.335
        12270.0          9.946        128.305         77.289
        12270.5          9.952        126.727         77.243
        12271.0          9.959        125.149         77.198
        12271.5          9.965        124.298         77.152
        12272.0          9.972        126.128         77.106
        12272.5          9.978        127.957         77.060
        12273.0          9.984        129.787         77.280
        12273.5          9.991        131.616         77.619
        12274.0          9.992        133.446         77.957
        12274.5          9.991        135.275         78.118
        12275.0          9.990        137.105         76.915
        12275.5          9.989        129.013         75.713
        12276.0          9.988        115.378         74.510
        12276.5          9.987         98.670         73.308
        12277.0          9.986         83.010         72.751
        12277.5          9.985         92.862         74.472
        12278.0          9.984        102.715         76.194
        12278.5          9.983        112.568         77.914
        12279.0          9.982        122.421         79.633
        12279.5          9.981        133.174         80.019
