#--------------------------------------------------#
#----------------DRILLING INFO, INC.---------------#
#---------------WWW.DRILLINGINFO.COM---------------#
#------------------COPYRIGHT 2018------------------#
#--------------------------------------------------#
#THIS FILE MAY BE USED ONLY IN ACCORDANCE WITH A CURRENT SUBSCRIPTION AGREEMENT BETWEEN
#THE USER AND DRILLING INFO, INC. NO PART OF THIS FILE MAY BE REPRODUCED, USED, COPIED,
#MODIFIED, PROPAGATED, OR DISTRIBUTED EXCEPT IN ACCORDANCE WITH THE SUBSCRIPTION
#AGREEMENT. UNAUTHORIZED USE OR DISTRIBUTION OF ALL OR ANY PART OF THIS FILE MAY VIOLATE
#COPYRIGHT, TRADEMARK, AND/OR OTHER LAWS AND IS SUBJECT TO CIVIL AS WELL AS CRIMINAL
#SANCTIONS.
#--------------------------------------------------#
#THIS FILE IS PROVIDED "AS-IS" AND ALL WARRANTIES ARE EXPRESSLY DISCLAIMED, WHETHER
#EXPRESS, ORAL, IMPLIED, STATUTORY OR OTHERWISE, INCLUDING ANY IMPLIED WARRANTY OF FITNESS
#FOR A PARTICULAR PURPOSE, MERCHANTABILITY, TITLE OR NON-INFRINGEMENT, AND ANY WARRANTIES
#ARISING BY VIRTUE OF CUSTOM OF TRADE OR COURSE OF DEALING.  FURTHER, DRILLING INFO,
#INC. AND ITS LICENSORS DO NOT REPRESENT OR WARRANT THAT THIS FILE WILL MEET USER'S
#REQUIREMENTS OR ARE SUITABLE FOR USER'S NEEDS OR THAT THE DATA OR RESULTS PROVIDED IN
#CONJUNCTION THEREWITH ARE CORRECT, ACCURATE, TIMELY OR RELIABLE. THESE DISCLAIMERS SHALL
#APPLY REGARDLESS OF ANY FAILURE OF ESSENTIAL PURPOSE OF ANY LIMITED REMEDY.  SOME
#JURISDICTIONS DO NOT ALLOW THE EXCLUSION OF CERTAIN WARRANTIES SO SOME OF THE ABOVE
#EXCLUSIONS MAY NOT APPLY. IN NO EVENT SHALL DRILLING INFO, INC. OR ANY OF ITS AFFILIATES
#BE LIABLE UNDER ANY LEGAL THEORY, WHETHER IN TORT (INCLUDING WITHOUT LIMITATION
#NEGLIGENCE), CONTRACT, STRICT LIABILITY, STATUTORY OR OTHERWISE, FOR ANY SPECIAL,
#INCIDENTAL, CONSEQUENTIAL, EXEMPLARY, PUNITIVE OR INDIRECT DAMAGE OF ANY KIND, INCLUDING
#WITHOUT LIMITATION LOSS OF REVENUE, PROFITS, GOODWILL, USE, AND/OR DATA OR THE COST OF
#PROCUREMENT OF SUBSTITUTE GOODS OR SERVICES, EVEN IF APPRISED OF THE POSSIBILITY OF SUCH
#DAMAGES IN ADVANCE.
#--------------------------------------------------#
# Exported from DI Transform
# DI Transform - A Product of Drillinginfo, Inc. - www.drillinginfo.com
#--------------------------------------------------#
#
~VERSION INFORMATION
 VERS.        2.0 : LAS ASCII STANDARD - VERSION 2.0
 WRAP.         NO : ONE LINE PER DEPTH STEP

~WELL INFORMATION
#MNEM.UNIT       DATA TYPE       INFORMATION
#---------       ---------       -----------
 STRT.ft          9043 : Start Depth
 STOP.ft         16870 : Stop Depth
 STEP.ft           0.5 : Step Length
 NULL.         -999.25 : Null Value
 COMP.                 : Company
 WELL.          DRD_55 : Well Name
 FLD.                  : Field Name
 LOC.                  : Well Location
 CNTY.                 : County
 STAT.                 : State or Province
 CTRY.                 : Country
 SRVC.                 : Service Company
 DATE.                 : Date
 API.   42109326310000 : Well Identifier

~CURVE INFORMATION
#MNEM.UNIT       API CODE       CURVE DESCRIPTION
#---------       --------       -----------------
 DEPT.ft          : <Measured Depth>
 CAL.in           : Caliper
 DPHI.%           : Density Porosity
 DT.us/ft         : Sonic
 GR.gAPI          : Gamma Ray
 ILD.ohmm         : Deep Resistivity
 ILS.ohmm         : Shallow Resistivity
 RHOB.g/cm3       : Density

~PARAMETER INFORMATION
#MNEM.UNIT       VALUE       DESCRIPTION
#---------       -----       -----------
 EKB.ft      3382 : Elevation above MSL

~A       DEPT         CAL        DPHI          DT          GR         ILD         ILS        RHOB
# ...
        12036      6.1138      7.4085     66.3358    569.4444     20.9452      8.7858      2.5822
      12036.5      6.1138      7.2024     66.6433    580.1887      21.333      8.9524      2.5843
        12037      6.1138      7.0492     66.9508    585.8687     21.2491      8.9524      2.5861
      12037.5      6.1138      7.1442     67.1837    557.5065     21.2491      9.0721      2.5831
        12038      6.1138      7.3502     66.8791    549.1071     21.1384       8.999      2.5784
      12038.5      6.1138       7.541     66.6335    539.4737     21.1384      8.9029       2.577
        12039      6.1138      7.6804     66.6174    530.1724     21.1384      8.8195      2.5782
      12039.5      6.1138      7.6873     66.9355     519.321      21.229      8.8195      2.5802
        12040      6.1138      7.4812     67.0186       512.5      22.117      9.0644      2.5835
      12040.5      6.1138      7.1932     66.9388    523.3681     23.2867      9.5909      2.5873
        12041      6.1138      6.9871     66.8163    546.7643      24.259      10.015      2.5855
      12041.5      6.1138      7.0825     66.6086    571.5526     24.2334      10.015      2.5807
        12042      6.1138      7.3594     66.5714    561.3187     22.8015      9.5415      2.5783
      12042.5      6.1138       7.541     66.6939    546.2282     21.2359      8.8086       2.581
        12043      6.1138      7.3924     66.9669    522.8681     20.2967      8.5095      2.5841
      12043.5      6.1138       7.079     67.1837     513.328     20.7326      8.3016      2.5825
        12044      6.1138       7.282     67.3061       512.5     21.6695      8.9209      2.5779
      12044.5      6.1138      7.7536     67.2128    521.1865      22.372      9.1555      2.5727
        12045      6.1138      7.8796     66.9053    538.2545      22.486      8.9804      2.5766
      12045.5      6.1138      7.5855     66.5978    550.4605     22.1562      8.7583       2.584
        12046      6.1138      7.1848      66.449    540.4664     22.1562      8.7538      2.5915
      12046.5      6.1138       6.613     66.5477    517.6166     22.1562      8.8176      2.5991
        12047      6.1138      6.2387     66.8328    496.5777     22.1562      8.8195      2.6057
      12047.5      6.1138      5.8477     67.2851    497.6933     22.0407      8.8195      2.6105
        12048      6.1138      5.5776     67.5926    504.0984     22.0407      8.8195      2.6139
      12048.5      6.1138      5.6312        67.9    504.0984      22.161      8.8195      2.6019
        12049      6.1138      6.2643     68.2075    504.0984     22.3836      8.8195      2.5889
      12049.5      6.1138      6.9047     68.4082    521.1865     22.5063      8.7538      2.5868
        12050      6.1138      7.0484     68.2388    521.2669     22.5063      8.7538      2.5894
      12050.5      6.1138      6.6672     68.1633    530.1724      22.389      8.7538      2.5927
        12051      6.1138      6.7274     68.3353    512.1883     22.2723      8.7538       2.575
      12051.5      6.1138      7.4164     68.6428    502.2983     22.5155      8.7538       2.559
        12052      6.1138      8.6555     68.8278    521.7717      22.694      8.7538      2.5714
      12052.5      6.1138       8.751      68.898    541.3616     22.8739      8.7604       2.589
        12053      6.1138      7.4056      68.898    515.6229      23.176      9.0089      2.6023
      12053.5      6.1138      5.9719      68.658    491.1878     23.6202      9.0735      2.6123
        12054      6.1138      5.6905     68.2316    472.2964      24.122      9.5568      2.5948
      12054.5      6.1138      6.4267      67.738    480.4688      24.782      9.9484      2.5843
        12055      6.1138      7.1269     67.2458    480.4688     25.7772     10.1379      2.5816
      12055.5      6.1009      7.5134     67.0608    493.3165     26.9759     10.1698      2.5796
        12056      6.1138      7.4445     66.9388    514.0396     27.7896     10.6635      2.5775
      12056.5      6.1138      7.5157     66.8163     551.586     28.4359     11.2004      2.5755
        12057      6.1138       7.623     66.6282    593.7263     29.6412     11.7236      2.5734
      12057.5      6.1138      7.6819     66.3207    607.9034      30.964     12.2412      2.5705
        12058      6.1138       7.888     66.0132    567.0289     32.0616      13.196      2.5627
      12058.5      6.1138      8.3395     65.8282    541.9079     33.3048     13.5771      2.5536
        12059      6.1138      8.8026     65.7143    518.9164     33.6546     14.0211      2.5674
      12059.5      6.1138      8.6434     65.7143    503.3646     32.7437      14.153      2.5767
        12060      6.1138      7.8505     65.7881    521.1865     32.4862     14.6385      2.5821
      12060.5      6.1138      7.2534     66.0816    521.7292       32.74     15.0902      2.5868
        12061      6.1138      7.0752     66.0052    509.8334     30.7706     14.5896      2.5857
      12061.5      6.1138      7.2813     65.8202    495.9677     28.4684     13.3472      2.5836
        12062      6.1138       7.377     65.7143    488.0952      27.566     13.1879      2.5848
      12062.5      6.1138      7.2246     65.4694    488.0952     30.0869     15.1919      2.5852
        12063      6.1138      7.1311     65.4694    488.0952     40.2182     19.7195      2.5852
      12063.5      6.1138      7.1311     65.4913    488.0952     50.0566     24.0391      2.5869
        12064      6.1138      7.0492     65.4694    488.0952     63.5334     30.5742       2.589
      12064.5      6.1138      7.0492     65.3469    488.0952     65.9634     32.2789      2.5919
        12065      6.1138        6.85     65.3469    488.0952     77.3702     36.6295       2.595
      12065.5      6.1138       6.644     65.2518    488.0952     86.1426     38.4255      2.5975
        12066      6.1138      6.5129     65.2245    488.0952     74.5572     33.6959      2.5932
      12066.5      6.1138       6.719     65.3769    480.6857     68.4654      30.605      2.5875
        12067      6.1138      6.8674      65.562    473.0769     75.4687     32.7743      2.5925
      12067.5      6.1138       6.896     65.5918    473.0769     158.562     36.1937       2.597
        12068      6.1138      6.4754     65.5918    462.3375    749.8819   1877.1644      2.5986
      12068.5      6.1138      6.5596     65.5565    445.4763   4227.2381        2000      2.5931
        12069      6.1138      6.7879     65.4694    434.6296   3680.4932        2000      2.5897
      12069.5      6.1138      7.2189     65.4694    446.0169   2015.1829   1754.3569      2.5875
        12070      6.1138      7.1664     65.4694    462.9166    833.5599   1420.6906      2.5854
      12070.5      6.1138       6.752     65.4694    481.1069    445.9735     856.559      2.5839
        12071      6.1138      6.5084     65.4694    488.0952    345.6425    591.6131      2.5965
      12071.5      6.1138      6.6531     65.5128    479.6431    152.3425    387.7045        2.59
        12072      6.1138      7.0954     65.4694    461.5579    126.5926    564.7835      2.5836
      12072.5      6.1138      7.4606     65.5918    444.7625     83.0901    477.1138      2.5809
        12073      6.1138      7.2415     65.7143    433.0986    253.2955        2000      2.5859
      12073.5      6.1138      7.0354     65.6655    432.0894    345.3956   1804.5499      2.5886
        12074      6.1138      6.8852     65.8257    423.0946     299.428   1718.6988      2.5874
      12074.5      6.1138      7.0652     65.8367    421.2329    303.3593   1867.3256      2.5843
        12075      6.1138      7.3414     65.9592     431.353    411.0332    994.1356      2.5793
      12075.5      6.1138      7.6413     65.9592    446.8674     821.566    887.4137      2.5741
        12076      6.1138      7.8776     66.0816    445.6522   1216.1616   1173.5393      2.5709
      12076.5      6.1138      8.1261     66.0816    431.5836   3430.4847        2000      2.5697
