~Version Information Block
 VERS.                2.00:     CWLS LOG ASCII STANDARD - VERSION 2.000000
 WRAP.                  NO:     One Line Per Depth Step
#
~Well Information Block
#MNEM.UNIT                     Data                         Information
#----------   ------------------------------------------   ----------------
 STRT.F                                        31.0000:     START DEPTH
 STOP.F                                     15936.0000:     STOP DEPTH
 STEP.F                                         0.5000:     STEP
 NULL.                                       -999.2500:     NULL VALUE
 COMP.                             AMERCN QUASAR PETRO:     COMPANY
 WELL.                                    SCOTT UNIT 1:     WELL
 FLD .                                         WILDCAT:     FIELD
 LOC .        Survey  PSL              - Abs  6331     - Blk  45   - Section  19:     LOCATION
 CNTY.                                              TX:     COUNTY
 STAT.                                              TX:     STATE
 CTRY.                        UNITED STATES OF AMERICA:     COUNTRY
 SRVC.                                      GEOGRAPHIX:     SERVICE COMPANY
 DATE.                                                :     DATE
 API .                                  42109313620000:     API NUMBER
 UWI .                                  42109313620000:     UWI NUMBER
 TVD .                                              NO:     TVD flag
 WSTA.                                             LOC:     Well status
#
~Curve Information Block
#MNEM.UNIT       API CODE      Curve Description
#----------    -------------   -------------------
 DEPT.F                    :   Depth in Feet
 LLD .OHMM                 :   LATEROLOG DEEP
 GRS .GAPI                 :   GAMMA RAY FROM SONIC LOG
 CALS.IN                   :   CALIPER FROM SONIC LOG
 MSFL.OHMM                 :   MICRO SPHERICALLY FOCUSED
 LLS .OHMM                 :   LATEROLOG SHALLOW
 DT  .US/F                 :   DELTA TIME
#
~Parameter Information Block
#MNEM.UNIT            Value               Description
#----------    --------------------    -------------------
 RUN .                         ONE:    Run Number
 PDAT.                          GL:    Permanent Datum
 EPD .FT                          :    Elevation Of Perm. Datum
 LMF .               KELLY BUSHING:    Log Measured From
 EKB .FT                          :    Elevation Of Kelly Bushing
 DF .FT                           :    Elevation Of Derrick Floor
 GL .FT                           :    Elevation Of Ground Level
 TD  .FT                          :    Total Depth
 CSGD.FT                          :    Casing Bottom (Driller) 1
 CSGL.FT                          :    Casing Bottom (Logger) 1
 MUD .                            :    Drilling Fluid Type
 MUDV .CP                         :    Drilling Fluid Viscosity
 MUDD .LB/USG                     :    Drilling Fluid Density
 FL .ML/30MIN                     :    Drilling Fluid Loss
 PH.                              :    Drilling Fluid Ph
 MUDS .                           :    Mud Sample Source
 RM .OHMM                         :    Resistivity Of Mud Sample
 RMT .DEGF                        :    Mud Sample Temperature
 RMF .OHMM                        :    Mud Filtrate Resistivity
 RMFT.DEGF                        :    Mud Filtrate Sample Temperature
 RMC .OHMM                        :    Mud Cake Resistivity
 RMCT.DEGF                        :    Mud Cake Sample Temperature
 RMB .OHMM                        :    Mud Resistivity At Bht
 TMAX .DEGF                       :    Bottom Hole Temperature
#
~Other Information Block
<DescLogPlotStart>   NEURALOG PLOT DEFINITION
PLOTDEFVERSION: 3
LASFILE: E:\Nair Innovations\42_TEXAS\109_Culberson\42109313620000_1.las
DEPTHSCALE: 239.999996
RESOLUTION: 200
DEPTHLABELFREQ: 100.000000
HEAVYGRIDFREQ: 50.000000
MEDIUMGRIDFREQ: 50.000000
LIGHTGRIDFREQ: 10.000000
#
#   TRACK 1
#
STARTTRACK: 
 LEFTX: 0.500000 inch
 RIGHTX: 3.000000 inch
 SCALETYPE: Linear
 NUMCHARTDIVISIONS: 10
CURVE: GRS   1.504600   250.000000 (0,0,255)      Solid             2     N    
CURVE: CALS  6.474400   14.873500  (0,131,131)    Solid             2     N    
ENDTRACK: 
#
#   TRACK 2
#
STARTTRACK: 
 LEFTX: 3.500000 inch
 RIGHTX: 6.000000 inch
 SCALETYPE: Log
 NUMCYCLES: 4
 STARTCYCLE: 2
CURVE: LLS   0.200000   2000.000000 (255,0,0)      Solid             4     Y   
BACKUP: 2000.000000 20000000.000000 (255,0,0)      Solid             4    
BACKUP: 0.000020   0.200000   (255,0,0)      Solid             4    
CURVE: MSFL  0.200000   2000.000000 (0,131,131)    Solid             2     N   
ENDTRACK: 
#
#   TRACK 3
#
STARTTRACK: 
 LEFTX: 6.500000 inch
 RIGHTX: 9.000000 inch
 SCALETYPE: Linear
 NUMCHARTDIVISIONS: 10
CURVE: LLD   0.200000   2000.000000 (255,0,255)    Solid             4     N   
CURVE: DT    190.000000 50.000000  (255,0,131)    Solid             2     N    
ENDTRACK: 
<DescLogPlotEnd>
<DepthTrack type='Reference' track='1' Label='0' color='0' hor='0' />
<Reference font='144,0,-900,0,500,0,16777216,Arial' />
~A DEPTH     LLD              GRS              CALS             MSFL             LLS              DT              
# ...
    4231.000 117.79230000     93.55270000      11.41230000      -999.25000000    108.53950000     64.20850000     
    4231.500 106.76740000     95.96930000      11.41220000      -999.25000000    91.86350000      66.98820000     
    4232.000 86.59560000      112.89210000     11.44220000      -999.25000000    74.23830000      69.60200000     
    4232.500 64.47030000      141.85770000     11.44200000      -999.25000000    65.95110000      71.96440000     
    4233.000 69.45990000      161.43930000     11.44190000      -999.25000000    71.43290000      73.33750000     
    4233.500 81.88090000      169.72580000     11.47190000      -999.25000000    78.42520000      74.33550000     
    4234.000 73.86640000      155.79840000     11.51920000      -999.25000000    74.06000000      75.14320000     
    4234.500 36.74800000      122.37980000     11.56190000      -999.25000000    45.94870000      75.25600000     
    4235.000 19.50700000      91.42310000      11.59190000      -999.25000000    16.43240000      74.22880000     
    4235.500 9.31160000       55.65840000      11.62180000      -999.25000000    9.15960000       73.38950000     
    4236.000 7.36530000       42.86060000      11.63740000      -999.25000000    7.29290000       72.86720000     
    4236.500 9.72430000       37.96890000      11.62150000      -999.25000000    7.93260000       70.24090000     
    4237.000 12.83980000      37.59580000      11.65150000      -999.25000000    12.53060000      66.58190000     
    4237.500 17.92360000      37.59950000      11.65130000      -999.25000000    19.79370000      64.47780000     
    4238.000 28.35790000      36.47340000      11.65120000      -999.25000000    22.11600000      62.73960000     
    4238.500 30.39060000      34.21770000      11.65100000      -999.25000000    23.05740000      63.19640000     
    4239.000 32.11900000      36.85660000      11.68100000      -999.25000000    23.06050000      64.01920000     
    4239.500 34.90350000      38.74250000      11.68090000      -999.25000000    23.38520000      64.20170000     
    4240.000 41.23150000      38.34680000      11.68070000      -999.25000000    24.72070000      63.56100000     
    4240.500 43.57640000      37.99610000      11.68060000      -999.25000000    28.84010000      62.64590000     
    4241.000 43.42140000      38.86400000      11.68040000      -999.25000000    29.60570000      62.66560000     
    4241.500 42.14730000      40.03000000      11.68030000      -999.25000000    28.00530000      64.23090000     
    4242.000 37.57550000      41.19600000      11.71020000      -999.25000000    22.89760000      65.25750000     
    4242.500 30.43420000      42.52810000      11.74020000      -999.25000000    18.83160000      66.14860000     
    4243.000 27.10530000      42.40900000      11.77020000      -999.25000000    16.85940000      66.52230000     
    4243.500 26.72330000      40.23750000      11.77000000      -999.25000000    16.55900000      66.66760000     
    4244.000 28.01360000      36.95760000      11.76990000      -999.25000000    18.10080000      65.17190000     
    4244.500 30.71410000      35.24960000      11.79990000      -999.25000000    18.90030000      63.92110000     
    4245.000 31.10810000      32.94310000      11.76960000      -999.25000000    19.44930000      63.64800000     
    4245.500 29.41210000      32.38290000      11.77540000      -999.25000000    18.51040000      64.81090000     
    4246.000 25.58330000      32.76290000      11.79940000      -999.25000000    15.89680000      66.51140000     
    4246.500 21.04830000      33.51990000      11.81420000      -999.25000000    13.27920000      67.17300000     
    4247.000 17.55990000      34.27630000      11.84560000      -999.25000000    11.24740000      67.59050000     
    4247.500 14.85480000      35.40910000      11.88930000      -999.25000000    9.93060000       68.03570000     
    4248.000 13.10200000      35.78900000      11.91930000      -999.25000000    9.13990000       68.58410000     
    4248.500 12.73820000      35.03930000      11.91910000      -999.25000000    8.89140000       69.40680000     
    4249.000 13.11090000      35.04270000      11.91900000      -999.25000000    8.89890000       69.43000000     
    4249.500 14.01130000      35.79910000      11.91880000      -999.25000000    9.20030000       68.58270000     
    4250.000 18.11440000      38.06140000      11.91870000      -999.25000000    10.50890000      67.30180000     
    4250.500 21.19190000      38.06480000      11.91850000      -999.25000000    12.01300000      65.83790000     
    4251.000 22.18530000      36.92810000      11.91840000      -999.25000000    12.57880000      64.83140000     
    4251.500 19.84280000      36.18900000      11.91820000      -999.25000000    11.84670000      66.66020000     
    4252.000 16.88440000      36.23610000      11.94820000      -999.25000000    10.48220000      67.75730000     
    4252.500 16.52860000      37.06770000      11.94800000      -999.25000000    10.13780000      67.42940000     
    4253.000 18.13740000      38.08190000      11.94790000      -999.25000000    11.36360000      65.79770000     
    4253.500 20.13410000      38.08530000      11.94770000      -999.25000000    12.54220000      64.83840000     
    4254.000 20.93970000      37.64980000      11.94760000      -999.25000000    13.30690000      63.91680000     
    4254.500 19.52470000      35.70690000      11.94740000      -999.25000000    10.66340000      63.36480000     
    4255.000 15.40700000      35.45940000      11.97740000      -999.25000000    7.33750000       66.36620000     
    4255.500 12.32810000      36.69440000      11.97730000      -999.25000000    5.87990000       68.17660000     
    4256.000 10.42900000      40.26220000      11.97710000      -999.25000000    5.19150000       69.60480000     
    4256.500 9.59050000       46.03730000      11.97700000      -999.25000000    4.71240000       70.26090000     
    4257.000 9.06830000       44.47540000      11.97680000      -999.25000000    4.52120000       70.49670000     
    4257.500 8.44210000       36.23080000      11.97670000      -999.25000000    4.39830000       70.49620000     
    4258.000 7.88500000       33.97510000      11.97650000      -999.25000000    4.40510000       70.44520000     
    4258.500 7.66590000       34.73150000      11.97630000      -999.25000000    4.54330000       70.31230000     
    4259.000 7.61770000       35.48790000      11.94610000      -999.25000000    4.66470000       70.86060000     
    4259.500 7.45040000       36.62070000      11.94590000      -999.25000000    4.71630000       71.77480000     
    4260.000 7.31110000       37.37710000      11.94580000      -999.25000000    4.71700000       71.86580000     
    4260.500 7.24090000       37.38040000      11.94560000      -999.25000000    4.71760000       72.04830000     
    4261.000 7.33020000       37.76030000      11.94550000      -999.25000000    4.65340000       72.13930000     
    4261.500 7.54670000       38.51660000      11.94530000      -999.25000000    4.55790000       72.32180000     
    4262.000 8.25070000       39.64950000      11.91510000      -999.25000000    4.50040000       72.50420000     
    4262.500 10.09660000      41.57830000      11.91490000      -999.25000000    5.20090000       72.59530000     
    4263.000 12.60970000      43.63710000      11.91480000      -999.25000000    7.35380000       72.41120000     
    4263.500 18.09910000      52.56020000      11.91460000      -999.25000000    14.49800000      71.57070000     
    4264.000 47.91500000      64.21350000      11.90880000      -999.25000000    21.36920000      70.92230000     
    4264.500 55.04880000      74.32700000      11.87710000      -999.25000000    24.20930000      70.58130000     
    4265.000 41.08780000      89.89870000      11.85390000      -999.25000000    23.22710000      70.72260000     
    4265.500 32.42250000      101.08530000     11.86380000      -999.25000000    19.67310000      71.03770000     
