~Version Information
 VERS.                  2.0:   CWLS log ASCII Standard -VERSION 2.0
 WRAP.                   NO:   One line per depth step
~Well Information Block
#MNEM.UNIT     VALUE/NAME     DESCRIPTION
#---------     -----------    ---------------------------
 STRT.F              8432.0000: START DEPTH
 STOP.F             13842.0000: STOP DEPTH
 STEP.F                 0.5000: STEP DEPTH
 NULL.                 -999.25: NULL VALUE
 LOC .     100' FNL & 990' FEL:  LOCATION
 FL6 .       API  42-109-33163:  LOCATIONLINE6
 FL4 .           ABSTRACT 1006:  LOCATIONLINE4
 FL3 .        T&P RR CO SURVEY:  LOCATIONLINE3
 FL2 .     SECTION 36, BLOCK 59 T2:  LOCATIONLINE2
 FL1 .     100' FNL & 990' FEL:  LOCATIONLINE1
 DMF .                      KB:  DRILL MEAS FROM
 PDAT.                      GL:  PERMANENT DATUM
 CNTY.               CULBERSON:  COUNTY NAME
 FLD .     FORD, WEST (WOLFCAMP):  FIELD NAME
 WELL.         SCOTT FEE 36 2H:  WELL NAME
 COMP.     CAPITAN ENERGY INC.:  COMPANY
 DATE.             11-Oct-2017:  DATE
 SVCO.             Halliburton:  SERVICECONAME
 PROV.                   TEXAS:  PROVINCE
 STAT.                   TEXAS:  STATE NAME
 CTRY.           UNITED STATES:  COUNTRY NAME
 HIDE.                        :  WELLNAMEOPERAT
 BASI.                 PERMIAN:  BASIN
 UWI .            42-109-33163Lat:  UNIQUE WELL IDENTIFIER
 API .            42-109-33163Lat:  API NUMBER
 RANG.                     N/A:  RANGE
 TOWN.                     N/A:  TOWNSHIP
 SECT.                     N/A:  SECTION
 SON .               904352259:  JOB NUMBER
 SRVC.             Halliburton:  SERVICE COMPANY
 LMF .                      KB:  LOG MEASURED FROM
 EGL .ft             3174.0000:  GROUND ELEVATION
 BAP .ft                0.0000:  GL ELEV ONSHORE
 GVFD.g                 1.0000:  GRAVITY FIELD
 EKB .ft             3200.0000:  KB ELEVATION
 EDF .ft             3199.0000:  DF ELEVATION
~Curve Information Block
#MNEM.UNIT                 API CODE     Curve Description
#---------               -----------    ---------------------------
 DEPT.F                 00 000 000 000:  Depth
 CCL .V                 00 000 000 000:  Casing Collar Locator
 NPHI_OH.pu             00 000 000 000:  NPHI_OH
 NPHI_CHI.pu            00 000 000 000:  NPHI_CHI
 GR_CHI.api             00 000 000 000:  GR_CHI
 GR_OH.api              00 000 000 000:  GR_OH
 RHOB_OH.g/cc           00 000 000 000:  RHOB_OH
 RHOB_CHI.g/cc          00 000 000 000:  RHOB_CHI
 PE_CHI.b/e             00 000 000 000:  PE_CHI
 PE_OH.b/e              00 000 000 000:  PE_OH
 MSFL_OH.ohmm           00 000 000 000:  MSFL_OH
 MSFL_CHI.ohmm          00 000 000 000:  MSFL_CHI
 LLS_OH.ohmm            00 000 000 000:  LLS_OH
 LLS_CHI.ohmm           00 000 000 000:  LLS_CHI
 LLD_OH.ohmm            00 000 000 000:  LLD_OH
 LLD_CHI.ohmm           00 000 000 000:  LLD_CHI
 DTC_OH.uspf            00 000 000 000:  DTC_OH
 DTC_CHI.uspf           00 000 000 000:  DTC_CHI
 SPHI_CHI.pu            00 000 000 000:  SPHI_CHI
 SGF .cu                00 000 000 000:  Formation Sigma
 CRNF.NONE              00 000 000 000:  CM GrsCaptRatio
 RIN .NONE              00 000 000 000:  CM GrsInelRatio
~A    DEPT      CCL   NPHI_OH NPHI_CHI  GR_CHI   GR_OH   RHOB_OH RHOB_CHI PE_CHI  PE_OH   MSFL_OH  MSFL_CHI  LLS_OH   LLS_CHI   LLD_OH  LLD_CHI  DTC_OH  DTC_CHI SPHI_CHI   SGF    CRNF   RIN   
# ...
    9146.0000  0.0000 -999.25  14.5679  90.9293  -999.25 -999.25   2.5563 3.6123 -999.25   -999.25  41.2014   -999.25  50.1341  -999.25  50.6791 -999.25 70.8740  16.4200 24.1084 1.1551 1.2049
    9146.5000  0.0000 -999.25  14.5560  86.3321  -999.25 -999.25   2.5591 3.6233 -999.25   -999.25  40.1134   -999.25  48.6295  -999.25  49.1481 -999.25 71.0421  16.5400 25.6928 1.1809 1.2132
    9147.0000  0.0000 -999.25  15.4588 100.9799  -999.25 -999.25   2.5376 3.4460 -999.25   -999.25  37.8197   -999.25  45.4763  -999.25  45.9406 -999.25 72.1807  17.1400 27.5586 1.1944 1.2187
    9147.5000  0.0000 -999.25  15.8126 102.8498  -999.25 -999.25   2.5282 3.3140 -999.25   -999.25  33.1222   -999.25  39.1024  -999.25  39.4616 -999.25 72.9326  17.7600 28.8583 1.1777 1.2205
    9148.0000  0.0000 -999.25  15.7913  96.7932  -999.25 -999.25   2.5295 3.2422 -999.25   -999.25  28.3329   -999.25  32.7321  -999.25  32.9935 -999.25 73.0532  17.9800 29.4014 1.1455 1.2130
    9148.5000  0.0000 -999.25  15.7745  95.3605  -999.25 -999.25   2.5282 3.1756 -999.25   -999.25  25.4122   -999.25  28.9186  -999.25  29.1253 -999.25 73.0368  17.9900 28.6920 1.0987 1.2013
    9149.0000  0.0000 -999.25  15.6865  99.7822  -999.25 -999.25   2.5239 3.0933 -999.25   -999.25  24.2828   -999.25  27.4598  -999.25  27.6464 -999.25 72.5546  17.7500 26.4350 1.0389 1.1884
    9149.5000  0.0000 -999.25  15.1237  93.1729  -999.25 -999.25   2.5381 3.1645 -999.25   -999.25  25.7684   -999.25  29.3806  -999.25  29.5937 -999.25 71.4654  17.1100 23.4066 0.9728 1.1722
    9150.0000  0.0000 -999.25  14.6148  93.8430  -999.25 -999.25   2.5493 3.3275 -999.25   -999.25  31.1271   -999.25  36.4320  -999.25  36.7492 -999.25 70.3624  16.3300 20.8471 0.9095 1.1549
    9150.5000  0.0000 -999.25  13.4121  86.8350  -999.25 -999.25   2.5710 3.5001 -999.25   -999.25  40.1081   -999.25  48.6221  -999.25  49.1405 -999.25 68.9295  15.3900 18.9149 0.8615 1.1329
    9151.0000  0.0000 -999.25  11.5464  76.3045  -999.25 -999.25   2.5898 3.5155 -999.25   -999.25  49.6912   -999.25  62.0550  -999.25  62.8193 -999.25 67.5711  14.4100 17.5589 0.8316 1.1127
    9151.5000  0.0000 -999.25  10.1735  72.2256  -999.25 -999.25   2.5992 3.4768 -999.25   -999.25  58.4146   -999.25  74.6027  -999.25  75.6149 -999.25 66.5782  13.6300 16.1791 0.8169 1.0970
    9152.0000  0.0000 -999.25   9.3102  70.5508  -999.25 -999.25   2.6042 3.4542 -999.25   -999.25  65.4361   -999.25  84.8950  -999.25  86.1214 -999.25 66.0197  13.1500 15.1243 0.8226 1.0898
    9152.5000  0.0000 -999.25   8.6119  68.2245  -999.25 -999.25   2.6090 3.4579 -999.25   -999.25  73.4477   -999.25  96.8266  -999.25  98.3121 -999.25 65.8401  12.9400 14.2599 0.8390 1.0893
    9153.0000  0.0000 -999.25   7.7907  61.1830  -999.25 -999.25   2.6169 3.4957 -999.25   -999.25  80.2276   -999.25 107.0668  -999.25 108.7828 -999.25 65.9037  12.9300 13.7751 0.8716 1.1004
    9153.5000  0.0000 -999.25   6.4881  45.4784  -999.25 -999.25   2.6333 3.5818 -999.25   -999.25  86.2478   -999.25 116.2610  -999.25 118.1896 -999.25 65.8055  12.9000 13.7845 0.9170 1.1197
    9154.0000  0.0000 -999.25   6.8098  45.6680  -999.25 -999.25   2.6305 3.6560 -999.25   -999.25  89.8199   -999.25 121.7590  -999.25 123.8171 -999.25 66.0102  12.9800 14.3421 0.9621 1.1444
    9154.5000  0.0000 -999.25   7.7254  49.9152  -999.25 -999.25   2.6220 3.7697 -999.25   -999.25  89.7493   -999.25 121.6499  -999.25 123.7055 -999.25 66.4585  13.2400 15.3309 1.0010 1.1699
    9155.0000  0.0000 -999.25   9.1739  58.4876  -999.25 -999.25   2.6087 3.8971 -999.25   -999.25  85.6564   -999.25 115.3538  -999.25 117.2611 -999.25 67.2926  13.7500 16.4093 1.0191 1.1874
    9155.5000  0.0000 -999.25  10.7166  67.7432  -999.25 -999.25   2.5954 4.0041 -999.25   -999.25  78.8521   -999.25 104.9792  -999.25 106.6476 -999.25 68.2597  14.4100 17.2016 1.0276 1.1997
    9156.0000  0.0000 -999.25  11.5816  70.7126  -999.25 -999.25   2.5897 4.0684 -999.25   -999.25  72.0459   -999.25  94.7253  -999.25  96.1645 -999.25 68.9262  14.9400 17.5479 1.0337 1.2059
    9156.5000  0.0000 -999.25  11.8263  69.2193  -999.25 -999.25   2.5888 4.1066 -999.25   -999.25  67.4228   -999.25  87.8358  -999.25  89.1251 -999.25 69.0904  15.1600 17.7205 1.0434 1.2136
    9157.0000  0.0000 -999.25  12.2122  71.4207  -999.25 -999.25   2.5853 4.1109 -999.25   -999.25  65.4964   -999.25  84.9840  -999.25  86.2124 -999.25 69.3263  15.3200 17.8793 1.0434 1.2194
    9157.5000  0.0000 -999.25  12.7959  76.9558  -999.25 -999.25   2.5793 4.0874 -999.25   -999.25  64.5569   -999.25  83.5974  -999.25  84.7964 -999.25 69.7192  15.5600 17.8683 1.0246 1.2227
    9158.0000  0.0000 -999.25  13.3505  82.6750  -999.25 -999.25   2.5738 4.0526 -999.25   -999.25  63.7044   -999.25  82.3417  -999.25  83.5142 -999.25 70.1801  15.8700 17.3795 0.9758 1.2212
    9158.5000  0.0000 -999.25  14.0292  93.3764  -999.25 -999.25   2.5653 3.9691 -999.25   -999.25  63.7631   -999.25  82.4281  -999.25  83.6024 -999.25 70.6528  16.2000 16.3473 0.9063 1.2112
    9159.0000  0.0000 -999.25  13.9744  97.7248  -999.25 -999.25   2.5642 3.9075 -999.25   -999.25  66.4262   -999.25  86.3590  -999.25  87.6167 -999.25 70.4172  16.1900 15.0802 0.8509 1.1977
    9159.5000  0.0000 -999.25  13.1465  97.0723  -999.25 -999.25   2.5706 3.7597 -999.25   -999.25  72.4208   -999.25  95.2868  -999.25  96.7382 -999.25 69.3791  15.6200 13.7300 0.8005 1.1721
    9160.0000  0.0000 -999.25  12.2042  98.3653  -999.25 -999.25   2.5756 3.5680 -999.25   -999.25  80.5243   -999.25 107.5178  -999.25 109.2440 -999.25 68.0841  14.7600 12.6435 0.7717 1.1448
    9160.5000  0.0000 -999.25  10.2866  86.6245  -999.25 -999.25   2.5913 3.4944 -999.25   -999.25  90.1596   -999.25 122.2835  -999.25 124.3540 -999.25 66.9324  13.9200 11.8096 0.7584 1.1172
    9161.0000  0.0000 -999.25   8.5481  75.8342  -999.25 -999.25   2.6061 3.4697 -999.25   -999.25  98.7439   -999.25 135.6251  -999.25 138.0175 -999.25 66.1533  13.2900 11.3046 0.7559 1.0994
    9161.5000  0.0000 -999.25   6.4647  57.6069  -999.25 -999.25   2.6286 3.4972 -999.25   -999.25 105.8828   -999.25 146.8442  -999.25 149.5141 -999.25 65.6986  12.9000 11.0398 0.7643 1.0913
    9162.0000  0.0000 -999.25   5.6250  49.3617  -999.25 -999.25   2.6382 3.5206 -999.25   -999.25 110.4547   -999.25 154.0848  -999.25 156.9370 -999.25 65.5416  12.7200 10.9930 0.7827 1.0980
    9162.5000  0.0000 -999.25   5.9178  51.4951  -999.25 -999.25   2.6341 3.5386 -999.25   -999.25 112.9304   -999.25 158.0231  -999.25 160.9754 -999.25 65.6611  12.7500 11.1687 0.8080 1.1154
    9163.0000  0.0000 -999.25   5.8978  48.2101  -999.25 -999.25   2.6352 3.5863 -999.25   -999.25 113.3736   -999.25 158.7295  -999.25 161.6999 -999.25 65.6464  12.7700 11.4951 0.8400 1.1363
    9163.5000  0.0000 -999.25   5.8735  43.5604  -999.25 -999.25   2.6372 3.6557 -999.25   -999.25 111.7184   -999.25 156.0936  -999.25 158.9968 -999.25 65.5563  12.7200 11.9883 0.8806 1.1568
    9164.0000  0.0000 -999.25   5.9775  40.4893  -999.25 -999.25   2.6382 3.7203 -999.25   -999.25 108.7074   -999.25 151.3125  -999.25 154.0946 -999.25 65.5727  12.7100 12.6839 0.9283 1.1682
    9164.5000  0.0000 -999.25   6.3495  39.9627  -999.25 -999.25   2.6363 3.7879 -999.25   -999.25 104.3108   -999.25 144.3644  -999.25 146.9724 -999.25 65.7728  12.8100 13.5947 0.9731 1.1760
    9165.0000  0.0000 -999.25   7.6115  48.5503  -999.25 -999.25   2.6239 3.8496 -999.25   -999.25  98.4105   -999.25 135.1039  -999.25 137.4834 -999.25 66.5233  13.2200 14.7650 1.0084 1.1811
    9165.5000  0.0000 -999.25  10.0563  68.3925  -999.25 -999.25   2.5993 3.9115 -999.25   -999.25  91.1865   -999.25 123.8705  -999.25 125.9789 -999.25 67.9439  14.0900 16.2809 1.0385 1.1881
    9166.0000  0.0000 -999.25  11.9835  82.5692  -999.25 -999.25   2.5826 3.9708 -999.25   -999.25  82.6772   -999.25 110.7968  -999.25 112.5983 -999.25 69.1366  14.9800 18.3654 1.0678 1.1954
    9166.5000  0.0000 -999.25  13.4563  93.9191  -999.25 -999.25   2.5696 3.9563 -999.25   -999.25  72.8245   -999.25  95.8917  -999.25  97.3565 -999.25 70.0822  15.7000 21.0377 1.1024 1.1990
