###############################################
##         ENVERUS                           ##
##         ESS - Open Hole                   ##
##         PERMIAN / DELAWARE                ##
##         Nov 02 2023  V4.0                 ##
##         42-109-32255-00-00                ##
###############################################
## Copyright 2017-2023  ENVERUS.  All Rights Reserved. 
## Confidential - Property of ENVERUS, use governed by terms and 
## conditions found within the existing Information Services Subscription Agreement 
## (as may be amended, the “ISSA”) between Customer and ENVERUS. 
## 
~VERSION INFORMATION
# MNEM.UNIT                               DATA : DESCRIPTION OF MNEMONIC
#-----.-----     ----------------------------- : -----------------------------
VERS.                                     2.00 : CWLS LOG ASCII STANDARD - VERSION 2.00
WRAP.                                       NO : MULTIPLE LINES PER DEPTH STEP
VEND.                                  ENVERUS : VENDOR
TYPE.                          ESS - OPEN HOLE : ENVERUS ESSENTIAL CURVES – ACCESSIBLE THROUGH ENVERUS PRISM(TM)
DOC.                                  22531479 : ENVERUS HEADER RAW DOCUMENT ID
#___________________________________________________________________________________________________ 
~WELL INFORMATION 
# hWe/832LbRsDOXT7erJRLf+k/AYA64twV/RtTeeHm/CkPExvlrAQ0qJE/El28xU0WYmlktkqeCNHArF5iUyCGg== 
# MNEM.UNIT                                              DATA : DESCRIPTION OF MNEMONIC 
#-----.-----                    ----------------------------- : ----------------------------- 
CNTY.                                               CULBERSON : COUNTY 
STATE.                                                  TEXAS : STATE 
CNTRY.                                                    USA : COUNTRY 
API.                                             42-109-32255 : API (10 Digit) 
API_14.                                    42-109-32255-00-00 : API (14 Digits) 
API_14_std.                                 42-109-32255-0000 : API (14 Digits Standard) 
UWI.                                           42109322550000 : UNIQUE WELL ID 
WELL.                               MELISSA TAYLOR STATE 27-1 : WELL NAME
STRT.FT                                                7612.0 : START DEPTH
STOP.FT                                               13645.5 : STOP DEPTH
STEP.FT                                                   0.5 : STEP BETWEEN DEPTHS
NULL.                                                 -999.25 : NULL VALUE
COMP.                                         PETRO-HUNT,LLC. : COMPANY 
FLD.                                                  WILDCAT : FIELD 
SRVC.                                            SCHLUMBERGER : SERVICE COMPANY 
DATE.                                              04/06/2006 : DATE 
TVD.                                                       NO : TVD FLAG
#___________________________________________________________________________________________________ 
~PARAMETER INFORMATION 
# MNEM.UNIT                                              DATA : DESCRIPTION OF MNEMONIC 
#-----.-----                    ----------------------------- : ----------------------------- 
RUN.                                                      ONE : RUN NUMBER 
PDAT.                                                      GL : PERMANENT DATUM 
EPD.FT                                               000.0000 : ELEVATION OF PERM. DATUM 
LMF.                                            KELLY BUSHING : LOG MEASURED FROM 
EKB.FT                                                 3796.6 : ELEVATION OF KELLY BUSHING 
DF.FT                                                  3773.0 : ELEVATION OF DERRICK FLOOR 
GL.FT                                                  3795.6 : ELEVATION OF GROUND LEVEL 
TD.FT                                              13716.0000 : TOTAL DEPTH 
BHT.DEGF                                               224.00 : BOTTOM HOLE TEMPERATURE 
BLI.FT                                             13716.0000 : BOTTOM LOG INTERVAL 
CSGSIZE.IN                                             9.6250 : CASING SIZE 
BITSIZE.IN                                              8.750 : BITSIZE 
CSGD.FT                                               12804.0 : CASING BOTTOM (DRILLER) 1 
CSGL.FT                                               12802.0 : CASING BOTTOM (LOGGER) 1 
MUD.                                                    BRINE : DRILLING FLUID TYPE 
MUDV.CP                                                  45.0 : DRILLING FLUID VISCOSITY 
MUDD.LB/USG                                               9.5 : DRILLING FLUID DENSITY 
PH.                                                      10.0 : DRILLING FLUID PH 
FL.ML/30MIN                                               5.0 : DRILLING FLUID LOSS 
MUDS.                                               CIRC TANK : MUD SAMPLE SOURCE 
RM.OHMM                                                 0.064 : RESISTIVITY OF MUD SAMPLE 
RMT.DEGF                                                66.00 : MUD SAMPLE TEMPERATURE 
RMF.OHMM                                                0.048 : MUD FILTRATE RESISTIVITY 
RMFT.DEGF                                               66.00 : MUD FILTRATE SAMPLE TEMPERATURE 
RMC.OHMM                                                0.095 : MUD CAKE RESISTIVITY 
RMCT.DEGF                                               66.00 : MUD CAKE SAMPLE TEMPERATURE 
RMB.OHMM                                                0.015 : MUD RESISTIVITY AT BHT 
TMAX.DEGF                                              224.00 : BOTTOM HOLE TEMPERATURE
#___________________________________________________________________________________________________ 
~CURVE INFORMATION 
# MNEM.UNIT           : CURVE DESCRIPTION 
#-----.-----          : ----------------------------- 
 DEPT.FT               : MEASURED DEPTH 
 DT__A.US/FT           : SONIC DELTA TRANSIT TIME (DELTA T COMP) 
 SPHI__A.V/V           : SONIC POROSITY (SONIC POROSITY) 
 #___________________________________________________________________________________________________ 
~A         DEPT          DT__A        SPHI__A
# ...
         8395.0         66.687        0.13900
         8395.5         61.466        0.07400
         8396.0         56.807        0.06700
         8396.5         56.325        0.06300
         8397.0         56.687        0.06300
         8397.5         58.193        0.09100
         8398.0         59.458        0.12600
         8398.5         66.687        0.16300
         8399.0         72.711        0.19500
         8399.5         76.647        0.20800
         8400.0         77.289        0.21300
         8400.5         75.934        0.20000
         8401.0         74.880        0.18800
         8401.5         74.458        0.19000
         8402.0         74.910        0.19200
         8402.5         75.361        0.19500
         8403.0         75.512        0.19600
         8403.5         75.663        0.19700
         8404.0         75.843        0.19800
         8404.5         75.723        0.20000
         8405.0         76.687        0.20600
         8405.5         78.133        0.21700
         8406.0         79.337        0.22700
         8406.5         80.542        0.23300
         8407.0         79.699        0.23300
         8407.5         75.850        0.19900
         8408.0         72.644        0.17200
         8408.5         69.437        0.14400
         8409.0         66.230        0.12200
         8409.5         63.023        0.10200
         8410.0         59.816        0.08500
         8410.5         57.329        0.06800
         8411.0         56.205        0.06100
         8411.5         57.771        0.06900
         8412.0         60.482        0.09500
         8412.5         64.357        0.13500
         8413.0         69.980        0.18300
         8413.5         75.602        0.19600
         8414.0         77.519        0.21000
         8414.5         77.237        0.21000
         8415.0         73.833        0.20700
         8415.5         70.428        0.16000
         8416.0         66.070        0.12900
         8416.5         67.098        0.14600
         8417.0         69.605        0.16000
         8417.5         72.108        0.17400
         8418.0         73.557        0.18300
         8418.5         75.010        0.19100
         8419.0         75.907        0.19800
         8419.5         76.435        0.20200
         8420.0         76.313        0.20500
         8420.5         76.193        0.20000
         8421.0         74.155        0.19200
         8421.5         71.632        0.17100
         8422.0         68.487        0.14500
         8422.5         65.327        0.12000
         8423.0         61.723        0.09200
         8423.5         59.425        0.08400
         8424.0         58.452        0.07600
         8424.5         57.479        0.06900
         8425.0         56.506        0.06200
         8425.5         55.345        0.05700
         8426.0         55.349        0.05800
         8426.5         56.396        0.08000
         8427.0         60.414        0.11800
         8427.5         67.810        0.15500
         8428.0         73.062        0.18800
         8428.5         75.837        0.19900
         8429.0         77.477        0.21000
         8429.5         77.636        0.21200
         8430.0         77.424        0.21100
         8430.5         77.216        0.21000
         8431.0         77.212        0.21600
         8431.5         79.017        0.22300
         8432.0         80.219        0.23100
         8432.5         80.034        0.23100
         8433.0         78.906        0.23100
         8433.5         77.303        0.20500
         8434.0         75.730        0.19300
         8434.5         74.157        0.18600
         8435.0         73.735        0.18800
         8435.5         76.285        0.20700
         8436.0         79.398        0.23100
         8436.5         82.108        0.24500
         8437.0         81.446        0.24500
         8437.5         79.237        0.22900
         8438.0         75.371        0.19600
         8438.5         71.506        0.16300
         8439.0         69.849        0.15300
         8439.5         68.614        0.14800
         8440.0         68.133        0.14900
         8440.5         68.373        0.16600
         8441.0         72.676        0.18600
         8441.5         76.979        0.20600
         8442.0         80.422        0.23000
         8442.5         81.386        0.23700
         8443.0         80.275        0.23900
         8443.5         78.425        0.22200
         8444.0         76.575        0.20900
         8444.5         74.725        0.19500
         8445.0         72.874        0.18100
         8445.5         71.024        0.16700
         8446.0         70.904        0.16600
         8446.5         70.904        0.16500
         8447.0         70.904        0.16400
         8447.5         70.232        0.16100
         8448.0         70.060        0.15700
         8448.5         69.888        0.15700
         8449.0         70.103        0.15900
         8449.5         70.577        0.16200
         8450.0         71.145        0.16600
         8450.5         71.145        0.16600
         8451.0         70.828        0.16500
         8451.5         70.301        0.16300
         8452.0         70.060        0.15900
         8452.5         69.819        0.15400
         8453.0         68.434        0.14800
         8453.5         67.048        0.13500
         8454.0         65.000        0.10800
         8454.5         62.952        0.10200
         8455.0         60.964        0.09400
         8455.5         58.976        0.07300
         8456.0         55.562        0.04600
         8456.5         52.168        0.01900
         8457.0         49.851        0.01600
         8457.5         49.256        0.01400
         8458.0         49.255        0.02300
         8458.5         52.380        0.03300
         8459.0         53.211        0.04100
         8459.5         53.559        0.04100
         8460.0         52.543        0.03300
         8460.5         51.546        0.02500
         8461.0         50.542        0.01700
         8461.5         49.538        0.01100
         8462.0         48.735        0.00700
         8462.5         47.795        0.00300
         8463.0         47.169       -0.00100
         8463.5         47.048       -0.00300
         8464.0         52.702        0.03900
         8464.5         58.344        0.10000
         8465.0         63.970        0.16200
         8465.5         69.603        0.18400
         8466.0         76.382        0.20500
         8466.5         79.121        0.23500
         8467.0         80.505        0.23300
         8467.5         79.893        0.22900
         8468.0         79.382        0.22500
         8468.5         78.855        0.22200
         8469.0         78.328        0.21900
         8469.5         77.404        0.21200
         8470.0         75.883        0.20000
         8470.5         74.362        0.18900
         8471.0         73.217        0.18200
         8471.5         72.295        0.17500
         8472.0         71.373        0.16700
         8472.5         70.452        0.15700
         8473.0         69.434        0.14700
         8473.5         67.432        0.13400
         8474.0         64.744        0.11900
         8474.5         62.056        0.10500
         8475.0         60.422        0.09100
         8475.5         60.566        0.09800
         8476.0         61.795        0.10600
         8476.5         62.560        0.10900
         8477.0         63.193        0.11000
         8477.5         62.952        0.10800
         8478.0         61.883        0.10000
         8478.5         60.698        0.09300
         8479.0         59.699        0.08700
         8479.5         59.699        0.08700
         8480.0         60.669        0.12200
         8480.5         68.300        0.16200
         8481.0         74.464        0.19700
         8481.5         78.622        0.21800
