###############################################
##         ENVERUS                           ##
##         ESS - Open Hole                   ##
##         PERMIAN / DELAWARE                ##
##         Nov 03 2023  V4.0                 ##
##         42-109-32620-90-00                ##
###############################################
## Copyright 2017-2023  ENVERUS.  All Rights Reserved. 
## Confidential - Property of ENVERUS, use governed by terms and 
## conditions found within the existing Information Services Subscription Agreement 
## (as may be amended, the “ISSA”) between Customer and ENVERUS. 
## 
~VERSION INFORMATION
# MNEM.UNIT                               DATA : DESCRIPTION OF MNEMONIC
#-----.-----     ----------------------------- : -----------------------------
VERS.                                     2.00 : CWLS LOG ASCII STANDARD - VERSION 2.00
WRAP.                                       NO : MULTIPLE LINES PER DEPTH STEP
VEND.                                  ENVERUS : VENDOR
TYPE.                          ESS - OPEN HOLE : ENVERUS ESSENTIAL CURVES – ACCESSIBLE THROUGH ENVERUS PRISM(TM)
DOC.                                  51092952 : ENVERUS HEADER RAW DOCUMENT ID
#___________________________________________________________________________________________________ 
~WELL INFORMATION 
# LYPeWtxrle9FodilXqet+3VuPRh8A73lGXm1Q3+VPjdIM+tEhu367IfA47DlYFnVF+yDwY76OrXOyADpoj01xA== 
# MNEM.UNIT                                              DATA : DESCRIPTION OF MNEMONIC 
#-----.-----                    ----------------------------- : ----------------------------- 
CNTY.                                               CULBERSON : COUNTY 
STATE.                                                  TEXAS : STATE 
CNTRY.                                                    USA : COUNTRY 
API.                                             42-109-32620 : API (10 Digit) 
API_14.                                    42-109-32620-90-00 : API (14 Digits) 
API_14_std.                                 42-109-32620-9000 : API (14 Digits Standard) 
UWI.                                           42109326209000 : UNIQUE WELL ID 
WELL.                               42109326200000_PREV_API14 : WELL NAME
STRT.FT                                                2339.0 : START DEPTH
STOP.FT                                               10866.0 : STOP DEPTH
STEP.FT                                                   0.5 : STEP BETWEEN DEPTHS
NULL.                                                 -999.25 : NULL VALUE
PREV_APII.                                     42109326200000 : WELL IDENTIFIER
#___________________________________________________________________________________________________ 
~PARAMETER INFORMATION 
# MNEM.UNIT                                              DATA : DESCRIPTION OF MNEMONIC 
#-----.-----                    ----------------------------- : ----------------------------- 
EKB.FT                                                   3330 : ELEVATION ABOVE MSL
#___________________________________________________________________________________________________ 
~CURVE INFORMATION 
# MNEM.UNIT           : CURVE DESCRIPTION 
#-----.-----          : ----------------------------- 
 DEPT.FT               : MEASURED DEPTH 
 GR__A.API             : GAMMA RAY (GAMMA RAY) 
 DT__A.US/FT           : SONIC DELTA TRANSIT TIME (SONIC) 
 #___________________________________________________________________________________________________ 
~A         DEPT          GR__A          DT__A
# ...
         6254.0         86.382        143.887
         6254.5         87.853        137.185
         6255.0        118.905        130.619
         6255.5        132.420        129.578
         6256.0        114.163        132.570
         6256.5        102.135        135.121
         6257.0        126.531        134.604
         6257.5        129.289        135.294
         6258.0        119.077        141.354
         6258.5         67.951        144.813
         6259.0         68.715        142.765
         6259.5         83.851        140.667
         6260.0         89.885        138.359
         6260.5        102.237        132.487
         6261.0        136.683        122.745
         6261.5        187.319        120.843
         6262.0        196.138        124.315
         6262.5        157.227        138.954
         6263.0        107.188        147.987
         6263.5         84.929        147.718
         6264.0         83.433        147.105
         6264.5         94.905        140.113
         6265.0        104.077        132.085
         6265.5        128.725        124.210
         6266.0        146.526        117.629
         6266.5        216.522        109.215
         6267.0        277.126        101.259
         6267.5        280.082         97.020
         6268.0        267.715        101.350
         6268.5        234.760        111.790
         6269.0        199.343        118.633
         6269.5        189.139        124.668
         6270.0        175.729        128.851
         6270.5        116.254        134.913
         6271.0        102.380        136.788
         6271.5        119.577        131.983
         6272.0        134.250        126.650
         6272.5        186.282        114.199
         6273.0        245.580        108.051
         6273.5        299.600        109.310
         6274.0        296.290        114.837
         6274.5        225.217        116.911
         6275.0        225.636        105.111
         6275.5        292.990         92.705
         6276.0        317.118         92.484
         6276.5        272.633        108.803
         6277.0        193.288        126.616
         6277.5        129.182        135.918
         6278.0        105.394        137.934
         6278.5         93.086        138.297
         6279.0        119.739        132.512
         6279.5        190.399        119.145
         6280.0        229.331        114.914
         6280.5        287.972        110.555
         6281.0        291.755        104.741
         6281.5        264.234        114.627
         6282.0        238.604        121.375
         6282.5        163.461        128.407
         6283.0        135.647        126.942
         6283.5        228.505        108.345
         6284.0        259.044         96.909
         6284.5        278.359         85.305
         6285.0        236.708         94.903
         6285.5        234.148         97.715
         6286.0        216.316         99.842
         6286.5        185.836        107.961
         6287.0        185.584        106.241
         6287.5        243.038         93.105
         6288.0        284.346         90.200
         6288.5        306.091         90.995
         6289.0        272.517         92.749
         6289.5        239.357         97.396
         6290.0        241.746         97.493
         6290.5        237.635         98.094
         6291.0        211.396        109.290
         6291.5        179.667        117.193
         6292.0        161.574        121.482
         6292.5        134.751        127.624
         6293.0        130.594        131.830
         6293.5        126.569        132.605
         6294.0        130.466        129.959
         6294.5        160.060        124.175
         6295.0        186.332        117.701
         6295.5        196.781        117.903
         6296.0        182.783        122.734
         6296.5        144.798        123.893
         6297.0        166.596        118.910
         6297.5        232.373        108.162
         6298.0        258.622        107.816
         6298.5        247.522        111.037
         6299.0        239.187        110.183
         6299.5        281.304        105.337
         6300.0        304.731         99.906
         6300.5        297.641        102.378
         6301.0        232.122        105.886
         6301.5        208.461        102.513
         6302.0        223.680         98.313
         6302.5        218.561         97.887
         6303.0        176.501        107.866
         6303.5        161.646        115.670
         6304.0        163.741        114.298
         6304.5        205.771        102.445
         6305.0        275.358         91.529
         6305.5        318.199         87.473
         6306.0        303.899         89.253
         6306.5        226.303        110.674
         6307.0        208.393        111.441
         6307.5        262.491        103.354
         6308.0        299.701         96.173
         6308.5        363.959         74.101
         6309.0        363.435         79.758
         6309.5        287.230         98.844
         6310.0        240.493        111.695
         6310.5        107.644        138.010
         6311.0         64.866        148.146
         6311.5         55.205        152.547
         6312.0         67.831        148.366
         6312.5        104.960        130.862
         6313.0        142.549        115.167
         6313.5        171.151        103.271
         6314.0        192.059        101.054
         6314.5        237.203         96.069
         6315.0        244.569         91.167
         6315.5        244.568         87.599
         6316.0        253.544         84.875
         6316.5        301.902         80.454
         6317.0        339.639         71.468
         6317.5        349.514         67.676
         6318.0        332.034         67.264
         6318.5        336.119         68.529
         6319.0        338.479         70.291
         6319.5        257.361         73.361
         6320.0        216.403         79.822
         6320.5        178.223         94.042
         6321.0        164.642         97.305
         6321.5        170.584        102.277
         6322.0        173.040        102.601
         6322.5        166.532         97.135
         6323.0        171.253         96.039
         6323.5        172.974         97.874
         6324.0        167.326        102.098
         6324.5        150.922        105.581
         6325.0        148.290        107.958
         6325.5        147.686        110.226
         6326.0        144.679        110.906
         6326.5        145.329        111.344
         6327.0        175.243        102.922
         6327.5        252.261         87.426
         6328.0        269.187         81.163
         6328.5        314.112         76.459
         6329.0        310.936         73.063
         6329.5        291.281         69.654
         6330.0        285.838         64.680
         6330.5        297.495         58.375
         6331.0        325.979         62.517
         6331.5        331.182         66.910
         6332.0        317.519         73.389
         6332.5        316.687         86.201
         6333.0        316.709         85.542
         6333.5        349.865         80.405
         6334.0        373.605         74.120
         6334.5        407.585         52.411
         6335.0        381.854         65.546
         6335.5        293.457         79.945
         6336.0        259.314         85.416
         6336.5        246.895         79.149
         6337.0        308.364         67.670
         6337.5        354.207         72.346
         6338.0        358.441         78.819
         6338.5        272.490         86.082
         6339.0        263.658         81.875
         6339.5        265.230         75.025
         6340.0        270.277         76.096
         6340.5        274.974         79.831
