~Version Information
 VERS.                  2.0:   CWLS log ASCII Standard -VERSION 2.0
 WRAP.                   NO:   One line per depth step
~Well Information Block
#MNEM.UNIT     VALUE/NAME     DESCRIPTION
#---------     -----------    ---------------------------
 STRT.F              8400.0000: START DEPTH
 STOP.F             14661.0000: STOP DEPTH
 STEP.F                 0.5000: STEP DEPTH
 NULL.                 -999.25: NULL VALUE
 LOC .            42-109-33545:  LOCATION
 FL1 .            42-109-33545:  LOCATIONLINE1
 DMF .             Drill Floor:  DRILL MEAS FROM
 PDAT.                      GL:  PERMANENT DATUM
 CNTY.               CULBERSON:  COUNTY NAME
 FLD .              WOLFCAMP B:  FIELD NAME
 WELL.           DALE STATE 3H:  WELL NAME
 COMP.     CAPITAN ENERGY INC.:  COMPANY
 DATE.             12-Feb-2020:  DATE
 SVCO.             Halliburton:  SERVICECONAME
 PROV.                      TX:  PROVINCE
 STAT.                      TX:  STATE NAME
 HIDE.                        :  WELLNAMEOPERAT
 BASI.                 PERMIAN:  BASIN
 UWI .            42-109-33545:  UNIQUE WELL IDENTIFIER
 API .            42-109-33545:  API NUMBER
 RANG.                     N/A:  RANGE
 TOWN.                     N/A:  TOWNSHIP
 SECT.                     N/A:  SECTION
 SON .               906290460:  JOB NUMBER
 CTRY.                        :  COUNTRY
 SRVC.             Halliburton:  SERVICE COMPANY
 LMF .             Drill Floor:  LOG MEASURED FROM
 TVDS.ft             3291.0000:  TVDSS CORRECTN
 EGL .ft             3266.0000:  GROUND ELEVATION
 APD .ft               25.0000:  DEPTH ABOVE PD
 EPD .ft             3266.0000:  ELEVATION
 BAP .ft                0.0000:  GL ELEV ONSHORE
 GVFD.g                 1.0000:  GRAVITY FIELD
 EKB .ft             3291.0000:  KB ELEVATION
 EDF .ft             3291.0000:  DF ELEVATION
~Curve Information Block
#MNEM.UNIT                 API CODE     Curve Description
#---------               -----------    ---------------------------
 DEPT.F                 00 000 000 000:  Depth
 CCL .V                 00 000 000 000:  Casing Collar Locator
 NPHI_OH.pu             00 000 000 000:  NPHI_OH
 NPHI_CHI.decp          00 000 000 000:  NPHI_CHI
 GR_OH.api              00 000 000 000:  GR_OH
 GR_CHI.api             00 000 000 000:  GR_CHI
 RHOB_OH.g/cc           00 000 000 000:  RHOB_OH
 RHOB_CHI.g/cc          00 000 000 000:  RHOB_CHI
 PE_OH.NONE             00 000 000 000:  PE_OH
 PE_CHI.NONE            00 000 000 000:  PE_CHI
 LLS_CHI.ohmm           00 000 000 000:  LLS_CHI
 LLS_OH.ohmm            00 000 000 000:  LLS_OH
 LLD_OH.ohmm            00 000 000 000:  LLD_OH
 LLD_CHI.ohmm           00 000 000 000:  LLD_CHI
 DTC_OH.uspf            00 000 000 000:  DTC_OH
 DTC_CHI.uspf           00 000 000 000:  DTC_CHI
 SPHW_CHI.decp          00 000 000 000:  SPHW_CHI
#Other Information
#
#WARRANTY: Halliburton will use its best efforts to furnish customers with 
#accurate information and interpretations that are part of, and incident to, the services 
#provided.  However, Halliburton cannot and does not warrant the accuracy 
#or correctness of such information and interpretations.  Under no circumstances should any 
#such information or interpretation be relied upon as the sole basis for any drilling, 
#completion, production, or financial decision or any procedure involving any risk to the 
#safety of any drilling venture, drilling rig or its crew or any other third party.  The 
#Customer has full responsibility for all drilling, completion and production operation.  
#Halliburton makes no representations or warranties, either expressed or 
#implied, including, but not limited to, the implied warranties of merchantability or fitness 
#for a particular purpose, with respect to the services rendered.  In no event will 
#Halliburton be liable for failure to obtain any particular results or for 
#any damages, including, but not limited to, indirect, special or consequential damages, 
#resulting from the use of any information or interpretation provided by Halliburton.
#
~A    DEPT      CCL   NPHI_OH NPHI_CHI  GR_OH    GR_CHI  RHOB_OH RHOB_CHI  PE_OH  PE_CHI  LLS_CHI   LLS_OH    LLD_OH    LLD_CHI  DTC_OH  DTC_CHI SPHW_CHI 
# ...
    9645.5000  0.0000 -999.25   0.1311  -999.25 103.3259 -999.25   2.5669 -999.25 3.1026   43.8776   -999.25   -999.25   52.5378 -999.25 73.1510 0.1807
    9646.0000  0.0236 -999.25   0.1289  -999.25  94.4583 -999.25   2.5684 -999.25 3.1116   43.4283   -999.25   -999.25   51.7749 -999.25 72.7318 0.1777
    9646.5000  0.0106 -999.25   0.1304  -999.25  96.3799 -999.25   2.5658 -999.25 3.1178   46.7420   -999.25   -999.25   55.5683 -999.25 72.8576 0.1786
    9647.0000  0.0000 -999.25   0.1305  -999.25  96.3636 -999.25   2.5658 -999.25 3.1390   49.2190   -999.25   -999.25   58.5695 -999.25 72.7433 0.1778
    9647.5000  0.0000 -999.25   0.1323  -999.25 104.2864 -999.25   2.5636 -999.25 3.1489   53.0032   -999.25   -999.25   63.0746 -999.25 73.1247 0.1805
    9648.0000  0.0000 -999.25   0.1344  -999.25 116.1132 -999.25   2.5609 -999.25 3.1488   56.2126   -999.25   -999.25   66.9705 -999.25 73.7731 0.1851
    9648.5000  0.0000 -999.25   0.1285  -999.25 100.7348 -999.25   2.5684 -999.25 3.1724   50.4723   -999.25   -999.25   60.2130 -999.25 72.8371 0.1785
    9649.0000  0.0000 -999.25   0.1263  -999.25  89.2732 -999.25   2.5706 -999.25 3.1724   47.8416   -999.25   -999.25   56.9446 -999.25 72.3524 0.1751
    9649.5000 -0.0242 -999.25   0.1260  -999.25  88.0669 -999.25   2.5703 -999.25 3.1717   48.0861   -999.25   -999.25   57.1300 -999.25 72.2790 0.1745
    9650.0000  0.0000 -999.25   0.1278  -999.25  90.9959 -999.25   2.5674 -999.25 3.1562   49.4318   -999.25   -999.25   58.5760 -999.25 72.4619 0.1758
    9650.5000 -0.0365 -999.25   0.1270  -999.25  89.9593 -999.25   2.5682 -999.25 3.1620   49.2758   -999.25   -999.25   58.4218 -999.25 72.3379 0.1750
    9651.0000 -0.0714 -999.25   0.1281  -999.25  94.1974 -999.25   2.5664 -999.25 3.1598   51.2929   -999.25   -999.25   60.7671 -999.25 72.5274 0.1763
    9651.5000  0.0000 -999.25   0.1295  -999.25  97.1153 -999.25   2.5637 -999.25 3.1655   55.3067   -999.25   -999.25   65.3225 -999.25 72.6859 0.1774
    9652.0000  0.0000 -999.25   0.1292  -999.25  96.5531 -999.25   2.5628 -999.25 3.1952   60.2007   -999.25   -999.25   70.8098 -999.25 72.6783 0.1774
    9652.5000  0.0274 -999.25   0.1278  -999.25  89.2248 -999.25   2.5634 -999.25 3.2188   61.8981   -999.25   -999.25   72.5397 -999.25 72.2402 0.1743
    9653.0000  0.0000 -999.25   0.1269  -999.25  87.6003 -999.25   2.5629 -999.25 3.2301   63.5265   -999.25   -999.25   74.1624 -999.25 72.0008 0.1726
    9653.5000 -0.0160 -999.25   0.1269  -999.25  84.2297 -999.25   2.5621 -999.25 3.2231   63.0120   -999.25   -999.25   73.4135 -999.25 71.6218 0.1699
    9654.0000 -0.0320 -999.25   0.1274  -999.25  84.9221 -999.25   2.5600 -999.25 3.2167   64.4630   -999.25   -999.25   74.8182 -999.25 71.3475 0.1679
    9654.5000  0.0218 -999.25   0.1269  -999.25  84.5765 -999.25   2.5601 -999.25 3.2286   65.9481   -999.25   -999.25   76.5450 -999.25 71.2648 0.1674
    9655.0000  0.0180 -999.25   0.1257  -999.25  86.2855 -999.25   2.5612 -999.25 3.2553   68.7804   -999.25   -999.25   79.9559 -999.25 71.3568 0.1680
    9655.5000 -0.0321 -999.25   0.1249  -999.25  88.7269 -999.25   2.5621 -999.25 3.2762   71.2314   -999.25   -999.25   82.9295 -999.25 71.5162 0.1691
    9656.0000  0.0000 -999.25   0.1230  -999.25  87.0188 -999.25   2.5648 -999.25 3.2926   70.1721   -999.25   -999.25   82.0389 -999.25 71.3254 0.1678
    9656.5000 -0.0437 -999.25   0.1210  -999.25  80.8127 -999.25   2.5677 -999.25 3.3035   67.7009   -999.25   -999.25   79.5677 -999.25 70.7369 0.1636
    9657.0000 -0.0470 -999.25   0.1216  -999.25  84.3311 -999.25   2.5673 -999.25 3.3006   69.6755   -999.25   -999.25   82.1555 -999.25 70.8642 0.1645
    9657.5000  0.0000 -999.25   0.1205  -999.25  83.2557 -999.25   2.5688 -999.25 3.3292   73.0067   -999.25   -999.25   86.3951 -999.25 70.6380 0.1629
    9658.0000 -0.0147 -999.25   0.1187  -999.25  85.3760 -999.25   2.5710 -999.25 3.3717   77.4551   -999.25   -999.25   91.8778 -999.25 70.6031 0.1627
    9658.5000 -0.0577 -999.25   0.1162  -999.25  91.6872 -999.25   2.5744 -999.25 3.4150   80.0918   -999.25   -999.25   95.2725 -999.25 70.7821 0.1639
    9659.0000  0.0000 -999.25   0.1162  -999.25 105.7063 -999.25   2.5742 -999.25 3.4295   83.7601   -999.25   -999.25   99.4630 -999.25 71.4446 0.1686
    9659.5000  0.0217 -999.25   0.1144  -999.25  98.1769 -999.25   2.5760 -999.25 3.4407   81.2924   -999.25   -999.25   96.6220 -999.25 71.1077 0.1662
    9660.0000  0.0833 -999.25   0.1158  -999.25  91.9599 -999.25   2.5728 -999.25 3.4244   82.0008   -999.25   -999.25   96.9399 -999.25 70.9469 0.1651
    9660.5000  0.0110 -999.25   0.1205  -999.25  97.0967 -999.25   2.5654 -999.25 3.3799   86.5462   -999.25   -999.25  101.3489 -999.25 71.4336 0.1686
    9661.0000  0.0117 -999.25   0.1210  -999.25  88.5502 -999.25   2.5631 -999.25 3.3816   87.6760   -999.25   -999.25  102.1215 -999.25 70.8336 0.1643
    9661.5000  0.0146 -999.25   0.1228  -999.25  91.7499 -999.25   2.5592 -999.25 3.3702   91.4933   -999.25   -999.25  105.9059 -999.25 70.9439 0.1651
    9662.0000  0.1189 -999.25   0.1238  -999.25 100.0389 -999.25   2.5570 -999.25 3.3636   94.3425   -999.25   -999.25  108.7281 -999.25 71.5694 0.1695
    9662.5000 -0.0958 -999.25   0.1184  -999.25  80.3091 -999.25   2.5639 -999.25 3.4212   87.6155   -999.25   -999.25  101.6203 -999.25 69.9381 0.1580
    9663.0000  0.0224 -999.25   0.1155  -999.25  77.3393 -999.25   2.5690 -999.25 3.4454   84.1861   -999.25   -999.25   98.3898 -999.25 69.8492 0.1573
    9663.5000  0.1432 -999.25   0.1132  -999.25  75.9004 -999.25   2.5742 -999.25 3.4619   81.7756   -999.25   -999.25   96.5859 -999.25 69.8500 0.1574
    9664.0000  0.0000 -999.25   0.1148  -999.25  81.9644 -999.25   2.5736 -999.25 3.4500   84.4544   -999.25   -999.25  100.0158 -999.25 70.2581 0.1602
    9664.5000 -0.1394 -999.25   0.1119  -999.25  69.0132 -999.25   2.5783 -999.25 3.4755   81.4338   -999.25   -999.25   97.4762 -999.25 69.2219 0.1529
    9665.0000 -0.0126 -999.25   0.1099  -999.25  60.1708 -999.25   2.5796 -999.25 3.5024   81.2227   -999.25   -999.25   97.4594 -999.25 68.3919 0.1470
    9665.5000  0.0145 -999.25   0.1095  -999.25  64.2024 -999.25   2.5781 -999.25 3.5187   84.1234   -999.25   -999.25  100.3864 -999.25 68.5486 0.1482
    9666.0000  0.0000 -999.25   0.1086  -999.25  70.0025 -999.25   2.5779 -999.25 3.5358   85.7431   -999.25   -999.25  101.8792 -999.25 68.9365 0.1509
    9666.5000  0.0176 -999.25   0.1068  -999.25  63.4262 -999.25   2.5800 -999.25 3.5626   85.0247   -999.25   -999.25  101.3674 -999.25 68.2828 0.1463
    9667.0000  0.0176 -999.25   0.1076  -999.25  65.6753 -999.25   2.5796 -999.25 3.5535   85.8394   -999.25   -999.25  102.2812 -999.25 68.5596 0.1482
    9667.5000  0.0000 -999.25   0.1056  -999.25  50.9498 -999.25   2.5830 -999.25 3.5720   82.2229   -999.25   -999.25   98.9957 -999.25 67.1654 0.1384
    9668.0000  0.0000 -999.25   0.1062  -999.25  49.8046 -999.25   2.5821 -999.25 3.5627   81.8922   -999.25   -999.25   98.5233 -999.25 67.1167 0.1380
    9668.5000  0.0000 -999.25   0.1096  -999.25  68.6539 -999.25   2.5778 -999.25 3.5174   84.4984   -999.25   -999.25  100.5876 -999.25 68.9089 0.1507
    9669.0000  0.0000 -999.25   0.1123  -999.25  81.3419 -999.25   2.5733 -999.25 3.4918   88.5139   -999.25   -999.25  104.4337 -999.25 69.9411 0.1580
    9669.5000  0.0000 -999.25   0.1155  -999.25  89.1688 -999.25   2.5680 -999.25 3.4653   93.0369   -999.25   -999.25  108.7968 -999.25 70.5366 0.1622
    9670.0000  0.0000 -999.25   0.1158  -999.25  83.7988 -999.25   2.5660 -999.25 3.4740   94.8502   -999.25   -999.25  110.4411 -999.25 70.0177 0.1585
    9670.5000  0.0000 -999.25   0.1159  -999.25  79.5258 -999.25   2.5647 -999.25 3.4823   95.2113   -999.25   -999.25  110.4389 -999.25 69.5719 0.1554
    9671.0000  0.0000 -999.25   0.1104  -999.25  61.4340 -999.25   2.5723 -999.25 3.5480   88.7565   -999.25   -999.25  104.0268 -999.25 67.9548 0.1440
    9671.5000  0.0000 -999.25   0.1105  -999.25  71.9289 -999.25   2.5727 -999.25 3.5476   90.9640   -999.25   -999.25  106.2574 -999.25 69.1512 0.1524
