# Exported from Transform Software 5.2.0 on 25-May-2018 by user brian.umlang
# DI Transform - A Product of Drillinginfo, Inc. - www.drillinginfo.com
#
~VERSION INFORMATION
 VERS.        2.0 : LAS ASCII STANDARD - VERSION 2.0
 WRAP.         NO : ONE LINE PER DEPTH STEP

~WELL INFORMATION
#MNEM.UNIT       DATA TYPE       INFORMATION
#---------       ---------       -----------
# Enverus has updated the API/UWI.  The previous names are renamed to  PREV_API / PREV_UWI
API.         42-109-32508-00-00 : API (14 Digits with Dashes)
UWI.             42109325080000 : UNIQUE WELL ID

 STRT.ft                1970 : Start Depth
 STOP.ft                8730 : Stop Depth
 STEP.ft                 0.5 : Step Length
 NULL.               -999.25 : Null Value
 COMP.                       : Company
 WELL.  42109325080000_API14 : Well Name
 FLD.                        : Field Name
 LOC.                        : Well Location
 CNTY.                       : County
 STAT.                       : State or Province
 CTRY.                       : Country
 SRVC.                       : Service Company
 DATE.                       : Date
PREV_APII.         42109325080000 : Well Identifier

~CURVE INFORMATION
#MNEM.UNIT       API CODE       CURVE DESCRIPTION
#---------       --------       -----------------
 DEPT.ft        : <Measured Depth>
 CAL.in         : Caliper
 DT.us/ft       : Pressure Wave Sonic
 GR.gAPI        : Gamma Ray

~PARAMETER INFORMATION
#MNEM.UNIT       VALUE       DESCRIPTION
#---------       -----       -----------
 EKB.ft      3552 : Elevation above MSL

~A      DEPT         CAL          DT          GR
# ...
        7710      8.8516     71.4035     77.5391
      7710.5      8.8516     71.5579     79.0856
        7711      8.8516      74.447     84.0552
      7711.5      8.8516     72.2483     86.3988
        7712      8.8711     73.0409     88.1895
      7712.5      8.8711      73.123      94.144
        7713      8.9102     74.9656     100.444
      7713.5      8.9297     79.2137    102.2354
        7714      8.9297     78.7135    102.6301
      7714.5      8.9492     78.6835    102.8345
        7715      8.9492      75.595     99.7952
      7715.5      8.9492     64.5757     94.6811
        7716      8.9492      62.652     78.2324
      7716.5      8.9799     61.9219     59.1804
        7717      8.9883      63.331     54.2889
      7717.5      8.9883     70.5885     60.7606
        7718      8.9883     71.5147     69.4926
      7718.5      9.0078     71.7544     77.1344
        7719      9.0078     71.6169     79.4288
      7719.5      9.0078     69.4684     79.0248
        7720      9.0469     69.7174     76.1421
      7720.5      9.0469     69.9915     73.9394
        7721      9.0664     68.9935     75.4449
      7721.5      9.0859     72.7074      76.672
        7722      9.0859     71.2865     73.0446
      7722.5       9.125     70.7226     59.2107
        7723      9.1445     70.0377     48.5181
      7723.5      9.1445     71.5153      44.975
        7724      9.1813     70.8545     45.0947
      7724.5      9.2031     70.3729     50.3469
        7725      9.2031     67.7964     57.8411
      7725.5      9.2031     66.2019     55.0883
        7726       9.222     67.2879     55.2734
      7726.5      9.2227     68.0099     58.5795
        7727      9.2812     71.0569      63.678
      7727.5      9.2812     72.6389     65.2405
        7728      9.2812     73.6873     66.0259
      7728.5      9.2812     74.2862     66.8112
        7729      9.2812     75.7166     67.9872
      7729.5      9.3008     75.4478     68.9453
        7730      9.3008     74.0112     70.9786
      7730.5      9.2812     73.1796     60.4242
        7731      9.2812     72.1637     50.9766
      7731.5      9.2812     72.4209     53.1239
        7732      9.2812      74.814     58.9414
      7732.5      9.2617      75.731     66.0626
        7733      9.2617     77.0941     66.5505
      7733.5      9.2617     76.3997     62.8099
        7734      9.2422     75.7947     60.8782
      7734.5      9.2031     74.2357     60.9634
        7735      9.1836     72.5348     60.0888
      7735.5      9.1641     73.9882     54.5444
        7736      9.1445     75.0218     54.7631
      7736.5      9.1445     76.1642     59.8496
        7737      9.1445     75.5636     69.3083
      7737.5      9.1357     72.1345     69.9609
        7738      9.1158     70.8496     64.8664
      7738.5      9.0763     70.7305     60.8729
        7739      9.0664     71.9404     66.2361
      7739.5      9.0676      75.782      76.837
        7740      9.0944     77.4854     87.8892
      7740.5      9.0675     77.1824     93.1756
        7741      9.0438     75.4499     91.5261
      7741.5      9.0209     73.4098     81.1699
        7742      8.9803     71.1013     75.5484
      7742.5      8.9559     71.7572     66.4856
        7743      8.9492     72.5974     75.9926
      7743.5      8.9102     71.0233     86.1936
        7744      8.9102     69.1154     86.8165
      7744.5      8.8761     68.4652     77.8616
        7745      8.8366     69.2082     71.4954
      7745.5       8.832     74.4225     73.7988
        7746      8.8478     76.0932     78.5593
      7746.5      8.8159     75.6725     80.3335
        7747      8.7734     72.0965     78.6048
      7747.5      8.7539     65.0457     70.0343
        7748      8.7539     62.2936     56.8359
      7748.5      8.7344     59.6946     48.1596
        7749      8.7148     61.1576     44.5179
      7749.5      8.7148     67.6778     53.5344
        7750      8.7148     79.0599     67.5157
      7750.5      8.6954     79.1789     83.7679
        7751      8.6953      71.026     92.1815
      7751.5      8.6953     66.0239     86.4387
        7752      8.6953      65.731     76.8751
      7752.5      8.6758     65.6725     68.0574
        7753      8.6562     65.6725     63.8479
      7753.5      8.6562     65.9275     63.0391
        7754      8.6562     67.3099     62.1094
      7754.5      8.6562     67.4854     66.6648
        7755      8.6562     70.0647     77.4884
      7755.5      8.6758     70.7581      88.245
        7756      8.6997     68.3363     88.8672
      7756.5      8.7148     68.0117     85.8733
        7757      8.7148     67.2788     70.7038
      7757.5      8.7148     65.9555     62.1924
        7758      8.7148      62.348     61.9141
      7758.5      8.7148     61.7351     60.1016
        7759      8.7148     60.3099     49.0628
      7759.5      8.7148     58.1743     31.7216
        7760      8.7148     62.2737     33.5859
      7760.5      8.7148     63.9562     45.3971
        7761      8.6953     66.3477      68.407
      7761.5      8.6953     77.1664     79.0486
        7762      8.6953     77.2793     85.2018
      7762.5      8.6953     77.5729    102.5339
        7763      8.7148     77.7193    110.6548
      7763.5      8.7148     78.3671    112.9808
        7764      8.7148     76.3346    109.9145
      7764.5      8.7148     75.5216     99.2134
        7765      8.7148     75.1695      94.844
      7765.5      8.7148     72.5977     98.8759
        7766      8.7148     70.2589     99.8459
      7766.5      8.7148     69.0648     89.9764
        7767      8.7148      66.669     75.2752
      7767.5      8.7148     64.7643     69.2555
        7768      8.7148     62.2011     66.9569
      7768.5      8.7148     61.7107     58.2557
        7769      8.7148     61.7273     53.5608
      7769.5      8.7148     64.4138     58.3063
        7770      8.7148     75.3216     68.5755
      7770.5      8.7344     75.3703     75.9087
        7771      8.7344     75.7224     88.3325
      7771.5      8.7344      74.032     98.0222
        7772      8.7344     69.0738     96.0731
      7772.5      8.7344     68.2555     88.2017
        7773      8.7539     66.4339     74.2351
      7773.5      8.7539      62.863     57.4357
        7774      8.7539     64.7228     47.2785
      7774.5      8.7539     66.3156     53.9021
        7775      8.7734      68.559      75.078
      7775.5      8.7734     74.0566     94.8304
        7776      8.7734     73.7867     96.6676
      7776.5      8.7734     73.0361     94.4989
        7777      8.7734     72.5389     91.5741
      7777.5      8.7734      64.994     70.3142
        7778      8.7734     53.0069     46.1148
      7778.5       8.793      52.506     33.0407
        7779       8.793     52.5475     27.1484
      7779.5       8.793     56.5077     31.2256
        7780       8.793     63.2426     43.5957
      7780.5       8.832     64.6817     56.9361
        7781       8.832     66.5814     84.0306
      7781.5      8.8516     74.8048    102.4356
        7782      8.8516     70.6681    108.7279
      7782.5      8.8516     70.0642     97.6544
        7783      8.8516     68.7474     77.2868
      7783.5      8.8516     65.1454     57.2266
        7784      8.8516     65.0756     54.2969
      7784.5      8.8516     67.9828     57.3576
        7785      8.8516     68.7063     77.2273
      7785.5      8.8516     73.9957    100.5018
        7786      8.8516     76.9728    112.0941
      7786.5       8.832     73.8592    112.6953
        7787       8.832     73.2722     99.4114
      7787.5       8.832     71.5919     81.2209
        7788       8.832     66.3998     71.2389
      7788.5       8.832     69.4134     69.4212
        7789       8.832     71.2405     85.1918
      7789.5       8.832     74.5196    108.8185
        7790       8.832     78.3122    117.7047
      7790.5       8.832     72.4504    112.2374
        7791       8.832     70.1532    100.7876
      7791.5       8.832     68.7396     95.2867
