###############################################
##         ENVERUS                           ##
##         ESS - Open Hole                   ##
##         PERMIAN / DELAWARE                ##
##         Nov 02 2023  V4.0                 ##
##         42-109-31391-00-00                ##
###############################################
## Copyright 2017-2023  ENVERUS.  All Rights Reserved. 
## Confidential - Property of ENVERUS, use governed by terms and 
## conditions found within the existing Information Services Subscription Agreement 
## (as may be amended, the “ISSA”) between Customer and ENVERUS. 
## 
~VERSION INFORMATION
# MNEM.UNIT                               DATA : DESCRIPTION OF MNEMONIC
#-----.-----     ----------------------------- : -----------------------------
VERS.                                     2.00 : CWLS LOG ASCII STANDARD - VERSION 2.00
WRAP.                                       NO : MULTIPLE LINES PER DEPTH STEP
VEND.                                  ENVERUS : VENDOR
TYPE.                          ESS - OPEN HOLE : ENVERUS ESSENTIAL CURVES – ACCESSIBLE THROUGH ENVERUS PRISM(TM)
DOC.                                  31999167 : ENVERUS HEADER RAW DOCUMENT ID
#___________________________________________________________________________________________________ 
~WELL INFORMATION 
# BOC9FSWoKCUsCFcWObZ1iTDYvHtSUwfaSl9bEava01AYiR20s/sWwY1hBaxvFz+VJj0aOQNxXrzxY9t5EPBGbg== 
# MNEM.UNIT                                              DATA : DESCRIPTION OF MNEMONIC 
#-----.-----                    ----------------------------- : ----------------------------- 
CNTY.                                               CULBERSON : COUNTY 
STATE.                                                  TEXAS : STATE 
CNTRY.                                                    USA : COUNTRY 
API.                                             42-109-31391 : API (10 Digit) 
API_14.                                    42-109-31391-00-00 : API (14 Digits) 
API_14_std.                                 42-109-31391-0000 : API (14 Digits Standard) 
UWI.                                           42109313910000 : UNIQUE WELL ID 
WELL.                                            TRES ALAS  1 : WELL NAME
STRT.FT                                                     0 : START DEPTH
STOP.FT                                               15494.0 : STOP DEPTH
STEP.FT                                                   0.5 : STEP BETWEEN DEPTHS
NULL.                                                 -999.25 : NULL VALUE
COMP.                           AMERICAN QUASAR PETROLEUM CO. : COMPANY
#___________________________________________________________________________________________________ 
~CURVE INFORMATION 
# MNEM.UNIT           : CURVE DESCRIPTION 
#-----.-----          : ----------------------------- 
 DEPT.FT               : MEASURED DEPTH 
 CALI.IN               : CALIPER (CAL - CAL) 
 GR.API                : GAMMA RAY (GR) 
 DT.US/FT              : SONIC DELTA TRANSIT TIME (DT) 
 #___________________________________________________________________________________________________ 
~A         DEPT           CALI             GR             DT
# ...
         3300.0         13.243         38.890         53.767
         3300.5         13.235         38.772         54.172
         3301.0         13.227         45.411         55.032
         3301.5         13.219         51.640         55.892
         3302.0         13.211         50.598         55.412
         3302.5         13.203         46.108         54.790
         3303.0         13.195         41.619         54.212
         3303.5         13.187         38.334         54.083
         3304.0         13.183         38.674         54.504
         3304.5         13.196         40.984         56.954
         3305.0         13.209         49.861         59.405
         3305.5         13.222         59.438         61.856
         3306.0         13.235         74.312         62.165
         3306.5         13.248         79.960         61.194
         3307.0         13.261         76.425         60.172
         3307.5         13.274         69.721         59.355
         3308.0         13.287         63.669         59.538
         3308.5         13.300         64.841         60.991
         3309.0         13.313         70.556         62.444
         3309.5         13.326         76.271         63.897
         3310.0         13.339         81.824         65.351
         3310.5         13.352         82.264         65.665
         3311.0         13.365         77.843         65.975
         3311.5         13.378         69.742         65.504
         3312.0         13.391         61.641         64.867
         3312.5         13.404         54.237         64.301
         3313.0         13.417         52.338         64.181
         3313.5         13.430         51.501         64.060
         3314.0         13.443         49.943         63.940
         3314.5         13.456         48.189         63.820
         3315.0         13.469         46.434         63.855
         3315.5         13.482         46.913         64.946
         3316.0         13.491         47.697         66.038
         3316.5         13.488         47.332         67.130
         3317.0         13.485         46.902         67.818
         3317.5         13.482         50.984         67.922
         3318.0         13.479         56.043         66.845
         3318.5         13.475         55.647         65.768
         3319.0         13.472         52.628         64.691
         3319.5         13.469         49.182         64.517
         3320.0         13.466         48.130         64.786
         3320.5         13.463         47.433         64.294
         3321.0         13.460         42.811         63.565
         3321.5         13.457         39.205         63.404
         3322.0         13.454         39.097         63.537
         3322.5         13.451         38.989         64.432
         3323.0         13.447         42.507         65.326
         3323.5         13.439         48.557         66.220
         3324.0         13.430         51.328         66.176
         3324.5         13.422         53.405         66.028
         3325.0         13.414         53.130         65.880
         3325.5         13.406         50.986         65.894
         3326.0         13.398         51.993         65.995
         3326.5         13.390         54.607         66.096
         3327.0         13.382         58.442         66.198
         3327.5         13.374         61.524         66.299
         3328.0         13.366         61.406         66.400
         3328.5         13.358         60.852         66.263
         3329.0         13.350         59.194         65.846
         3329.5         13.342         55.917         65.430
         3330.0         13.334         54.139         65.013
         3330.5         13.325         54.323         64.597
         3331.0         13.317         56.245         64.180
         3331.5         13.309         58.571         64.173
         3332.0         13.301         60.897         64.530
         3332.5         13.293         66.930         66.546
         3333.0         13.285         77.402         68.816
         3333.5         13.270         85.971         70.268
         3334.0         13.252         86.753         69.742
         3334.5         13.234         83.719         69.038
         3335.0         13.216         81.369         69.546
         3335.5         13.198         88.521         71.839
         3336.0         13.180        101.259         74.131
         3336.5         13.162        106.233         75.579
         3337.0         13.144        109.482         74.682
         3337.5         13.127         97.758         72.612
         3338.0         13.113         95.457         70.542
         3338.5         13.117         93.526         68.472
         3339.0         13.121         91.269         66.402
         3339.5         13.125         88.523         65.295
         3340.0         13.129         87.621         67.981
         3340.5         13.133         89.740         71.151
         3341.0         13.137         92.321         72.440
         3341.5         13.141         94.621         71.381
         3342.0         13.145         89.761         69.753
         3342.5         13.149         84.901         68.124
         3343.0         13.153         83.926         67.404
         3343.5         13.157         86.343         67.646
         3344.0         13.161         88.760         67.889
         3344.5         13.165         91.101         68.131
         3345.0         13.169         93.055         68.165
         3345.5         13.174         97.195         67.905
         3346.0         13.178        102.272         67.645
         3346.5         13.182        105.792         67.627
         3347.0         13.186        108.675         67.668
         3347.5         13.190        104.774         68.445
         3348.0         13.194        100.776         69.290
         3348.5         13.200         97.071         70.135
         3349.0         13.210         93.722         70.639
         3349.5         13.221         86.117         70.154
         3350.0         13.231         74.226         67.089
         3350.5         13.242         62.162         63.288
         3351.0         13.252         50.176         59.487
         3351.5         13.263         42.325         59.304
         3352.0         13.273         41.383         60.167
         3352.5         13.284         49.833         62.828
         3353.0         13.294         58.400         65.342
         3353.5         13.305         62.569         65.805
         3354.0         13.315         61.460         66.267
         3354.5         13.326         60.097         66.730
         3355.0         13.337         56.066         67.192
         3355.5         13.347         50.543         66.896
         3356.0         13.358         45.637         66.275
         3356.5         13.368         41.139         65.655
         3357.0         13.379         40.968         65.035
         3357.5         13.387         45.796         65.753
         3358.0         13.395         50.624         67.162
         3358.5         13.403         54.481         68.571
         3359.0         13.411         53.187         68.799
         3359.5         13.419         51.894         68.810
         3360.0         13.427         50.601         68.821
         3360.5         13.435         48.277         68.221
         3361.0         13.443         45.179         67.164
         3361.5         13.451         42.080         66.753
         3362.0         13.459         38.981         66.539
         3362.5         13.467         38.667         66.927
         3363.0         13.475         39.577         67.859
         3363.5         13.484         40.487         67.955
         3364.0         13.461         41.397         68.009
         3364.5         13.434         42.082         68.071
         3365.0         13.407         42.392         68.307
         3365.5         13.380         42.702         68.543
