~VERSION INFORMATION
 VERS.                2.0:   CWLS LOG ASCII STANDARD - VERSION 2.0
 WRAP.                 NO:   ONE LINE PER DEPTH STEP
~WELL INFORMATION
#MNEM.UNIT      DATA TYPE    INFORMATION
#----------   ------------   ------------------------------
 STRT.FT          68.0000:   START DEPTH
 STOP.FT        1517.0000:   STOP DEPTH
 STEP.FT           0.5000:   STEP LENGTH
 NULL.          -999.2500:   NULL VALUE
 COMP. LINCOLN ROCK CORPORATION:   COMPANY
 WELL.        HOLLER #602:   WELL
 FLD .            UNNAMED:   FIELD
 LOC .                   :   LOCATION
 CNTY.          CULBERSON:   COUNTY
 STAT.              TEXAS:   STATE
 CTRY. UNITED STATES OF AMERICA:   COUNTRY
 SRVC.           Gearhart:   SERVICE COMPANY
 DATE.        24-Jun-1984:   LOGDATE
 API .     42109317410000:   API NUMBER
~CURVE INFORMATION
#MNEM.UNIT       API CODE    CURVE DESCRIPTION
#----------   ------------   ------------------------------
 DEPT.F                  :   
 CALXS.IN    60 280 13 00:   CALIPER FROM X AXIS OF X-Y CALIPER(S) FROM SONIC LOG
 GRD .GAPI   45 310 01 00:   GAMMA RAY FROM DENSITY LOG
 GRS .GAPI   60 310 01 00:   GAMMA RAY FROM SONIC LOG
 TEND.LB     45 635 00 00:   TENSION FROM DENSITY LOG
 TENR.LB     11 635 00 00:   TENSION FROM RESISTIVITY LOG
 TENS.LB     60 635 00 00:   TENSION FROM SONIC LOG
 CALYD.IN    45 280 24 00:   CALIPER FROM X AXIS OF X-Y CALIPER(S) FROM DENSITY LOG
 CNS_LS.DEC  42 890 01 00:   COMPENSATED NEUTRON POROSITY
 CDL_LS.DEC  45 890 10 00:   COMPENSATED DENSITY POROSITY LIMESTONE
 RHOB.G/C3   45 350 01 00:   BULK DENSITY
 DRHO.G/C3   45 356 01 00:   BULK DENSITY CORRECTION
 GRR .GAPI   11 310 01 00:   GAMMA RAY FROM RESISTIVITY LOG
 RLLD.OHMM   11 220 10 00:   RAW LATEROLOG DEEP RESISTIVITY
 RLLS.OHMM   11 220 09 00:   RAW LATEROLOG SHALLOW RESISTIVITY
 DT  .US/F   60 500 00 00:   DELTA-T (INTERVAL TRANSIT TIME)
 SPHI.DEC    60 890 00 00:   SONIC POROSITY
~PARAMETER INFORMATION
#MNEM.UNIT          VALUE    DESCRIPTION
#----------   ------------   ------------------------------
 PD  .                 GL:   PERMANENT DATUM
 EPD .FT             3532:   ELEVATION PERMANENT DATUM
 LMF .                 GL:   LOG MEASURED FROM
 DMF .                RKB:   DRILLING MEASURED FROM
 EKB .FT             3544:   KELLY BUSHING
 EDF .FT             3543:   DRILLING FLOOR
 EGL .FT             3532:   GROUND LEVEL
 DATE.           06/24/84:   RUN DATE
 RUN .                  1:   RUN NUMBER
 DD  .FT             1502:   DEPTH DRILLER
 DL  .FT             1506:   DEPTH LOGGER
 BLI .FT             1505:   BOTTOM LOG INTERVAL
 TLI .FT               90:   TOP LOG INTERVAL
 CS  .IN              4.5:   CASING SIZE
 CBD .FT              101:   CASING BOTTOM DRILLER
 CBL .FT             1502:   CASING BOTTOM LOGGER
 BS  .IN            7.875:   BIT SIZE
 BSD .FT             1502:   BIT SIZE AT DEPTH
 DFT .          FRESH H2O:   DRILLING FLUID TYPE
 DFD .                8.4:   DRILLING FLUID DENSITY
 DFV .                 27:   DRILLING FLUID VISCOSITY
 DFPH.                 12:   DRILLING FLUID PH
 MSS .                PIT:   MUD SAMPLE SOURCE
 RMS .OHMM           2.32:   RESISTIVITY MUD SAMPLE
 MST .DEGF             77:   MUD SAMPLE TEMPERATURE
 RMF .OHMM           2.32:   RESISTIVITY MUD FILTRATE SAMPLE
 MFST.DEGF             77:   MUD FILTRATE SAMPLE TEMPERATURE
 MFSS.               MEAS:   MUD FILTRATE SAMPLE SOURCE
 TCS .HRS            0940:   TIME CIRCULATED STOPPED
 TLAB.HRS            1319:   TIME LOGGER AT BOTTOM
 MRT .DEGF            770:   MAXIMUM RECORDED TEMPERATURE
 LUN .               7583:   LOGGING UNIT NUMBER
 LUL .              HOBBS:   LOGGING UNIT LOCATION
 ENGI.             BRYANT:   RECORDING ENGINEER
 WITN.             BURROW:   WITNESSED BY
 CLNT.            :   CLIENT CODE
 ORIG.      1" 2.5" PRINT:   ORIGIN OF DATA
 UWI .     42109317410000:   UNIQUE WELL ID
 
~OTHER INFORMATION
~A   DEPT    CALXS        GRD        GRS       TEND       TENR       TENS      CALYD      CNS_LS     CDL_LS      RHOB       DRHO          GRR     RLLD       RLLS         DT       SPHI   
# ...
 1487.0000     7.5773    53.4473  -999.2500  1158.1637   882.8805  1032.5909     7.6527     0.2313     0.6254     2.3289     0.0265    73.8866    33.0831    15.9879    90.8729     0.2851
 1487.5000     7.5730    53.0129  -999.2500  1158.0945   883.7004  1031.8304     7.6527     0.2357     0.6267     2.3289     0.0265    73.4818    32.6812    15.9050    90.4266     0.2839
 1488.0000     7.5686    52.5786  -999.2500  1158.0240   884.5193  1031.0709     7.6527     0.2401     0.6282     2.3289     0.0204    61.7409    32.5810    16.1818    90.0709     0.2831
 1488.5000     7.5605    52.0017  -999.2500  1157.9550   885.3383  1032.3701     7.6527     0.2445     0.6276     2.3249     0.0154    30.4794    32.7736    16.3866    89.7152     0.2828
 1489.0000     7.5575    51.1619  -999.2500  1157.8845   886.1578  1030.7037     7.6527     0.2489     0.6269     2.3229     0.0102     0.2024    32.4745    16.4631    89.6799     0.2826
 1489.5000     7.5359    50.0981  -999.2500  1157.8153   886.9768  1031.2780     7.6527     0.2533     0.6248     2.3291     0.0086  -999.2500    33.2476    16.7369    89.5952     0.2814
 1490.0000     7.5373    49.0344  -999.2500  1157.7449   888.8975  1030.0153     7.6527     0.2554     0.6212     2.3350     0.0063  -999.2500    33.7617    16.8155    89.3929     0.2769
 1490.5000     7.5444    47.9714  -999.2500  1158.4366   888.9478  1012.2269     7.6535     0.2515     0.6176     2.3409     0.0124  -999.2500    33.4126    16.6010    89.0646     0.2737
 1491.0000     7.5434    47.9721  -999.2500  1159.1273   888.7460  1004.2402     7.6542     0.2476     0.6136     2.3469     0.0184  -999.2500    33.1685    16.3865    89.0609     0.2713
 1491.5000     7.5784    48.6205  -999.2500  1159.2607   892.0697   989.9628     7.6710     0.2437     0.6118     2.3532     0.0245  -999.2500    32.6957    16.3436    89.1097     0.2733
 1492.0000     7.6831    49.7080  -999.2500  1159.3929   893.9090  1015.2023     7.6686     0.2398     0.6101     2.3532     0.0286  -999.2500    32.9526    16.1731    89.1585     0.2764
 1492.5000     7.9362    50.8254  -999.2500  1159.0717   893.1499  1043.7063     7.5758     0.2362     0.6093     2.3532     0.0286  -999.2500    33.2431    15.8955    89.3962     0.2762
 1493.0000     8.1892    51.9338  -999.2500  1158.7517   892.3895  1014.4035     7.4597     0.2399     0.6085     2.3532     0.0286  -999.2500    33.5140  -999.2500    89.8881     0.2761
 1493.5000     8.2431    53.0224  -999.2500  1158.8827   894.2273   977.7792     7.3871     0.2435     0.6077     2.3532     0.0224  -999.2500  -999.2500  -999.2500    90.0445     0.2762
 1494.0000     7.6363    52.4127  -999.2500  1159.0173   893.4644   990.6653     7.3855     0.2460     0.6074     2.3532     0.0217  -999.2500  -999.2500  -999.2500    90.0722     0.2762
 1494.5000  -999.2500    46.7843  -999.2500  1158.6960   895.3016   993.2986     7.3861     0.2437     0.6086     2.3564     0.0209  -999.2500  -999.2500  -999.2500  -999.2500  -999.2500
 1495.0000  -999.2500    38.3734  -999.2500  1158.3749   894.5374   987.3164     7.3796     0.2399     0.6108     2.3522     0.0196  -999.2500  -999.2500  -999.2500  -999.2500  -999.2500
 1495.5000  -999.2500    29.2415  -999.2500  1158.5071   896.3740   984.4933     7.3695     0.2386     0.6160     2.3456     0.0168  -999.2500  -999.2500  -999.2500  -999.2500  -999.2500
 1496.0000  -999.2500    20.1622  -999.2500  1158.1884   898.2108   985.3813     7.3661     0.2370     0.6209     2.3391     0.0140  -999.2500  -999.2500  -999.2500  -999.2500  -999.2500
 1496.5000  -999.2500    10.8268  -999.2500  1158.3193   897.4461   981.8799     7.3645     0.2291     0.6209     2.3357     0.0112  -999.2500  -999.2500  -999.2500  -999.2500  -999.2500
 1497.0000  -999.2500     6.9307  -999.2500  1158.4528   899.2820   979.3790     7.3629     0.2142     0.6163     2.3403     0.0234  -999.2500  -999.2500  -999.2500  -999.2500  -999.2500
 1497.5000  -999.2500  -999.2500  -999.2500  1158.1328   898.5147   989.9787     7.3648     0.2187     0.6088     2.3482     0.0429  -999.2500  -999.2500  -999.2500  -999.2500  -999.2500
 1498.0000  -999.2500  -999.2500  -999.2500  1157.8127   897.7475   998.9835     7.3666     0.2292     0.6032     2.3561     0.0587  -999.2500  -999.2500  -999.2500  -999.2500  -999.2500
 1498.5000  -999.2500  -999.2500  -999.2500  1157.9449   899.5828  1001.5923     7.3650     0.2366     0.6039     2.3640     0.0684  -999.2500  -999.2500  -999.2500  -999.2500  -999.2500
 1499.0000  -999.2500  -999.2500  -999.2500  1158.0785   898.8130  1005.6531     7.3634     0.2402     0.6062     2.3659     0.0636  -999.2500  -999.2500  -999.2500  -999.2500  -999.2500
 1499.5000  -999.2500  -999.2500  -999.2500  1157.7573   900.6477  1016.6761     7.3653     0.2321     0.6085     2.3632     0.0542  -999.2500  -999.2500  -999.2500  -999.2500  -999.2500
 1500.0000  -999.2500  -999.2500  -999.2500  1190.2745   960.3738  1016.4180     7.3677     0.2211     0.6103     2.3606     0.0388  -999.2500  -999.2500  -999.2500  -999.2500  -999.2500
 1500.5000  -999.2500  -999.2500  -999.2500  1191.2183   961.0252  1008.9739     7.3586     0.2231     0.6103     2.3579     0.0439  -999.2500  -999.2500  -999.2500  -999.2500  -999.2500
 1501.0000  -999.2500  -999.2500  -999.2500  1190.1349   964.0927  1001.2375     7.3596     0.2272     0.6103     2.3552     0.0551  -999.2500  -999.2500  -999.2500  -999.2500  -999.2500
 1501.5000  -999.2500  -999.2500  -999.2500  1192.0905   968.4424   994.8108     7.3576     0.2309     0.6134     2.3526     0.0929  -999.2500  -999.2500  -999.2500  -999.2500  -999.2500
 1502.0000  -999.2500  -999.2500  -999.2500  1189.9966   970.5000   991.4364     7.3596     0.2290     0.6266     2.3499     0.1254  -999.2500  -999.2500  -999.2500  -999.2500  -999.2500
 1502.5000  -999.2500  -999.2500  -999.2500  1206.4084   989.4297   995.9179     7.3576     0.2252     0.6397     2.3472     0.1579  -999.2500  -999.2500  -999.2500  -999.2500  -999.2500
 1503.0000  -999.2500  -999.2500  -999.2500  1229.1949  1029.5210  1001.2660     7.3408     0.2200     0.6529     2.3241     0.1878  -999.2500  -999.2500  -999.2500  -999.2500  -999.2500
 1503.5000  -999.2500  -999.2500  -999.2500  1228.2498  1057.8134  1009.0818     7.3327     0.2234     0.6663     2.2399     0.3778  -999.2500  -999.2500  -999.2500  -999.2500  -999.2500
 1504.0000  -999.2500  -999.2500  -999.2500  1227.2653   992.2486  1016.8976     7.2986     0.2268     0.6742     2.2399     0.5535  -999.2500  -999.2500  -999.2500  -999.2500  -999.2500
 1504.5000  -999.2500  -999.2500  -999.2500  1282.2194   621.4609  1021.5118     6.5227     0.2302     0.6754     2.2399     0.6934  -999.2500  -999.2500  -999.2500  -999.2500  -999.2500
 1505.0000  -999.2500  -999.2500  -999.2500  1212.0468   558.2659   927.6095  -999.2500     0.2308     0.6769     2.2399     0.7094  -999.2500  -999.2500  -999.2500  -999.2500  -999.2500
 1505.5000  -999.2500  -999.2500  -999.2500  1044.2279   526.9251   771.8780  -999.2500  -999.2500  -999.2500  -999.2500  -999.2500  -999.2500  -999.2500  -999.2500  -999.2500  -999.2500
 1506.0000  -999.2500  -999.2500  -999.2500   853.6300   522.9939   596.4836  -999.2500  -999.2500  -999.2500  -999.2500  -999.2500  -999.2500  -999.2500  -999.2500  -999.2500  -999.2500
 1506.5000  -999.2500  -999.2500  -999.2500   708.5024   527.6251   487.0837  -999.2500  -999.2500  -999.2500  -999.2500  -999.2500  -999.2500  -999.2500  -999.2500  -999.2500  -999.2500
 1507.0000  -999.2500  -999.2500  -999.2500   679.7492   523.6938   471.6257  -999.2500  -999.2500  -999.2500  -999.2500  -999.2500  -999.2500  -999.2500  -999.2500  -999.2500  -999.2500
 1507.5000  -999.2500  -999.2500  -999.2500   681.4207   528.3251   466.1383  -999.2500  -999.2500  -999.2500  -999.2500  -999.2500  -999.2500  -999.2500  -999.2500  -999.2500  -999.2500
 1508.0000  -999.2500  -999.2500  -999.2500   679.0451   555.1147   460.6514  -999.2500  -999.2500  -999.2500  -999.2500  -999.2500  -999.2500  -999.2500  -999.2500  -999.2500  -999.2500
