###############################################
##         ENVERUS                           ##
##         ESS - Open Hole                   ##
##         PERMIAN / DELAWARE                ##
##         Nov 03 2023  V4.0                 ##
##         42-109-32978-00-00                ##
###############################################
## Copyright 2017-2023  ENVERUS.  All Rights Reserved. 
## Confidential - Property of ENVERUS, use governed by terms and 
## conditions found within the existing Information Services Subscription Agreement 
## (as may be amended, the “ISSA”) between Customer and ENVERUS. 
## 
~VERSION INFORMATION
# MNEM.UNIT                               DATA : DESCRIPTION OF MNEMONIC
#-----.-----     ----------------------------- : -----------------------------
VERS.                                     2.00 : CWLS LOG ASCII STANDARD - VERSION 2.00
WRAP.                                       NO : MULTIPLE LINES PER DEPTH STEP
VEND.                                  ENVERUS : VENDOR
TYPE.                          ESS - OPEN HOLE : ENVERUS ESSENTIAL CURVES – ACCESSIBLE THROUGH ENVERUS PRISM(TM)
DOC.                                  43644371 : ENVERUS HEADER RAW DOCUMENT ID
#___________________________________________________________________________________________________ 
~WELL INFORMATION 
# sF+t5dzO8TjfhJXm5BhYJSGKqyGjnVcKAr1GJS+XHP+EILfiOmlFF7qBSMjafOrEHsreRpz+nmfYFwcq0MlVOA== 
# MNEM.UNIT                                              DATA : DESCRIPTION OF MNEMONIC 
#-----.-----                    ----------------------------- : ----------------------------- 
CNTY.                                               CULBERSON : COUNTY 
STATE.                                                  TEXAS : STATE 
CNTRY.                                                    USA : COUNTRY 
API.                                             42-109-32978 : API (10 Digit) 
API_14.                                    42-109-32978-00-00 : API (14 Digits) 
API_14_std.                                 42-109-32978-0000 : API (14 Digits Standard) 
UWI.                                           42109329780000 : UNIQUE WELL ID 
WELL.                                    42109329780000_API14 : WELL NAME
STRT.FT                                                 179.0 : START DEPTH
STOP.FT                                                9893.5 : STOP DEPTH
STEP.FT                                                   0.5 : STEP BETWEEN DEPTHS
NULL.                                                 -999.25 : NULL VALUE
#___________________________________________________________________________________________________ 
~PARAMETER INFORMATION 
# MNEM.UNIT                                              DATA : DESCRIPTION OF MNEMONIC 
#-----.-----                    ----------------------------- : ----------------------------- 
EKB.FT                                                   3282 : ELEVATION ABOVE MSL
#___________________________________________________________________________________________________ 
~CURVE INFORMATION 
# MNEM.UNIT           : CURVE DESCRIPTION 
#-----.-----          : ----------------------------- 
 DEPT.FT               : MEASURED DEPTH 
 GR.API                : GAMMA RAY (GAMMA RAY) 
 DT.US/FT              : SONIC DELTA TRANSIT TIME (SONIC) 
 #___________________________________________________________________________________________________ 
~A         DEPT             GR             DT
# ...
         5312.0         33.112        277.437
         5312.5         30.343        277.437
         5313.0         25.977        277.437
         5313.5         21.151        277.437
         5314.0         18.739        277.437
         5314.5         17.549        277.437
         5315.0         17.967        277.437
         5315.5         19.200        277.437
         5316.0         21.237        277.437
         5316.5         24.120        277.437
         5317.0         26.220        277.437
         5317.5         27.724        277.437
         5318.0         29.835        277.437
         5318.5         33.376        277.437
         5319.0         37.105        277.437
         5319.5         40.114        277.437
         5320.0         42.201        277.437
         5320.5         41.186        277.437
         5321.0         38.512        277.437
         5321.5         35.837        277.437
         5322.0         33.947        277.437
         5322.5         31.951        277.437
         5323.0         31.934        277.437
         5323.5         34.075        277.437
         5324.0         34.744        277.437
         5324.5         34.050        277.437
         5325.0         31.607        277.437
         5325.5         30.501        277.437
         5326.0         32.983        277.437
         5326.5         40.144        277.437
         5327.0         49.207        277.437
         5327.5         56.728        277.437
         5328.0         60.585        277.437
         5328.5         58.103        277.437
         5329.0         49.141        277.437
         5329.5         36.234        277.437
         5330.0         26.775        277.994
         5330.5         23.398        279.640
         5331.0         25.765        280.780
         5331.5         29.827        280.780
         5332.0         32.488        280.780
         5332.5         32.591        280.978
         5333.0         33.407        281.337
         5333.5         34.494        280.471
         5334.0         33.505        279.109
         5334.5         31.439        279.109
         5335.0         31.486        279.109
         5335.5         32.572        279.109
         5336.0         34.076        279.109
         5336.5         35.098        279.109
         5337.0         36.407        279.109
         5337.5         37.381        279.109
         5338.0         33.282        279.109
         5338.5         27.251        279.109
         5339.0         22.563        279.109
         5339.5         23.872        279.109
         5340.0         27.248        278.910
         5340.5         29.230        277.994
         5341.0         29.248        277.994
         5341.5         28.073        277.994
         5342.0         25.431        277.994
         5342.5         23.667        277.994
         5343.0         24.216        277.994
         5343.5         26.138        277.994
         5344.0         26.675        277.994
         5344.5         25.171        277.994
         5345.0         22.966        277.994
         5345.5         21.327        277.994
         5346.0         20.474        277.994
         5346.5         21.793        277.994
         5347.0         22.981        277.994
         5347.5         23.249        277.994
         5348.0         22.163        277.437
         5348.5         22.796        277.437
         5349.0         23.816        277.437
         5349.5         24.551        277.437
         5350.0         25.637        277.437
         5350.5         25.923        277.437
         5351.0         24.302        277.437
         5351.5         20.968        277.437
         5352.0         18.903        277.437
         5352.5         17.967        277.437
         5353.0         18.384        277.437
         5353.5         19.454        277.437
         5354.0         21.684        277.437
         5354.5         24.551        277.437
         5355.0         25.488        277.437
         5355.5         25.488        277.437
         5356.0         26.139        277.437
         5356.5         29.448        277.437
         5357.0         32.490        277.437
         5357.5         33.844        277.437
         5358.0         33.443        277.437
         5358.5         32.824        277.437
         5359.0         33.426        277.437
         5359.5         34.320        277.994
         5360.0         36.501        278.195
         5360.5         37.203        278.552
         5361.0         36.535        278.552
         5361.5         34.788        278.552
         5362.0         33.844        278.552
         5362.5         33.693        278.552
         5363.0         30.551        278.552
         5363.5         25.738        278.552
         5364.0         22.913        278.552
         5364.5         22.045        279.109
         5365.0         23.398        279.109
         5365.5         24.218        279.109
         5366.0         24.417        279.109
         5366.5         23.398        279.109
         5367.0         22.662        279.109
         5367.5         22.296        279.109
         5368.0         23.382        279.109
         5368.5         24.652        279.109
         5369.0         24.234        279.109
         5369.5         24.652        279.109
         5370.0         25.221        279.109
         5370.5         26.725        279.109
         5371.0         26.924        279.109
         5371.5         25.420        279.109
         5372.0         24.652        279.109
         5372.5         25.639        280.425
         5373.0         26.741        281.337
         5373.5         26.388        281.337
         5374.0         24.132        280.780
         5374.5         22.563        280.780
         5375.0         22.563        281.539
         5375.5         22.563        281.358
         5376.0         23.216        278.795
         5376.5         23.330        278.552
         5377.0         23.877        278.552
         5377.5         26.057        278.552
         5378.0         27.561        278.552
         5378.5         26.779        278.552
         5379.0         23.748        278.552
         5379.5         22.981        278.552
         5380.0         23.968        278.552
         5380.5         25.472        278.552
         5381.0         24.416        278.552
         5381.5         23.398        278.552
         5382.0         22.981        278.552
         5382.5         22.563        278.552
         5383.0         22.548        278.552
         5383.5         23.752        278.552
         5384.0         27.122        278.552
         5384.5         30.354        278.552
         5385.0         30.767        278.552
         5385.5         28.434        278.552
         5386.0         26.741        278.552
         5386.5         27.680        278.552
         5387.0         30.096        278.552
         5387.5         32.173        278.552
         5388.0         31.769        278.552
         5388.5         30.683        278.552
         5389.0         29.735        278.552
         5389.5         30.821        278.552
         5390.0         31.755        278.552
         5390.5         30.732        278.552
         5391.0         29.248        278.552
         5391.5         30.188        277.994
         5392.0         31.755        277.468
         5392.5         32.591        277.437
         5393.0         32.605        277.437
         5393.5         32.409        277.437
         5394.0         35.863        277.437
         5394.5         40.348        277.437
         5395.0         44.443        277.437
         5395.5         45.529        277.437
         5396.0         44.025        277.437
         5396.5         39.659        277.437
         5397.0         32.019        277.437
         5397.5         22.994        277.437
         5398.0         18.405        277.437
         5398.5         18.740        277.437
