###############################################
##         ENVERUS                           ##
##         ESS - Open Hole                   ##
##         PERMIAN / DELAWARE                ##
##         Nov 03 2023  V4.0                 ##
##         42-109-32508-00-00                ##
###############################################
## Copyright 2017-2023  ENVERUS.  All Rights Reserved. 
## Confidential - Property of ENVERUS, use governed by terms and 
## conditions found within the existing Information Services Subscription Agreement 
## (as may be amended, the “ISSA”) between Customer and ENVERUS. 
## 
~VERSION INFORMATION
# MNEM.UNIT                               DATA : DESCRIPTION OF MNEMONIC
#-----.-----     ----------------------------- : -----------------------------
VERS.                                     2.00 : CWLS LOG ASCII STANDARD - VERSION 2.00
WRAP.                                       NO : MULTIPLE LINES PER DEPTH STEP
VEND.                                  ENVERUS : VENDOR
TYPE.                          ESS - OPEN HOLE : ENVERUS ESSENTIAL CURVES – ACCESSIBLE THROUGH ENVERUS PRISM(TM)
DOC.                                  51093165 : ENVERUS HEADER RAW DOCUMENT ID
#___________________________________________________________________________________________________ 
~WELL INFORMATION 
# 1l9uGBxUQQhBCtjIwzslcirW42fLV8cokTOAxV7sfA093x4JFuWG6+twQwU/7oNL7vvW02EVanlAmdL+peO2nw== 
# MNEM.UNIT                                              DATA : DESCRIPTION OF MNEMONIC 
#-----.-----                    ----------------------------- : ----------------------------- 
CNTY.                                               CULBERSON : COUNTY 
STATE.                                                  TEXAS : STATE 
CNTRY.                                                    USA : COUNTRY 
API.                                             42-109-32508 : API (10 Digit) 
API_14.                                    42-109-32508-00-00 : API (14 Digits) 
API_14_std.                                 42-109-32508-0000 : API (14 Digits Standard) 
UWI.                                           42109325080000 : UNIQUE WELL ID 
WELL.                                  LT. GIBSON 12 STATE 1H : WELL NAME
STRT.FT                                                1970.5 : START DEPTH
STOP.FT                                                8727.0 : STOP DEPTH
STEP.FT                                                   0.5 : STEP BETWEEN DEPTHS
NULL.                                                 -999.25 : NULL VALUE
PREV_APII.                                     42109325080000 : WELL IDENTIFIER
#___________________________________________________________________________________________________ 
~PARAMETER INFORMATION 
# MNEM.UNIT                                              DATA : DESCRIPTION OF MNEMONIC 
#-----.-----                    ----------------------------- : ----------------------------- 
EKB.FT                                                   3552 : ELEVATION ABOVE MSL
#___________________________________________________________________________________________________ 
~CURVE INFORMATION 
# MNEM.UNIT           : CURVE DESCRIPTION 
#-----.-----          : ----------------------------- 
 DEPT.FT               : MEASURED DEPTH 
 GR__A.API             : GAMMA RAY (GAMMA RAY) 
 DT__A.US/FT           : SONIC DELTA TRANSIT TIME (SONIC) 
 #___________________________________________________________________________________________________ 
~A         DEPT          GR__A          DT__A
# ...
         2840.5        285.963         89.707
         2841.0        258.436         98.051
         2841.5        258.200         89.800
         2842.0        300.494         72.701
         2842.5        374.599         69.037
         2843.0        349.034         73.828
         2843.5        291.585         91.135
         2844.0        225.008        101.343
         2844.5        195.830        108.197
         2845.0        163.502        116.435
         2845.5        140.483        125.900
         2846.0        104.815        122.803
         2846.5        102.615        104.659
         2847.0        103.906         86.409
         2847.5        103.803         76.671
         2848.0        108.108         75.244
         2848.5        112.804         76.132
         2849.0        115.312         78.790
         2849.5        122.642         82.120
         2850.0        133.531         86.784
         2850.5        130.539         90.004
         2851.0        116.086         91.377
         2851.5        103.844         95.617
         2852.0        102.344        101.142
         2852.5        103.104        105.632
         2853.0        104.297        106.823
         2853.5        110.511        106.435
         2854.0        125.397        105.848
         2854.5        142.221        105.258
         2855.0        142.638        103.684
         2855.5        132.103        102.729
         2856.0        126.900        103.137
         2856.5        124.653        104.289
         2857.0        125.000        103.431
         2857.5        126.878         99.910
         2858.0        134.053         97.558
         2858.5        138.483         95.673
         2859.0        135.462         94.932
         2859.5        136.579         94.737
         2860.0        133.102         95.322
         2860.5        124.250         95.712
         2861.0        125.430         94.756
         2861.5        127.357         91.562
         2862.0        123.627         86.867
         2862.5        115.625         82.882
         2863.0        116.647         77.133
         2863.5        112.094         72.004
         2864.0        106.641         68.562
         2864.5        107.489         67.641
         2865.0        115.160         70.138
         2865.5        121.875         76.115
         2866.0        111.910         80.125
         2866.5         96.146         83.662
         2867.0         96.700         82.328
         2867.5        112.199         79.727
         2868.0        128.748         82.024
         2868.5        141.209         83.941
         2869.0        150.692         86.266
         2869.5        148.205         85.630
         2870.0        137.235         89.870
         2870.5        105.856        101.538
         2871.0         91.125        111.173
         2871.5         99.709        109.407
         2872.0        119.829         95.991
         2872.5        136.243         89.406
         2873.0        151.057         89.084
         2873.5        151.666         90.024
         2874.0        153.846         92.112
         2874.5        151.043         95.633
         2875.0        142.232         99.110
         2875.5        136.719        102.693
         2876.0        138.253        103.314
         2876.5        148.749        103.129
         2877.0        156.210        102.534
         2877.5        171.642         97.089
         2878.0        191.021         94.542
         2878.5        243.223        103.184
         2879.0        247.635        112.925
         2879.5        167.406        134.490
         2880.0        117.428        150.870
         2880.5         91.179        157.768
         2881.0         78.475        161.182
         2881.5         66.704        161.435
         2882.0         67.258        158.359
         2882.5         95.638        139.332
         2883.0        195.989        101.656
         2883.5        283.214         97.909
         2884.0        254.975         90.174
         2884.5        205.358        102.664
         2885.0        202.737        101.934
         2885.5        273.013         87.994
         2886.0        390.501         80.279
         2886.5        387.429         81.840
         2887.0        342.771         93.113
         2887.5        310.238         99.975
         2888.0        253.226        105.542
         2888.5        232.636        105.282
         2889.0        233.986         97.785
         2889.5        283.361         92.891
         2890.0        317.464         79.521
         2890.5        383.866         80.006
         2891.0        386.568         82.977
         2891.5        357.806         84.908
         2892.0        319.611         83.124
         2892.5        303.274         86.643
         2893.0        285.835         93.272
         2893.5        254.609        105.898
         2894.0        221.386        114.159
         2894.5        195.800        114.367
         2895.0        177.869        117.806
         2895.5        173.537        117.353
         2896.0        178.034        114.230
         2896.5        188.618        115.358
         2897.0        181.821        117.162
         2897.5        164.358        123.843
         2898.0        150.449        121.755
         2898.5        146.128        118.349
         2899.0        156.883        117.739
         2899.5        162.329        119.747
         2900.0        153.932        121.832
         2900.5        150.426        122.018
         2901.0        150.391        125.317
         2901.5        143.757        133.720
         2902.0        117.181        143.876
         2902.5        106.320        142.413
         2903.0        113.041        137.576
         2903.5        137.141        135.002
         2904.0        134.726        137.291
         2904.5        113.325        142.661
         2905.0        101.619        141.075
         2905.5        114.400        131.940
         2906.0        154.369        125.392
         2906.5        171.565        119.992
         2907.0        172.656        113.664
         2907.5        171.388        111.696
         2908.0        168.255        112.633
         2908.5        164.088        116.600
         2909.0        158.554        121.160
         2909.5        144.671        127.027
         2910.0        127.597        132.944
         2910.5        127.099        133.723
         2911.0        139.726        132.985
         2911.5        131.936        130.638
         2912.0        122.095        128.680
         2912.5        120.861        127.574
         2913.0        124.423        129.316
         2913.5        121.778        135.183
         2914.0        118.938        137.723
         2914.5        115.863        139.743
         2915.0        113.610        137.184
         2915.5        126.916        133.935
         2916.0        145.918        124.168
         2916.5        150.952        119.568
         2917.0        150.781        115.984
         2917.5        149.610        115.790
         2918.0        139.236        115.400
         2918.5        134.303        112.979
         2919.0        135.673        109.710
         2919.5        137.891        108.139
         2920.0        137.891        110.047
         2920.5        137.191        115.733
         2921.0        130.493        122.393
         2921.5        126.628        124.951
         2922.0        127.344        124.033
         2922.5        129.224        120.711
         2923.0        131.991        118.754
         2923.5        133.171        116.033
         2924.0        138.197        113.292
         2924.5        142.164        110.355
         2925.0        130.695        107.029
         2925.5        122.656        103.313
         2926.0        118.759         97.245
         2926.5        118.750         92.169
         2927.0        118.447         88.644
