~Version Information Block
 VERS.                2.00:     CWLS LOG ASCII STANDARD - VERSION 2.000000
 WRAP.                  NO:     One Line Per Depth Step
#
~Well Information Block
#MNEM.UNIT                     Data                         Information
#----------   ------------------------------------------   ----------------
 STRT.FT                                     4210.0000:     START DEPTH
 STOP.FT                                    10370.0000:     STOP DEPTH
 STEP.FT                                        0.5000:     STEP
 NULL.                                       -999.2500:     NULL VALUE
 COMP.                       CHESAPEAKE OPERATING INC.:     COMPANY
 WELL.                         UNIVERSITY_LANDS_4627-1:     WELL
 FLD .                                         WILDCAT:     FIELD
 LOC .   1200' FNL & 1995' FEL|Section: 27, Block: 46, Abstract: 2860|University Lands Survey:     LOCATION
 SEC .                                              27:     SECTION
 CNTY.                                       CULBERSON:     COUNTY
 STAT.                                           TEXAS:     STATE
 CTRY.                                             USA:     COUNTRY
 SRVC.                                    SCHLUMBERGER:     SERVICE COMPANY
 DATE.                                      11/15/2016:     DATE
 API .                                  42109322870000:     API NUMBER
 UWI .                                  42109322870000:     UWI NUMBER
 TVD .                                              NO:     TVD flag
 WSTA.                                             LOC:     Well status
#
~Curve Information Block
#MNEM.UNIT       API CODE      Curve Description
#----------    -------------   -------------------
 DEPT.FT                   :   Depth in Feet
 RM_HRLT.OHMM                 :   HRLTB Mud Resistivity
 RXOZ.OHMM                 :   Stan Res MicroCFL Resistivity
 RLA5.OHMM                 :   HRLTB Resistivity 5
 RLA4.OHMM                 :   HRLTB Resistivity 4
 RLA3.OHMM                 :   HRLTB Resistivity 3
 DTCO.US/F                 :   Delta-T Compressional
 DTSM.US/F                 :   Delta-T Shear Measurement
 SPHI.V/V                  :   Sonic Porosity [47.6]
 HSGR.GAPI                 :   HNGS Spectroscopy Gamma Ray
 HCGR.GAPI                 :   HNGS Computed Gamma Ray
 HCAL.IN                   :   HILT Caliper
 DPHI.V/V                  :   Density Porosity
 PEFZ.                     :   Std. Res. Formation PE
 HDRA.G/C3                 :   Density Correction
 RHOB.G/C3                 :   Std. Res. Formation Density
 APLC.V/V                  :   APS Near/Array Corrected Limestone Porosity
 PXND.V/V                  :   Crossplot Porosity For Neutron-Density
#
~Parameter Information Block
#MNEM.UNIT            Value               Description
#----------    --------------------    -------------------
 DATE.                 07-Jun-2007:    Date As Month-Day-Year
 RUN .                         ONE:    Run Number
 PDAT.                         UNK:    Permanent Datum
 EPD .FT                -9999.5000:    Elevation Of Perm. Datum
 LMF .                          KB:    Log Measured From
 FAPD.FT                   40.0000:    Feet Above Perm. Datum
 EKB .FT                 4323.0000:    Elevation Of Kelly Bushing
 TD  .FT                10370.0000:    Total Depth
 DFT .                   Fresh Mud:    Drilling Fluid Type
 DFD .LB/G                  8.6000:    Drilling Fluid Density
 RMS .OHMM                  0.4210:    Resistivity Of Mud Sample
 MST .DEGF                 97.0000:    Mud Sample Temperature
 RMF .OHMM                  0.4210:    Mud Filtrate Resistivity
 MFST.DEGF                 97.0000:    Mud Filtrate Sample Temperature
 MFSS.                        CALC:    Mud Filtrate Sample Source
 MCSS.                        CALC:    Mud Cake Sample Source
 RMB .OHMM                  0.2280:    Mud Resistivity At Bht
 BHT .DEGF                185.0000:    Bottom Hole Temperature
 MRT .DEGF                185.0000:    Maximum Recorded Temperature
 WSTA.                         LOC:    
 LATB.FT                    0.0000:    
 LONB.FT                    0.0000:    
#
~Other Information Block
<DescLogPlotStart>   NEURALOG PLOT DEFINITION
PLOTDEFVERSION: 3
LASFILE: E:\nds\projects\Texas Standard Oil LLC\pdf\42109322870000 D\42-109-322
DEPTHSCALE: 240.000000
RESOLUTION: 196
DEPTHLABELFREQ: 100.000000
HEAVYGRIDFREQ: 100.000000
MEDIUMGRIDFREQ: 50.000000
LIGHTGRIDFREQ: 10.000000
#
#   TRACK 1
#
STARTTRACK: 
 LEFTX: 0.500000 inch
 RIGHTX: 3.000000 inch
 SCALETYPE: Linear
 NUMCHARTDIVISIONS: 10
CURVE: RXOZ  0.200000   2000.000000 (0,0,255)      Solid             2     Y   
BACKUP: 2000.000000 20000000.000000 (0,0,255)      Solid             2    
CURVE: RLA5  0.200000   2000.000000 (0,131,131)    Dot               2     Y   
BACKUP: 2000.000000 20000000.000000 (0,131,131)    Dot               2    
CURVE: RLA4  0.200000   2000.000000 (255,0,255)    Short_Dash        2     Y   
BACKUP: 2000.000000 20000000.000000 (255,0,255)    Short_Dash        2    
CURVE: RLA3  0.200000   2000.000000 (255,0,0)      Medium_Dash       2     Y   
BACKUP: 2000.000000 20000000.000000 (255,0,0)      Medium_Dash       2    
CURVE: DTCO  240.000000 40.000000  (0,0,255)      Solid             2     N    
CURVE: DTSM  240.000000 40.000000  (0,131,131)    Dot               2     Y    
BACKUP: 440.000000 240.000000 (0,131,131)    Dot               2    
CURVE: SPHI  0.300000   -0.100000  (255,0,255)    Short_Dash        2     Y    
BACKUP: 0.700000   0.300000   (255,0,255)    Short_Dash        2    
CURVE: HSGR  0.000000   150.000000 (0,0,255)      Solid             2     Y    
BACKUP: 150.000000 300.000000 (0,0,255)      Solid             2    
CURVE: HCGR  0.000000   150.000000 (0,131,131)    Dot               2     N    
CURVE: HCAL  6.000000   16.000000  (255,0,255)    Short_Dash        2     Y    
BACKUP: -4.000000  6.000000   (255,0,255)    Short_Dash        2    
BACKUP: 16.000000  26.000000  (255,0,255)    Short_Dash        2    
ENDTRACK: 
#
#   TRACK 2
#
STARTTRACK: 
 LEFTX: 3.500000 inch
 RIGHTX: 8.500000 inch
 SCALETYPE: Linear
 NUMCHARTDIVISIONS: 10
CURVE: RM_HRLT 0.020000   200.000000 (255,131,0)    Solid             2     N  
CURVE: DPHI  0.300000   -0.100000  (255,0,0)      Solid             2     Y    
BACKUP: 0.700000   0.300000   (255,0,0)      Solid             2    
BACKUP: -0.100000  -0.500000  (255,0,0)      Solid             2    
CURVE: APLC  0.300000   -0.100000  (255,131,0)    Dot               2     Y    
BACKUP: 0.700000   0.300000   (255,131,0)    Dot               2    
BACKUP: 1.100000   0.700000   (255,131,0)    Dot               2    
CURVE: PXND  0.300000   -0.100000  (255,255,0)    Short_Dash        2     Y    
BACKUP: 0.700000   0.300000   (255,255,0)    Short_Dash        2    
ENDTRACK: 
#
#   TRACK 3
#
STARTTRACK: 
 LEFTX: 0.500000 inch
 RIGHTX: 5.500000 inch
 SCALETYPE: Linear
 NUMCHARTDIVISIONS: 10
ENDTRACK: 
#
#   TRACK 4
#
STARTTRACK: 
 LEFTX: 3.500000 inch
 RIGHTX: 6.000000 inch
 SCALETYPE: Linear
 NUMCHARTDIVISIONS: 10
CURVE: PEFZ  0.000000   10.000000  (0,0,255)      Solid             2     N    
ENDTRACK: 
#
#   TRACK 5
#
STARTTRACK: 
 LEFTX: 3.500000 inch
 RIGHTX: 4.750000 inch
 SCALETYPE: Linear
 NUMCHARTDIVISIONS: 10
CURVE: HDRA  -0.050000  0.200000   (0,131,131)    Solid             2     N    
ENDTRACK: 
#
#   TRACK 6
#
STARTTRACK: 
 LEFTX: 3.500000 inch
 RIGHTX: 8.500000 inch
 SCALETYPE: Linear
 NUMCHARTDIVISIONS: 10
CURVE: RHOB  2.000000   3.000000   (255,0,255)    Solid             2     Y    
BACKUP: 1.000000   2.000000   (255,0,255)    Solid             2    
ENDTRACK: 
<DescLogPlotEnd>
~A DEPTH     RM_HRLT             RXOZ             RLA5             RLA4             RLA3             DTCO             DTSM             SPHI             HSGR             HCGR             HCAL             DPHI             PEFZ             HDRA             RHOB             APLC             PXND            
# ...
    5033.500 1.34929408       9.04211355       34.36320466      37.27545586      39.35971444      70.52011776      115.98039216     0.16180433       71.11779047      42.20686582      11.37061867      0.29446262       3.05630852       0.20467429       2.00659770       0.11705882       0.30491159      
    5034.000 1.39901931       4.98539906       34.67459414      36.23516172      39.28156834      69.14622179      116.18382353     0.15345598       74.04479896      43.06026734      11.74983584      0.68178257       2.96355427       0.08125042       1.54362745       0.11901961       0.32102161      
    5034.500 1.47706412       4.12503507       34.98880534      36.96994174      39.24906248      67.18351325      117.35294118     0.14436640       78.07993840      44.37451786      12.19656190      0.66963761       2.86645013       0.09754522       1.54776471       0.12976471       0.44243615      
    5035.000 1.55946268       4.51445078       36.11113686      37.37096939      42.12264431      66.20215898      116.97478992     0.13832871       82.34856239      45.66251432      12.40735057      0.61537708       2.86037280       0.20457539       1.66745098       0.14705882       0.44204322      
    5035.500 1.55946268       4.94062850       65.05638813      64.84876208      67.36898703      65.61334642      115.73949580     0.13105005       84.91905934      46.81740393      13.29406760      0.57091087       2.88095530       0.20225026       1.70666667       0.16435294       0.42200393      
    5036.000 1.55946268       5.40703868       82.22713097      82.10134463      88.40235773      64.82826300      118.39215686     0.12431796       82.10361633      43.33507936      13.84339423      0.55612528       2.90168118       0.20165361       1.76190702       0.18058824       0.42082515      
    5036.500 1.57363592       5.45603571       57.18688095      57.20863672      71.20235791      64.04317959      123.23529412     0.12119725       73.20784231      33.67888484      13.91143573      0.55912588       2.93482643       0.20144840       1.75778631       0.18450980       0.41964637      
    5037.000 1.42662864       5.35848166       150.14216390     183.98864214     192.95047765     64.04317959      121.66666667     0.12119725       61.49041091      27.16347937      13.94899199      0.56211294       2.97979251       0.20147545       1.75726213       0.19006863       0.41728880      
    5037.500 1.34320401       5.03057531       218.38753228     189.03586000     189.03586000     65.22080471      116.03495440     0.12767419       55.34951635      25.67211355      13.96177043      0.55014691       3.01544120       0.20147733       1.75539216       0.19823529       0.41493124      
    5038.000 1.25508296       4.98539906       194.22153429     149.51448758     149.51448758     65.80961727      107.77798392     0.13297350       59.25078757      25.48157193      13.66815842      0.51410382       3.07775794       0.20163310       1.85535294       0.19823529       0.40392927      
    5038.500 1.19957130       5.35848166       120.40868447     107.08468197     107.08468197     64.63199215      107.55307742     0.12878777       66.08196057      28.63868646      12.41844558      0.44397649       3.16252183       0.20159772       1.98031373       0.15968889       0.34577603      
    5039.000 1.21423436       6.71405573       120.40868447     117.19379782     117.19379782     61.88420020      109.51341654     0.11036310       68.34245127      30.40203969      12.17683416      0.37894221       3.39108022       0.20182568       2.00052941       0.10998431       0.31512770      
    5039.500 1.27530525       10.44608607      198.47231122     200.47738792     200.47738792     59.36311174      110.49019608     0.09193843       58.52864357      25.27955871      12.01988118      0.29869229       3.63805503       0.20584701       2.06422549       0.06027974       0.30509595      
    5040.000 1.35541177       42.47762828      499.38385900     573.35645560     573.35645560     57.38452978      106.47058824     0.07351376       45.39093543      19.57171554      11.98396961      0.17786198       3.88620401       0.15903016       2.35478992       0.04137255       0.17101427      
    5040.500 1.39901931       45.04281146      674.44075464     621.84802049     621.84802049     55.60482793      105.19607843     0.05878312       35.01305590      14.57071642      11.94673092      0.18212703       4.03571245       0.20421773       2.37647619       0.04857255       0.15677314      
    5041.000 1.39901931       33.14536057      514.53150755     528.64625173     528.64625173     55.79044571      109.81372549     0.06250245       32.07905556      16.84490583      11.90568686      0.17703621       3.99965335       0.20063174       2.39816246       0.05894902       0.13463753      
    5041.500 1.39901931       22.08640342      496.29632948     478.70741255     478.70741255     58.94013739      111.86274510     0.08147552       38.63645654      19.73069887      11.93819883      0.15929699       3.77146864       0.19978602       2.41984874       0.06932549       0.11944990      
    5042.000 1.39901931       23.52605427      223.14204858     221.18803545     221.18803545     61.88420020      111.27450980     0.11043842       51.30754890      24.68891193      11.93344805      0.13709305       3.38475014       0.19940768       2.43088235       0.07714187       0.11080550      
    5042.500 1.39901931       26.45328159      97.94570061      96.53248416      96.53248416      63.45436703      111.07843137     0.11731936       65.26423375      32.29044833      11.89274054      0.10430950       3.14361682       0.19880586       2.50911765       0.08347174       0.10491159      
    5043.000 1.38641879       40.45147319      65.31092770      66.38772436      66.38772436      63.65063788      111.45098039     0.11691855       75.58419402      37.39190498      11.85396127      0.09960823       3.11348063       0.19917892       2.53970588       0.08980161       0.09705305      
    5043.500 1.36441293       51.05257858      47.94939173      56.94904045      56.94904045      63.25809617      112.41176471     0.11499509       80.82039909      39.43782037      11.81604284      0.10374294       3.11996886       0.14303780       2.52982172       0.09470588       0.09980354      
    5044.000 1.32673981       70.34966658      88.82538097      57.46509628      57.46509628      62.86555447      114.21568627     0.11295388       78.01962076      38.17517286      11.70255845      0.11097868       3.34262606       0.00271285       2.52131627       0.09196078       0.09901768      
    5044.500 1.29010689       80.08050055      180.62562568     166.70828787     171.59076874     62.86555447      115.19607843     0.11235198       66.12783865      31.69540764      11.57960723      0.11880509       3.67109843       -0.00157812      2.51921956       0.08294118       0.09705305      
    5045.000 1.25448545       106.12302563     339.30712835     341.31499059     384.83498051     63.06182532      113.55710841     0.11295388       50.70029677      25.83067289      11.35560912      0.10381978       3.87270680       0.02215321       2.51279312       0.08666667       0.09705305      
    5045.500 1.24091770       128.25724460     298.22397010     299.46654428     377.59474775     62.47301276      110.66055671     0.10694014       52.09357324      25.05441147      10.93920827      0.08750245       3.79630319       0.04066186       2.56798876       0.10290980       0.10333988      
    5046.000 1.23095551       166.60806074     98.77278216      98.73424322      90.94658862      60.90284593      109.48939063     0.09450442       59.34102284      28.33400129      10.81069763      0.08550441       3.43730611       0.06021286       2.56165345       0.12078039       0.11237721      
    5046.500 1.22147508       73.31330312      102.68410983     101.44274322     94.43297694      59.72522080      109.55383740     0.08940137       66.36484501      32.07002161      10.62613020      0.09529873       3.28325149       0.04829678       2.55846164       0.12098039       0.11552063      
