###############################################
##         ENVERUS                           ##
##         ESS - Open Hole                   ##
##         PERMIAN / DELAWARE                ##
##         Nov 02 2023  V4.0                 ##
##         42-109-00406-00-00                ##
###############################################
## Copyright 2017-2023  ENVERUS.  All Rights Reserved. 
## Confidential - Property of ENVERUS, use governed by terms and 
## conditions found within the existing Information Services Subscription Agreement 
## (as may be amended, the “ISSA”) between Customer and ENVERUS. 
## 
~VERSION INFORMATION
# MNEM.UNIT                               DATA : DESCRIPTION OF MNEMONIC
#-----.-----     ----------------------------- : -----------------------------
VERS.                                     2.00 : CWLS LOG ASCII STANDARD - VERSION 2.00
WRAP.                                       NO : MULTIPLE LINES PER DEPTH STEP
VEND.                                  ENVERUS : VENDOR
TYPE.                          ESS - OPEN HOLE : ENVERUS ESSENTIAL CURVES – ACCESSIBLE THROUGH ENVERUS PRISM(TM)
DOC.                                  31976272 : ENVERUS HEADER RAW DOCUMENT ID
#___________________________________________________________________________________________________ 
~WELL INFORMATION 
# f03iSNYnaQ7mQXX2RIaOYtiytuBBABKYYIB1smJtyZkBcGMChrfvYQpeE0DESEj4BN+caz3q2IoGlEPFhwFUwg== 
# MNEM.UNIT                                              DATA : DESCRIPTION OF MNEMONIC 
#-----.-----                    ----------------------------- : ----------------------------- 
CNTY.                                               CULBERSON : COUNTY 
STATE.                                                  TEXAS : STATE 
CNTRY.                                                    USA : COUNTRY 
API.                                             42-109-00406 : API (10 Digit) 
API_14.                                    42-109-00406-00-00 : API (14 Digits) 
API_14_std.                                 42-109-00406-0000 : API (14 Digits Standard) 
UWI.                                           42109004060000 : UNIQUE WELL ID 
WELL.                                                  DRD_55 : WELL NAME
STRT.FT                                                 100.5 : START DEPTH
STOP.FT                                               12629.5 : STOP DEPTH
STEP.FT                                                   0.5 : STEP BETWEEN DEPTHS
NULL.                                                 -999.25 : NULL VALUE
#___________________________________________________________________________________________________ 
~PARAMETER INFORMATION 
# MNEM.UNIT                                              DATA : DESCRIPTION OF MNEMONIC 
#-----.-----                    ----------------------------- : -----------------------------
#___________________________________________________________________________________________________ 
~CURVE INFORMATION 
# MNEM.UNIT           : CURVE DESCRIPTION 
#-----.-----          : ----------------------------- 
 DEPT.FT               : MEASURED DEPTH 
 GR__A.API             : GAMMA RAY (GAMMA RAY) 
 DT__A.US/FT           : SONIC DELTA TRANSIT TIME (SONIC) 
 #___________________________________________________________________________________________________ 
~A         DEPT          GR__A          DT__A
# ...
          970.5         30.788         83.414
          971.0         32.079         82.678
          971.5         33.300         81.942
          972.0         34.584         81.305
          972.5         36.054         80.856
          973.0         37.548         80.595
          973.5         38.460         80.448
          974.0         39.103         80.325
          974.5         38.528         80.281
          975.0         37.194         80.362
          975.5         35.414         80.484
          976.0         34.199         80.435
          976.5         34.699         80.313
          977.0         35.419         80.190
          977.5         36.257         79.974
          978.0         37.050         80.398
          978.5         37.445         80.717
          979.0         37.749         80.158
          979.5         38.053         79.680
          980.0         38.095         79.250
          980.5         38.362         78.605
          981.0         38.393         77.710
          981.5         38.393         76.789
          982.0         37.680         76.100
          982.5         36.813         75.543
          983.0         40.622         74.510
          983.5         43.038         73.047
          984.0         44.695         72.080
          984.5         45.704         71.467
          985.0         41.921         70.848
          985.5         39.537         70.198
          986.0         37.676         69.805
          986.5         36.938         69.699
          987.0         37.846         69.680
          987.5         38.150         69.524
          988.0         38.453         69.218
          988.5         38.691         68.951
          989.0         38.691         68.828
          989.5         38.612         68.706
          990.0         38.266         68.583
          990.5         37.538         68.460
          991.0         36.230         68.299
          991.5         35.539         68.053
          992.0         35.823         68.248
          992.5         36.012         68.951
          993.0         36.012         69.245
          993.5         35.963         69.819
          994.0         38.280         70.920
          994.5         42.544         72.471
          995.0         45.211         73.866
          995.5         47.640         74.052
          996.0         51.330         73.441
          996.5         57.579         72.757
          997.0         64.256         71.788
          997.5         67.932         70.329
          998.0         65.643         68.391
          998.5         61.061         66.723
          999.0         57.100         65.899
          999.5         54.904         65.328
         1000.0         53.640         64.714
         1000.5         52.425         64.358
         1001.0         48.702         64.641
         1001.5         43.210         65.041
         1002.0         40.779         65.270
         1002.5         40.240         65.454
         1003.0         39.936         65.001
         1003.5         39.508         64.689
         1004.0         38.671         64.392
         1004.5         36.978         64.085
         1005.0         34.889         64.641
         1005.5         33.735         65.150
         1006.0         34.748         66.092
         1006.5         36.531         67.073
         1007.0         38.499         67.526
         1007.5         40.027         67.715
         1008.0         41.862         67.881
         1008.5         44.467         67.089
         1009.0         47.566         66.421
         1009.5         48.869         65.874
         1010.0         46.310         65.413
         1010.5         45.113         65.214
         1011.0         44.008         64.908
         1011.5         42.641         64.833
         1012.0         41.313         65.977
         1012.5         40.799         67.081
         1013.0         42.973         68.604
         1013.5         45.735         70.737
         1014.0         49.076         72.506
         1014.5         52.290         73.433
         1015.0         55.084         74.446
         1015.5         58.486         74.756
         1016.0         63.751         73.792
         1016.5         68.620         72.315
         1017.0         71.842         71.114
         1017.5         73.818         70.757
         1018.0         75.780         70.209
         1018.5         78.362         68.633
         1019.0         80.526         67.086
         1019.5         82.922         66.368
         1020.0         86.001         65.420
         1020.5         86.683         63.757
         1021.0         85.196         62.477
         1021.5         82.238         62.569
         1022.0         78.402         63.083
         1022.5         74.757         63.280
         1023.0         71.301         63.516
         1023.5         69.315         63.901
         1024.0         67.701         63.524
         1024.5         66.085         63.474
         1025.0         65.307         62.498
         1025.5         65.179         61.668
         1026.0         64.731         60.980
         1026.5         62.744         60.244
         1027.0         60.588         60.891
         1027.5         60.370         62.521
         1028.0         60.665         65.052
         1028.5         61.477         66.929
         1029.0         65.251         67.595
         1029.5         69.103         67.817
         1030.0         70.992         68.001
         1030.5         72.648         65.822
         1031.0         65.368         63.889
         1031.5         60.816         64.747
         1032.0         53.445         65.309
         1032.5         44.296         65.918
         1033.0         41.481         66.284
         1033.5         40.840         66.549
         1034.0         46.011         66.119
         1034.5         50.056         65.672
         1035.0         51.591         65.087
         1035.5         48.816         64.971
         1036.0         46.643         66.366
         1036.5         44.428         67.088
         1037.0         43.452         66.657
         1037.5         43.452         66.473
         1038.0         43.165         66.304
         1038.5         41.968         66.181
         1039.0         41.289         66.092
         1039.5         41.802         66.038
         1040.0         42.257         65.854
         1040.5         42.764         65.690
         1041.0         43.642         66.311
         1041.5         44.952         67.489
         1042.0         46.046         67.220
         1042.5         47.210         66.627
         1043.0         48.795         65.998
         1043.5         50.257         65.563
         1044.0         51.177         65.166
         1044.5         49.448         64.737
         1045.0         46.216         64.402
         1045.5         44.356         64.815
         1046.0         43.750         65.626
         1046.5         44.100         66.159
         1047.0         44.889         66.918
         1047.5         46.268         67.824
         1048.0         49.290         67.512
         1048.5         53.884         66.772
         1049.0         58.586         67.652
         1049.5         63.882         68.393
         1050.0         68.165         66.564
         1050.5         69.075         65.942
         1051.0         69.048         66.111
         1051.5         69.873         66.343
         1052.0         70.913         66.442
         1052.5         69.020         65.852
         1053.0         64.412         65.116
         1053.5         59.566         67.006
         1054.0         58.968         68.154
         1054.5         59.105         65.728
         1055.0         59.608         64.480
         1055.5         60.143         65.213
         1056.0         62.152         65.602
         1056.5         65.018         63.875
         1057.0         67.130         62.534
