~VERSION INFORMATION
 VERS.                2.0:   CWLS LOG ASCII STANDARD - VERSION 2.0
 WRAP.                 NO:   ONE LINE PER DEPTH STEP
~WELL INFORMATION
#MNEM.UNIT      DATA TYPE    INFORMATION
#----------   ------------   ------------------------------
 STRT.FT        8672.0000:   START DEPTH
 STOP.FT       14432.0000:   STOP DEPTH
 STEP.FT           0.5000:   STEP LENGTH
 NULL.          -999.2500:   NULL VALUE
 COMP. CAPITAN ENERGY, INCORPORATED:   COMPANY
 WELL.  MOTHER FEE 28 #1H:   WELL
 FLD . FORD, WEST (WOLFCAMP)	:   FIELD
 LOC .                   :   LOCATION
 CNTY.          CULBERSON:   COUNTY
 STAT.              TEXAS:   STATE
 CTRY. UNITED STATES OF AMERICA:   COUNTRY
 SRVC.        HALLIBURTON:   SERVICE COMPANY
 DATE.        16-Nov-2015:   LOGDATE
 API .     42109328880000:   API NUMBER
~CURVE INFORMATION
#MNEM.UNIT       API CODE    CURVE DESCRIPTION
#----------   ------------   ------------------------------
 DEPT.FT                 :   
 CALD_C.IN   45 280 60 00:   CALIPER FROM DENSITY COMPOSITE LOG
 DCOR.G/C3   45 356 01 00:   DENSITY CORRECTION
 DPHI_LS.DEC 45 890 10 00:   DENSITY POROSITY LIMESTONE
 DT_CH.US/F  60 501 00 00:   DELTA FROM THE FULL WAVE SONIC IN CASED HOLE
 GRD .GAPI   45 310 01 00:   GAMMA RAY FROM DENSITY LOG
 LLDC.OHMM   11 220 10 00:   CORRECTED LATEROLOG DEEP RESISTIVITY
 LLSC.OHMM   11 220 09 00:   CORRECTED LATEROLOG SHALLOW RESISTIVITY
 MSFLC.OHMM  11 270 04 00:   CORRECTED MICRO SPHERICALLY FOCUSED RESISTIVITY
 NPHI_LS.DEC 42 890 01 00:   NEUTRON POROSITY LIMESTONE
 PE  .B/E    45 358 01 00:   PHOTO ELECTRIC CROSS SECTION
 RHOB_CH.G/C3 45 350 01 00:   
~PARAMETER INFORMATION
#MNEM.UNIT          VALUE    DESCRIPTION
#----------   ------------   ------------------------------
 DATE.           11/16/15:   RUN DATE
 RUN .                  1:   RUN NUMBER
 BLI .FT            14432:   BOTTOM LOG INTERVAL
 TLI .FT             8672:   TOP LOG INTERVAL
 ORIG.     1" 2" 5" PRINT:   ORIGIN OF DATA
 UWI .     42109328880000:   UNIQUE WELL ID
~OTHER INFORMATION
~A   DEPT         CALD_C      DCOR       DPHI_LS      DT_CH       GRD        LLDC        LLSC        MSFLC       NPHI_LS         PE      RHOB_CH
# ...
 12872.0000   -999.2500   -999.2500      0.1006     75.5451    141.0255     19.3548     16.9399     10.8468      0.1750      2.8339      2.5463
 12872.5000   -999.2500   -999.2500      0.1025     75.4006    146.4533     20.6937     18.0923     11.4835      0.1758      2.8259      2.5465
 12873.0000   -999.2500   -999.2500      0.0996     75.1854    140.4784     20.1348     16.3572     10.2889      0.1740      2.8107      2.5542
 12873.5000   -999.2500   -999.2500      0.0959     74.9702    130.6870     16.6720     14.6218      9.0594      0.1688      2.8072      2.5604
 12874.0000   -999.2500   -999.2500      0.0974     74.9508    132.4124     20.3870     16.8614     10.0119      0.1687      2.8118      2.5518
 12874.5000   -999.2500   -999.2500      0.1017     75.1131    144.3210     22.0112     19.0871     11.9299      0.1725      2.8084      2.5465
 12875.0000   -999.2500   -999.2500      0.1019     75.2172    145.7860     21.0562     18.1697     11.4191      0.1726      2.7935      2.5464
 12875.5000   -999.2500   -999.2500      0.1033     75.3213    146.5534     20.0353     17.4574     10.9339      0.1726      2.7765      2.5463
 12876.0000   -999.2500   -999.2500      0.1033     75.4254    141.8612     17.5837     15.9265      9.8924      0.1710      2.7631      2.5462
 12876.5000   -999.2500   -999.2500      0.1031     75.5294    138.0699     16.5383     14.8407      9.3911      0.1692      2.7395      2.5462
 12877.0000   -999.2500   -999.2500      0.1015     75.6169    135.6300     16.0552     14.4219      9.2046      0.1672      2.7530      2.5461
 12877.5000   -999.2500   -999.2500      0.1007     75.6042    131.3382     15.7502     14.4249      9.2147      0.1665      2.7530      2.5460
 12878.0000   -999.2500   -999.2500      0.1014     75.5725    143.1500     20.3641     16.7119     10.8318      0.1710      2.7798      2.5420
 12878.5000   -999.2500   -999.2500      0.1059     75.5407    150.4004     22.0315     19.5259     12.0543      0.1760      2.7975      2.5376
 12879.0000   -999.2500   -999.2500      0.1055     75.5090    151.8018     23.3417     20.0343     12.8304      0.1777      2.8339      2.5406
 12879.5000   -999.2500   -999.2500      0.1006     75.4836    136.3432     18.3059     16.0610      9.9559      0.1734      2.8339      2.5448
 12880.0000   -999.2500   -999.2500      0.0996     75.4836    134.9429     17.1426     15.1281      9.7326      0.1734      2.8162      2.5448
 12880.5000   -999.2500   -999.2500      0.0998     75.4988    138.3797     20.7349     15.7495     10.1995      0.1743      2.8272      2.5440
 12881.0000   -999.2500   -999.2500      0.1036     75.5745    148.2563     25.2252     22.0951     13.4220      0.1788      2.8339      2.5419
 12881.5000   -999.2500   -999.2500      0.1076     75.6502    156.3063     28.8175     24.1304     15.6852      0.1792      2.8339      2.5374
 12882.0000   -999.2500   -999.2500      0.1039     75.7334    137.8094     25.6273     21.7870     13.4664      0.1745      2.8036      2.5429
 12882.5000   -999.2500   -999.2500      0.1007     75.9499    141.0126     19.1940     16.6700     10.2563      0.1694      2.7616      2.5454
 12883.0000   -999.2500   -999.2500      0.1017     76.3162    140.5407     15.6133     13.8356      9.0075      0.1706      2.7211      2.5456
 12883.5000   -999.2500   -999.2500      0.1039     76.5494    138.1097     13.9342     12.5230      8.3952      0.1733      2.6901      2.5443
 12884.0000   -999.2500   -999.2500      0.1022     76.8158    142.4140     14.2697     11.9979      7.7221      0.1746      2.6720      2.5426
 12884.5000   -999.2500   -999.2500      0.1079     78.7308    149.3210     17.2424     14.4434      9.1761      0.1839      2.6720      2.5338
 12885.0000   -999.2500   -999.2500      0.1148     78.7090    169.2193     21.6260     18.6528     12.3907      0.1946      2.6852      2.5220
 12885.5000   -999.2500   -999.2500      0.1176     78.5168    173.5237     23.4312     19.6763     13.5722      0.1973      2.6591      2.5205
 12886.0000   -999.2500   -999.2500      0.1130     78.3247    163.2633     19.2072     16.4985     10.4648      0.1907      2.6055      2.5271
 12886.5000   -999.2500   -999.2500      0.1113     78.2145    160.6607     17.3023     15.4600      9.8501      0.1875      2.5755      2.5309
 12887.0000   -999.2500   -999.2500      0.1105     78.3749    160.2102     18.7491     16.0941     10.4785      0.1860      2.5742      2.5309
 12887.5000   -999.2500   -999.2500      0.1140     78.6771    166.9570     22.2322     19.5494     12.3470      0.1903      2.5910      2.5254
 12888.0000   -999.2500   -999.2500      0.1187     78.9793    179.7800     24.3866     21.1918     13.6923      0.1997      2.5910      2.5200
 12888.5000   -999.2500   -999.2500      0.1203     79.2815    180.2304     21.0600     18.8477     12.4356      0.1981      2.5910      2.5156
 12889.0000   -999.2500   -999.2500      0.1189     79.5837    171.5217     19.8566     17.5950     11.6570      0.1970      2.5910      2.5167
 12889.5000   -999.2500   -999.2500      0.1214     79.8859    175.1088     23.4222     18.9012     13.2980      0.2011      2.5910      2.5146
 12890.0000   -999.2500   -999.2500      0.1241     80.0129    188.5397     26.7129     23.0368     15.3388      0.2054      2.5829      2.5149
 12890.5000   -999.2500   -999.2500      0.1214     78.8729    185.5366     26.3178     21.5155     13.5681      0.1997      2.5728      2.5173
 12891.0000   -999.2500   -999.2500      0.1156     77.7329    171.0216     20.6899     18.4300     11.8215      0.1896      2.5748      2.5221
 12891.5000   -999.2500   -999.2500      0.1108     76.9143    164.9882     20.4312     17.8299     11.5017      0.1836      2.6002      2.5315
 12892.0000   -999.2500   -999.2500      0.1075     76.5740    161.0750     20.9292     18.7486     11.8846      0.1810      2.6461      2.5358
 12892.5000   -999.2500   -999.2500      0.1057     76.2337    157.9081     22.4101     20.0074     12.3449      0.1808      2.6720      2.5393
 12893.0000   -999.2500   -999.2500      0.1051     75.8934    157.9081     23.9062     20.8379     12.7204      0.1819      2.7125      2.5436
 12893.5000   -999.2500   -999.2500      0.1033     75.5532    149.7997     21.7785     18.4881     11.5494      0.1782      2.7125      2.5457
 12894.0000   -999.2500   -999.2500      0.1015     75.3837    140.2014     19.0255     15.9241     10.3606      0.1736      2.7125      2.5460
 12894.5000   -999.2500   -999.2500      0.1003     75.4574    136.4689     17.2652     15.4286      9.7226      0.1723      2.7125      2.5448
 12895.0000   -999.2500   -999.2500      0.1030     75.8255    140.6232     17.2606     15.3274      9.7999      0.1740      2.7125      2.5437
 12895.5000   -999.2500   -999.2500      0.1050     76.1935    138.8714     17.0978     14.7787      9.5842      0.1751      2.7125      2.5425
 12896.0000   -999.2500   -999.2500      0.1030     76.5616    132.9653     15.5787     13.7085      8.5335      0.1737      2.7125      2.5414
 12896.5000   -999.2500   -999.2500      0.1034     76.8158    140.8735     15.7202     13.5755      9.1543      0.1774      2.7125      2.5362
 12897.0000   -999.2500   -999.2500      0.1096     76.8491    149.4824     19.5169     16.3907     11.1087      0.1829      2.7125      2.5326
 12897.5000   -999.2500   -999.2500      0.1076     76.6493    144.4772     17.1877     15.3798      9.7109      0.1790      2.6957      2.5381
 12898.0000   -999.2500   -999.2500      0.1050     76.4828    136.4689     14.8196     12.3420      8.0511      0.1745      2.6732      2.5398
 12898.5000   -999.2500   -999.2500      0.1023     76.6826    127.7600     12.4943     11.1890      7.4862      0.1734      2.6730      2.5397
 12899.0000   -999.2500   -999.2500      0.1057     76.9157    133.0654     12.8940     11.5791      7.7926      0.1754      2.6728      2.5396
 12899.5000   -999.2500   -999.2500      0.1045     76.7492    131.1635     12.8775     11.4336      7.6661      0.1739      2.6726      2.5394
