~VERSION INFORMATION
VERS. 2.0 : CWLS Log ASCII Standard - version 2.0
WRAP.  NO : One line per depth step
#--------------------------------------------------#
#----------------DRILLING INFO, INC.---------------#
#---------------WWW.DRILLINGINFO.COM---------------#
#------------------COPYRIGHT 2015------------------#
#--------------------------------------------------#
#THIS FILE MAY BE USED ONLY IN ACCORDANCE WITH A CURRENT SUBSCRIPTION AGREEMENT BETWEEN
#THE USER AND DRILLING INFO, INC. NO PART OF THIS FILE MAY BE REPRODUCED, USED, COPIED,
#MODIFIED, PROPAGATED, OR DISTRIBUTED EXCEPT IN ACCORDANCE WITH THE SUBSCRIPTION
#AGREEMENT. UNAUTHORIZED USE OR DISTRIBUTION OF ALL OR ANY PART OF THIS FILE MAY VIOLATE
#COPYRIGHT, TRADEMARK, AND/OR OTHER LAWS AND IS SUBJECT TO CIVIL AS WELL AS CRIMINAL
#SANCTIONS.
#--------------------------------------------------#
#THIS FILE IS PROVIDED "AS-IS" AND ALL WARRANTIES ARE EXPRESSLY DISCLAIMED, WHETHER
#EXPRESS, ORAL, IMPLIED, STATUTORY OR OTHERWISE, INCLUDING ANY IMPLIED WARRANTY OF FITNESS
#FOR A PARTICULAR PURPOSE, MERCHANTABILITY, TITLE OR NON-INFRINGEMENT, AND ANY WARRANTIES
#ARISING BY VIRTUE OF CUSTOM OF TRADE OR COURSE OF DEALING.  FURTHER, DRILLING INFO,
#INC. AND ITS LICENSORS DO NOT REPRESENT OR WARRANT THAT THIS FILE WILL MEET USER'S
#REQUIREMENTS OR ARE SUITABLE FOR USER'S NEEDS OR THAT THE DATA OR RESULTS PROVIDED IN
#CONJUNCTION THEREWITH ARE CORRECT, ACCURATE, TIMELY OR RELIABLE. THESE DISCLAIMERS SHALL
#APPLY REGARDLESS OF ANY FAILURE OF ESSENTIAL PURPOSE OF ANY LIMITED REMEDY.  SOME
#JURISDICTIONS DO NOT ALLOW THE EXCLUSION OF CERTAIN WARRANTIES SO SOME OF THE ABOVE
#EXCLUSIONS MAY NOT APPLY. IN NO EVENT SHALL DRILLING INFO, INC. OR ANY OF ITS AFFILIATES
#BE LIABLE UNDER ANY LEGAL THEORY, WHETHER IN TORT (INCLUDING WITHOUT LIMITATION
#NEGLIGENCE), CONTRACT, STRICT LIABILITY, STATUTORY OR OTHERWISE, FOR ANY SPECIAL,
#INCIDENTAL, CONSEQUENTIAL, EXEMPLARY, PUNITIVE OR INDIRECT DAMAGE OF ANY KIND, INCLUDING
#WITHOUT LIMITATION LOSS OF REVENUE, PROFITS, GOODWILL, USE, AND/OR DATA OR THE COST OF
#PROCUREMENT OF SUBSTITUTE GOODS OR SERVICES, EVEN IF APPRISED OF THE POSSIBILITY OF SUCH
#DAMAGES IN ADVANCE.
#--------------------------------------------------#
~WELL INFORMATION
#MNEMONIC     .UNIT              VALUE :DESCRIPTION
#--------------------------------------------------#
STRT       .FT                181 :START DEPTH
STOP       .FT                12231 :STOP DEPTH
STEP       .FT                   0.500 :STEP
NULL       .                  -999.250 :NULL
API        .                421093228700 :API NUMBER
COMP       .         CHESAPEAKE OPERATING  INC. :COMPANY
WELL       .        UNIVERSITY LANDS 4627  1 :WELL
DATE       .                06-May-2007 :LOG DATE
~CURVE INFORMATION
#MNEMONIC     .UNIT      API CODE :CURVE DESCRIPTION
#--------------------------------------------------#
DEPTH       .FT                      :Measured Depth
ILS.OHM        UNKNOWN   :ILS
GR.API        UNKNOWN   :GR
ILD.OHM        UNKNOWN   :ILD
CAL.INCH        UNKNOWN   :CAL
DT.US/FT        UNKNOWN   :DT
~A    DEPTH    ILS    GR    ILD    CAL    DT
# ...
 11415.5     9.746   132.341   9.147   6.165   -999.250
 11416     10.442   131.356   9.541   6.166   -999.250
 11416.5     10.938   130.37   9.634   6.168   -999.250
 11417     10.937   129.384   9.326   6.17   -999.250
 11417.5     10.937   129.167   9.111   6.171   -999.250
 11418     11.364   129.082   9.069   6.173   -999.250
 11418.5     12.377   127.825   9.548   6.175   -999.250
 11419     12.753   126.567   10.026   6.175   -999.250
 11419.5     12.517   125.31   10.304   6.148   -999.250
 11420     12.068   125.79   10.297   6.121   -999.250
 11420.5     11.592   127.148   9.688   6.122   -999.250
 11421     10.31   128.505   9.08   6.129   -999.250
 11421.5     9.246   127.989   8.471   6.135   -999.250
 11422     10.191   122.273   8.855   6.14   -999.250
 11422.5     11.137   117.691   9.952   6.137   -999.250
 11423     12.083   119.19   10.01   6.134   -999.250
 11423.5     12.075   120.688   10.068   6.131   -999.250
 11424     11.763   122.187   10.098   6.128   -999.250
 11424.5     11.235   123.685   10.098   6.126   -999.250
 11425     9.905   125.184   9.474   6.123   -999.250
 11425.5     8.575   126.682   8.244   6.12   -999.250
 11426     7.605   128.18   7.551   6.117   -999.250
 11426.5     8.22   129.679   8.219   6.114   -999.250
 11427     8.834   131.177   9.038   6.111   -999.250
 11427.5     9.448   132.676   9.857   6.108   -999.250
 11428     10.063   133.116   10.675   6.106   -999.250
 11428.5     10.677   132.21   11.002   6.101   -999.250
 11429     11.291   131.304   11.243   6.096   -999.250
 11429.5     11.905   126.325   11.564   6.091   -999.250
 11430     12.519   118.107   12.312   6.086   -999.250
 11430.5     13.482   109.888   13.598   6.081   -999.250
 11431     15.361   108.414   15.334   6.082   -999.250
 11431.5     14.874   110.58   16.261   6.083   -999.250
 11432     13.289   112.746   14.439   6.084   -999.250
 11432.5     12.493   113.422   12.618   6.085   -999.250
 11433     12.188   113.667   11.996   6.086   -999.250
 11433.5     11.883   113.913   11.94   6.087   -999.250
 11434     11.579   115.07   11.272   6.088   -999.250
 11434.5     11.274   118.331   10.738   6.089   -999.250
 11435     11.627   122.063   10.878   6.09   -999.250
 11435.5     12.287   124.579   11.017   6.091   -999.250
 11436     12.947   119.095   11.157   6.091   -999.250
 11436.5     14.581   110.615   12.312   6.092   -999.250
 11437     18.159   102.134   15.933   6.093   -999.250
 11437.5     17.971   95.283   18.188   6.094   -999.250
 11438     17.261   97.975   17.927   6.095   -999.250
 11438.5     16.525   105.491   17.666   6.096   -999.250
 11439     15.789   111.509   17.405   6.097   -999.250
 11439.5     15.053   113.873   16.318   6.098   -999.250
 11440     14.197   116.237   15.166   6.099   -999.250
 11440.5     13.337   118.602   14.014   6.1   -999.250
 11441     12.477   121.893   12.862   6.101   -999.250
 11441.5     11.618   125.293   11.71   6.102   -999.250
 11442     10.758   127.183   10.559   6.103   -999.250
 11442.5     9.899   126.947   9.447   6.104   -999.250
 11443     9.039   126.71   9.595   6.107   -999.250
 11443.5     9.356   126.503   9.743   6.115   -999.250
 11444     9.649   128.513   9.928   6.124   -999.250
 11444.5     9.721   129.577   10.117   6.133   -999.250
 11445     9.792   128.581   10.307   6.142   -999.250
 11445.5     9.977   127.585   10.497   6.151   -999.250
 11446     10.626   127.134   10.523   6.159   -999.250
 11446.5     10.867   126.926   10.286   6.168   -999.250
 11447     10.081   126.717   10.048   6.177   -999.250
 11447.5     9.295   127.994   9.799   6.186   -999.250
 11448     9.165   129.614   9.538   6.195   -999.250
 11448.5     9.112   129.162   9.432   6.203   -999.250
 11449     9.174   126.282   9.643   6.21   -999.250
 11449.5     9.449   123.402   9.855   6.17   -999.250
 11450     9.724   120.801   10.028   6.13   -999.250
 11450.5     9.994   124.135   10.095   6.105   -999.250
 11451     9.795   127.469   10.162   6.106   -999.250
 11451.5     9.595   130.803   10.007   6.107   -999.250
 11452     9.396   132.638   9.779   6.108   -999.250
 11452.5     9.196   131.617   9.551   6.109   -999.250
 11453     8.997   128.85   9.323   6.11   -999.250
 11453.5     8.798   126.084   9.095   6.112   -999.250
 11454     8.598   126.645   8.867   6.113   -999.250
 11454.5     8.399   127.798   8.639   6.114   -999.250
 11455     8.2   128.586   8.411   6.115   -999.250
 11455.5     8.093   129.257   8.297   6.116   -999.250
 11456     8.202   130.448   8.279   6.117   -999.250
 11456.5     8.311   131.902   8.39   6.118   -999.250
 11457     8.42   133.072   8.502   6.119   -999.250
 11457.5     8.529   132.956   8.613   6.12   -999.250
 11458     8.652   133.593   8.725   6.121   -999.250
 11458.5     8.829   135.056   8.836   6.122   -999.250
 11459     9.005   136.519   8.948   6.123   -999.250
 11459.5     9.182   133.449   9.059   6.124   -999.250
 11460     9.358   128.736   9.171   6.125   -999.250
 11460.5     9.378   124.024   9.283   6.127   -999.250
 11461     8.987   123.492   9.213   6.128   -999.250
 11461.5     8.596   124.673   8.719   6.129   -999.250
 11462     8.265   125.853   8.568   6.13   -999.250
 11462.5     8.54   126.414   8.775   6.131   -999.250
 11463     8.814   125.59   8.983   6.132   -999.250
 11463.5     9.022   124.965   9.19   6.133   -999.250
 11464     9.23   124.471   9.4   6.134   -999.250
 11464.5     9.439   123.977   9.625   6.135   -999.250
 11465     9.647   123.482   9.849   6.136   -999.250
 11465.5     9.673   126.104   9.737   6.137   -999.250
 11466     9.432   128.94   9.453   6.138   -999.250
 11466.5     9.191   131.731   9.169   6.139   -999.250
 11467     9.005   134.471   9.044   6.139   -999.250
 11467.5     9.004   137.21   9.029   6.136   -999.250
 11468     9.004   139.021   9.014   6.134   -999.250
 11468.5     9.004   139.711   8.998   6.131   -999.250
 11469     9.004   140.401   8.983   6.129   -999.250
 11469.5     8.793   140.351   8.738   6.127   -999.250
 11470     8.063   136.494   8.304   6.124   -999.250
 11470.5     7.334   127.713   7.871   6.122   -999.250
 11471     7.715   118.933   7.842   6.119   -999.250
 11471.5     8.216   114.669   7.985   6.117   -999.250
 11472     8.253   115.207   7.985   6.116   -999.250
 11472.5     8.198   118.347   7.985   6.116   -999.250
 11473     8.492   121.487   8.306   6.116   -999.250
 11473.5     9.002   123.187   8.671   6.116   -999.250
 11474     8.95   123.05   8.902   6.116   -999.250
 11474.5     8.899   121.784   8.902   6.116   -999.250
 11475     8.986   120.518   8.937   6.116   -999.250
 11475.5     9.231   119.251   9.108   6.116   -999.250
 11476     9.476   119.496   9.28   6.116   -999.250
 11476.5     9.721   119.764   9.451   6.116   -999.250
 11477     9.625   120.032   9.503   6.116   -999.250
 11477.5     9.449   120.3   9.478   6.116   -999.250
 11478     9.273   120.568   9.454   6.116   -999.250
 11478.5     9.096   120.682   9.43   6.116   -999.250
 11479     8.92   120.744   9.406   6.116   -999.250
 11479.5     8.957   120.806   9.381   6.116   -999.250
 11480     9.08   123.003   9.357   6.117   -999.250
 11480.5     9.202   127.529   9.333   6.12   -999.250
 11481     9.324   131.79   9.308   6.123   -999.250
 11481.5     9.446   132.836   9.284   6.125   -999.250
 11482     9.535   129.274   9.157   6.128   -999.250
 11482.5     9.429   125.712   9.016   6.124   -999.250
 11483     9.322   124.753   8.901   6.121   -999.250
 11483.5     9.216   125.619   8.901   6.117   -999.250
 11484     9.109   126.485   8.901   6.113   -999.250
 11484.5     9.003   127.351   8.904   6.11   -999.250
 11485     8.896   128.216   8.914   6.106   -999.250
 11485.5     8.79   128.753   8.924   6.103   -999.250
 11486     8.79   128.946   8.934   6.099   -999.250
 11486.5     8.894   129.138   8.944   6.096   -999.250
 11487     8.999   130.572   8.954   6.092   -999.250
 11487.5     9.103   134.348   8.964   6.117   -999.250
