# Exported from Transform Software 5.2.0 on 27-Jun-2019 by user brian.umlang
# DI Transform - A Product of Drillinginfo, Inc. - www.drillinginfo.com
#
~VERSION INFORMATION
 VERS.        2.0 : LAS ASCII STANDARD - VERSION 2.0
 WRAP.         NO : ONE LINE PER DEPTH STEP

~WELL INFORMATION
#MNEM.UNIT       DATA TYPE       INFORMATION
#---------       ---------       -----------
 STRT.ft                   0 : Start Depth
 STOP.ft               12430 : Stop Depth
 STEP.ft                 0.5 : Step Length
 NULL.               -999.25 : Null Value
 COMP.                       : Company
 WELL.  42109313590000_API14 : Well Name
 FLD.                        : Field Name
 LOC.                        : Well Location
 CNTY.                       : County
 STAT.                       : State or Province
 CTRY.                       : Country
 SRVC.                       : Service Company
 DATE.                       : Date
 API.         42109313590000 : Well Identifier

~CURVE INFORMATION
#MNEM.UNIT       API CODE       CURVE DESCRIPTION
#---------       --------       -----------------
 DEPT.ft          : <Measured Depth>
 CAL.in           : Caliper
 DPHI.%           : Density Porosity
 DT.us/ft         : Sonic
 GR.gAPI          : Gamma Ray
 ILD.ohmm         : Deep Resistivity
 ILM.ohmm         : Medium Resistivity
 ILS.ohmm         : Shallow Resistivity
 NPHI.%           : Neutron Porosity
 RHOB.g/cm3       : Density
 SP.mV            : Spontaneous Potential

~PARAMETER INFORMATION
#MNEM.UNIT       VALUE       DESCRIPTION
#---------       -----       -----------
 EKB.ft      3771 : Elevation above MSL

~A      DEPT         CAL        DPHI          DT          GR         ILD         ILM         ILS        NPHI        RHOB          SP
# ...
      1372.5     -999.25     -999.25     57.3553     35.9694     -999.25     -999.25     -999.25     -999.25     -999.25     -999.25
        1373     -999.25     -999.25      57.558     35.3176     -999.25     -999.25     -999.25     -999.25     -999.25     -999.25
      1373.5     -999.25     -999.25      57.558     35.9694     -999.25     -999.25     -999.25     -999.25     -999.25     -999.25
        1374     -999.25     -999.25     57.5817     36.2001     -999.25     -999.25     -999.25     -999.25     -999.25     -999.25
      1374.5     -999.25     -999.25     57.6186     32.2906     -999.25     -999.25     -999.25     -999.25     -999.25     -999.25
        1375     -999.25     -999.25     56.9768      30.932     -999.25     -999.25     -999.25     -999.25     -999.25     -999.25
      1375.5     -999.25     -999.25     56.3076     29.5735     -999.25     -999.25     -999.25     -999.25     -999.25     -999.25
        1376     -999.25     -999.25     56.6498     27.9599     -999.25     -999.25     -999.25     -999.25     -999.25     -999.25
      1376.5     -999.25     -999.25     57.1021     30.7644     -999.25     -999.25     -999.25     -999.25     -999.25     -999.25
        1377     -999.25     -999.25     57.3764     32.1551     -999.25     -999.25     -999.25     -999.25     -999.25     -999.25
      1377.5     -999.25     -999.25     57.4746     33.0034     -999.25     -999.25     -999.25     -999.25     -999.25     -999.25
        1378     -999.25     -999.25     57.4405     33.4184     -999.25     -999.25     -999.25     -999.25     -999.25     -999.25
      1378.5     -999.25     -999.25     57.3764     33.9347     -999.25     -999.25     -999.25     -999.25     -999.25     -999.25
        1379     -999.25     -999.25     57.0992     35.2041     -999.25     -999.25     -999.25     -999.25     -999.25     -999.25
      1379.5     -999.25     -999.25     57.0675     35.2041     -999.25     -999.25     -999.25     -999.25     -999.25     -999.25
        1380     13.2985     -999.25     57.3158     35.4456     -999.25     -999.25     -999.25     -999.25     -999.25     -999.25
      1380.5     13.4339     -999.25     57.3158     -999.25     -999.25     -999.25     -999.25     29.9927     -999.25     -999.25
        1381     13.5345      3.7168     57.4886     21.4497     -999.25     -999.25     -999.25     29.9808      2.8311     -999.25
      1381.5      13.635      3.4693      57.558     20.3904     -999.25     -999.25     -999.25     29.9688      2.8526     -999.25
        1382     13.7473      3.1421     57.6186     19.1333     -999.25     -999.25     -999.25     29.9568      2.8742     -999.25
      1382.5     13.8264      2.8148     57.6791     18.7377     -999.25     -999.25     -999.25     29.9449      2.8957     -999.25
        1383     13.8264      2.3543     58.1713     20.1166     -999.25     -999.25     -999.25     29.9329      2.9061     -999.25
      1383.5     13.7733      1.7119      58.605     21.3738     -999.25     -999.25     -999.25      29.921      2.9093     -999.25
        1384     13.6884      1.7365      60.658     22.6567     -999.25     -999.25     -999.25      29.909      2.9104     -999.25
      1384.5     13.6884      1.5058     62.7432     22.6824     -999.25     -999.25       0.926      29.897      2.9093    -31.9258
        1385     13.6884      2.0932     65.9339     22.6824     -999.25     -999.25       0.926     29.8851      2.9053    -32.4863
      1385.5     13.6884       0.289     69.3131     23.1971     -999.25     -999.25       0.926     29.8731      2.8621     -33.012
        1386     13.6884      1.1127     85.0429     24.4542     -999.25     -999.25       0.926     29.8611      2.8099    -33.5891
      1386.5     13.6884      3.5204     84.7705      25.641    881.6202     -999.25       0.926     29.8492      2.8059    -34.8633
        1387     13.4047      5.5778     84.1846     35.8617    881.6202     -999.25       0.926     29.8372      2.7951    -36.1473
      1387.5     13.3902      2.8777      82.957     46.7167    881.6202     -999.25      0.9119     29.8253      2.7935    -37.2048
        1388      13.458     -3.3733     82.3017     48.5587    881.6202     -999.25      0.9217     29.8133      2.7903    -37.9036
      1388.5     13.5116     -3.6305      79.839     49.9705    881.6202     -999.25      0.8583     29.8013      2.7875    -39.3143
        1389     13.5524     -6.8967     73.3751     68.6654    881.6202     -999.25      0.8634     29.7894      2.7732    -40.2782
      1389.5     13.5621     -999.25     69.4248     71.9621    881.6202     -999.25      1.5346     29.7774      2.7694     -41.617
        1390     13.5621     -999.25      70.945     80.6156    875.2542     -999.25      2.4867     28.6768      2.7674    -42.5973
      1390.5     13.5744     27.2091     72.9647       80.64    160.5605     -999.25      3.5828     27.5495      2.7654    -43.6228
        1391     13.5935     29.5159     73.3602     92.4615      5.2052     -999.25      5.1989     29.8479      2.6708    -45.1266
      1391.5     13.6112     29.7605     72.4207       88.69      1.9943     -999.25     10.4777     29.7771      2.5364    -46.2892
        1392     13.6315     29.8403     69.1396     64.4601      2.9093     -999.25     42.5086     29.6416      2.5084    -48.4882
      1392.5      13.634     29.8403     66.8502     51.2042      5.4625     -999.25     44.3707     29.5359      2.4864    -51.2023
        1393     13.6511     29.6806     67.3226      58.326      10.268     -999.25     46.3146     29.5359      2.4808    -55.4786
      1393.5      13.658     29.6806     69.4427     59.5831     19.2964     -999.25     47.7245     29.6565      2.4896    -60.8306
        1394      13.658     29.6806     71.8293     75.1949      36.255     -999.25     47.0375     29.7771        2.51    -64.2447
      1394.5      13.658     29.6008     72.5126     91.2063     68.1024     -999.25      48.848     29.8977       2.525    -68.5365
        1395      13.658     29.6008     71.8157     83.2443     127.898     -999.25     50.9878     29.8977      2.5362      -71.04
      1395.5      13.658     29.8403     69.8369     72.8364    240.1454     -999.25     52.0104     29.8977      2.5222     -73.425
        1396     13.6599     29.6676      68.181     39.9006    450.8127     -999.25     52.4478     29.7224      2.5308    -74.9402
      1396.5      13.682     28.5315     68.0163     38.6435    461.7886     -999.25     52.4478     28.8898       2.543    -76.3331
        1397      13.682     27.7435     68.1534      39.638     432.216     -999.25     50.6752     27.3242      2.5477    -76.3378
      1397.5     13.7059     26.9838     68.5014     40.4017    370.1357     -999.25     46.0886     -999.25      2.5527    -78.4343
        1398     13.7059     27.9439     69.0034     40.9877    303.3226     -999.25      36.895     27.0905      2.5504    -77.4946
      1398.5     13.7299     29.2541     69.1826       41.53    159.2271     -999.25      36.895     29.6581      2.5461    -68.8883
        1399     13.7538     -999.25     69.0415     42.1028      31.456     -999.25      36.895     29.2947      2.5389    -60.6533
      1399.5     13.7538     -999.25      68.659     42.3726     26.6977     -999.25      41.459     28.8814      2.5348     -49.292
        1400     13.7695     -999.25     68.5186     42.5989     26.3933     -999.25     46.5419     28.3931      2.5468    -47.3995
      1400.5     13.7791     -999.25      68.534      42.905     26.1813     16.8702     52.4734     28.2031      2.5482    -45.5904
        1401     13.8036     -999.25     68.9166     43.3375     25.9711     16.8702     48.2343     27.4676      2.5485    -43.4726
      1401.5     13.8257     -999.25     69.3574      43.628     25.2094     16.8702     48.2343     27.3754      2.5493    -42.7952
        1402     13.8737      27.914     69.7259     43.6628     24.6193     16.8702     44.8976     29.5489      2.5522    -42.0964
      1402.5     13.8976     29.1493     70.2725     44.0742     24.6193     16.8702     40.3137     29.1521      2.5495    -40.9015
