###############################################
##         ENVERUS                           ##
##         ESS - Open Hole                   ##
##         PERMIAN / DELAWARE                ##
##         Nov 02 2023  V4.0                 ##
##         42-109-31383-00-00                ##
###############################################
## Copyright 2017-2023  ENVERUS.  All Rights Reserved. 
## Confidential - Property of ENVERUS, use governed by terms and 
## conditions found within the existing Information Services Subscription Agreement 
## (as may be amended, the “ISSA”) between Customer and ENVERUS. 
## 
~VERSION INFORMATION
# MNEM.UNIT                               DATA : DESCRIPTION OF MNEMONIC
#-----.-----     ----------------------------- : -----------------------------
VERS.                                     2.00 : CWLS LOG ASCII STANDARD - VERSION 2.00
WRAP.                                       NO : MULTIPLE LINES PER DEPTH STEP
VEND.                                  ENVERUS : VENDOR
TYPE.                          ESS - OPEN HOLE : ENVERUS ESSENTIAL CURVES – ACCESSIBLE THROUGH ENVERUS PRISM(TM)
DOC.                                  31887493 : ENVERUS HEADER RAW DOCUMENT ID
#___________________________________________________________________________________________________ 
~WELL INFORMATION 
# e8MMFGpko9nixUfuEkfb9P8cKS4olzuguLrtdgPIjARTX3oRymgI2EYtnk6GmA/F0PbYW2Z7xnLx5OgyGayifw== 
# MNEM.UNIT                                              DATA : DESCRIPTION OF MNEMONIC 
#-----.-----                    ----------------------------- : ----------------------------- 
CNTY.                                               CULBERSON : COUNTY 
STATE.                                                  TEXAS : STATE 
CNTRY.                                                    USA : COUNTRY 
API.                                             42-109-31383 : API (10 Digit) 
API_14.                                    42-109-31383-00-00 : API (14 Digits) 
API_14_std.                                 42-109-31383-0000 : API (14 Digits Standard) 
UWI.                                           42109313830000 : UNIQUE WELL ID 
WELL.                                          KIRK  T. A.  1 : WELL NAME
STRT.FT                                                  43.0 : START DEPTH
STOP.FT                                               16492.0 : STOP DEPTH
STEP.FT                                                   0.5 : STEP BETWEEN DEPTHS
NULL.                                                 -999.25 : NULL VALUE
COMP.                                             EXXON CORP. : COMPANY 
DATE.                                             05-AUG-1981 : LOG DATE
#___________________________________________________________________________________________________ 
~CURVE INFORMATION 
# MNEM.UNIT           : CURVE DESCRIPTION 
#-----.-----          : ----------------------------- 
 DEPT.FT               : MEASURED DEPTH 
 CALI.IN               : CALIPER (CAL - CAL) 
 GR.API                : GAMMA RAY (GR) 
 SP.MV                 : SPONTANEOUS POTENTIAL (SP) 
 DT.US/FT              : SONIC DELTA TRANSIT TIME (DT) 
 RESS.OHMM             : SHALLOW INDUCTION RESISTIVITY (ILS - ILS) 
 RESD.OHMM             : DEEP INDUCTION RESISTIVITY (ILD - ILD) 
 NPHI.V/V              : NEUTRON POROSITY (NPHI) 
 #___________________________________________________________________________________________________ 
~A         DEPT           CALI             GR             SP             DT           RESS           RESD           NPHI
# ...
        10662.5          9.624         85.164       -999.250         80.646         37.287         21.883     -999.25000
        10663.0          9.616         78.096       -999.250         77.414         39.973         23.790     -999.25000
        10663.5          9.608         74.161       -999.250         74.182         65.419         25.690     -999.25000
        10664.0          9.601         72.832       -999.250         71.476        116.451         27.545     -999.25000
        10664.5          9.593         71.502       -999.250         70.729        202.970         29.137     -999.25000
        10665.0          9.585         70.202       -999.250         69.982        289.490         28.242     -999.25000
        10665.5          9.577         68.963       -999.250         69.762        376.009         27.347     -999.25000
        10666.0          9.569         67.723       -999.250         69.574        462.528         26.451     -999.25000
        10666.5          9.561         66.484       -999.250         69.386        549.047         25.556     -999.25000
        10667.0          9.554         65.245       -999.250         69.198         22.271         24.661     -999.25000
        10667.5          9.546         67.408       -999.250         69.010         20.376         23.766     -999.25000
        10668.0          9.538         70.415       -999.250         68.774         24.559         22.871     -999.25000
        10668.5          9.530         70.183       -999.250         68.518         28.742         27.594     -999.25000
        10669.0          9.522         68.703       -999.250         68.262         32.924         32.419     -999.25000
        10669.5          9.514         67.223       -999.250         68.005         37.107         36.324     -999.25000
        10670.0          9.507         65.743       -999.250         67.749         37.448         36.667     -999.25000
        10670.5          9.499         64.263       -999.250         67.190         36.547         37.010     -999.25000
        10671.0          9.491         62.783       -999.250         66.288         35.646         37.353     -999.25000
        10671.5          9.483         27.839       -999.250         65.385         34.745         37.816     -999.25000
        10672.0          9.475         26.302       -999.250         63.024         33.844         38.292     -999.25000
        10672.5          9.467         24.764       -999.250         59.888         33.860         38.768     -999.25000
        10673.0          9.460         23.227       -999.250         56.752         35.803         39.218     -999.25000
        10673.5          9.452         21.689       -999.250         55.181         37.746         39.548     -999.25000
        10674.0          9.444         20.152       -999.250         54.690         39.688         39.878     -999.25000
        10674.5          9.436         18.615       -999.250         54.200         41.629         40.209     -999.25000
        10675.0          9.428         17.077       -999.250         53.709         41.454         40.539     -999.25000
        10675.5          9.420         18.973       -999.250         53.219         41.279         40.869     -999.25000
        10676.0          9.434         24.999       -999.250         52.869         41.104         41.199     -999.25000
        10676.5          9.455         30.806       -999.250         52.719         40.929         41.529     -999.25000
        10677.0          9.476         36.011       -999.250         52.568         46.022         41.859     -999.25000
        10677.5          9.496         41.217       -999.250         52.418         80.848         42.190     -999.25000
        10678.0          9.517         46.422       -999.250         52.267        129.956         45.735     -999.25000
        10678.5          9.538         51.628       -999.250         53.840        338.048         57.733     -999.25000
        10679.0          9.559         56.834       -999.250         56.028        655.716         80.381     -999.25000
        10679.5          9.580         65.569       -999.250         58.217        973.385        103.029     -999.25000
        10680.0          9.601         77.650       -999.250         61.149       1291.054        125.676     -999.25000
        10680.5          9.622         89.732       -999.250         65.005       1608.723        148.324     -999.25000
        10681.0          9.643        101.814       -999.250         68.861       1759.627        170.972     -999.25000
        10681.5          9.651        107.700       -999.250         72.716       1758.542        193.620     -999.25000
        10682.0          9.644        104.267       -999.250         76.572       1757.458        216.268     -999.25000
        10682.5          9.637        100.834       -999.250         80.428       1756.373        230.388     -999.25000
        10683.0          9.631         97.400       -999.250         80.334       1755.289        205.538     -999.25000
        10683.5          9.630         93.967       -999.250         77.632       1754.204        174.243     -999.25000
        10684.0          9.634         91.646       -999.250         76.157       1753.120        142.201     -999.25000
        10684.5          9.638         90.914       -999.250         75.741       1752.035        110.158     -999.25000
        10685.0          9.643         90.182       -999.250         75.324       1750.951         78.115     -999.25000
        10685.5          9.647         89.450       -999.250         75.626       1749.866         60.292     -999.25000
        10686.0          9.651         88.719       -999.250         76.305         18.718         44.143     -999.25000
        10686.5          9.656         87.987       -999.250         76.984         16.352         27.995     -999.25000
        10687.0          9.660         88.551       -999.250         77.663         17.279         13.598     -999.25000
        10687.5          9.664         90.171       -999.250         78.162         18.206         12.940     -999.25000
        10688.0          9.668         91.763       -999.250         78.376         19.133         12.282     -999.25000
        10688.5          9.673         93.329       -999.250         78.590         20.736         11.624     -999.25000
        10689.0          9.677         94.895       -999.250         79.094         26.263         12.328     -999.25000
        10689.5          9.667         96.461       -999.250         80.010         31.790         13.494     -999.25000
        10690.0          9.648         98.027       -999.250         80.925         37.317         14.659     -999.25000
        10690.5          9.629         99.593       -999.250         81.841         37.473         15.882     -999.25000
        10691.0          9.611         98.639       -999.250         81.243         34.409         17.605     -999.25000
        10691.5          9.592         94.358       -999.250         80.019         31.345         19.137     -999.25000
        10692.0          9.573         90.078       -999.250         78.795         28.281         18.636     -999.25000
        10692.5          9.555         85.798       -999.250         77.571         26.039         18.135     -999.25000
        10693.0          9.536         84.078       -999.250         76.347         29.722         17.634     -999.25000
        10693.5          9.520         83.267       -999.250         75.414         33.406         17.134     -999.25000
        10694.0          9.521         82.455       -999.250         75.921         33.481         16.633     -999.25000
        10694.5          9.523         81.643       -999.250         76.223         30.117         16.132     -999.25000
        10695.0          9.524         80.832       -999.250         76.155         26.754         15.912     -999.25000
        10695.5          9.526         80.020       -999.250         76.087         23.390         16.118     -999.25000
