~Version Information
 VERS.                  2.0:   CWLS log ASCII Standard -VERSION 2.0
 WRAP.                   NO:   One line per depth step
~Well Information Block
#MNEM.UNIT     VALUE/NAME     DESCRIPTION
#---------     -----------    ---------------------------
 STRT.F              8564.0000: START DEPTH
 STOP.F             14132.0000: STOP DEPTH
 STEP.F                 0.5000: STEP DEPTH
 NULL.                 -999.25: NULL VALUE
 FL6 .       API  42-109-33219:  LOCATIONLINE6
 LOC .     253' FEL & 408' FNL:  LOCATION
 FL4 .           ABSTRACT 1760:  LOCATIONLINE4
 FL3 .        T&P RR CO SURVEY:  LOCATIONLINE3
 FL2 .     SECTION 32, BLOCK 58 T2:  LOCATIONLINE2
 FL1 .     253' FEL & 408' FNL:  LOCATIONLINE1
 DMF .                      KB:  DRILL MEAS FROM
 PDAT.                      GL:  PERMANENT DATUM
 CTRY.                     USA:  COUNTRY NAME
 PROV.                   TEXAS:  PROVINCE
 STAT.                   TEXAS:  STATE NAME
 CNTY.               CULBERSON:  COUNTY NAME
 FLD .     FORD, WEST (WOLFCAMP):  FIELD NAME
 WELL.        MOTHER FEE 28 2H:  WELL NAME
 COMP.     CAPITAN ENERGY INC.:  COMPANY
 DATE.             24-Jan-2018:  DATE
 SVCO.             Halliburton:  SERVICECONAME
 HIDE.                        :  WELLNAMEOPERAT
 BASI.                 PERMIAN:  BASIN
 UWI .            42-109-33219LAT:  UNIQUE WELL IDENTIFIER
 API .            42-109-33219LAT:  API NUMBER
 RANG.                     N/A:  RANGE
 TOWN.                     N/A:  TOWNSHIP
 SECT.                     N/A:  SECTION
 SON .               904563795:  JOB NUMBER
 SRVC.             Halliburton:  SERVICE COMPANY
 LMF .                      KB:  LOG MEASURED FROM
 EGL .ft             3142.0000:  GROUND ELEVATION
 BAP .ft                0.0000:  GL ELEV ONSHORE
 GVFD.g                 1.0000:  GRAVITY FIELD
 EKB .ft             3167.0000:  KB ELEVATION
 EDF .ft             3166.0000:  DF ELEVATION
~Curve Information Block
#MNEM.UNIT                 API CODE     Curve Description
#---------               -----------    ---------------------------
 DEPT.F                 00 000 000 000:  Depth
 CCL .V                 00 000 000 000:  Casing Collar Locator
 NPHI_OH.pu             00 000 000 000:  NPHI_OH
 NPHI_CHI.pu            00 000 000 000:  NPHI_CHI
 GR_OH.api              00 000 000 000:  GR_OH
 GR_CHI.api             00 000 000 000:  GR_CHI
 RHOB_OH.g/cc           00 000 000 000:  RHOB_OH
 RHOB_CHI.g/cc          00 000 000 000:  RHOB_CHI
 PE_OH.b/e              00 000 000 000:  PE_OH
 PE_CHI.b/e             00 000 000 000:  PE_CHI
 DTC_OH.uspf            00 000 000 000:  DTC_OH
 DTC_CHI.uspf           00 000 000 000:  DTC_CHI
 SPHI_CHI.pu            00 000 000 000:  SPHI_CHI
 RT10_OH.ohmm           00 000 000 000:  RT10_OH
 RT10_CHI.ohmm          00 000 000 000:  RT10_CHI
 RT30_OH.ohmm           00 000 000 000:  RT30_OH
 RT30_CHI.ohmm          00 000 000 000:  RT30_CHI
 RT90_OH.ohmm           00 000 000 000:  RT90_OH
 RT90_CHI.ohmm          00 000 000 000:  RT90_CHI
 SGF .cu                00 000 000 000:  Formation Sigma
 CRNF.NONE              00 000 000 000:  CaptMode Capt Ratio
 RIN .NONE              00 000 000 000:  CaptMode Gross Inel Ratio
#Other Information
#
#WARRANTY: Halliburton will use its best efforts to furnish customers with 
#accurate information and interpretations that are part of, and incident to, the services 
#provided.  However, Halliburton cannot and does not warrant the accuracy 
#or correctness of such information and interpretations.  Under no circumstances should any 
#such information or interpretation be relied upon as the sole basis for any drilling, 
#completion, production, or financial decision or any procedure involving any risk to the 
#safety of any drilling venture, drilling rig or its crew or any other third party.  The 
#Customer has full responsibility for all drilling, completion and production operation.  
#Halliburton makes no representations or warranties, either expressed or 
#implied, including, but not limited to, the implied warranties of merchantability or fitness 
#for a particular purpose, with respect to the services rendered.  In no event will 
#Halliburton be liable for failure to obtain any particular results or for 
#any damages, including, but not limited to, indirect, special or consequential damages, 
#resulting from the use of any information or interpretation provided by Halliburton.
#
~A    DEPT       CCL    NPHI_OH NPHI_CHI  GR_OH    GR_CHI  RHOB_OH RHOB_CHI  PE_OH   PE_CHI   DTC_OH  DTC_CHI SPHI_CHI RT10_OH  RT10_CHI RT30_OH  RT30_CHI RT90_OH  RT90_CHI   SGF    CRNF   RIN   
# ...
    9677.0000    0.0000 -999.25   6.9751  -999.25  72.2853 -999.25   2.6438 -999.25    4.1664 -999.25 64.3756  11.8600  -999.25  71.8792  -999.25  76.7578  -999.25  90.3075 18.6764 0.8967 1.0510
    9677.5000    0.0000 -999.25   7.0856  -999.25  72.3576 -999.25   2.6410 -999.25    4.1051 -999.25 64.4635  11.9300  -999.25  71.8353  -999.25  76.6252  -999.25  90.0376 18.8755 0.8965 1.0547
    9678.0000    0.0000 -999.25   6.4602  -999.25  56.9979 -999.25   2.6458 -999.25    4.0952 -999.25 64.3679  11.8600  -999.25  74.1829  -999.25  79.4110  -999.25  92.4818 18.9376 0.8908 1.0559
    9678.5000    0.0000 -999.25   7.2209  -999.25  73.1261 -999.25   2.6398 -999.25    4.0823 -999.25 64.7989  12.1600  -999.25  69.9501  -999.25  74.4627  -999.25  87.3673 19.0136 0.8914 1.0543
    9679.0000    0.0000 -999.25   7.3409  -999.25  74.8842 -999.25   2.6391 -999.25    4.0756 -999.25 65.0195  12.3200  -999.25  68.4758  -999.25  72.7357  -999.25  85.2988 19.0590 0.8965 1.0523
    9679.5000    0.0000 -999.25   6.7775  -999.25  64.3139 -999.25   2.6445 -999.25    4.1056 -999.25 64.6916  12.0900  -999.25  71.9512  -999.25  76.7250  -999.25  89.6005 19.1073 0.9030 1.0527
    9680.0000    0.0000 -999.25   6.8336  -999.25  67.6310 -999.25   2.6440 -999.25    4.1036 -999.25 64.4464  11.9100  -999.25  73.2010  -999.25  77.9538  -999.25  91.2339 19.3199 0.9108 1.0540
    9680.5000    0.0000 -999.25   6.8272  -999.25  66.6077 -999.25   2.6429 -999.25    4.0746 -999.25 64.3952  11.8800  -999.25  73.8286  -999.25  78.6558  -999.25  91.9974 19.4545 0.9155 1.0553
    9681.0000    0.0000 -999.25   7.5147  -999.25  78.7851 -999.25   2.6353 -999.25    3.9942 -999.25 64.7840  12.1500  -999.25  70.2985  -999.25  74.3917  -999.25  87.3021 19.6598 0.9141 1.0573
    9681.5000    0.0000 -999.25   7.7537  -999.25  79.3074 -999.25   2.6309 -999.25    3.9151 -999.25 65.1455  12.4100  -999.25  68.4666  -999.25  72.3312  -999.25  84.7015 19.7822 0.9154 1.0602
    9682.0000    0.0000 -999.25   7.7198  -999.25  76.5041 -999.25   2.6304 -999.25    3.8781 -999.25 65.3423  12.5500  -999.25  68.2615  -999.25  72.0711  -999.25  84.1599 19.9908 0.9185 1.0654
    9682.5000    0.0000 -999.25   7.9170  -999.25  80.1192 -999.25   2.6293 -999.25    3.8796 -999.25 65.5842  12.7200  -999.25  65.8745  -999.25  69.3172  -999.25  80.9339 20.2412 0.9165 1.0712
    9683.0000    0.0000 -999.25   7.6005  -999.25  71.9460 -999.25   2.6324 -999.25    3.8817 -999.25 65.8116  12.8800  -999.25  66.3699  -999.25  69.9586  -999.25  81.2967 20.3986 0.9160 1.0733
    9683.5000    0.0000 -999.25   7.6709  -999.25  71.2170 -999.25   2.6318 -999.25    3.8652 -999.25 66.1774  13.1400  -999.25  64.4980  -999.25  67.8738  -999.25  78.6930 20.4784 0.9123 1.0713
    9684.0000    0.0000 -999.25   7.9054  -999.25  75.3831 -999.25   2.6306 -999.25    3.8658 -999.25 66.5026  13.3700  -999.25  61.3817  -999.25  64.2884  -999.25  74.4819 20.5436 0.9133 1.0690
    9684.5000    2.7586 -999.25   8.3000  -999.25  82.7244 -999.25   2.6272 -999.25    3.8438 -999.25 66.7558  13.5500  -999.25  57.7960  -999.25  60.1192  -999.25  69.6385 20.8568 0.9187 1.0703
    9685.0000    2.7254 -999.25   8.4022  -999.25  86.0586 -999.25   2.6263 -999.25    3.8432 -999.25 66.6198  13.4500  -999.25  57.5295  -999.25  59.7055  -999.25  69.2322 21.1930 0.9246 1.0753
    9685.5000    2.6922 -999.25   8.4215  -999.25  88.0287 -999.25   2.6261 -999.25    3.8326 -999.25 66.4324  13.3200  -999.25  57.9777  -999.25  59.9991  -999.25  69.5837 21.6740 0.9328 1.0785
    9686.0000    2.6590 -999.25   8.3126  -999.25  81.7977 -999.25   2.6264 -999.25    3.7800 -999.25 66.9423  13.6800  -999.25  56.5369  -999.25  58.3424  -999.25  67.1918 21.9944 0.9375 1.0814
    9686.5000    2.6259 -999.25   8.8576  -999.25  88.9326 -999.25   2.6203 -999.25    3.6953 -999.25 67.5695  14.1200  -999.25  50.3066  -999.25  51.1842  -999.25  58.5796 22.3302 0.9476 1.0817
    9687.0000    2.5927 -999.25   9.0491  -999.25  89.2187 -999.25   2.6172 -999.25    3.6267 -999.25 67.9817  14.4100  -999.25  48.0507  -999.25  48.6088  -999.25  55.3666 22.6340 0.9591 1.0833
    9687.5000    2.5595 -999.25   9.2443  -999.25  91.8344 -999.25   2.6138 -999.25    3.5570 -999.25 68.0580  14.4700  -999.25  47.1092  -999.25  47.3591  -999.25  53.7982 22.8728 0.9672 1.0872
    9688.0000    2.5263 -999.25   9.5234  -999.25  93.9848 -999.25   2.6091 -999.25    3.4686 -999.25 68.3810  14.7000  -999.25  45.4395  -999.25  45.3896  -999.25  51.3565 23.0488 0.9753 1.0881
    9688.5000    2.4931 -999.25   9.4853  -999.25  88.8792 -999.25   2.6078 -999.25    3.4133 -999.25 68.7947  14.9900  -999.25  45.9734  -999.25  46.0545  -999.25  51.9804 23.1481 0.9748 1.0859
    9689.0000    2.4599 -999.25   9.7121  -999.25  91.9824 -999.25   2.6047 -999.25    3.3621 -999.25 68.9427  15.0900  -999.25  44.4098  -999.25  44.1989  -999.25  49.7441 23.3204 0.9638 1.0819
    9689.5000    2.4267 -999.25   9.9688  -999.25  94.3604 -999.25   2.6007 -999.25    3.2996 -999.25 69.1634  15.2500  -999.25  43.6277  -999.25  43.2794  -999.25  48.6273 23.4331 0.9560 1.0779
    9690.0000    2.3935 -999.25  10.2645  -999.25  99.4330 -999.25   2.5974 -999.25    3.2620 -999.25 69.2203  15.2900  -999.25  41.8938  -999.25  41.2762  -999.25  46.2811 23.5646 0.9492 1.0772
    9690.5000    2.3603 -999.25  10.4437  -999.25 105.0962 -999.25   2.5965 -999.25    3.2669 -999.25 69.0594  15.1800  -999.25  39.7800  -999.25  38.8424  -999.25  43.4583 23.6266 0.9520 1.0777
    9691.0000    2.3271 -999.25  10.0641  -999.25  99.7135 -999.25   2.6013 -999.25    3.3088 -999.25 68.9280  15.0800  -999.25  40.8175  -999.25  39.9555  -999.25  44.7012 23.6638 0.9604 1.0770
    9691.5000    2.2939 -999.25   9.1308  -999.25  85.1176 -999.25   2.6107 -999.25    3.3756 -999.25 68.1749  14.5500  -999.25  48.1651  -999.25  47.9708  -999.25  53.9522 23.9980 0.9769 1.0772
    9692.0000    2.2607 -999.25   9.5649  -999.25  93.2740 -999.25   2.6062 -999.25    3.3401 -999.25 68.3659  14.6900  -999.25  45.1136  -999.25  44.5282  -999.25  50.0121 24.5921 0.9896 1.0784
    9692.5000    2.2275 -999.25  10.5134  -999.25 109.0819 -999.25   2.5965 -999.25    3.2471 -999.25 68.8772  15.0500  -999.25  37.7709  -999.25  36.3958  -999.25  40.5240 25.4943 1.0035 1.0824
    9693.0000    2.1944 -999.25  10.7334  -999.25 107.6580 -999.25   2.5918 -999.25    3.1215 -999.25 69.4087  15.4200  -999.25  37.0210  -999.25  35.4264  -999.25  39.1747 26.3658 1.0139 1.0877
    9693.5000    2.1612 -999.25  10.9855  -999.25 107.1495 -999.25   2.5883 -999.25    3.0095 -999.25 70.0391  15.8700  -999.25  34.3087  -999.25  32.3504  -999.25  35.3668 26.8371 1.0106 1.0927
    9694.0000    2.1280 -999.25  11.4153  -999.25 109.7985 -999.25   2.5841 -999.25    2.9358 -999.25 70.7716  16.3900  -999.25  31.1332  -999.25  28.9719  -999.25  31.3561 27.0451 1.0075 1.0959
    9694.5000    2.0948 -999.25  11.3791  -999.25 104.9897 -999.25   2.5846 -999.25    2.8915 -999.25 71.1246  16.6400  -999.25  29.7897  -999.25  27.5281  -999.25  29.5517 27.0949 1.0002 1.0980
    9695.0000    2.0616 -999.25  11.3808  -999.25 103.8747 -999.25   2.5851 -999.25    2.8816 -999.25 71.1763  16.6700  -999.25  28.7205  -999.25  26.4035  -999.25  28.2209 27.3197 1.0067 1.1007
    9695.5000    2.0284 -999.25  11.7441  -999.25 110.5547 -999.25   2.5829 -999.25    2.8846 -999.25 71.4107  16.8400  -999.25  26.3793  -999.25  24.0072  -999.25  25.5373 27.5064 1.0223 1.1049
    9696.0000    1.9952 -999.25  11.3016  -999.25 104.3259 -999.25   2.5867 -999.25    2.8885 -999.25 70.8429  16.4400  -999.25  27.8933  -999.25  25.4840  -999.25  27.1601 27.7000 1.0436 1.1093
    9696.5000    1.9620 -999.25  11.6516  -999.25 109.7046 -999.25   2.5841 -999.25    2.8714 -999.25 71.1427  16.6500  -999.25  26.1778  -999.25  23.7117  -999.25  25.1598 27.9386 1.0589 1.1119
    9697.0000    1.9288 -999.25  12.0084  -999.25 110.8560 -999.25   2.5810 -999.25    2.8290 -999.25 71.7973  17.1100  -999.25  24.9396  -999.25  22.4738  -999.25  23.7040 28.1564 1.0638 1.1117
    9697.5000    1.8956 -999.25  11.8427  -999.25 100.1112 -999.25   2.5817 -999.25    2.7784 -999.25 72.1353  17.3500  -999.25  25.8084  -999.25  23.3782  -999.25  24.5771 28.4236 1.0569 1.1098
