###############################################
##         ENVERUS                           ##
##         ESS - Open Hole                   ##
##         PERMIAN / DELAWARE                ##
##         Nov 03 2023  V4.0                 ##
##         42-109-32538-90-00                ##
###############################################
## Copyright 2017-2023  ENVERUS.  All Rights Reserved. 
## Confidential - Property of ENVERUS, use governed by terms and 
## conditions found within the existing Information Services Subscription Agreement 
## (as may be amended, the “ISSA”) between Customer and ENVERUS. 
## 
~VERSION INFORMATION
# MNEM.UNIT                               DATA : DESCRIPTION OF MNEMONIC
#-----.-----     ----------------------------- : -----------------------------
VERS.                                     2.00 : CWLS LOG ASCII STANDARD - VERSION 2.00
WRAP.                                       NO : MULTIPLE LINES PER DEPTH STEP
VEND.                                  ENVERUS : VENDOR
TYPE.                          ESS - OPEN HOLE : ENVERUS ESSENTIAL CURVES – ACCESSIBLE THROUGH ENVERUS PRISM(TM)
DOC.                                  51093252 : ENVERUS HEADER RAW DOCUMENT ID
#___________________________________________________________________________________________________ 
~WELL INFORMATION 
# oCCetX3e+0pvkDd8h//i1tmWwvIHyfHqsQII3M49Y6eU5HggNAlLoqtwY+vCuZvzOG9Fr+Tv1xe2vto6NUMufQ== 
# MNEM.UNIT                                              DATA : DESCRIPTION OF MNEMONIC 
#-----.-----                    ----------------------------- : ----------------------------- 
CNTY.                                               CULBERSON : COUNTY 
STATE.                                                  TEXAS : STATE 
CNTRY.                                                    USA : COUNTRY 
API.                                             42-109-32538 : API (10 Digit) 
API_14.                                    42-109-32538-90-00 : API (14 Digits) 
API_14_std.                                 42-109-32538-9000 : API (14 Digits Standard) 
UWI.                                           42109325389000 : UNIQUE WELL ID 
WELL.                                                  DRD_55 : WELL NAME
STRT.FT                                                2546.5 : START DEPTH
STOP.FT                                               11260.0 : STOP DEPTH
STEP.FT                                                   0.5 : STEP BETWEEN DEPTHS
NULL.                                                 -999.25 : NULL VALUE
PREV_APII.                                     42109325380000 : WELL IDENTIFIER
#___________________________________________________________________________________________________ 
~PARAMETER INFORMATION 
# MNEM.UNIT                                              DATA : DESCRIPTION OF MNEMONIC 
#-----.-----                    ----------------------------- : ----------------------------- 
EKB.FT                                                   3182 : ELEVATION ABOVE MSL
#___________________________________________________________________________________________________ 
~CURVE INFORMATION 
# MNEM.UNIT           : CURVE DESCRIPTION 
#-----.-----          : ----------------------------- 
 DEPT.FT               : MEASURED DEPTH 
 CALI.IN               : CALIPER (CAL - CALIPER) 
 GR.API                : GAMMA RAY (GAMMA RAY) 
 DT.US/FT              : SONIC DELTA TRANSIT TIME (SONIC) 
 RESS.OHMM             : SHALLOW INDUCTION RESISTIVITY (ILS - SHALLOW RESISTIVITY) 
 RESD.OHMM             : DEEP INDUCTION RESISTIVITY (ILD - DEEP RESISTIVITY) 
 DPHI.V/V              : DENSITY POROSITY (DENSITY POROSITY) 
 NPHI.V/V              : NEUTRON POROSITY (NEUTRON POROSITY) 
 RHOB.G/CC             : BULK DENSITY (DENSITY) 
 #___________________________________________________________________________________________________ 
~A         DEPT           CALI             GR             DT           RESS           RESD           DPHI           NPHI           RHOB
# ...
        10806.5          6.153        129.214         87.444         22.603         21.718        0.11571        0.20385         2.5047
        10807.0          6.154        127.689         87.657         26.048         23.797        0.13000        0.21336         2.5096
        10807.5          6.154        129.099         86.628         29.250         25.511        0.12365        0.21635         2.5047
        10808.0          6.155        125.675         84.571         28.480         22.907        0.13025        0.19905         2.4873
        10808.5          6.155        122.692         82.921         24.329         20.976        0.13800        0.22127         2.4948
        10809.0          6.156        118.036         81.596         22.583         19.203        0.12915        0.21865         2.5216
        10809.5          6.156        114.036         81.080         21.921         18.876        0.10795        0.22128         2.5378
        10810.0          6.147        113.001         81.049         22.093         19.524        0.10752        0.22184         2.5326
        10810.5          6.156        111.121         81.188         25.007         24.904        0.12046        0.21846         2.5084
        10811.0          6.156        113.611         81.431         30.341         26.927        0.12612        0.20821         2.5203
        10811.5          6.155        114.197         80.707         32.417         28.091        0.11385        0.20814         2.5322
        10812.0          6.154        111.179         79.554         32.742         28.195        0.10609        0.21295         2.5389
        10812.5          6.153         98.397         77.432         30.459         26.901        0.10441        0.19824         2.5532
        10813.0          6.152         88.328         74.825         26.072         22.651        0.10075        0.16573         2.6045
        10813.5          6.151         86.418         72.806         22.978         21.529        0.06207        0.17759         2.6696
        10814.0          6.150         66.340         71.612         22.978         24.517        0.01577        0.19203         2.6966
        10814.5          6.149         77.384         71.176         32.879         31.381        0.00913        0.15822         2.6805
        10815.0          6.148        100.062         72.205         37.399         43.183        0.02427        0.13801         2.6300
        10815.5          6.147        107.161         73.287         38.567         41.472        0.06278        0.10126         2.5832
        10816.0          6.146        109.085         74.673         24.021         27.760        0.08382        0.07931         2.5743
        10816.5          6.145        105.118         75.583         13.770         17.434        0.07767        0.10578         2.5963
        10817.0          6.144        105.852         75.992         11.789         14.150        0.06714        0.14119         2.6031
        10817.5          6.143        105.791         75.583         11.397         13.566        0.06503        0.13557         2.6051
        10818.0          6.142         86.162         74.830         11.610         14.225        0.06503        0.15456         2.6052
        10818.5          6.141         83.519         73.801         13.127         15.191        0.06503        0.14815         2.6093
        10819.0          6.140         82.306         73.181         14.465         16.700        0.06192        0.13828         2.6211
        10819.5          6.139         84.266         72.311         15.755         17.687        0.05217        0.13654         2.6375
        10820.0          6.138         83.950         71.532         16.399         18.899        0.04284        0.13963         2.6371
        10820.5          6.137         82.164         70.911         17.034         19.818        0.04917        0.14271         2.6215
        10821.0          6.136         83.174         69.882         17.356         20.392        0.05948        0.13848         2.6134
        10821.5          6.135         82.419         68.853         16.835         20.769        0.06046        0.13456         2.6055
        10822.0          6.134         84.253         67.421         16.639         21.165        0.06516        0.13148         2.5919
        10822.5          6.133         84.208         65.982         16.136         21.165        0.07862        0.13129         2.5787
        10823.0          6.132         70.212         64.538         15.551         21.198        0.08137        0.13129         2.5919
        10823.5          6.131         63.187         63.722         15.788         22.696        0.06585        0.12959         2.6218
        10824.0          6.130         61.091         63.313         17.302         25.595        0.04674        0.12994         2.6351
        10824.5          6.129         56.434         63.948         19.981         31.691        0.04616        0.11240         2.6390
        10825.0          6.129         53.975         64.977         25.770         39.838        0.04680        0.13187         2.6399
        10825.5          6.138         60.135         66.007         32.095         49.774        0.04511        0.13550         2.6169
        10826.0          6.144         64.499         67.036         37.206         54.920        0.07419        0.13601         2.5837
        10826.5          6.156         81.087         67.403         37.466         39.993        0.08200        0.13488         2.5891
        10827.0          6.156         89.992         67.348         24.000         26.721        0.07005        0.13734         2.6088
        10827.5          6.156         86.806         66.727         18.448         21.719        0.06105        0.13819         2.6152
        10828.0          6.156         75.475         66.585         15.810         20.466        0.05766        0.13327         2.6178
        10828.5          6.156         71.819         67.274         16.605         21.967        0.05644        0.13280         2.6204
        10829.0          6.156         69.038         68.344         23.647         27.122        0.05377        0.11592         2.6235
        10829.5          6.147         55.805         70.092         33.718         37.766        0.05367        0.10300         2.5984
        10830.0          6.129         85.480         72.502         37.324         45.583        0.07340        0.17166         2.5580
        10830.5          6.129         91.638         73.845         33.944         40.881        0.09801        0.15551         2.5572
        10831.0          6.130        104.082         74.356         28.434         30.773        0.09465        0.15466         2.5640
        10831.5          6.132        119.315         73.627         21.115         22.558        0.08539        0.19849         2.5536
        10832.0          6.133        121.987         72.598         17.690         16.459        0.09826        0.20214         2.5377
        10832.5          6.134        119.281         71.568         15.969         15.947        0.10991        0.20413         2.5246
        10833.0          6.135        116.212         70.948         16.144         16.360        0.11692        0.20434         2.5168
        10833.5          6.136        115.182         70.493         17.479         17.155        0.12043        0.21143         2.5220
        10834.0          6.137        106.701         72.943         18.288         18.681        0.11229        0.22447         2.5308
        10834.5          6.138         98.215         75.052         19.365         22.207        0.10955        0.19740         2.5335
        10835.0          6.139        101.164         77.748         18.595         23.441        0.10826        0.15518         2.5336
        10835.5          6.140        113.330         79.620         17.913         23.738        0.10888        0.14155         2.5358
