###############################################
##         ENVERUS                           ##
##         ESS - Open Hole                   ##
##         PERMIAN / DELAWARE                ##
##         Nov 02 2023  V4.0                 ##
##         42-109-10071-00-00                ##
###############################################
## Copyright 2017-2023  ENVERUS.  All Rights Reserved. 
## Confidential - Property of ENVERUS, use governed by terms and 
## conditions found within the existing Information Services Subscription Agreement 
## (as may be amended, the “ISSA”) between Customer and ENVERUS. 
## 
~VERSION INFORMATION
# MNEM.UNIT                               DATA : DESCRIPTION OF MNEMONIC
#-----.-----     ----------------------------- : -----------------------------
VERS.                                     2.00 : CWLS LOG ASCII STANDARD - VERSION 2.00
WRAP.                                       NO : MULTIPLE LINES PER DEPTH STEP
VEND.                                  ENVERUS : VENDOR
TYPE.                          ESS - OPEN HOLE : ENVERUS ESSENTIAL CURVES – ACCESSIBLE THROUGH ENVERUS PRISM(TM)
DOC.                                  31950413 : ENVERUS HEADER RAW DOCUMENT ID
#___________________________________________________________________________________________________ 
~WELL INFORMATION 
# OfUh2+mdeFjroaXzMJDg/lRWUsinBwpBr+LWp9Jgnw936lSgPWOOCrYxw0Bz1A8ekYSC2IJg55FhS+cGr4hs3w== 
# MNEM.UNIT                                              DATA : DESCRIPTION OF MNEMONIC 
#-----.-----                    ----------------------------- : ----------------------------- 
CNTY.                                               CULBERSON : COUNTY 
STATE.                                                  TEXAS : STATE 
CNTRY.                                                    USA : COUNTRY 
API.                                             42-109-10071 : API (10 Digit) 
API_14.                                    42-109-10071-00-00 : API (14 Digits) 
API_14_std.                                 42-109-10071-0000 : API (14 Digits Standard) 
UWI.                                           42109100710000 : UNIQUE WELL ID 
WELL.                                                  DRD_55 : WELL NAME
STRT.FT                                                 320.5 : START DEPTH
STOP.FT                                               12359.5 : STOP DEPTH
STEP.FT                                                   0.5 : STEP BETWEEN DEPTHS
NULL.                                                 -999.25 : NULL VALUE
#___________________________________________________________________________________________________ 
~PARAMETER INFORMATION 
# MNEM.UNIT                                              DATA : DESCRIPTION OF MNEMONIC 
#-----.-----                    ----------------------------- : -----------------------------
#___________________________________________________________________________________________________ 
~CURVE INFORMATION 
# MNEM.UNIT           : CURVE DESCRIPTION 
#-----.-----          : ----------------------------- 
 DEPT.FT               : MEASURED DEPTH 
 GR.API                : GAMMA RAY (GAMMA RAY) 
 DT.US/FT              : SONIC DELTA TRANSIT TIME (SONIC) 
 #___________________________________________________________________________________________________ 
~A         DEPT             GR             DT
# ...
        10673.5         50.035         53.973
        10674.0         43.652         54.135
        10674.5         41.680         53.501
        10675.0         40.134         51.769
        10675.5         39.594         52.310
        10676.0         39.910         52.711
        10676.5         40.502         51.736
        10677.0         43.696         52.165
        10677.5         45.939         52.249
        10678.0         45.747         52.669
        10678.5         42.964         52.984
        10679.0         42.521         53.315
        10679.5         44.496         53.811
        10680.0         47.904         53.945
        10680.5         50.511         54.116
        10681.0         47.062         53.737
        10681.5         43.266         53.266
        10682.0         41.342         52.342
        10682.5         36.416         51.397
        10683.0         30.189         50.804
        10683.5         27.459         49.427
        10684.0         27.779         49.030
        10684.5         29.139         49.268
        10685.0         32.239         49.924
        10685.5         35.168         50.023
        10686.0         38.980         49.477
        10686.5         37.712         49.829
        10687.0         38.023         51.582
        10687.5         44.950         52.592
        10688.0         51.876         52.943
        10688.5         58.437         54.458
        10689.0         57.274         56.671
        10689.5         56.865         58.884
        10690.0         61.902         58.437
        10690.5         68.395         58.912
        10691.0         67.466         60.126
        10691.5         62.415         60.752
        10692.0         57.924         60.949
        10692.5         56.705         60.225
        10693.0         55.486         60.602
        10693.5         53.859         60.296
        10694.0         52.380         59.359
        10694.5         50.398         58.421
        10695.0         45.411         57.484
        10695.5         40.423         56.546
        10696.0         37.178         55.609
        10696.5         39.267         54.832
        10697.0         39.922         54.592
        10697.5         41.134         54.913
        10698.0         42.212         55.537
        10698.5         42.539         55.885
        10699.0         43.890         56.294
        10699.5         45.136         56.526
        10700.0         46.383         57.087
        10700.5         47.629         57.605
        10701.0         48.875         57.920
        10701.5         49.084         57.534
        10702.0         48.757         56.763
        10702.5         47.390         55.992
        10703.0         44.606         55.221
        10703.5         42.179         54.662
        10704.0         41.626         53.400
        10704.5         42.539         52.029
        10705.0         40.123         51.183
        10705.5         28.907         50.715
        10706.0         21.545         49.959
        10706.5         20.491         48.483
        10707.0         22.597         48.384
        10707.5         26.282         48.291
        10708.0         29.455         48.285
        10708.5         28.646         48.358
        10709.0         26.833         48.611
        10709.5         27.370         48.325
        10710.0         28.764         48.190
        10710.5         29.123         48.809
        10711.0         28.541         49.379
        10711.5         27.053         49.576
        10712.0         29.494         49.576
        10712.5         34.750         49.669
        10713.0         47.244         50.445
        10713.5         52.683         51.580
        10714.0         52.648         52.574
        10714.5         45.171         52.821
        10715.0         41.563         53.151
        10715.5         40.576         54.015
        10716.0         42.081         53.877
        10716.5         45.300         53.358
        10717.0         56.515         53.024
        10717.5         64.204         54.055
        10718.0         67.720         55.256
        10718.5         72.556         56.457
        10719.0         77.798         57.658
        10719.5         80.625         58.859
        10720.0         74.727         59.760
        10720.5         74.514         59.857
        10721.0         74.514         59.525
        10721.5         75.519         58.947
        10722.0         82.954         58.936
        10722.5         79.518         59.504
        10723.0         78.015         58.940
        10723.5         78.506         58.766
        10724.0         80.821         58.943
        10724.5         84.861         58.397
        10725.0         87.932         58.311
        10725.5         88.763         59.089
        10726.0         89.066         60.118
        10726.5         92.558         61.375
        10727.0         91.726         63.097
        10727.5         84.748         63.717
        10728.0         74.662         64.179
        10728.5         64.577         62.052
        10729.0         61.181         60.300
        10729.5         60.595         58.617
        10730.0         61.576         57.142
        10730.5         63.745         55.832
        10731.0         63.745         55.983
        10731.5         61.455         57.044
        10732.0         53.064         56.579
        10732.5         46.423         59.315
        10733.0         45.080         58.476
        10733.5         42.899         56.956
        10734.0         36.721         53.412
        10734.5         31.143         53.504
        10735.0         34.918         53.654
        10735.5         41.706         52.267
        10736.0         46.066         52.875
        10736.5         43.494         54.948
        10737.0         41.384         57.325
        10737.5         41.341         57.221
        10738.0         41.183         56.302
        10738.5         40.591         55.286
        10739.0         39.345         54.471
        10739.5         36.372         51.797
        10740.0         34.562         49.748
        10740.5         33.165         48.942
        10741.0         28.147         49.207
        10741.5         26.570         49.377
        10742.0         26.505         48.066
        10742.5         26.178         49.201
        10743.0         26.579         49.138
        10743.5         29.150         49.075
        10744.0         32.016         49.718
        10744.5         33.687         50.632
        10745.0         40.897         51.548
        10745.5         45.898         52.464
        10746.0         47.120         53.379
        10746.5         49.359         54.295
        10747.0         54.300         54.423
        10747.5         56.772         55.249
        10748.0         57.691         57.350
        10748.5         59.230         59.371
        10749.0         66.852         58.848
        10749.5         69.726         58.202
        10750.0         65.205         58.125
        10750.5         44.336         57.008
        10751.0         41.201         55.513
        10751.5         45.159         53.263
        10752.0         49.117         53.182
        10752.5         53.076         53.555
        10753.0         56.401         54.312
        10753.5         54.389         54.374
        10754.0         52.356         54.225
        10754.5         49.922         53.697
        10755.0         46.819         53.250
        10755.5         46.277         53.535
        10756.0         48.454         54.137
        10756.5         52.249         54.779
        10757.0         54.269         56.078
        10757.5         55.188         58.158
        10758.0         55.628         58.790
        10758.5         54.766         63.715
        10759.0         54.319         63.202
        10759.5         54.647         61.406
        10760.0         50.152         59.179
