###############################################
##         ENVERUS                           ##
##         ESS - Open Hole                   ##
##         PERMIAN / DELAWARE                ##
##         Nov 02 2023  V4.0                 ##
##         42-109-32255-00-00                ##
###############################################
## Copyright 2017-2023  ENVERUS.  All Rights Reserved. 
## Confidential - Property of ENVERUS, use governed by terms and 
## conditions found within the existing Information Services Subscription Agreement 
## (as may be amended, the “ISSA”) between Customer and ENVERUS. 
## 
~VERSION INFORMATION
# MNEM.UNIT                               DATA : DESCRIPTION OF MNEMONIC
#-----.-----     ----------------------------- : -----------------------------
VERS.                                     2.00 : CWLS LOG ASCII STANDARD - VERSION 2.00
WRAP.                                       NO : MULTIPLE LINES PER DEPTH STEP
VEND.                                  ENVERUS : VENDOR
TYPE.                          ESS - OPEN HOLE : ENVERUS ESSENTIAL CURVES – ACCESSIBLE THROUGH ENVERUS PRISM(TM)
DOC.                                  22531479 : ENVERUS HEADER RAW DOCUMENT ID
#___________________________________________________________________________________________________ 
~WELL INFORMATION 
# hWe/832LbRsDOXT7erJRLf+k/AYA64twV/RtTeeHm/CkPExvlrAQ0qJE/El28xU0WYmlktkqeCNHArF5iUyCGg== 
# MNEM.UNIT                                              DATA : DESCRIPTION OF MNEMONIC 
#-----.-----                    ----------------------------- : ----------------------------- 
CNTY.                                               CULBERSON : COUNTY 
STATE.                                                  TEXAS : STATE 
CNTRY.                                                    USA : COUNTRY 
API.                                             42-109-32255 : API (10 Digit) 
API_14.                                    42-109-32255-00-00 : API (14 Digits) 
API_14_std.                                 42-109-32255-0000 : API (14 Digits Standard) 
UWI.                                           42109322550000 : UNIQUE WELL ID 
WELL.                               MELISSA TAYLOR STATE 27-1 : WELL NAME
STRT.FT                                                7612.0 : START DEPTH
STOP.FT                                               13645.5 : STOP DEPTH
STEP.FT                                                   0.5 : STEP BETWEEN DEPTHS
NULL.                                                 -999.25 : NULL VALUE
COMP.                                         PETRO-HUNT,LLC. : COMPANY 
FLD.                                                  WILDCAT : FIELD 
SRVC.                                            SCHLUMBERGER : SERVICE COMPANY 
DATE.                                              04/06/2006 : DATE 
TVD.                                                       NO : TVD FLAG
#___________________________________________________________________________________________________ 
~PARAMETER INFORMATION 
# MNEM.UNIT                                              DATA : DESCRIPTION OF MNEMONIC 
#-----.-----                    ----------------------------- : ----------------------------- 
RUN.                                                      ONE : RUN NUMBER 
PDAT.                                                      GL : PERMANENT DATUM 
EPD.FT                                               000.0000 : ELEVATION OF PERM. DATUM 
LMF.                                            KELLY BUSHING : LOG MEASURED FROM 
EKB.FT                                                 3796.6 : ELEVATION OF KELLY BUSHING 
DF.FT                                                  3773.0 : ELEVATION OF DERRICK FLOOR 
GL.FT                                                  3795.6 : ELEVATION OF GROUND LEVEL 
TD.FT                                              13716.0000 : TOTAL DEPTH 
BHT.DEGF                                               224.00 : BOTTOM HOLE TEMPERATURE 
BLI.FT                                             13716.0000 : BOTTOM LOG INTERVAL 
CSGSIZE.IN                                             9.6250 : CASING SIZE 
BITSIZE.IN                                              8.750 : BITSIZE 
CSGD.FT                                               12804.0 : CASING BOTTOM (DRILLER) 1 
CSGL.FT                                               12802.0 : CASING BOTTOM (LOGGER) 1 
MUD.                                                    BRINE : DRILLING FLUID TYPE 
MUDV.CP                                                  45.0 : DRILLING FLUID VISCOSITY 
MUDD.LB/USG                                               9.5 : DRILLING FLUID DENSITY 
PH.                                                      10.0 : DRILLING FLUID PH 
FL.ML/30MIN                                               5.0 : DRILLING FLUID LOSS 
MUDS.                                               CIRC TANK : MUD SAMPLE SOURCE 
RM.OHMM                                                 0.064 : RESISTIVITY OF MUD SAMPLE 
RMT.DEGF                                                66.00 : MUD SAMPLE TEMPERATURE 
RMF.OHMM                                                0.048 : MUD FILTRATE RESISTIVITY 
RMFT.DEGF                                               66.00 : MUD FILTRATE SAMPLE TEMPERATURE 
RMC.OHMM                                                0.095 : MUD CAKE RESISTIVITY 
RMCT.DEGF                                               66.00 : MUD CAKE SAMPLE TEMPERATURE 
RMB.OHMM                                                0.015 : MUD RESISTIVITY AT BHT 
TMAX.DEGF                                              224.00 : BOTTOM HOLE TEMPERATURE
#___________________________________________________________________________________________________ 
~CURVE INFORMATION 
# MNEM.UNIT           : CURVE DESCRIPTION 
#-----.-----          : ----------------------------- 
 DEPT.FT               : MEASURED DEPTH 
 DT__A.US/FT           : SONIC DELTA TRANSIT TIME (DELTA T COMP) 
 SPHI__A.V/V           : SONIC POROSITY (SONIC POROSITY) 
 #___________________________________________________________________________________________________ 
~A         DEPT          DT__A        SPHI__A
# ...
        10396.0         65.465        0.12700
        10396.5         65.809        0.12900
        10397.0         66.084        0.12900
        10397.5         65.826        0.12700
        10398.0         65.611        0.12500
        10398.5         65.316        0.12300
        10399.0         64.902        0.12000
        10399.5         64.488        0.11800
        10400.0         64.157        0.11700
        10400.5         63.950        0.11500
        10401.0         63.778        0.11300
        10401.5         63.273        0.10800
        10402.0         62.269        0.10200
        10402.5         61.265        0.09800
        10403.0         61.386        0.10000
        10403.5         62.108        0.10300
        10404.0         62.386        0.10500
        10404.5         62.446        0.10400
        10405.0         61.867        0.10200
        10405.5         61.536        0.09900
        10406.0         61.122        0.09600
        10406.5         60.708        0.09300
        10407.0         60.843        0.09500
        10407.5         61.024        0.09600
        10408.0         60.663        0.09200
        10408.5         60.181        0.08800
        10409.0         59.699        0.08500
        10409.5         59.608        0.08400
        10410.0         59.669        0.08500
        10410.5         59.819        0.08600
        10411.0         59.970        0.08800
        10411.5         59.795        0.08700
        10412.0         59.133        0.08200
        10412.5         58.470        0.07800
        10413.0         57.807        0.07300
        10413.5         57.323        0.06800
        10414.0         57.694        0.07200
        10414.5         58.418        0.07600
        10415.0         59.354        0.08300
        10415.5         60.431        0.09100
        10416.0         61.508        0.09900
        10416.5         62.584        0.10800
        10417.0         63.340        0.11400
        10417.5         64.095        0.12000
        10418.0         64.849        0.12500
        10418.5         65.603        0.13100
        10419.0         66.206        0.13200
        10419.5         66.206        0.13300
        10420.0         66.208        0.13300
        10420.5         66.209        0.13400
        10421.0         66.212        0.13400
        10421.5         66.205        0.13400
        10422.0         66.530        0.13500
        10422.5         66.566        0.13400
        10423.0         66.320        0.13300
        10423.5         66.205        0.13200
        10424.0         66.205        0.13200
        10424.5         66.205        0.13300
        10425.0         65.699        0.12500
        10425.5         65.163        0.11900
        10426.0         64.241        0.11400
        10426.5         63.319        0.10800
        10427.0         62.398        0.10200
        10427.5         62.199        0.10900
        10428.0         62.831        0.11600
        10428.5         63.990        0.12200
        10429.0         65.027        0.12800
        10429.5         66.084        0.12900
        10430.0         65.114        0.12200
        10430.5         64.123        0.11500
        10431.0         63.133        0.10800
        10431.5         62.143        0.10100
        10432.0         61.265        0.09500
        10432.5         60.462        0.08900
        10433.0         59.699        0.08700
        10433.5         59.498        0.08500
        10434.0         60.753        0.10100
        10434.5         62.912        0.11600
        10435.0         64.639        0.12300
        10435.5         65.602        0.12800
        10436.0         65.506        0.12800
        10436.5         65.145        0.11600
        10437.0         63.494        0.10300
        10437.5         61.988        0.10800
        10438.0         62.823        0.12200
        10438.5         64.415        0.13200
        10439.0         66.325        0.13100
        10439.5         65.442        0.12500
        10440.0         64.337        0.11400
        10440.5         63.233        0.10300
        10441.0         62.349        0.10500
        10441.5         62.651        0.10800
        10442.0         63.012        0.10700
        10442.5         62.711        0.10300
        10443.0         62.229        0.10600
        10443.5         62.229        0.11000
        10444.0         63.199        0.11500
        10444.5         64.170        0.11900
        10445.0         65.141        0.12400
        10445.5         65.663        0.12600
        10446.0         65.120        0.12400
        10446.5         64.759        0.12100
        10447.0         65.602        0.12600
        10447.5         66.446        0.13000
        10448.0         66.672        0.13400
        10448.5         67.048        0.13800
        10449.0         67.771        0.14300
        10449.5         67.771        0.14300
        10450.0         66.578        0.12200
        10450.5         64.590        0.11500
        10451.0         62.952        0.10900
        10451.5         62.470        0.10600
        10452.0         62.696        0.10500
        10452.5         63.124        0.11000
        10453.0         63.855        0.11400
        10453.5         64.880        0.11900
        10454.0         63.675        0.12200
        10454.5         61.345        0.09500
        10455.0         58.434        0.07200
        10455.5         56.205        0.05800
        10456.0         59.699        0.10000
        10456.5         65.060        0.14100
        10457.0         73.916        0.19000
        10457.5         75.964        0.19600
        10458.0         75.181        0.20100
        10458.5         72.786        0.16700
        10459.0         68.758        0.13900
        10459.5         64.729        0.11200
        10460.0         61.518        0.10000
        10460.5         61.757        0.10100
        10461.0         61.994        0.10100
        10461.5         61.373        0.09900
        10462.0         60.599        0.09200
        10462.5         59.826        0.08600
        10463.0         60.382        0.09000
        10463.5         60.938        0.09400
        10464.0         61.476        0.09900
        10464.5         62.028        0.10300
        10465.0         62.470        0.10600
        10465.5         63.916        0.11600
        10466.0         65.120        0.12400
        10466.5         66.325        0.13300
        10467.0         67.289        0.13900
        10467.5         68.133        0.14300
        10468.0         68.265        0.14600
        10468.5         68.387        0.14700
        10469.0         68.484        0.14700
        10469.5         67.999        0.14300
        10470.0         66.475        0.13300
        10470.5         64.954        0.12300
        10471.0         64.075        0.11500
        10471.5         63.771        0.11400
        10472.0         63.593        0.11200
        10472.5         63.856        0.11500
        10473.0         64.231        0.11700
        10473.5         64.607        0.12000
        10474.0         64.983        0.12200
        10474.5         65.234        0.12400
        10475.0         64.666        0.12300
        10475.5         64.743        0.11500
        10476.0         63.553        0.10700
        10476.5         62.362        0.09400
        10477.0         61.265        0.09800
        10477.5         61.588        0.10500
        10478.0         62.685        0.11300
        10478.5         63.782        0.12100
        10479.0         64.657        0.12400
        10479.5         65.354        0.12500
        10480.0         65.294        0.12400
        10480.5         65.234        0.12200
        10481.0         64.935        0.12100
        10481.5         64.636        0.12100
        10482.0         64.627        0.12000
        10482.5         64.810        0.12000
