~Version Information Block
 VERS.                2.00:     CWLS LOG ASCII STANDARD - VERSION 2.000000
 WRAP.                  NO:     One Line Per Depth Step
#
~Well Information Block
#MNEM.UNIT                     Data                         Information
#----------   ------------------------------------------   ----------------
 STRT.FT                                     4210.0000:     START DEPTH
 STOP.FT                                    10370.0000:     STOP DEPTH
 STEP.FT                                        0.5000:     STEP
 NULL.                                       -999.2500:     NULL VALUE
 COMP.                       CHESAPEAKE OPERATING INC.:     COMPANY
 WELL.                         UNIVERSITY_LANDS_4627-1:     WELL
 FLD .                                         WILDCAT:     FIELD
 LOC .   1200' FNL & 1995' FEL|Section: 27, Block: 46, Abstract: 2860|University Lands Survey:     LOCATION
 SEC .                                              27:     SECTION
 CNTY.                                       CULBERSON:     COUNTY
 STAT.                                           TEXAS:     STATE
 CTRY.                                             USA:     COUNTRY
 SRVC.                                    SCHLUMBERGER:     SERVICE COMPANY
 DATE.                                      11/15/2016:     DATE
 API .                                  42109322870000:     API NUMBER
 UWI .                                  42109322870000:     UWI NUMBER
 TVD .                                              NO:     TVD flag
 WSTA.                                             LOC:     Well status
#
~Curve Information Block
#MNEM.UNIT       API CODE      Curve Description
#----------    -------------   -------------------
 DEPT.FT                   :   Depth in Feet
 RM_HRLT.OHMM                 :   HRLTB Mud Resistivity
 RXOZ.OHMM                 :   Stan Res MicroCFL Resistivity
 RLA5.OHMM                 :   HRLTB Resistivity 5
 RLA4.OHMM                 :   HRLTB Resistivity 4
 RLA3.OHMM                 :   HRLTB Resistivity 3
 DTCO.US/F                 :   Delta-T Compressional
 DTSM.US/F                 :   Delta-T Shear Measurement
 SPHI.V/V                  :   Sonic Porosity [47.6]
 HSGR.GAPI                 :   HNGS Spectroscopy Gamma Ray
 HCGR.GAPI                 :   HNGS Computed Gamma Ray
 HCAL.IN                   :   HILT Caliper
 DPHI.V/V                  :   Density Porosity
 PEFZ.                     :   Std. Res. Formation PE
 HDRA.G/C3                 :   Density Correction
 RHOB.G/C3                 :   Std. Res. Formation Density
 APLC.V/V                  :   APS Near/Array Corrected Limestone Porosity
 PXND.V/V                  :   Crossplot Porosity For Neutron-Density
#
~Parameter Information Block
#MNEM.UNIT            Value               Description
#----------    --------------------    -------------------
 DATE.                 07-Jun-2007:    Date As Month-Day-Year
 RUN .                         ONE:    Run Number
 PDAT.                         UNK:    Permanent Datum
 EPD .FT                -9999.5000:    Elevation Of Perm. Datum
 LMF .                          KB:    Log Measured From
 FAPD.FT                   40.0000:    Feet Above Perm. Datum
 EKB .FT                 4323.0000:    Elevation Of Kelly Bushing
 TD  .FT                10370.0000:    Total Depth
 DFT .                   Fresh Mud:    Drilling Fluid Type
 DFD .LB/G                  8.6000:    Drilling Fluid Density
 RMS .OHMM                  0.4210:    Resistivity Of Mud Sample
 MST .DEGF                 97.0000:    Mud Sample Temperature
 RMF .OHMM                  0.4210:    Mud Filtrate Resistivity
 MFST.DEGF                 97.0000:    Mud Filtrate Sample Temperature
 MFSS.                        CALC:    Mud Filtrate Sample Source
 MCSS.                        CALC:    Mud Cake Sample Source
 RMB .OHMM                  0.2280:    Mud Resistivity At Bht
 BHT .DEGF                185.0000:    Bottom Hole Temperature
 MRT .DEGF                185.0000:    Maximum Recorded Temperature
 WSTA.                         LOC:    
 LATB.FT                    0.0000:    
 LONB.FT                    0.0000:    
#
~Other Information Block
<DescLogPlotStart>   NEURALOG PLOT DEFINITION
PLOTDEFVERSION: 3
LASFILE: E:\nds\projects\Texas Standard Oil LLC\pdf\42109322870000 D\42-109-322
DEPTHSCALE: 240.000000
RESOLUTION: 196
DEPTHLABELFREQ: 100.000000
HEAVYGRIDFREQ: 100.000000
MEDIUMGRIDFREQ: 50.000000
LIGHTGRIDFREQ: 10.000000
#
#   TRACK 1
#
STARTTRACK: 
 LEFTX: 0.500000 inch
 RIGHTX: 3.000000 inch
 SCALETYPE: Linear
 NUMCHARTDIVISIONS: 10
CURVE: RXOZ  0.200000   2000.000000 (0,0,255)      Solid             2     Y   
BACKUP: 2000.000000 20000000.000000 (0,0,255)      Solid             2    
CURVE: RLA5  0.200000   2000.000000 (0,131,131)    Dot               2     Y   
BACKUP: 2000.000000 20000000.000000 (0,131,131)    Dot               2    
CURVE: RLA4  0.200000   2000.000000 (255,0,255)    Short_Dash        2     Y   
BACKUP: 2000.000000 20000000.000000 (255,0,255)    Short_Dash        2    
CURVE: RLA3  0.200000   2000.000000 (255,0,0)      Medium_Dash       2     Y   
BACKUP: 2000.000000 20000000.000000 (255,0,0)      Medium_Dash       2    
CURVE: DTCO  240.000000 40.000000  (0,0,255)      Solid             2     N    
CURVE: DTSM  240.000000 40.000000  (0,131,131)    Dot               2     Y    
BACKUP: 440.000000 240.000000 (0,131,131)    Dot               2    
CURVE: SPHI  0.300000   -0.100000  (255,0,255)    Short_Dash        2     Y    
BACKUP: 0.700000   0.300000   (255,0,255)    Short_Dash        2    
CURVE: HSGR  0.000000   150.000000 (0,0,255)      Solid             2     Y    
BACKUP: 150.000000 300.000000 (0,0,255)      Solid             2    
CURVE: HCGR  0.000000   150.000000 (0,131,131)    Dot               2     N    
CURVE: HCAL  6.000000   16.000000  (255,0,255)    Short_Dash        2     Y    
BACKUP: -4.000000  6.000000   (255,0,255)    Short_Dash        2    
BACKUP: 16.000000  26.000000  (255,0,255)    Short_Dash        2    
ENDTRACK: 
#
#   TRACK 2
#
STARTTRACK: 
 LEFTX: 3.500000 inch
 RIGHTX: 8.500000 inch
 SCALETYPE: Linear
 NUMCHARTDIVISIONS: 10
CURVE: RM_HRLT 0.020000   200.000000 (255,131,0)    Solid             2     N  
CURVE: DPHI  0.300000   -0.100000  (255,0,0)      Solid             2     Y    
BACKUP: 0.700000   0.300000   (255,0,0)      Solid             2    
BACKUP: -0.100000  -0.500000  (255,0,0)      Solid             2    
CURVE: APLC  0.300000   -0.100000  (255,131,0)    Dot               2     Y    
BACKUP: 0.700000   0.300000   (255,131,0)    Dot               2    
BACKUP: 1.100000   0.700000   (255,131,0)    Dot               2    
CURVE: PXND  0.300000   -0.100000  (255,255,0)    Short_Dash        2     Y    
BACKUP: 0.700000   0.300000   (255,255,0)    Short_Dash        2    
ENDTRACK: 
#
#   TRACK 3
#
STARTTRACK: 
 LEFTX: 0.500000 inch
 RIGHTX: 5.500000 inch
 SCALETYPE: Linear
 NUMCHARTDIVISIONS: 10
ENDTRACK: 
#
#   TRACK 4
#
STARTTRACK: 
 LEFTX: 3.500000 inch
 RIGHTX: 6.000000 inch
 SCALETYPE: Linear
 NUMCHARTDIVISIONS: 10
CURVE: PEFZ  0.000000   10.000000  (0,0,255)      Solid             2     N    
ENDTRACK: 
#
#   TRACK 5
#
STARTTRACK: 
 LEFTX: 3.500000 inch
 RIGHTX: 4.750000 inch
 SCALETYPE: Linear
 NUMCHARTDIVISIONS: 10
CURVE: HDRA  -0.050000  0.200000   (0,131,131)    Solid             2     N    
ENDTRACK: 
#
#   TRACK 6
#
STARTTRACK: 
 LEFTX: 3.500000 inch
 RIGHTX: 8.500000 inch
 SCALETYPE: Linear
 NUMCHARTDIVISIONS: 10
CURVE: RHOB  2.000000   3.000000   (255,0,255)    Solid             2     Y    
BACKUP: 1.000000   2.000000   (255,0,255)    Solid             2    
ENDTRACK: 
<DescLogPlotEnd>
~A DEPTH     RM_HRLT             RXOZ             RLA5             RLA4             RLA3             DTCO             DTSM             SPHI             HSGR             HCGR             HCAL             DPHI             PEFZ             HDRA             RHOB             APLC             PXND            
# ...
    9529.000 0.85089534       54.43744986      117.19379782     116.14135824     120.70753517     55.79980373      102.24163460     0.06545633       68.65066907      45.82755066      10.77375935      0.03261508       4.30701294       -0.00537994      2.65637220       0.05935512       0.05697446      
    9529.500 0.85326375       55.42851300      121.49979334     120.40868447     120.40784715     55.99607458      102.63406818     0.06545633       66.89826234      45.37769901      10.77587233      0.03339863       4.33177676       -0.00495523      2.65763693       0.05870256       0.05579568      
    9530.000 0.85563667       51.10621037      125.39712696     124.27101873     124.88744645     56.19234544      102.34595338     0.06739100       65.50497017      44.22390176      10.75595508      0.01694417       4.33999467       -0.00280329      2.66457537       0.05405822       0.05324165      
    9530.500 0.85801645       59.04149174      127.10545155     125.96400199     124.83280303     56.78115800      102.05882353     0.07016683       64.20031483      43.01259529      10.73467768      0.01380999       4.34585249       -0.00067784      2.67525385       0.05253932       0.04990177      
    9531.000 0.86039713       60.11637394      130.59223692     129.41947486     129.41947486     57.36997056      102.45098039     0.07330716       62.49160522      41.79288460      10.73383785      0.01224290       4.34956975       0.00153645       2.68463850       0.05156863       0.04911591      
    9531.500 0.86278442       61.21082496      131.77562621     130.59223692     130.59223692     57.76251227      102.45098039     0.07958783       62.42481403      40.84555410      10.71753898      0.02047013       4.38558708       0.00363030       2.68486589       0.05266667       0.04911591      
    9532.000 0.86517833       69.45066695      128.25724460     124.83280303     124.83280303     58.15505397      102.05882353     0.08076546       63.37605708      40.80497448      10.69778291      0.02203722       4.36891975       0.00490854       2.67647207       0.05431373       0.05186640      
    9532.500 0.86757889       72.00245951      124.83280303     119.32737413     119.32737413     59.33267910      103.02478222     0.08547596       64.71514884      41.53847770      10.69324280      0.01308241       4.27556452       0.01071501       2.68335831       0.06039403       0.05618861      
    9533.000 0.86998610       62.88997410      118.25577431     109.03421637     109.03421637     60.70657507      108.40864892     0.09371933       67.19270689      44.39136393      10.67319121      0.00808521       4.12650655       0.02251244       2.68959951       0.06633702       0.06286837      
    9533.500 0.87239999       48.85230274      80.08967267      80.96135945      80.96135945      62.08047105      113.82056867     0.10863592       70.20986005      48.23867237      10.60991439      0.02368266       3.97957918       0.03287820       2.67881650       0.07409391       0.06797642      
    9534.000 0.87481922       30.56069302      52.50816744      61.21082496      61.21082496      63.25809617      114.96145218     0.11590718       78.57989252      52.93722506      10.61561787      0.04448580       3.79939526       0.04479036       2.64387236       0.08318888       0.07701375      
    9534.500 0.87724789       22.48849831      52.03662650      50.64725947      50.64725947      64.22232880      116.90752246     0.12348785       87.89948739      62.73895961      10.61609372      0.07661117       3.67273024       0.04230724       2.60796925       0.09313725       0.09076621      
    9535.000 0.87968193       21.20778079      54.43744986      53.94858332      54.19246534      65.41585526      117.13606681     0.13106852       96.38916762      68.06319614      10.61409772      0.07610186       3.59835409       0.03823172       2.58617205       0.09235294       0.09076621      
    9535.500 0.89802686       23.52605427      40.05853200      39.69879296      39.69879296      66.21098950      116.60031909     0.14003925       102.07243632     73.76075553      10.63986680      0.06356513       3.54328162       0.03637394       2.59426511       0.09078431       0.08919450      
    9536.000 0.89104642       31.39904083      73.01263873      72.35696076      72.35696076      66.40514724      116.23907854     0.13720859       104.68612530     75.84206459      10.67667889      0.04397649       3.56363771       0.04195604       2.61578124       0.08921569       0.08487230      
    9536.500 0.87635545       38.63884350      111.01924309     110.02225308     120.40868447     65.80961727      119.05882353     0.13454367       103.80799608     74.50238401      10.69187748      0.03026445       3.58635474       0.04800546       2.63982020       0.08725490       0.08055010      
    9537.000 0.87398003       54.43744986      97.84757662      96.96887259      95.23506682      65.41707556      118.33333333     0.13147312       103.55927595     77.06644498      10.63847248      0.03314398       3.55663519       0.04924799       2.65152584       0.08411765       0.08251473      
    9537.500 0.87763719       59.04149174      63.17427691      62.32520105      66.98931083      65.02453386      115.98039216     0.12848108       106.49126793     78.84130685      10.66431038      0.04123408       3.52460792       0.05461263       2.64855790       0.10025210       0.09115914      
    9538.000 0.88666205       27.69720793      40.78781919      40.05853200      51.56932015      64.04252800      112.66145058     0.12172326       109.08709614     82.12121437      10.72947337      0.03353085       3.52494907       0.07776161       2.64557947       0.10294118       0.09076621      
    9538.500 0.89802686       28.30353702      68.04128299      53.96075131      45.47660924      62.28685560      111.27875276     0.10748970       107.25812952     78.05649047      10.63885425      0.02385243       3.52739997       0.09771775       2.65792969       0.09313725       0.08880157      
    9539.000 0.85057711       35.16932615      131.77562621     132.96973904     146.84116497     60.72645353      111.22232626     0.09332679       102.59070086     75.49093495      10.56544115      0.01417401       3.60812975       0.10852407       2.67491890       0.08411765       0.07897839      
    9539.500 0.85830761       42.03755385      108.12596702     124.83280303     124.83280303     59.75224436      110.42734396     0.08783121       97.81749753      72.84165098      10.49897802      0.00449559       3.64479801       0.12314425       2.69492755       0.08102317       0.06954813      
    9540.000 0.85830761       30.01426709      83.00411929      71.01013758      101.44274322     59.72522080      110.88235294     0.09348798       94.80707923      71.49426933      10.52661070      -0.00617042      3.60224259       0.14029944       2.71201693       0.07176471       0.06424361      
    9540.500 0.87398003       31.11706692      71.61942696      63.84761666      63.45986495      61.68792934      113.82352941     0.10333248       90.92583163      69.98489529      10.53872467      0.01174170       3.46206774       0.15402883       2.70383590       0.06250624       0.05736739      
    9541.000 0.88452028       35.62579542      124.07505549     124.03465780     141.63706230     64.82826300      116.49509804     0.13115032       88.24843198      66.53726444      10.57529852      0.04624516       3.32645851       0.15246394       2.68260525       0.05901961       0.06417575      
    9541.500 0.89437810       30.56069302      73.75457220      72.80309937      95.23506682      67.57605496      116.96078431     0.14549888       89.89355748      67.15106381      10.59956033      0.09040277       3.23076994       0.15809460       2.62661154       0.08640336       0.09428112      
    9542.000 0.89802686       17.46884052      52.03662650      49.75478163      58.06178898      69.35616784      115.78213508     0.15695780       94.88061358      70.57745372      10.60817292      0.13466019       3.26333749       0.19615345       2.41615893       0.11220728       0.12377210      
