###############################################
##         ENVERUS                           ##
##         ESS - Open Hole                   ##
##         PERMIAN / DELAWARE                ##
##         Nov 02 2023  V4.0                 ##
##         42-109-31408-00-00                ##
###############################################
## Copyright 2017-2023  ENVERUS.  All Rights Reserved. 
## Confidential - Property of ENVERUS, use governed by terms and 
## conditions found within the existing Information Services Subscription Agreement 
## (as may be amended, the “ISSA”) between Customer and ENVERUS. 
## 
~VERSION INFORMATION
# MNEM.UNIT                               DATA : DESCRIPTION OF MNEMONIC
#-----.-----     ----------------------------- : -----------------------------
VERS.                                     2.00 : CWLS LOG ASCII STANDARD - VERSION 2.00
WRAP.                                       NO : MULTIPLE LINES PER DEPTH STEP
VEND.                                  ENVERUS : VENDOR
TYPE.                          ESS - OPEN HOLE : ENVERUS ESSENTIAL CURVES – ACCESSIBLE THROUGH ENVERUS PRISM(TM)
DOC.                                  31850517 : ENVERUS HEADER RAW DOCUMENT ID
#___________________________________________________________________________________________________ 
~WELL INFORMATION 
# bqLd+XSZJOn45CI61XVoQu+UOVndmKoY6sdO6/bnbKn7IExcVbobTFa2ZjWyWmdO1mIol927X6bTh1nHm93KmQ== 
# MNEM.UNIT                                              DATA : DESCRIPTION OF MNEMONIC 
#-----.-----                    ----------------------------- : ----------------------------- 
CNTY.                                               CULBERSON : COUNTY 
STATE.                                                  TEXAS : STATE 
CNTRY.                                                    USA : COUNTRY 
API.                                             42-109-31408 : API (10 Digit) 
API_14.                                    42-109-31408-00-00 : API (14 Digits) 
API_14_std.                                 42-109-31408-0000 : API (14 Digits Standard) 
UWI.                                           42109314080000 : UNIQUE WELL ID 
WELL.                                           CASTILE 48  1 : WELL NAME
STRT.FT                                                2207.0 : START DEPTH
STOP.FT                                               11710.0 : STOP DEPTH
STEP.FT                                                   0.5 : STEP BETWEEN DEPTHS
NULL.                                                 -999.25 : NULL VALUE
COMP.                                         TENNECO OIL CO. : COMPANY 
DATE.                                             28-APR-1980 : LOG DATE
#___________________________________________________________________________________________________ 
~CURVE INFORMATION 
# MNEM.UNIT           : CURVE DESCRIPTION 
#-----.-----          : ----------------------------- 
 DEPT.FT               : MEASURED DEPTH 
 CALI.IN               : CALIPER (CAL - CAL) 
 GR.API                : GAMMA RAY (GR) 
 DT.US/FT              : SONIC DELTA TRANSIT TIME (DT) 
 RESS.OHMM             : SHALLOW INDUCTION RESISTIVITY (ILS - ILS) 
 RESD.OHMM             : DEEP INDUCTION RESISTIVITY (ILD - ILD) 
 #___________________________________________________________________________________________________ 
~A         DEPT           CALI             GR             DT           RESS           RESD
         2207.0       -999.250       -999.250        112.287       -999.250       -999.250
         2207.5       -999.250       -999.250        112.089       -999.250       -999.250
         2208.0         10.430       -999.250        111.892       -999.250       -999.250
         2208.5         10.431       -999.250        111.694       -999.250       -999.250
         2209.0         10.431       -999.250        111.497       -999.250       -999.250
         2209.5         10.432       -999.250        108.300       -999.250       -999.250
         2210.0         10.432         36.526        105.873       -999.250       -999.250
         2210.5         10.433         37.078        106.312       -999.250       -999.250
         2211.0         10.433         37.629        106.751       -999.250       -999.250
         2211.5         10.434         38.181        107.190       -999.250       -999.250
         2212.0         10.435         38.733        107.629       -999.250       -999.250
         2212.5         10.435         39.285        106.678       -999.250       -999.250
         2213.0         10.436         39.837        105.372       -999.250       -999.250
         2213.5         10.436         40.388        104.066       -999.250       -999.250
         2214.0         10.437         37.274        102.759       -999.250       -999.250
         2214.5         10.437         33.762        101.453       -999.250       -999.250
         2215.0         10.438         30.251        100.261       -999.250       -999.250
         2215.5         10.438         27.571        100.096       -999.250       -999.250
         2216.0         10.439         27.909         99.931       -999.250       -999.250
         2216.5         10.439         28.248         99.766       -999.250       -999.250
         2217.0         10.440         28.586         99.121       -999.250       -999.250
         2217.5         10.440         28.925         95.217       -999.250       -999.250
         2218.0         10.441         29.263         91.313       -999.250       -999.250
         2218.5         10.441         29.601         87.410       -999.250       -999.250
         2219.0         10.442         29.940         83.506       -999.250       -999.250
         2219.5         10.443         30.278         79.602       -999.250       -999.250
         2220.0         10.443         30.616         75.699       -999.250       -999.250
         2220.5         10.444         30.955         71.795       -999.250       -999.250
         2221.0         10.444         31.293         67.892       -999.250       -999.250
         2221.5         10.445         31.632         65.485       -999.250       -999.250
         2222.0         10.445         31.693         65.149       -999.250       -999.250
         2222.5         10.446         30.796         64.813       -999.250       -999.250
         2223.0         10.446         29.900         65.752       -999.250       -999.250
         2223.5         10.447         29.003         67.134       -999.250       -999.250
         2224.0         10.447         28.538         68.517       -999.250       -999.250
         2224.5         10.448         28.846         69.899       -999.250       -999.250
         2225.0         10.448         29.153         71.281       -999.250       -999.250
         2225.5         10.449         29.461         72.663       -999.250       -999.250
         2226.0         10.449         29.768         73.845       -999.250       -999.250
         2226.5         10.450         28.476         72.947       -999.250       -999.250
         2227.0         10.450         26.886         71.276       -999.250       -999.250
         2227.5         10.451         25.297         69.604       -999.250       -999.250
         2228.0         10.452         23.707         67.933       -999.250       -999.250
         2228.5         10.452         24.332         66.261       -999.250       -999.250
         2229.0         10.453         27.346         64.590       -999.250       -999.250
         2229.5         10.453         30.360         62.918       -999.250       -999.250
         2230.0         10.454         33.374         61.355       -999.250       -999.250
         2230.5         10.454         36.387         60.565       -999.250       -999.250
         2231.0         10.455         35.585         59.775       -999.250       -999.250
         2231.5         10.455         33.332         58.984       -999.250       -999.250
         2232.0         10.456         31.080         58.194       -999.250       -999.250
         2232.5         10.456         28.827         57.403       -999.250       -999.250
         2233.0         10.457         27.658         56.613       -999.250       -999.250
         2233.5         10.457         28.016         57.658       -999.250       -999.250
         2234.0         10.458         28.374         58.867       -999.250       -999.250
         2234.5         10.458         28.733         60.075       -999.250       -999.250
         2235.0         10.459         29.091         58.728       -999.250       -999.250
         2235.5         10.460         28.893         57.021       -999.250       -999.250
         2236.0         10.460         28.630         56.422       -999.250       -999.250
         2236.5         10.461         28.367         56.360       -999.250       -999.250
         2237.0         10.461         28.104         56.297       -999.250       -999.250
         2237.5         10.462         27.841         56.235       -999.250       -999.250
         2238.0         10.462         27.578         56.371       -999.250       -999.250
         2238.5         10.463         32.165         56.582       -999.250       -999.250
         2239.0         10.463         38.358         56.792       -999.250       -999.250
         2239.5         10.464         38.842         57.002       -999.250       -999.250
         2240.0         10.464         38.298         57.213       -999.250       -999.250
         2240.5         10.465         37.755         57.423       -999.250       -999.250
         2241.0         10.465         37.211         57.633       -999.250       -999.250
         2241.5         10.466         36.667         57.844       -999.250       -999.250
         2242.0         10.466         36.124         58.054       -999.250       -999.250
         2242.5         10.467         35.580         58.264       -999.250       -999.250
         2243.0         10.467         36.095         58.475       -999.250       -999.250
         2243.5         10.468         37.247         58.643       -999.250       -999.250
         2244.0         10.469         38.398         58.412       -999.250       -999.250
         2244.5         10.469         39.550         58.181       -999.250       -999.250
         2245.0         10.470         39.155         57.950       -999.250       -999.250
         2245.5         10.470         37.768         57.719       -999.250       -999.250
         2246.0         10.471         36.380         57.488       -999.250       -999.250
         2246.5         10.471         34.992         57.373       -999.250       -999.250
         2247.0         10.472         33.604         57.289       -999.250       -999.250
         2247.5         10.472         32.216         57.206       -999.250       -999.250
         2248.0         10.473         30.828         57.123       -999.250       -999.250
         2248.5         10.473         29.441        103.401       -999.250       -999.250
         2249.0         10.474         29.733        117.224       -999.250       -999.250
         2249.5         10.474         30.116        119.273       -999.250       -999.250
         2250.0         10.475         30.500        118.624       -999.250       -999.250
         2250.5         10.475         30.884        117.975       -999.250       -999.250
