###############################################
##         ENVERUS                           ##
##         ESS - Open Hole                   ##
##         PERMIAN / DELAWARE                ##
##         Nov 02 2023  V4.0                 ##
##         42-109-31550-00-00                ##
###############################################
## Copyright 2017-2023  ENVERUS.  All Rights Reserved. 
## Confidential - Property of ENVERUS, use governed by terms and 
## conditions found within the existing Information Services Subscription Agreement 
## (as may be amended, the “ISSA”) between Customer and ENVERUS. 
## 
~VERSION INFORMATION
# MNEM.UNIT                               DATA : DESCRIPTION OF MNEMONIC
#-----.-----     ----------------------------- : -----------------------------
VERS.                                     2.00 : CWLS LOG ASCII STANDARD - VERSION 2.00
WRAP.                                       NO : MULTIPLE LINES PER DEPTH STEP
VEND.                                  ENVERUS : VENDOR
TYPE.                          ESS - OPEN HOLE : ENVERUS ESSENTIAL CURVES – ACCESSIBLE THROUGH ENVERUS PRISM(TM)
DOC.                                  22584426 : ENVERUS HEADER RAW DOCUMENT ID
#___________________________________________________________________________________________________ 
~WELL INFORMATION 
# ASdzl/zqz3tyMoI2i40d5lqA861uk+/GXWRvioHJ4uiq1sQ7a4yIDDt4z64Puw3+ifUTTkKIB4eyCaXtXAsvCw== 
# MNEM.UNIT                                              DATA : DESCRIPTION OF MNEMONIC 
#-----.-----                    ----------------------------- : ----------------------------- 
CNTY.                                               CULBERSON : COUNTY 
STATE.                                                  TEXAS : STATE 
CNTRY.                                                    USA : COUNTRY 
API.                                             42-109-31550 : API (10 Digit) 
API_14.                                    42-109-31550-00-00 : API (14 Digits) 
API_14_std.                                 42-109-31550-0000 : API (14 Digits Standard) 
UWI.                                           42109315500000 : UNIQUE WELL ID 
WELL.                                       UNIVERSITY_6-46-1 : WELL NAME
STRT.FT                                                 249.5 : START DEPTH
STOP.FT                                               10300.0 : STOP DEPTH
STEP.FT                                                   0.5 : STEP BETWEEN DEPTHS
NULL.                                                 -999.25 : NULL VALUE
COMP.                                    MONSANTO OIL COMPANY : COMPANY 
FLD.                                                  WILDCAT : FIELD 
DATE.                                              10/31/2016 : DATE 
TVD.                                                       NO : TVD FLAG 
WSTA.                                                     LOC : WELL STATUS
#___________________________________________________________________________________________________ 
~PARAMETER INFORMATION 
# MNEM.UNIT                                              DATA : DESCRIPTION OF MNEMONIC 
#-----.-----                    ----------------------------- : ----------------------------- 
RUN.                                                      ONE : RUN NUMBER 
PDAT.                                                      GL : PERMANENT DATUM 
LMF.                                            KELLY BUSHING : LOG MEASURED FROM
#___________________________________________________________________________________________________ 
~CURVE INFORMATION 
# MNEM.UNIT           : CURVE DESCRIPTION 
#-----.-----          : ----------------------------- 
 DEPT.FT               : MEASURED DEPTH 
 DT.US/FT              : SONIC DELTA TRANSIT TIME (DELTA-T) 
 RESS_LL.OHMM          : SHALLOW LATEROLOG (LLS - LATERO-LOG SHALLOW (RESISTIVITY)) 
 RESD_LL.OHMM          : DEEP LATEROLOG (LLD - LATERO-LOG DEEP (RESISTIVITY)) 
 #___________________________________________________________________________________________________ 
~A         DEPT             DT        RESS_LL        RESD_LL
# ...
         2757.5         65.216       185.7420       194.9731
         2758.0         66.148       183.6240       209.9595
         2758.5         67.021       183.1439       226.0978
         2759.0         67.172       253.8652       293.0408
         2759.5         66.540       330.4612       412.6700
         2760.0         65.517       369.2850       436.2380
         2760.5         64.403       359.1711       444.3894
         2761.0         63.651       330.4612       383.2146
         2761.5         63.019       301.2447       327.4163
         2762.0         62.899       272.0811       287.6199
         2762.5         63.651       241.2332       259.7753
         2763.0         64.764       241.2332       259.7753
         2763.5         65.878       239.0105       264.6294
         2764.0         66.028       255.3931       269.5741
         2764.5         65.186       254.6316       282.3441
         2765.0         64.403       259.8793       290.2947
         2765.5         63.771       259.2466       307.0076
         2766.0         62.808       284.9698       325.0480
         2766.5         61.695       304.0462       339.7667
         2767.0         61.304       304.0462       339.7667
         2767.5         61.545       270.6908       304.4704
         2768.0         62.237       247.2929       280.7532
         2768.5         63.200       253.4434       252.6606
         2769.0         63.224       228.2004       255.7845
         2769.5         62.711       236.8083       260.7088
         2770.0         62.497       241.2332       272.2292
         2770.5         62.477       241.2332       272.2844
         2771.0         62.598       239.0105       267.3012
         2771.5         62.929       236.8083       243.7674
         2772.0         63.621       208.0249       219.9055
         2772.5         64.674       172.8675       196.7863
         2773.0         65.216       160.5287       184.4396
         2773.5         64.975       172.8675       179.3882
         2774.0         64.403       189.6332       219.9055
         2774.5         63.806       200.4634       219.9055
         2775.0         63.894       191.3345       207.6619
         2775.5         64.704       166.9308       190.6373
         2776.0         65.514       157.2876       175.0064
         2776.5         66.118       150.3751       168.3355
         2777.0         66.088       150.5308       164.4238
         2777.5         65.968       143.5267       161.8181
         2778.0         65.848       142.2622       161.2449
         2778.5         65.607       143.4021       160.5502
         2779.0         65.366       146.3361       165.2276
         2779.5         65.155       151.8560       172.9407
         2780.0         64.945       156.1321       180.0536
         2780.5         64.225       158.2565       184.4764
         2781.0         63.673       159.0496       188.5238
         2781.5         63.315       165.0490       196.9321
         2782.0         63.257       174.4751       215.8718
         2782.5         63.651       177.8829       217.7526
         2783.0         64.042       169.7634       205.0881
         2783.5         64.403       156.6999       184.8533
         2784.0         64.554       134.0328       167.0011
         2784.5         64.855       123.8767       148.8499
         2785.0         65.366       113.9748       135.6815
         2785.5         65.998       103.8982       127.1530
         2786.0         66.750       104.8644       121.6045
         2786.5         67.472       106.8238       124.1350
         2787.0         67.533       108.8199       126.5912
         2787.5         67.472       111.8842       130.1459
         2788.0         67.655       113.9748       134.6389
         2788.5         67.658       112.6915       132.1693
         2789.0         67.149       115.0347       134.2511
         2789.5         66.728       117.1842       137.1364
         2790.0         66.395       117.1842       134.9256
         2790.5         66.813       113.5356       132.6238
         2791.0         67.565       106.8238       129.1010
         2791.5         68.171       105.8396       126.1915
         2792.0         68.014       116.1045       137.1548
         2792.5         67.051       131.0000       163.5283
         2793.0         66.209       141.0169       168.1331
         2793.5         65.547       143.6519       176.0977
         2794.0         65.697       135.8910       159.6100
         2794.5         66.028       129.7449       149.0705
         2795.0         65.547       136.9293       158.6085
         2795.5         64.343       154.7197       179.5477
         2796.0         63.109       178.8624       208.7039
         2796.5         61.695       206.0650       250.2614
         2797.0         60.913       211.9120       243.8219
         2797.5         60.822       202.3276       228.9954
         2798.0         61.334       180.7829       208.2955
         2798.5         63.079       166.5839       182.5228
         2799.0         64.915       153.2682       164.7192
         2799.5         66.419       142.3283       149.9982
         2800.0         66.528       145.6559       158.8110
         2800.5         66.566       153.2682       165.1035
         2801.0         66.088       160.5287       165.0674
         2801.5         65.667       160.5287       164.9211
         2802.0         65.486       159.0496       177.4507
         2802.5         65.435       179.3882       191.1074
         2803.0         65.366       208.0249       211.9120
         2803.5         65.065       301.2447       313.0068
         2804.0         64.584       382.3945       457.1850
         2804.5         64.301       445.4101       529.8410
         2805.0         64.403       492.8486       583.9244
         2805.5         64.390       510.5073       608.7614
         2806.0         63.480       534.7683       642.5285
         2806.5         61.399       647.9416       710.5518
         2807.0         59.322       725.8201       786.1703
         2807.5         58.566       811.0921       841.3324
         2808.0         59.288       731.3233       690.8717
         2808.5         61.040       620.1365       625.9035
         2809.0         62.177       587.6829       575.8727
         2809.5         62.417       658.5521       643.0321
         2810.0         60.792       923.2391      2009.2781
         2810.5         57.061      1300.4550      2143.7826
         2811.0         56.820      1865.8608      2486.0071
         2811.5         56.640      2027.9636      2778.0724
         2812.0         57.964      1953.0728      2509.1259
         2812.5         59.905      1764.3590      2211.2386
         2813.0         61.274      1564.4705      1616.6596
         2813.5         62.417      1275.9036      1341.6699
         2814.0         62.598      1028.1706      1106.0756
         2814.5         62.598       873.4358       759.9434
         2815.0         62.417       788.8781       756.7975
         2815.5         61.876       732.5699       753.2996
         2816.0         61.635       769.7623       966.2595
         2816.5         61.996       914.8113      1116.4312
         2817.0         62.297      1121.4340      1241.6375
         2817.5         62.417      1324.7549      1466.7518
         2818.0         62.237      1456.9413      1765.0566
         2818.5         61.753      1509.0041      1740.9138
         2819.0         60.552      1415.0269      1586.3108
         2819.5         58.927      1264.4192      1173.8754
         2820.0         58.746      1020.3959       928.1173
         2820.5         58.506       873.4358       849.5143
         2821.0         58.614       826.2480       841.6870
         2821.5         58.964       976.0503       878.0501
         2822.0         59.795       985.1272      1034.9778
         2822.5         61.032      1174.5573      1200.1069
         2823.0         62.686      1016.4944      1070.7133
