# Exported from Transform Software 5.2.0 on 21-Oct-2019 by user kathryn.gehrke
# DI Transform - A Product of Drillinginfo, Inc. - www.drillinginfo.com
#
~VERSION INFORMATION
 VERS.        2.0 : LAS ASCII STANDARD - VERSION 2.0
 WRAP.         NO : ONE LINE PER DEPTH STEP

~WELL INFORMATION
#MNEM.UNIT       DATA TYPE       INFORMATION
#---------       ---------       -----------
 STRT.ft                  30 : Start Depth
 STOP.ft                9000 : Stop Depth
 STEP.ft                 0.5 : Step Length
 NULL.               -999.25 : Null Value
 COMP.                       : Company
 WELL.  42109330470000_API14 : Well Name
 FLD.                        : Field Name
 LOC.                        : Well Location
 CNTY.                       : County
 STAT.                       : State or Province
 CTRY.                       : Country
 SRVC.                       : Service Company
 DATE.                       : Date
 API.         42109330470000 : Well Identifier

~CURVE INFORMATION
#MNEM.UNIT       API CODE       CURVE DESCRIPTION
#---------       --------       -----------------
 DEPT.ft        : <Measured Depth>
 DT.us/ft       : Sonic
 GR.gAPI        : Gamma Ray

~PARAMETER INFORMATION
#MNEM.UNIT       VALUE       DESCRIPTION
#---------       -----       -----------
 EKB.ft      3201 : Elevation above MSL

~A      DEPT          DT          GR
# ...
      2959.5    335.8196     28.1465
        2960    335.8196     32.0874
      2960.5    335.8196     35.5029
        2961    335.8196     39.0301
      2961.5    335.8196      41.283
        2962    335.8196     48.1936
      2962.5    335.8196     61.6328
        2963    335.8196     66.3807
      2963.5    335.8196     56.9022
        2964    335.8196     51.1843
      2964.5    335.8196     44.0069
        2965    335.8196     32.0742
      2965.5    335.8196     28.9395
        2966    335.8196     39.9501
      2966.5    335.8196      53.174
        2967    335.8196     59.3695
      2967.5    335.8196     52.9313
        2968    335.8196     38.7444
      2968.5    335.8196     33.9106
        2969    335.8196     40.9637
      2969.5    335.8196     47.0228
        2970    335.8196     45.6627
      2970.5    335.8196     44.9447
        2971    335.8196     48.4913
      2971.5    335.8196     47.4526
        2972    335.8196     40.9325
      2972.5    335.8196     39.9543
        2973    335.7157     40.9807
      2973.5    335.6445     41.5308
        2974    335.6445     46.0717
      2974.5    335.6445     50.1751
        2975    335.6445     48.2856
      2975.5    335.6445     44.3447
        2976    335.8196     37.3056
      2976.5    335.8196     32.2858
        2977    335.6445     33.1521
      2977.5    335.6445     37.6447
        2978    335.6445     40.9807
      2978.5    335.6445     39.6137
        2979    335.6445     38.3538
      2979.5    335.6445     41.2706
        2980    335.6445     42.5569
      2980.5    335.6445     41.7688
        2981    335.6445     43.8224
      2981.5    335.6445     53.2048
        2982    335.6445     58.2623
      2982.5    335.6445     52.6601
        2983    335.6445      44.704
      2983.5    335.6445     42.5569
        2984    335.6445     44.5562
      2984.5    335.8196     46.5266
        2985    335.6445     48.5559
      2985.5    335.6445     54.4672
        2986    335.6445      58.056
      2986.5    335.6445     52.4192
        2987    335.6445     42.0522
      2987.5    335.6445     35.6963
        2988    335.6445     35.1007
      2988.5    335.6445     40.0534
        2989    335.6445     51.9999
      2989.5    335.6445      56.974
        2990    335.6445     52.2137
      2990.5    335.6445     51.4886
        2991    335.6445     49.2595
      2991.5    335.6445     41.9031
        2992    335.6445     37.2384
      2992.5    335.6445     42.4243
        2993    335.6445     51.2913
      2993.5    335.6445     46.0372
        2994    335.6445     35.4961
      2994.5    335.6445     33.0998
        2995    335.6445     33.7901
      2995.5    335.6445      38.226
        2996    335.6445     48.8705
      2996.5    335.6445      58.387
        2997    335.6445     56.7708
      2997.5    335.6445     54.1501
        2998    335.6445     61.1543
      2998.5    335.6445     68.3712
        2999    335.6445     65.1043
      2999.5    335.6445     54.2014
        3000    335.6445     48.8616
      3000.5    335.6445     52.3841
        3001    335.6445     54.8317
      3001.5    335.6445     47.6299
        3002    335.6445     40.8351
      3002.5    335.6445     44.2795
        3003    335.6445     54.8619
      3003.5    335.6445     58.7701
        3004    335.6445     52.6532
      3004.5    335.6445     45.8597
        3005    335.6445     45.9535
      3005.5    335.6445     53.4788
        3006    335.6445     55.9545
      3006.5    335.6445     55.3908
        3007    335.6445      52.895
      3007.5    335.6445      55.097
        3008    335.6445     64.8714
      3008.5    335.6445     63.1146
        3009    335.6445     48.8887
      3009.5    335.6445      43.345
        3010    335.6445     47.3525
      3010.5    335.6445     57.2047
        3011    335.6445     61.7338
      3011.5    335.6445     57.1471
        3012    335.6445     52.1049
      3012.5    335.6445     52.3174
        3013    335.6445     53.6806
      3013.5    335.6445     49.5675
        3014    335.6445      46.062
      3014.5    335.6445     45.4466
        3015    335.6445     42.9154
      3015.5    335.6445     33.9829
        3016    335.6445     26.7108
      3016.5    335.6445     26.3544
        3017    335.6445     34.3171
      3017.5    335.6445     45.4404
        3018    335.6445     55.5125
      3018.5    335.6445     65.0157
        3019    335.6445      65.326
      3019.5    335.6445     51.0528
        3020    335.6445     31.2609
      3020.5    335.6445     23.6427
        3021    335.6445     27.2346
      3021.5    335.6445      37.044
        3022    335.6445      47.905
      3022.5    335.6445     56.3068
        3023    335.6445     57.7933
      3023.5    335.6445     57.5306
        3024    335.6445      60.602
      3024.5    335.6445     72.0813
        3025    335.6445     88.3702
      3025.5    335.6445     94.0455
        3026    335.6445     91.6739
      3026.5    335.6445     86.0253
        3027    335.6445     77.6564
      3027.5    335.6445     67.5415
        3028    335.6445     55.5878
      3028.5    335.6445     50.4378
        3029    335.6445     54.5682
      3029.5    335.6445     65.1722
        3030    335.6445     76.8156
      3030.5    335.6445      80.648
        3031    335.6445     77.9109
      3031.5    335.6445     66.3856
        3032    335.6445     56.5477
      3032.5    335.6445     52.5394
        3033    335.6445     52.2767
      3033.5    335.6445     50.6019
        3034    335.6445     47.1864
      3034.5    335.6445      44.559
        3035    335.6445     44.4957
      3035.5    335.6445      47.861
        3036    335.6445      49.387
      3036.5    335.6445      51.327
        3037    335.6445     53.9544
      3037.5    335.6445       54.59
        3038    335.6445     50.4959
      3038.5    335.6445     45.0812
        3039    335.6445     41.5859
      3039.5    335.6445     45.1801
        3040    335.6445     55.4783
      3040.5    335.6445     59.8427
        3041    335.6445     56.9794
      3041.5    335.6445     49.6494
        3042    335.6445     37.8528
      3042.5    335.6445      31.996
        3043    335.6445     33.2063
      3043.5    335.6445     37.7259
        3044    335.6445     45.6611
      3044.5    335.6445     57.5371
        3045    335.6445     63.2019
      3045.5    335.6445     56.5256
        3046    335.6445     48.9066
      3046.5    335.6445     42.0756
        3047    335.6445     37.1168
      3047.5    335.6445     37.0953
        3048    335.6445     39.0658
      3048.5    335.6445     42.1425
        3049    335.6445     46.0833
      3049.5    335.6445     49.8174
        3050    335.6445      60.869
      3050.5    335.6445     71.3035
        3051    335.6445     67.6247
      3051.5    335.4694     62.2025
        3052    335.4694     59.7067
      3052.5    335.4694     56.6854
        3053    335.4694     50.9967
      3053.5    335.4694     42.6471
        3054    335.4694     40.1926
      3054.5    335.4694     39.6093
        3055    335.4694     37.8284
      3055.5    335.4694     44.6291
        3056    335.4694     52.2767
      3056.5    335.4694     45.2116
        3057    335.4694     41.3613
      3057.5    335.4694     46.9375
        3058    335.4694     49.1963
      3058.5    335.4694     48.8616
        3059    335.4694     51.6082
      3059.5    335.4694     53.8529
        3060    335.4694      52.419
      3060.5    335.4694     55.1452
        3061    335.4694     59.8949
      3061.5    335.4694     52.3157
        3062    335.4694     42.5756
      3062.5    335.4694     39.0806
        3063    335.4694     37.4428
      3063.5    335.4694     33.8263
        3064    335.4694     34.9928
      3064.5    335.4694     40.9662
        3065    335.4694     50.0231
      3065.5    335.4694     57.1301
        3066    335.4694     60.4203
      3066.5    335.4694     60.1576
        3067    335.4694     66.1209
      3067.5    335.4694     73.3654
