#--------------------------------------------------#
#----------------DRILLING INFO, INC.---------------#
#---------------WWW.DRILLINGINFO.COM---------------#
#------------------COPYRIGHT 2018------------------#
#--------------------------------------------------#
#THIS FILE MAY BE USED ONLY IN ACCORDANCE WITH A CURRENT SUBSCRIPTION AGREEMENT BETWEEN
#THE USER AND DRILLING INFO, INC. NO PART OF THIS FILE MAY BE REPRODUCED, USED, COPIED,
#MODIFIED, PROPAGATED, OR DISTRIBUTED EXCEPT IN ACCORDANCE WITH THE SUBSCRIPTION
#AGREEMENT. UNAUTHORIZED USE OR DISTRIBUTION OF ALL OR ANY PART OF THIS FILE MAY VIOLATE
#COPYRIGHT, TRADEMARK, AND/OR OTHER LAWS AND IS SUBJECT TO CIVIL AS WELL AS CRIMINAL
#SANCTIONS.
#--------------------------------------------------#
#THIS FILE IS PROVIDED "AS-IS" AND ALL WARRANTIES ARE EXPRESSLY DISCLAIMED, WHETHER
#EXPRESS, ORAL, IMPLIED, STATUTORY OR OTHERWISE, INCLUDING ANY IMPLIED WARRANTY OF FITNESS
#FOR A PARTICULAR PURPOSE, MERCHANTABILITY, TITLE OR NON-INFRINGEMENT, AND ANY WARRANTIES
#ARISING BY VIRTUE OF CUSTOM OF TRADE OR COURSE OF DEALING.  FURTHER, DRILLING INFO,
#INC. AND ITS LICENSORS DO NOT REPRESENT OR WARRANT THAT THIS FILE WILL MEET USER'S
#REQUIREMENTS OR ARE SUITABLE FOR USER'S NEEDS OR THAT THE DATA OR RESULTS PROVIDED IN
#CONJUNCTION THEREWITH ARE CORRECT, ACCURATE, TIMELY OR RELIABLE. THESE DISCLAIMERS SHALL
#APPLY REGARDLESS OF ANY FAILURE OF ESSENTIAL PURPOSE OF ANY LIMITED REMEDY.  SOME
#JURISDICTIONS DO NOT ALLOW THE EXCLUSION OF CERTAIN WARRANTIES SO SOME OF THE ABOVE
#EXCLUSIONS MAY NOT APPLY. IN NO EVENT SHALL DRILLING INFO, INC. OR ANY OF ITS AFFILIATES
#BE LIABLE UNDER ANY LEGAL THEORY, WHETHER IN TORT (INCLUDING WITHOUT LIMITATION
#NEGLIGENCE), CONTRACT, STRICT LIABILITY, STATUTORY OR OTHERWISE, FOR ANY SPECIAL,
#INCIDENTAL, CONSEQUENTIAL, EXEMPLARY, PUNITIVE OR INDIRECT DAMAGE OF ANY KIND, INCLUDING
#WITHOUT LIMITATION LOSS OF REVENUE, PROFITS, GOODWILL, USE, AND/OR DATA OR THE COST OF
#PROCUREMENT OF SUBSTITUTE GOODS OR SERVICES, EVEN IF APPRISED OF THE POSSIBILITY OF SUCH
#DAMAGES IN ADVANCE.
#--------------------------------------------------#
# Exported from DI Transform
# DI Transform - A Product of Drillinginfo, Inc. - www.drillinginfo.com
#--------------------------------------------------#
#
~VERSION INFORMATION
 VERS.        2.0 : LAS ASCII STANDARD - VERSION 2.0
 WRAP.         NO : ONE LINE PER DEPTH STEP

~WELL INFORMATION
#MNEM.UNIT       DATA TYPE       INFORMATION
#---------       ---------       -----------
 STRT.ft          9043 : Start Depth
 STOP.ft         16870 : Stop Depth
 STEP.ft           0.5 : Step Length
 NULL.         -999.25 : Null Value
 COMP.                 : Company
 WELL.          DRD_55 : Well Name
 FLD.                  : Field Name
 LOC.                  : Well Location
 CNTY.                 : County
 STAT.                 : State or Province
 CTRY.                 : Country
 SRVC.                 : Service Company
 DATE.                 : Date
 API.   42109326310000 : Well Identifier

~CURVE INFORMATION
#MNEM.UNIT       API CODE       CURVE DESCRIPTION
#---------       --------       -----------------
 DEPT.ft          : <Measured Depth>
 CAL.in           : Caliper
 DPHI.%           : Density Porosity
 DT.us/ft         : Sonic
 GR.gAPI          : Gamma Ray
 ILD.ohmm         : Deep Resistivity
 ILS.ohmm         : Shallow Resistivity
 RHOB.g/cm3       : Density

~PARAMETER INFORMATION
#MNEM.UNIT       VALUE       DESCRIPTION
#---------       -----       -----------
 EKB.ft      3382 : Elevation above MSL

~A       DEPT         CAL        DPHI          DT          GR         ILD         ILS        RHOB
# ...
        15890      5.9919      8.5773     64.9058    386.1118    161.7831     19.2152      2.5715
      15890.5      5.9919      8.6066     64.5983    383.6298    170.5304     19.5673      2.5643
        15891      5.9919      8.6066     64.1913    379.6296    191.0513     20.0997      2.5623
      15891.5      5.9919      8.6885     63.6689         375     201.124     20.4086      2.5606
        15892      5.9919      8.6066     62.9881    370.4819    212.4996     21.8616      2.5606
      15892.5      5.9919      8.6066     62.1858         375    227.7094     23.0856      2.5606
        15893      5.9919       8.465     61.4481    378.3663    200.6574     22.1347      2.5606
      15893.5      5.9919      8.4552     60.6499    373.9105    187.2292     20.7741      2.5606
        15894      5.9919      8.8533     59.8045    361.2216    160.6286     20.1569      2.5601
      15894.5      5.9919      9.0763     58.9181    344.4723    188.0253     20.2551      2.5581
        15895      5.9919      8.9522      58.314    340.8526      191.49     19.8136       2.556
      15895.5      5.9919      8.9344     57.9112    350.6255    234.3902     19.7688      2.5544
        15896      5.9919      8.8525     57.6652    360.9706    303.7117     20.7276      2.5549
      15896.5      5.9919      8.9344     57.3577    361.7647    442.9729     21.8181      2.5565
        15897      5.9919      8.9344     57.0502    358.2344    713.1019     26.5895       2.556
      15897.5      5.9919      8.9344     56.7264    352.0294     899.008     29.3656      2.5544
        15898      5.9919      8.9235      56.204    349.4318   1071.5611     30.2577      2.5549
      15898.5      5.9919      8.7392     55.8829    345.5056   1063.8882     29.7277       2.557
        15899      5.9919      8.4965     55.5824    338.3052    1051.953     31.3658      2.5596
      15899.5      5.9919      8.0477     55.2153    329.2054   1062.1838     34.2004      2.5649
        15900      5.9919      7.6796     55.1339    327.1277   1052.7893     36.6001      2.5725
      15900.5      6.0325       6.706     55.2247     332.217   1043.1439     35.9028      2.5782
        15901      6.0325      5.7147     55.2659    334.2391    994.8197     37.2839      2.5855
      15901.5      6.0325      4.8312     56.4025    341.6667    948.8182     37.6308      2.6034
        15902      6.0325      3.8994      58.269    341.6667    854.8785     37.2999       2.625
      15902.5      6.0325      3.1574      59.892    332.4658    758.7661     37.9943      2.6409
        15903      6.0325      2.4979     61.2106    320.2759     534.068     37.2531      2.6551
      15903.5      6.0325      1.8586     61.7223    305.8699    336.1924     33.6624      2.6675
        15904      6.0325      1.1403     62.6537    294.1108    240.1118     29.6246      2.6778
      15904.5      6.0325      0.7746      65.189    281.1828    197.8435      28.941      2.6875
        15905      6.0325      1.0018     69.0179    266.0171    200.8459     31.0558      2.6947
      15905.5       6.056      1.6111     74.3546    259.3286    218.1424      34.967      2.6926
        15906      6.0732      1.8927     77.9753    253.9416     239.323     36.6562      2.6803
      15906.5      6.0732      1.9672      79.363    252.0492    273.7021     35.6159      2.6769
        15907      6.0732      2.1556     79.7303    247.7245    354.3538     39.8929      2.6741
      15907.5      6.0732      2.8307     81.4063    242.6147    615.9274     46.6983      2.6693
        15908      6.0732      3.5669     84.3239    239.5375    837.4739     60.2148      2.6608
      15908.5      6.0732      4.4515     86.6326    237.8049   1080.3471     88.8547      2.6477
        15909      6.0732      5.2409     88.0035    239.8374   1331.5042    126.0568       2.634
      15909.5      6.0732      5.8818     86.2519    240.4683   1387.7959    168.2146      2.6216
        15910      6.0732      6.5991     82.6097    241.8699    1170.466    149.8425      2.6096
      15910.5      6.0732      7.0733     79.0645    240.4113   1099.3978    138.1719      2.5999
        15911      6.0732      7.8408     76.9051    235.3015   1097.8208    195.8893       2.589
      15911.5      6.0732      8.7996     77.1646    233.2229   1135.3463     95.4339      2.5716
        15912      6.0732       9.613     78.6902    238.3327   1036.6893     72.8762       2.556
      15912.5      6.0732     10.1585     80.5927    246.0313    841.9776     71.0688      2.5446
        15913      6.0732     10.4334     81.1137    253.9966    760.1048     76.6669      2.5358
      15913.5      6.0732     10.6395     79.4205     260.159    623.6914     70.2873      2.5311
        15914      6.0732     10.7377     76.2702    258.4034    379.0282     62.9423      2.5274
      15914.5      6.0732     10.5877     72.8158      256.25    251.8404     48.9638      2.5257
        15915      6.0732     10.2997     70.2264      256.25     255.359     65.5469      2.5248
      15915.5      6.0732     10.1639     70.0693    258.4034    462.7525     136.284      2.5273
        15916      6.0732     10.1639     70.3459    261.4213   1759.6645    345.0867      2.5328
      15916.5      6.0732     10.0913     69.8711    269.3369   1609.3014    377.1037      2.5348
        15917      6.0732      9.8853     68.2035    272.1239   1039.5048    322.0394      2.5369
      15917.5      6.0732      9.7612     66.8883    272.1239    345.2734    115.6087      2.5389
        15918      6.0732      9.8711     66.5448    273.1635    193.2635     88.7503       2.541
      15918.5      6.0732     10.2364     66.2276    279.3991    147.8592      79.781      2.5421
        15919      6.0732     10.6111     66.3265    285.9353     120.378     72.3955      2.5371
      15919.5      6.0732     10.6582     66.4184    290.0943     98.3756      68.663      2.5288
        15920      6.0732     10.4125     66.5714    294.3104    100.3742     72.7458      2.5236
      15920.5      6.0732      9.7956     66.5714    292.8571    117.4053     73.5536      2.5282
        15921      6.0732      9.5902     66.6939    287.3832    200.0015    120.5952      2.5406
      15921.5      6.0732      9.8819     66.7022    287.4536    413.9635    316.8965      2.5431
        15922      6.0732      9.8738     66.6566    294.3777    527.5344    320.0573        2.54
      15922.5      6.0732      9.6201     66.4715    298.3887    679.6252    290.6897       2.539
        15923      6.0732      9.0639     66.3265    298.5437    464.7111    284.4369      2.5423
      15923.5      6.0732      8.7705     66.3265    301.7154    711.7547    286.9799      2.5511
        15924      6.0732      8.8193     66.3265    309.3513    410.2512    198.9841      2.5582
      15924.5      6.0732      9.0254     66.4318    317.0103    197.7109    135.5779      2.5584
        15925      6.0732      9.0984     66.4944    320.3125    214.2975    125.6389      2.5548
      15925.5      6.0732      8.9231     66.8018    317.0103    231.1117    118.7021      2.5517
        15926      6.0732      8.6903      66.659    313.7755    545.5253    486.7235      2.5549
      15926.5      6.0732      8.2105     65.7556    306.9942   1258.7796     893.218       2.562
        15927      6.0732      7.8262     64.7661    301.4706    2480.811   1739.4231      2.5682
      15927.5      6.0732      7.7049      64.254     308.103   1387.8541   1269.6914      2.5732
        15928      6.0641       7.681     64.1224    316.0663   1514.8238   1785.8103      2.5761
      15928.5      6.0325      7.7869     64.2449    324.4493   2830.4494   1988.2051       2.577
        15929      6.0325      7.7265     63.5306     321.202   3122.8683   1957.8341      2.5758
      15929.5      6.0325       7.459     62.0003    312.9825   3106.0919   1916.7186      2.5768
        15930      6.0325      7.0468     60.1819       307.5    3124.143   1876.4843      2.5805
      15930.5      6.0325      6.6347     59.1058    305.3026   3262.6666   1870.5993      2.5846
