~VERSION INFORMATION
VERS. 2.0 : CWLS Log ASCII Standard - version 2.0
WRAP.  NO : One line per depth step
#--------------------------------------------------#
#----------------DRILLING INFO, INC.---------------#
#---------------WWW.DRILLINGINFO.COM---------------#
#------------------COPYRIGHT 2015------------------#
#--------------------------------------------------#
#THIS FILE MAY BE USED ONLY IN ACCORDANCE WITH A CURRENT SUBSCRIPTION AGREEMENT BETWEEN
#THE USER AND DRILLING INFO, INC. NO PART OF THIS FILE MAY BE REPRODUCED, USED, COPIED,
#MODIFIED, PROPAGATED, OR DISTRIBUTED EXCEPT IN ACCORDANCE WITH THE SUBSCRIPTION
#AGREEMENT. UNAUTHORIZED USE OR DISTRIBUTION OF ALL OR ANY PART OF THIS FILE MAY VIOLATE
#COPYRIGHT, TRADEMARK, AND/OR OTHER LAWS AND IS SUBJECT TO CIVIL AS WELL AS CRIMINAL
#SANCTIONS.
#--------------------------------------------------#
#THIS FILE IS PROVIDED "AS-IS" AND ALL WARRANTIES ARE EXPRESSLY DISCLAIMED, WHETHER
#EXPRESS, ORAL, IMPLIED, STATUTORY OR OTHERWISE, INCLUDING ANY IMPLIED WARRANTY OF FITNESS
#FOR A PARTICULAR PURPOSE, MERCHANTABILITY, TITLE OR NON-INFRINGEMENT, AND ANY WARRANTIES
#ARISING BY VIRTUE OF CUSTOM OF TRADE OR COURSE OF DEALING.  FURTHER, DRILLING INFO,
#INC. AND ITS LICENSORS DO NOT REPRESENT OR WARRANT THAT THIS FILE WILL MEET USER'S
#REQUIREMENTS OR ARE SUITABLE FOR USER'S NEEDS OR THAT THE DATA OR RESULTS PROVIDED IN
#CONJUNCTION THEREWITH ARE CORRECT, ACCURATE, TIMELY OR RELIABLE. THESE DISCLAIMERS SHALL
#APPLY REGARDLESS OF ANY FAILURE OF ESSENTIAL PURPOSE OF ANY LIMITED REMEDY.  SOME
#JURISDICTIONS DO NOT ALLOW THE EXCLUSION OF CERTAIN WARRANTIES SO SOME OF THE ABOVE
#EXCLUSIONS MAY NOT APPLY. IN NO EVENT SHALL DRILLING INFO, INC. OR ANY OF ITS AFFILIATES
#BE LIABLE UNDER ANY LEGAL THEORY, WHETHER IN TORT (INCLUDING WITHOUT LIMITATION
#NEGLIGENCE), CONTRACT, STRICT LIABILITY, STATUTORY OR OTHERWISE, FOR ANY SPECIAL,
#INCIDENTAL, CONSEQUENTIAL, EXEMPLARY, PUNITIVE OR INDIRECT DAMAGE OF ANY KIND, INCLUDING
#WITHOUT LIMITATION LOSS OF REVENUE, PROFITS, GOODWILL, USE, AND/OR DATA OR THE COST OF
#PROCUREMENT OF SUBSTITUTE GOODS OR SERVICES, EVEN IF APPRISED OF THE POSSIBILITY OF SUCH
#DAMAGES IN ADVANCE.
#--------------------------------------------------#
~WELL INFORMATION
#MNEMONIC     .UNIT              VALUE :DESCRIPTION
#--------------------------------------------------#
STRT       .FT                4 :START DEPTH
STOP       .FT                10042 :STOP DEPTH
STEP       .FT                   0.500 :STEP
NULL       .                  -999.250 :NULL
API        .                421093139500 :API NUMBER
COMP       .         MOBIL OIL CORPORATION :COMPANY
WELL       .        MADERA-BROMAN  1 :WELL
DATE       .                27-Jun-1979 :LOG DATE
~CURVE INFORMATION
#MNEMONIC     .UNIT      API CODE :CURVE DESCRIPTION
#--------------------------------------------------#
DEPTH       .FT                      :Measured Depth
DT.US/FT        UNKNOWN   :DT
GR.API        UNKNOWN   :GR
CAL.INCH        UNKNOWN   :CAL
~A    DEPTH    DT    GR    CAL
# ...
 1300.5     -999.250   28.828   12.957
 1301     -999.250   31.519   12.957
 1301.5     -999.250   29.588   12.958
 1302     -999.250   27.656   12.958
 1302.5     -999.250   25.724   12.959
 1303     -999.250   23.793   12.959
 1303.5     -999.250   23.19   12.96
 1304     -999.250   22.995   12.96
 1304.5     -999.250   22.799   12.96
 1305     -999.250   22.603   12.961
 1305.5     -999.250   23.189   12.961
 1306     -999.250   24.7   12.962
 1306.5     -999.250   26.21   12.962
 1307     -999.250   27.72   12.963
 1307.5     -999.250   28.101   12.963
 1308     -999.250   26.346   12.964
 1308.5     -999.250   24.809   12.964
 1309     -999.250   25.344   12.964
 1309.5     -999.250   25.88   12.965
 1310     -999.250   26.416   12.965
 1310.5     -999.250   26.951   12.966
 1311     -999.250   28.769   12.966
 1311.5     -999.250   30.772   12.967
 1312     -999.250   38.143   12.967
 1312.5     -999.250   56.454   12.967
 1313     -999.250   75.89   12.968
 1313.5     -999.250   95.327   12.968
 1314     -999.250   112.347   12.969
 1314.5     -999.250   116.694   12.969
 1315     -999.250   118.583   12.97
 1315.5     -999.250   119.576   12.97
 1316     -999.250   120.569   12.97
 1316.5     -999.250   139.871   12.971
 1317     -999.250   145.401   12.971
 1317.5     -999.250   144.681   12.972
 1318     -999.250   132.491   12.973
 1318.5     -999.250   124.125   12.974
 1319     -999.250   120.065   12.975
 1319.5     -999.250   119.301   12.976
 1320     -999.250   121.189   12.978
 1320.5     -999.250   123.078   12.979
 1321     -999.250   124.966   12.98
 1321.5     -999.250   128.351   12.981
 1322     -999.250   135.232   12.982
 1322.5     -999.250   142.114   12.984
 1323     -999.250   148.996   12.985
 1323.5     -999.250   149.69   12.986
 1324     -999.250   149.955   12.987
 1324.5     -999.250   150.221   12.989
 1325     -999.250   150.486   12.99
 1325.5     -999.250   150.751   12.991
 1326     -999.250   150.744   12.992
 1326.5     -999.250   150.548   12.993
 1327     -999.250   150.351   12.995
 1327.5     -999.250   150.155   12.996
 1328     -999.250   143.366   12.997
 1328.5     -999.250   136.432   12.998
 1329     -999.250   129.499   13
 1329.5     -999.250   126.778   13.001
 1330     -999.250   126.802   13.002
 1330.5     -999.250   126.827   13.003
 1331     -999.250   126.851   13.005
 1331.5     -999.250   126.876   13.006
 1332     -999.250   126.9   13.007
 1332.5     -999.250   126.924   13.008
 1333     -999.250   126.949   13.009
 1333.5     -999.250   126.973   13.011
 1334     -999.250   126.998   13.012
 1334.5     -999.250   127.022   13.013
 1335     -999.250   127.046   13.014
 1335.5     -999.250   127.071   13.016
 1336     -999.250   127.095   13.017
 1336.5     -999.250   127.119   13.018
 1337     -999.250   127.144   13.019
 1337.5     -999.250   127.168   13.02
 1338     -999.250   127.193   13.022
 1338.5     -999.250   127.217   13.023
 1339     -999.250   127.241   13.024
 1339.5     -999.250   127.266   13.025
 1340     -999.250   127.29   13.027
 1340.5     -999.250   127.314   13.028
 1341     -999.250   127.339   13.029
 1341.5     -999.250   127.363   13.03
 1342     -999.250   127.388   13.031
 1342.5     -999.250   127.412   13.033
 1343     -999.250   127.436   13.034
 1343.5     -999.250   127.461   13.035
 1344     -999.250   126.039   13.036
 1344.5     -999.250   109.102   13.038
 1345     -999.250   92.166   13.039
 1345.5     -999.250   75.586   13.04
 1346     -999.250   76.533   13.04
 1346.5     -999.250   77.479   13.04
 1347     -999.250   83.539   13.039
 1347.5     -999.250   84.005   13.038
 1348     -999.250   80.025   13.037
 1348.5     -999.250   77.416   13.037
 1349     -999.250   81.81   13.036
 1349.5     -999.250   86.205   13.035
 1350     -999.250   90.599   13.034
 1350.5     -999.250   86.761   13.034
 1351     -999.250   81.197   13.033
 1351.5     -999.250   75.632   13.032
 1352     -999.250   70.24   13.031
 1352.5     -999.250   71.325   13.03
 1353     -999.250   72.41   13.03
 1353.5     -999.250   77.772   13.029
 1354     -999.250   83.375   13.028
 1354.5     -999.250   84.794   13.027
 1355     -999.250   83.77   13.027
 1355.5     -999.250   82.747   13.026
 1356     -999.250   80.304   13.025
 1356.5     -999.250   75.428   13.024
 1357     -999.250   77.469   13.024
 1357.5     -999.250   79.511   13.023
 1358     -999.250   82.319   13.022
 1358.5     -999.250   111.023   13.021
 1359     -999.250   138.403   13.021
 1359.5     -999.250   164.679   13.02
 1360     -999.250   162.676   13.019
 1360.5     -999.250   149.18   13.018
 1361     -999.250   135.684   13.014
 1361.5     -999.250   124.082   13.009
 1362     -999.250   116.141   13.005
 1362.5     -999.250   108.201   13
 1363     -999.250   100.261   12.996
 1363.5     -999.250   99.397   12.991
 1364     -999.250   100.274   12.986
 1364.5     -999.250   101.151   12.982
 1365     -999.250   102.029   12.977
 1365.5     -999.250   111.022   12.974
 1366     -999.250   114.336   12.974
 1366.5     -999.250   105.578   12.974
 1367     -999.250   96.82   12.975
 1367.5     -999.250   88.062   12.975
 1368     -999.250   76.647   12.975
 1368.5     -999.250   70.838   12.976
 1369     -999.250   75.83   12.976
 1369.5     -999.250   77.798   12.976
 1370     -999.250   79.567   12.977
 1370.5     -999.250   82.879   12.977
 1371     -999.250   88.639   12.977
 1371.5     -999.250   94.398   12.978
 1372     -999.250   98.605   12.978
 1372.5     -999.250   94.414   12.978
 1373     -999.250   93.743   12.979
 1373.5     -999.250   99.912   12.979
 1374     -999.250   106.082   12.979
 1374.5     -999.250   105.163   12.98
 1375     -999.250   99.482   12.98
 1375.5     -999.250   93.801   12.98
 1376     -999.250   92.823   12.981
 1376.5     -999.250   98.277   12.981
 1377     -999.250   102.876   12.981
 1377.5     -999.250   99.467   12.982
 1378     -999.250   96.059   12.982
 1378.5     -999.250   92.65   12.982
 1379     -999.250   89.242   12.983
 1379.5     -999.250   91.606   12.983
 1380     -999.250   94.203   12.983
 1380.5     -999.250   96.098   12.984
 1381     -999.250   97.183   12.984
 1381.5     -999.250   98.268   12.984
 1382     -999.250   102.099   12.985
 1382.5     -999.250   110.275   12.985
 1383     -999.250   106.084   12.987
 1383.5     -999.250   101.893   12.988
 1384     -999.250   97.702   12.99
 1384.5     -999.250   93.51   12.991
 1385     -999.250   101.828   12.993
 1385.5     -999.250   104.851   12.995
 1386     -999.250   102.395   12.996
 1386.5     -999.250   99.939   12.998
 1387     -999.250   97.483   12.999
 1387.5     -999.250   93.082   13.001
 1388     -999.250   87.241   13.002
 1388.5     -999.250   81.399   13.004
 1389     -999.250   76.409   13.005
 1389.5     -999.250   72.749   13.007
 1390     -999.250   69.089   13.008
 1390.5     -999.250   65.43   13.01
 1391     -999.250   62.785   13.011
 1391.5     -999.250   63.538   13.013
 1392     -999.250   64.29   13.015
 1392.5     -999.250   68.326   13.016
 1393     -999.250   74.479   13.018
 1393.5     -999.250   80.12   13.019
 1394     -999.250   84.661   13.021
 1394.5     -999.250   89.201   13.022
 1395     -999.250   92.453   13.024
 1395.5     -999.250   94.201   13.025
 1396     -999.250   95.949   13.027
 1396.5     -999.250   96.51   13.028
 1397     -999.250   95.274   13.03
 1397.5     -999.250   94.038   13.031
 1398     -999.250   92.802   13.033
 1398.5     -999.250   94.075   13.035
 1399     -999.250   97.649   13.036
 1399.5     -999.250   101.223   13.038
 1400     -999.250   104.797   13.039
 1400.5     -999.250   108.371   13.041
 1401     -999.250   110.537   13.042
 1401.5     -999.250   105.276   13.044
 1402     -999.250   101.767   13.045
 1402.5     -999.250   102.666   13.047
 1403     -999.250   103.565   13.048
 1403.5     -999.250   103.879   13.05
 1404     -999.250   100.905   13.051
 1404.5     -999.250   97.931   13.052
 1405     -999.250   94.957   13.052
