###############################################
##         ENVERUS                           ##
##         ESS - Open Hole                   ##
##         PERMIAN / DELAWARE                ##
##         Nov 03 2023  V4.0                 ##
##         42-109-33370-00-00                ##
###############################################
## Copyright 2017-2023  ENVERUS.  All Rights Reserved. 
## Confidential - Property of ENVERUS, use governed by terms and 
## conditions found within the existing Information Services Subscription Agreement 
## (as may be amended, the “ISSA”) between Customer and ENVERUS. 
## 
~VERSION INFORMATION
# MNEM.UNIT                               DATA : DESCRIPTION OF MNEMONIC
#-----.-----     ----------------------------- : -----------------------------
VERS.                                     2.00 : CWLS LOG ASCII STANDARD - VERSION 2.00
WRAP.                                       NO : MULTIPLE LINES PER DEPTH STEP
VEND.                                  ENVERUS : VENDOR
TYPE.                          ESS - OPEN HOLE : ENVERUS ESSENTIAL CURVES – ACCESSIBLE THROUGH ENVERUS PRISM(TM)
DOC.                                  52814434 : ENVERUS HEADER RAW DOCUMENT ID
#___________________________________________________________________________________________________ 
~WELL INFORMATION 
# 4wk/Fx8UuugU+iebl2dHJIcndKaYvWbTE+/Vf37HP7rynMiEVi3nAb6NYbehQO/VbM9PVY38flJCaeNisGRn4g== 
# MNEM.UNIT                                              DATA : DESCRIPTION OF MNEMONIC 
#-----.-----                    ----------------------------- : ----------------------------- 
CNTY.                                               CULBERSON : COUNTY 
STATE.                                                  TEXAS : STATE 
CNTRY.                                                    USA : COUNTRY 
API.                                             42-109-33370 : API (10 Digit) 
API_14.                                    42-109-33370-00-00 : API (14 Digits) 
API_14_std.                                 42-109-33370-0000 : API (14 Digits Standard) 
UWI.                                           42109333700000 : UNIQUE WELL ID 
WELL.                                       ROXANNE FEE 46 3H : WELL NAME
STRT.FT                                                8800.0 : START DEPTH
STOP.FT                                               14157.0 : STOP DEPTH
STEP.FT                                                   0.5 : STEP BETWEEN DEPTHS
NULL.                                                 -999.25 : NULL VALUE
LOC.                                        API  42-109-33370 : LOCATION 
FL1.                                        API  42-109-33370 : LOCATIONLINE1 
DMF.                                                       KB : DRILL MEAS FROM 
PDAT.                                                      GL : PERMANENT DATUM 
FLD.                                    FORD, WEST (WOLFCAMP) : FIELD NAME 
COMP.                                          CAPITAN ENERGY : COMPANY 
DATE.                                             29-APR-2019 : DATE 
SVCO.                                             HALLIBURTON : SERVICECONAME 
PROV.                                                   TEXAS : PROVINCE 
BASI.                                                 PERMIAN : BASIN 
RANG.                                                     N/A : RANGE 
TOWN.                                                     N/A : TOWNSHIP 
SECT.                                                     N/A : SECTION 
SON.                                                905631605 : JOB NUMBER 
SRVC.                                             HALLIBURTON : SERVICE COMPANY 
LMF.                                                       KB : LOG MEASURED FROM 
BAP.FT                                                 0.0000 : GL ELEV ONSHORE 
GVFD.G                                                 1.0000 : GRAVITY FIELD
#___________________________________________________________________________________________________ 
~CURVE INFORMATION 
# MNEM.UNIT           : CURVE DESCRIPTION 
#-----.-----          : ----------------------------- 
 DEPT.FT               : MEASURED DEPTH 
 GR.API                : GAMMA RAY (GR_CHI - GR_CHI) 
 GR__01.API            : GAMMA RAY (GR_OH - GR_OH) 
 DT.US/FT              : SONIC DELTA TRANSIT TIME (DTC_CHI - DTC_CHI) 
 DT__01.US/FT          : SONIC DELTA TRANSIT TIME (DTC_OH - DTC_OH) 
 PE.B/E                : PHOTOELECTRIC EFFECT/FACTOR (PE_CHI - PE_CHI) 
 PE__01.B/E            : PHOTOELECTRIC EFFECT/FACTOR (PE_OH - PE_OH) 
 RESS_10.OHMM          : 10 INCH SHALLOW INDUCTION RESISTIVITY (RT10_CHI - RT10_CHI) 
 RESS_10__01.OHMM      : 10 INCH SHALLOW INDUCTION RESISTIVITY (RT10_OH - RT10_OH) 
 RESM_30.OHMM          : 30 INCH MEDIUM INDUCTION RESISTIVITY (RT30_CHI - RT30_CHI) 
 RESM_30__01.OHMM      : 30 INCH MEDIUM INDUCTION RESISTIVITY (RT30_OH - RT30_OH) 
 RESD_90.OHMM          : 90 INCH DEEP INDUCTION RESISTIVITY (RT90_CHI - RT90_CHI) 
 RESD_90__01.OHMM      : 90 INCH DEEP INDUCTION RESISTIVITY (RT90_OH - RT90_OH) 
 NPHI.V/V              : NEUTRON POROSITY (NPHI_CHI - NPHI_CHI) 
 NPHI__01.V/V          : NEUTRON POROSITY (NPHI_OH - NPHI_OH) 
 SPHI.V/V              : SONIC POROSITY (SPHI_CHI - SPHI_CHI) 
 RHOB.G/CC             : BULK DENSITY (RHOB_CHI - RHOB_CHI) 
 RHOB__01.G/CC         : BULK DENSITY (RHOB_OH - RHOB_OH) 
 #___________________________________________________________________________________________________ 
~A         DEPT             GR         GR__01             DT         DT__01             PE         PE__01        RESS_10    RESS_10__01        RESM_30    RESM_30__01        RESD_90    RESD_90__01           NPHI       NPHI__01           SPHI           RHOB       RHOB__01
# ...
        10930.0         94.974       -999.250         73.471       -999.250         3.4550      -999.2500         39.215       -999.250         40.507       -999.250         43.093       -999.250        0.13390     -999.25000        0.18290         2.5784      -999.2500
        10930.5         95.370       -999.250         73.486       -999.250         3.4569      -999.2500         39.549       -999.250         40.853       -999.250         43.461       -999.250        0.13360     -999.25000        0.18310         2.5781      -999.2500
        10931.0         96.001       -999.250         73.503       -999.250         3.4539      -999.2500         39.572       -999.250         40.876       -999.250         43.485       -999.250        0.13370     -999.25000        0.18320         2.5776      -999.2500
        10931.5         96.753       -999.250         73.530       -999.250         3.4464      -999.2500         39.272       -999.250         40.566       -999.250         43.156       -999.250        0.13410     -999.25000        0.18330         2.5771      -999.2500
        10932.0         97.090       -999.250         73.556       -999.250         3.4385      -999.2500         38.758       -999.250         40.035       -999.250         42.591       -999.250        0.13460     -999.25000        0.18330         2.5767      -999.2500
        10932.5         96.744       -999.250         73.545       -999.250         3.4316      -999.2500         38.178       -999.250         39.437       -999.250         41.954       -999.250        0.13480     -999.25000        0.18320         2.5769      -999.2500
        10933.0         95.946       -999.250         73.485       -999.250         3.4248      -999.2500         37.692       -999.250         38.935       -999.250         41.420       -999.250        0.13440     -999.25000        0.18270         2.5774      -999.2500
        10933.5         95.071       -999.250         73.376       -999.250         3.4192      -999.2500         37.482       -999.250         38.718       -999.250         41.189       -999.250        0.13340     -999.25000        0.18200         2.5780      -999.2500
        10934.0         93.883       -999.250         73.207       -999.250         3.4195      -999.2500         37.688       -999.250         38.930       -999.250         41.415       -999.250        0.13150     -999.25000        0.18110         2.5790      -999.2500
        10934.5         92.475       -999.250         73.042       -999.250         3.4255      -999.2500         38.265       -999.250         39.526       -999.250         42.049       -999.250        0.12930     -999.25000        0.18010         2.5802      -999.2500
        10935.0         90.670       -999.250         72.912       -999.250         3.4366      -999.2500         39.106       -999.250         40.396       -999.250         42.974       -999.250        0.12710     -999.25000        0.17940         2.5815      -999.2500
        10935.5         88.658       -999.250         72.847       -999.250         3.4516      -999.2500         40.100       -999.250         41.422       -999.250         44.066       -999.250        0.12540     -999.25000        0.17880         2.5827      -999.2500
        10936.0         86.824       -999.250         72.816       -999.250         3.4689      -999.2500         41.203       -999.250         42.562       -999.250         45.279       -999.250        0.12440     -999.25000        0.17850         2.5839      -999.2500
        10936.5         86.546       -999.250         72.821       -999.250         3.4871      -999.2500         42.468       -999.250         43.868       -999.250         46.668       -999.250        0.12460     -999.25000        0.17850         2.5844      -999.2500
        10937.0         86.987       -999.250         72.825       -999.250         3.5076      -999.2500         43.887       -999.250         45.334       -999.250         48.227       -999.250        0.12540     -999.25000        0.17850         2.5848      -999.2500
        10937.5         88.350       -999.250         72.837       -999.250         3.5251      -999.2500         45.381       -999.250         46.877       -999.250         49.869       -999.250        0.12610     -999.25000        0.17870         2.5846      -999.2500
        10938.0         89.117       -999.250         72.862       -999.250         3.5381      -999.2500         46.798       -999.250         48.341       -999.250         51.427       -999.250        0.12600     -999.25000        0.17900         2.5843      -999.2500
        10938.5         90.351       -999.250         72.950       -999.250         3.5422      -999.2500         47.925       -999.250         49.505       -999.250         52.665       -999.250        0.12610     -999.25000        0.17940         2.5832      -999.2500
        10939.0         92.254       -999.250         73.077       -999.250         3.5389      -999.2500         48.627       -999.250         50.230       -999.250         53.436       -999.250        0.12680     -999.25000        0.18000         2.5817      -999.2500
        10939.5         95.040       -999.250         73.182       -999.250         3.5301      -999.2500         48.922       -999.250         50.535       -999.250         53.761       -999.250        0.12790     -999.25000        0.18030         2.5798      -999.2500
        10940.0         96.860       -999.250         73.184       -999.250         3.5236      -999.2500         48.875       -999.250         50.486       -999.250         53.709       -999.250        0.12850     -999.25000        0.18010         2.5789      -999.2500
        10940.5         96.655       -999.250         73.066       -999.250         3.5206      -999.2500         48.562       -999.250         50.163       -999.250         53.365       -999.250        0.12820     -999.25000        0.17930         2.5795      -999.2500
        10941.0         93.757       -999.250         72.824       -999.250         3.5277      -999.2500         48.154       -999.250         49.742       -999.250         52.917       -999.250        0.12650     -999.25000        0.17790         2.5820      -999.2500
        10941.5         88.676       -999.250         72.495       -999.250         3.5419      -999.2500         47.804       -999.250         49.380       -999.250         52.532       -999.250        0.12350     -999.25000        0.17630         2.5858      -999.2500
        10942.0         83.713       -999.250         72.219       -999.250         3.5505      -999.2500         47.591       -999.250         49.159       -999.250         52.297       -999.250        0.12010     -999.25000        0.17480         2.5891      -999.2500
        10942.5         80.659       -999.250         72.026       -999.250         3.5509      -999.2500         47.567       -999.250         49.135       -999.250         52.272       -999.250        0.11710     -999.25000        0.17380         2.5910      -999.2500
        10943.0         80.842       -999.250         71.997       -999.250         3.5426      -999.2500         47.641       -999.250         49.211       -999.250         52.352       -999.250        0.11600     -999.25000        0.17360         2.5906      -999.2500
        10943.5         83.356       -999.250         72.125       -999.250         3.5329      -999.2500         47.715       -999.250         49.288       -999.250         52.434       -999.250        0.11710     -999.25000        0.17430         2.5887      -999.2500
        10944.0         87.934       -999.250         72.397       -999.250         3.5212      -999.2500         47.691       -999.250         49.264       -999.250         52.408       -999.250        0.12020     -999.25000        0.17560         2.5855      -999.2500
        10944.5         92.461       -999.250         72.686       -999.250         3.5137      -999.2500         47.548       -999.250         49.115       -999.250         52.250       -999.250        0.12400     -999.25000        0.17720         2.5824      -999.2500
