###############################################
##         ENVERUS                           ##
##         ESS - Open Hole                   ##
##         PERMIAN / DELAWARE                ##
##         Nov 03 2023  V4.0                 ##
##         42-109-32572-90-00                ##
###############################################
## Copyright 2017-2023  ENVERUS.  All Rights Reserved. 
## Confidential - Property of ENVERUS, use governed by terms and 
## conditions found within the existing Information Services Subscription Agreement 
## (as may be amended, the “ISSA”) between Customer and ENVERUS. 
## 
~VERSION INFORMATION
# MNEM.UNIT                               DATA : DESCRIPTION OF MNEMONIC
#-----.-----     ----------------------------- : -----------------------------
VERS.                                     2.00 : CWLS LOG ASCII STANDARD - VERSION 2.00
WRAP.                                       NO : MULTIPLE LINES PER DEPTH STEP
VEND.                                  ENVERUS : VENDOR
TYPE.                          ESS - OPEN HOLE : ENVERUS ESSENTIAL CURVES – ACCESSIBLE THROUGH ENVERUS PRISM(TM)
DOC.                                  51093467 : ENVERUS HEADER RAW DOCUMENT ID
#___________________________________________________________________________________________________ 
~WELL INFORMATION 
# 8gl1O6v4swiPFL4GH+dnL3Th7drW/gNnufiOMC39xBbatiyIUGjWQRxOO2UkOAKZqu0QrDKM70MxnzzovQmAYg== 
# MNEM.UNIT                                              DATA : DESCRIPTION OF MNEMONIC 
#-----.-----                    ----------------------------- : ----------------------------- 
CNTY.                                               CULBERSON : COUNTY 
STATE.                                                  TEXAS : STATE 
CNTRY.                                                    USA : COUNTRY 
API.                                             42-109-32572 : API (10 Digit) 
API_14.                                    42-109-32572-90-00 : API (14 Digits) 
API_14_std.                                 42-109-32572-9000 : API (14 Digits Standard) 
UWI.                                           42109325729000 : UNIQUE WELL ID 
WELL.                               42109325720000_PREV_API14 : WELL NAME
STRT.FT                                                2248.5 : START DEPTH
STOP.FT                                               10757.5 : STOP DEPTH
STEP.FT                                                   0.5 : STEP BETWEEN DEPTHS
NULL.                                                 -999.25 : NULL VALUE
PREV_APII.                                     42109325720000 : WELL IDENTIFIER
#___________________________________________________________________________________________________ 
~PARAMETER INFORMATION 
# MNEM.UNIT                                              DATA : DESCRIPTION OF MNEMONIC 
#-----.-----                    ----------------------------- : ----------------------------- 
EKB.FT                                                   3340 : ELEVATION ABOVE MSL
#___________________________________________________________________________________________________ 
~CURVE INFORMATION 
# MNEM.UNIT           : CURVE DESCRIPTION 
#-----.-----          : ----------------------------- 
 DEPT.FT               : MEASURED DEPTH 
 CALI.IN               : CALIPER (CAL - CALIPER) 
 GR.API                : GAMMA RAY (GAMMA RAY) 
 DT.US/FT              : SONIC DELTA TRANSIT TIME (SONIC) 
 #___________________________________________________________________________________________________ 
~A         DEPT           CALI             GR             DT
# ...
         2776.5         14.618         70.495         89.081
         2777.0         14.637         76.981         89.122
         2777.5         14.676         78.183         89.239
         2778.0         14.728         74.689         89.649
         2778.5         14.787         68.558         89.873
         2779.0         14.806         66.863         88.555
         2779.5         14.845         66.669         87.462
         2780.0         14.865         64.517         87.208
         2780.5         14.924         61.010         87.252
         2781.0         15.008         66.536         88.540
         2781.5         15.047         75.187         89.553
         2782.0         15.119         76.263         91.298
         2782.5         15.184         72.742         91.298
         2783.0         15.237         71.568         91.298
         2783.5         15.256         66.176         90.574
         2784.0         15.256         66.590         89.336
         2784.5         15.256         73.295         88.617
         2785.0         15.256         74.117         87.833
         2785.5         15.256         73.070         88.139
         2786.0         15.256         75.001         89.095
         2786.5         15.256         83.219         88.560
         2787.0         15.256         76.451         88.340
         2787.5         15.256         73.535         88.210
         2788.0         15.256         74.801         87.740
         2788.5         15.237         78.518         87.063
         2789.0         15.217         75.571         86.595
         2789.5         15.198         70.736         87.577
         2790.0         15.198         69.430         88.704
         2790.5         15.198         73.218         89.485
         2791.0         15.198         80.882         87.080
         2791.5         15.198         88.020         83.809
         2792.0         15.198         91.202         79.582
         2792.5         15.198        105.477         80.900
         2793.0         15.217        104.448         86.327
         2793.5         15.335         88.715         90.704
         2794.0         15.335         79.368         91.552
         2794.5         15.397         66.113         88.382
         2795.0         15.452         66.155         85.543
         2795.5         15.514         72.058         86.558
         2796.0         15.550         76.154         88.466
         2796.5         15.570         79.927         90.324
         2797.0         15.609         80.626         90.692
         2797.5         15.628         75.895         91.229
         2798.0         15.651         71.795         92.452
         2798.5         15.687         68.885         92.910
         2799.0         15.687         70.506         93.444
         2799.5         15.687         74.603         94.088
         2800.0         15.687         75.322         92.084
         2800.5         15.687         72.173         89.682
         2801.0         15.687         69.717         90.513
         2801.5         15.687         64.562         91.984
         2802.0         15.687         64.188        100.217
         2802.5         15.687         73.439         92.171
         2803.0         15.707         78.299         90.792
         2803.5         15.708         78.356         93.504
         2804.0         15.746         77.675         93.861
         2804.5         15.765         87.682         88.571
         2805.0         15.766         84.719         85.448
         2805.5         15.785         71.780         80.659
         2806.0         15.785         69.456         80.790
         2806.5         15.864         71.645         87.034
         2807.0         15.922         76.931         88.340
         2807.5         15.980         79.972         88.899
         2808.0         15.980         81.213         88.418
         2808.5         15.980         82.887         87.164
         2809.0         15.980         85.520         86.053
         2809.5         15.980         82.482         88.136
         2810.0         15.980         79.844         88.926
         2810.5         15.980         73.399         88.516
         2811.0         15.980         72.410         85.588
         2811.5         15.980         78.158         84.122
         2812.0         15.980         83.557         84.313
         2812.5         15.980         87.107         87.568
         2813.0         15.980         79.668         89.100
         2813.5         15.980         76.299         91.090
         2814.0         15.980         80.004         89.662
         2814.5         15.980         82.779         84.806
         2815.0         15.980         79.839         80.677
         2815.5         15.980         75.672         81.679
         2816.0         15.904         73.803         82.291
         2816.5         15.825         71.645         83.899
         2817.0         15.786         72.001         84.351
         2817.5         15.765         75.547         84.585
         2818.0         15.746         80.022         86.646
         2818.5         15.687         76.711         81.372
         2819.0         15.648         72.622         79.829
         2819.5         15.494         75.343         79.620
         2820.0         15.396         75.343         80.463
         2820.5         15.239         72.941         81.595
         2821.0         15.180         71.452         81.602
         2821.5         15.119         72.187         81.492
         2822.0         15.063         73.360         81.367
         2822.5         14.985         80.729         81.956
         2823.0         14.851         86.749         82.061
         2823.5         14.792         86.722         80.213
         2824.0         14.728         85.548         79.560
         2824.5         14.728         71.660         79.384
         2825.0         14.633         72.230         78.056
         2825.5         14.555         77.102         76.671
         2826.0         14.418         79.027         75.631
         2826.5         14.321         80.787         75.156
         2827.0         14.141         92.299         75.497
         2827.5         14.047        108.920         73.802
         2828.0         13.894        114.565         73.351
         2828.5         13.695        115.851         72.695
         2829.0         13.628        119.677         72.754
         2829.5         13.554        129.647         72.461
         2830.0         13.520        133.057         72.578
         2830.5         13.520        123.927         72.800
         2831.0         13.499        116.495         73.281
         2831.5         13.369        114.035         73.281
         2832.0         13.296        115.609         73.089
         2832.5         13.235        117.723         72.541
         2833.0         13.128        111.716         72.285
         2833.5         13.050        101.570         71.905
         2834.0         12.972         94.991         71.335
         2834.5         12.913         94.251         70.410
         2835.0         12.849        106.570         69.302
         2835.5         12.750        119.318         70.707
         2836.0         12.659        126.724         71.680
         2836.5         12.580        160.232         76.178
         2837.0         12.512        187.171         79.589
         2837.5         12.479        233.355         79.916
         2838.0         12.385        249.556         79.130
         2838.5         12.284        224.766         73.588
         2839.0         12.243        193.412         70.983
         2839.5         12.176        158.588         71.095
         2840.0         12.141        158.450         71.387
         2840.5         12.145        159.164         71.503
         2841.0         12.106        155.513         70.488
         2841.5         12.054        143.950         69.513
         2842.0         12.027        134.901         68.751
