###############################################
##         ENVERUS                           ##
##         ESS - Open Hole                   ##
##         PERMIAN / DELAWARE                ##
##         Nov 03 2023  V4.0                 ##
##         42-109-32538-90-00                ##
###############################################
## Copyright 2017-2023  ENVERUS.  All Rights Reserved. 
## Confidential - Property of ENVERUS, use governed by terms and 
## conditions found within the existing Information Services Subscription Agreement 
## (as may be amended, the “ISSA”) between Customer and ENVERUS. 
## 
~VERSION INFORMATION
# MNEM.UNIT                               DATA : DESCRIPTION OF MNEMONIC
#-----.-----     ----------------------------- : -----------------------------
VERS.                                     2.00 : CWLS LOG ASCII STANDARD - VERSION 2.00
WRAP.                                       NO : MULTIPLE LINES PER DEPTH STEP
VEND.                                  ENVERUS : VENDOR
TYPE.                          ESS - OPEN HOLE : ENVERUS ESSENTIAL CURVES – ACCESSIBLE THROUGH ENVERUS PRISM(TM)
DOC.                                  51093252 : ENVERUS HEADER RAW DOCUMENT ID
#___________________________________________________________________________________________________ 
~WELL INFORMATION 
# oCCetX3e+0pvkDd8h//i1tmWwvIHyfHqsQII3M49Y6eU5HggNAlLoqtwY+vCuZvzOG9Fr+Tv1xe2vto6NUMufQ== 
# MNEM.UNIT                                              DATA : DESCRIPTION OF MNEMONIC 
#-----.-----                    ----------------------------- : ----------------------------- 
CNTY.                                               CULBERSON : COUNTY 
STATE.                                                  TEXAS : STATE 
CNTRY.                                                    USA : COUNTRY 
API.                                             42-109-32538 : API (10 Digit) 
API_14.                                    42-109-32538-90-00 : API (14 Digits) 
API_14_std.                                 42-109-32538-9000 : API (14 Digits Standard) 
UWI.                                           42109325389000 : UNIQUE WELL ID 
WELL.                                                  DRD_55 : WELL NAME
STRT.FT                                                2546.5 : START DEPTH
STOP.FT                                               11260.0 : STOP DEPTH
STEP.FT                                                   0.5 : STEP BETWEEN DEPTHS
NULL.                                                 -999.25 : NULL VALUE
PREV_APII.                                     42109325380000 : WELL IDENTIFIER
#___________________________________________________________________________________________________ 
~PARAMETER INFORMATION 
# MNEM.UNIT                                              DATA : DESCRIPTION OF MNEMONIC 
#-----.-----                    ----------------------------- : ----------------------------- 
EKB.FT                                                   3182 : ELEVATION ABOVE MSL
#___________________________________________________________________________________________________ 
~CURVE INFORMATION 
# MNEM.UNIT           : CURVE DESCRIPTION 
#-----.-----          : ----------------------------- 
 DEPT.FT               : MEASURED DEPTH 
 CALI.IN               : CALIPER (CAL - CALIPER) 
 GR.API                : GAMMA RAY (GAMMA RAY) 
 DT.US/FT              : SONIC DELTA TRANSIT TIME (SONIC) 
 RESS.OHMM             : SHALLOW INDUCTION RESISTIVITY (ILS - SHALLOW RESISTIVITY) 
 RESD.OHMM             : DEEP INDUCTION RESISTIVITY (ILD - DEEP RESISTIVITY) 
 DPHI.V/V              : DENSITY POROSITY (DENSITY POROSITY) 
 NPHI.V/V              : NEUTRON POROSITY (NEUTRON POROSITY) 
 RHOB.G/CC             : BULK DENSITY (DENSITY) 
 #___________________________________________________________________________________________________ 
~A         DEPT           CALI             GR             DT           RESS           RESD           DPHI           NPHI           RHOB
# ...
        10482.0          6.228        106.924         78.855         30.341         55.192        0.12883        0.21851         2.5013
        10482.5          6.228        101.271         78.446         31.578         54.082        0.12506        0.21113         2.4813
        10483.0          6.227        103.900         78.446         30.920         49.008        0.14106        0.19638         2.4621
        10483.5          6.226        108.988         78.292         27.248         44.100        0.15418        0.21779         2.4655
        10484.0          6.225        110.382         77.263         23.060         37.408        0.15866        0.21389         2.5064
        10484.5          6.225        110.613         76.150         20.897         33.704        0.13422        0.21646         2.5702
        10485.0          6.224         87.280         73.819         20.242         32.865        0.07896        0.19971         2.6184
        10485.5          6.223         56.058         71.451         24.930         41.632        0.04548        0.13670         2.6320
        10486.0          6.223         44.732         68.477         30.751         52.345        0.04926        0.09799         2.6357
        10486.5          6.222         47.106         66.811         37.706         61.510        0.05111        0.09596         2.6408
        10487.0          6.221         54.816         65.362         42.053         66.828        0.03773        0.08120         2.6444
        10487.5          6.220         54.599         64.333         44.312         63.674        0.03625        0.09917         2.6481
        10488.0          6.220         54.296         64.131         43.270         59.738        0.04034        0.12256         2.6532
        10488.5          6.219         53.802         64.761         47.063         64.754        0.03548        0.12065         2.6492
        10489.0          6.222         56.853         66.426         51.091         70.914        0.04315        0.11294         2.6420
        10489.5          6.226         74.638         68.806         50.948         71.432        0.04366        0.11339         2.6367
        10490.0          6.230        100.510         72.215         44.265         49.954        0.04282        0.13470         2.6162
        10490.5          6.234        115.070         75.099         34.530         41.543        0.06135        0.13960         2.5727
        10491.0          6.237        113.170         77.957         26.929         35.867        0.09934        0.12288         2.5305
        10491.5          6.241        113.577         79.934         25.940         34.292        0.11733        0.14646         2.5041
        10492.0          6.245        118.402         80.963         26.758         36.992        0.13304        0.20033         2.4885
        10492.5          6.256        120.767         81.309         30.849         39.137        0.13895        0.20798         2.4894
        10493.0          6.256        113.226         81.309         33.344         40.974        0.13493        0.20182         2.5019
        10493.5          6.253        111.450         80.900         35.800         39.539        0.12661        0.20930         2.5228
        10494.0          6.249        101.043         80.401         38.554         38.840        0.10776        0.19714         2.5442
        10494.5          6.245         92.154         80.082         43.164         41.460        0.09653        0.18879         2.5605
        10495.0          6.241         96.741         80.082         46.317         43.473        0.09056        0.20442         2.5709
        10495.5          6.232         96.741         80.805         49.775         45.029        0.08899        0.18692         2.5433
        10496.0          6.228        104.009         81.309         49.973         43.985        0.11691        0.21986         2.5161
        10496.5          6.229        109.023         81.718         48.969         41.226        0.11714        0.21828         2.5435
        10497.0          6.229        110.870         81.179         46.434         39.315        0.09429        0.22544         2.5762
        10497.5          6.230        112.527         80.149         44.923         37.494        0.07962        0.20896         2.5670
        10498.0          6.231        111.199         79.120         43.550         35.756        0.08402        0.17860         2.5508
        10498.5          6.231        101.050         78.091         43.204         35.723        0.09915        0.19666         2.5465
        10499.0          6.232         98.426         77.062         46.018         37.458        0.09731        0.18918         2.5552
        10499.5          6.233        102.839         76.401         46.150         38.718        0.08769        0.15622         2.5734
        10500.0          6.233        104.431         75.583         46.102         37.994        0.07546        0.14749         2.5570
        10500.5          6.234        104.139         74.792         44.615         35.595        0.09237        0.14934         2.5265
        10501.0          6.235        102.111         73.763         41.067         30.773        0.10834        0.16098         2.5182
        10501.5          6.235         98.360         72.536         34.425         26.180        0.11715        0.17941         2.5263
        10502.0          6.236         70.443         71.296         32.483         26.152        0.11395        0.21252         2.5373
        10502.5          6.237         69.466         70.266         36.227         30.718        0.10949        0.23938         2.5483
        10503.0          6.237         80.882         69.857         42.597         35.928        0.10248        0.19858         2.5593
        10503.5          6.228         86.154         70.279         44.639         37.901        0.09596        0.13804         2.5751
        10504.0          6.228         63.223         71.308         49.611         42.683        0.08844        0.10269         2.5923
        10504.5          6.228         56.828         72.568         52.435         45.797        0.08114        0.08828         2.5434
        10505.0          6.228         56.671         74.626         55.580         48.861        0.07075        0.07034         2.5194
        10505.5          6.228         57.085         76.704         59.738         52.292        0.10999        0.06878         2.5064
        10506.0          6.228         75.573         78.518         64.496         52.783        0.12643        0.15009         2.4935
        10506.5          6.228        106.915         79.277         54.338         45.634        0.12293        0.18635         2.4805
        10507.0          6.228        113.649         78.591         46.625         41.129        0.14216        0.20384         2.5083
        10507.5          6.228        117.018         78.379         49.147         43.283        0.13263        0.22859         2.5461
        10508.0          6.228        118.657         77.628         57.269         50.591        0.10181        0.19955         2.5635
        10508.5          6.228        119.015         77.628         64.430         59.085        0.09211        0.18174         2.5298
        10509.0          6.228        119.235         78.328         71.428         69.070        0.10134        0.21331         2.4911
        10509.5          6.228        124.134         78.446         81.584         77.002        0.12831        0.19182         2.4583
        10510.0          6.228        124.077         78.141         85.275         73.862        0.15765        0.18135         2.4425
        10510.5          6.228        123.774         77.059         86.250         71.894        0.16807        0.19439         2.4886
        10511.0          6.228        122.339         74.993         86.906         74.366        0.14668        0.20152         2.5359
