~VERSION INFORMATION
VERS. 2.0 : CWLS Log ASCII Standard - Version 2.0
WRAP. NO : One line per depth step
#--------------------------------------------------#
#----------------DRILLING INFO, INC.---------------#
#---------------WWW.DRILLINGINFO.COM---------------#
#------------------COPYRIGHT 2015------------------#
#--------------------------------------------------#
#THIS FILE MAY BE USED ONLY IN ACCORDANCE WITH A CURRENT SUBSCRIPTION AGREEMENT BETWEEN
#THE USER AND DRILLING INFO, INC. NO PART OF THIS FILE MAY BE REPRODUCED, USED, COPIED,
#MODIFIED, PROPAGATED, OR DISTRIBUTED EXCEPT IN ACCORDANCE WITH THE SUBSCRIPTION
#AGREEMENT. UNAUTHORIZED USE OR DISTRIBUTION OF ALL OR ANY PART OF THIS FILE MAY VIOLATE
#COPYRIGHT, TRADEMARK, AND/OR OTHER LAWS AND IS SUBJECT TO CIVIL AS WELL AS CRIMINAL
#SANCTIONS.
#--------------------------------------------------#
#THIS FILE IS PROVIDED "AS-IS" AND ALL WARRANTIES ARE EXPRESSLY DISCLAIMED, WHETHER
#EXPRESS, ORAL, IMPLIED, STATUTORY OR OTHERWISE, INCLUDING ANY IMPLIED WARRANTY OF FITNESS
#FOR A PARTICULAR PURPOSE, MERCHANTABILITY, TITLE OR NON-INFRINGEMENT, AND ANY WARRANTIES
#ARISING BY VIRTUE OF CUSTOM OF TRADE OR COURSE OF DEALING.  FURTHER, DRILLING INFO,
#INC. AND ITS LICENSORS DO NOT REPRESENT OR WARRANT THAT THIS FILE WILL MEET USER'S
#REQUIREMENTS OR ARE SUITABLE FOR USER'S NEEDS OR THAT THE DATA OR RESULTS PROVIDED IN
#CONJUNCTION THEREWITH ARE CORRECT, ACCURATE, TIMELY OR RELIABLE. THESE DISCLAIMERS SHALL
#APPLY REGARDLESS OF ANY FAILURE OF ESSENTIAL PURPOSE OF ANY LIMITED REMEDY.  SOME
#JURISDICTIONS DO NOT ALLOW THE EXCLUSION OF CERTAIN WARRANTIES SO SOME OF THE ABOVE
#EXCLUSIONS MAY NOT APPLY. IN NO EVENT SHALL DRILLING INFO, INC. OR ANY OF ITS AFFILIATES
#BE LIABLE UNDER ANY LEGAL THEORY, WHETHER IN TORT (INCLUDING WITHOUT LIMITATION
#NEGLIGENCE), CONTRACT, STRICT LIABILITY, STATUTORY OR OTHERWISE, FOR ANY SPECIAL,
#INCIDENTAL, CONSEQUENTIAL, EXEMPLARY, PUNITIVE OR INDIRECT DAMAGE OF ANY KIND, INCLUDING
#WITHOUT LIMITATION LOSS OF REVENUE, PROFITS, GOODWILL, USE, AND/OR DATA OR THE COST OF
#PROCUREMENT OF SUBSTITUTE GOODS OR SERVICES, EVEN IF APPRISED OF THE POSSIBILITY OF SUCH
#DAMAGES IN ADVANCE.
#--------------------------------------------------#
~WELL INFORMATION
#MNEMONIC     .UNIT              VALUE :DESCRIPTION
#--------------------------------------------------#
STRT       .ft                52.00000 :START DEPTH
STOP       .ft                8797.00000 :STOP DEPTH
STEP       .ft                0.50000 :STEP
NULL       .                -999.25000 :NULL VALUE
COMP       .                 :COMPANY
WELL       .                 :WELL
FLD       .                 :FIELD
LOC       .                 :LOCATION
CNTY       .                 :COUNTY
STAT       .                 :STATE
CTRY       .                 :COUNTRY
SRVC       .                 :SERVICE COMPANY
DATE       .                 :DATE
API       .                42109700290000 :API NUMBER
~CURVE INFORMATION
#MNEMONIC     .UNIT      API CODE :CURVE DESCRIPTION
#--------------------------------------------------#
DEPTH       .ft                      :Measured Depth
DT       .us/ft        UNKNOWN   :DT
GR       .gAPI        UNKNOWN   :GR
ILD       .ohmm        UNKNOWN   :ILD
ILS       .ohmm        UNKNOWN   :ILS
SP       .mV        UNKNOWN   :SP
~A    DEPTH    DT    GR    ILD    ILS    SP
# ...
3023.00000    72.69634    89.95348    752.65882    551.92954    -72.83756
3023.50000    71.14185    93.07852    752.73321    546.23551    -73.43234
3024.00000    69.89433    96.20357    752.80760    544.81697    -74.02713
3024.50000    69.16219    97.18357    752.88198    543.39843    -74.62192
3025.00000    68.43005    94.67974    752.95637    541.97989    -75.21671
3025.50000    67.69791    92.17591    753.03076    540.56135    -75.81150
3026.00000    66.96578    89.67208    753.10514    539.14280    -76.40628
3026.50000    66.23364    87.16825    753.17953    537.72426    -76.73679
3027.00000    65.83303    76.59776    753.25392    536.30572    -76.88497
3027.50000    65.99578    66.01190    753.32830    534.88718    -77.03316
3028.00000    66.15853    55.42603    753.40269    535.48827    -77.18134
3028.50000    66.53707    57.54654    753.25566    536.97731    -77.32953
3029.00000    67.27192    68.68698    753.06655    538.46636    -77.47771
3029.50000    67.61390    73.33074    752.87744    539.95540    -77.62590
3030.00000    67.32857    77.97450    752.68833    542.33262    -77.96612
3030.50000    67.73026    82.61826    752.49922    545.29286    -78.48667
3031.00000    68.21958    84.00338    752.31012    548.25310    -79.00723
3031.50000    68.70891    82.71533    752.12101    551.21335    -79.52779
3032.00000    68.75963    81.42727    751.93190    554.17359    -80.04835
3032.50000    68.75934    80.13922    751.74279    557.13383    -80.56891
3033.00000    69.39579    81.19944    751.55369    560.09407    -81.08947
3033.50000    70.99053    83.12440    751.36458    563.05432    -81.61003
3034.00000    70.87946    84.76961    751.17547    566.01456    -82.13059
3034.50000    70.59415    86.09644    750.98636    568.97480    -82.65115
3035.00000    70.30885    87.60437    750.79725    571.93504    -83.17171
3035.50000    68.07674    89.91892    750.60815    574.89529    -83.69227
3036.00000    65.65281    92.23347    750.41904    577.85553    -84.21283
3036.50000    63.22888    89.45366    750.22993    580.81577    -84.73339
3037.00000    60.80494    80.37793    750.04082    583.77602    -84.59506
3037.50000    58.38101    70.03359    749.85172    586.73626    -83.14410
3038.00000    56.73999    59.68924    749.66261    589.69650    -81.69314
3038.50000    56.42229    49.34490    749.47350    592.65674    -80.24218
3039.00000    56.10459    36.17174    749.28439    595.61699    -78.79122
3039.50000    56.99301    35.48584    749.09528    598.57723    -79.17278
3040.00000    58.30147    39.65852    748.90618    601.53747    -85.51086
3040.50000    60.00646    43.83120    748.71707    604.49771    -89.62985
3041.00000    61.71146    48.00388    748.52796    607.45796    -86.56601
3041.50000    63.41645    52.17656    748.33885    607.38483    -84.42061
3042.00000    63.87719    56.34924    748.14975    607.14631    -84.05939
3042.50000    64.21675    61.24811    747.96064    606.90780    -83.69818
3043.00000    64.55631    68.54304    747.77153    606.66928    -83.33697
3043.50000    64.89587    71.15905    747.58242    606.43077    -82.97575
3044.00000    65.35796    70.26220    747.39331    606.19225    -82.61454
3044.50000    65.98747    71.46268    747.20421    603.89097    -82.25333
3045.00000    66.61698    73.68135    747.01510    600.30272    -81.89211
3045.50000    67.24650    75.90002    746.82599    596.71448    -81.53090
3046.00000    67.21121    78.11869    746.63688    593.12623    -81.16969
3046.50000    67.12948    80.33736    746.44778    589.53799    -80.79318
3047.00000    67.04775    79.61959    746.25867    585.94975    -80.24297
3047.50000    69.19152    77.77019    746.06956    582.36150    -79.69276
3048.00000    71.48134    75.92079    745.88045    578.77326    -79.14255
3048.50000    73.77116    77.20212    745.69134    575.18501    -78.59234
3049.00000    71.88346    84.41435    745.50224    573.19636    -78.04213
3049.50000    69.79636    91.62659    745.31313    575.24915    -77.49192
3050.00000    67.70926    98.68084    745.12402    577.30193    -76.94171
3050.50000    65.73082    92.50621    744.93491    579.35472    -76.39150
3051.00000    63.88742    86.33159    744.74581    581.40750    -75.84129
3051.50000    62.04401    80.15696    744.55670    583.29759    -75.29108
3052.00000    62.04508    55.04495    744.36759    583.29999    -74.74087
3052.50000    64.45780    50.40093    744.17848    583.30239    -74.19066
3053.00000    66.87052    51.14823    743.98938    583.30478    -73.64045
3053.50000    67.86730    51.89553    743.80027    583.30718    -73.79344
3054.00000    68.79784    52.64283    743.61116    583.30958    -74.35942
3054.50000    69.45835    53.39013    743.42205    582.45801    -74.92540
3055.00000    69.80736    55.78824    743.23294    580.73154    -75.49138
3055.50000    70.15636    60.22531    743.07967    579.00507    -76.05735
3056.00000    70.50537    65.19585    743.08341    577.27860    -76.62333
3056.50000    72.63065    72.20331    743.08714    575.55214    -77.18931
3057.00000    74.80987    79.21077    735.20758    573.82567    -77.75529
3057.50000    76.82227    86.21823    722.36630    572.09920    -78.16751
3058.00000    78.65329    90.70306    709.52503    570.37273    -78.11829
3058.50000    77.13316    92.12600    696.68375    568.64626    -78.06906
3059.00000    75.54433    93.54893    687.16161    566.91979    -78.01984
3059.50000    74.63691    93.85388    706.90057    567.16250    -77.97061
3060.00000    73.74138    90.93814    726.63953    567.88553    -77.92139
3060.50000    72.84585    88.02241    746.37849    568.60856    -77.87216
3061.00000    71.95032    85.10667    749.85937    569.33159    -77.82294
3061.50000    71.05479    72.70609    751.50635    570.05461    -77.77371
3062.00000    70.15926    58.19679    753.15332    570.77764    -77.72449
3062.50000    67.71940    58.95650    731.31643    571.89103    -77.67527
3063.00000    65.25688    60.48273    698.80117    573.43166    -76.46636
3063.50000    67.17195    61.44559    652.07185    574.97230    -72.90616
3064.00000    69.18394    60.42271    600.42512    576.51294    -69.34595
3064.50000    70.56689    59.39983    548.77840    578.05358    -65.78575
3065.00000    71.30015    58.37694    497.13167    579.59422    -62.22555
3065.50000    72.03341    59.05655    469.44552    581.56136    -60.73785
3066.00000    72.76667    59.94365    535.15996    583.90519    -64.36237
3066.50000    70.29328    60.83074    600.87441    586.24903    -67.98689
3067.00000    67.90479    61.71784    666.58885    588.59287    -71.61141
3067.50000    65.60693    62.60493    732.30330    590.93671    -73.29106
3068.00000    63.30906    63.49203    748.41800    598.95640    -71.46548
3068.50000    61.01120    64.26389    748.39914    618.56977    -69.63990
3069.00000    58.71334    64.53600    748.38027    638.18314    -67.90229
3069.50000    56.41548    64.80811    748.36141    657.79651    -66.57835
3070.00000    56.11547    60.65386    748.34254    677.40989    -65.25441
3070.50000    55.87097    54.23033    748.32368    697.02326    -63.93047
3071.00000    55.62648    47.80682    748.30482    716.63663    -62.60653
3071.50000    55.38199    41.68412    748.28595    736.25000    -61.28259
3072.00000    57.68109    35.85358    748.26709    755.86337    -59.95865
3072.50000    60.04168    39.68774    748.24823    775.47675    -57.83949
3073.00000    61.35359    44.04628    748.22936    794.27735    -55.51109
3073.50000    61.59780    48.40481    748.21050    803.31509    -53.18269
3074.00000    61.84201    52.76335    748.19163    812.35282    -53.29994
3074.50000    61.76849    57.12189    748.17277    821.39056    -54.92777
3075.00000    61.69488    60.80277    748.15391    830.42829    -56.55560
3075.50000    60.76010    64.23809    748.13504    839.46602    -50.78303
3076.00000    58.97526    67.00778    748.11618    848.50376    -49.56559
3076.50000    57.19042    62.87074    748.09732    857.54149    -52.79438
3077.00000    56.02696    58.42135    748.07845    866.57923    -56.02316
