###############################################
##         ENVERUS                           ##
##         ESS - Open Hole                   ##
##         PERMIAN / DELAWARE                ##
##         Nov 03 2023  V4.0                 ##
##         42-109-32709-00-00                ##
###############################################
## Copyright 2017-2023  ENVERUS.  All Rights Reserved. 
## Confidential - Property of ENVERUS, use governed by terms and 
## conditions found within the existing Information Services Subscription Agreement 
## (as may be amended, the “ISSA”) between Customer and ENVERUS. 
## 
~VERSION INFORMATION
# MNEM.UNIT                               DATA : DESCRIPTION OF MNEMONIC
#-----.-----     ----------------------------- : -----------------------------
VERS.                                     2.00 : CWLS LOG ASCII STANDARD - VERSION 2.00
WRAP.                                       NO : MULTIPLE LINES PER DEPTH STEP
VEND.                                  ENVERUS : VENDOR
TYPE.                          ESS - OPEN HOLE : ENVERUS ESSENTIAL CURVES – ACCESSIBLE THROUGH ENVERUS PRISM(TM)
DOC.                                  32116645 : ENVERUS HEADER RAW DOCUMENT ID
#___________________________________________________________________________________________________ 
~WELL INFORMATION 
# 8SOIrMNgLSTosdYTMQVb7KPebVRgGb4NQOaGG3/cpRvPeoxWQd7So5pZ7XPWbXIrV4d26no2f3ffGwkTWQV8GA== 
# MNEM.UNIT                                              DATA : DESCRIPTION OF MNEMONIC 
#-----.-----                    ----------------------------- : ----------------------------- 
CNTY.                                               CULBERSON : COUNTY 
STATE.                                                  TEXAS : STATE 
CNTRY.                                                    USA : COUNTRY 
API.                                             42-109-32709 : API (10 Digit) 
API_14.                                    42-109-32709-00-00 : API (14 Digits) 
API_14_std.                                 42-109-32709-0000 : API (14 Digits Standard) 
UWI.                                           42109327090000 : UNIQUE WELL ID 
WELL.                                    42109327090000_API14 : WELL NAME
STRT.FT                                                  26.5 : START DEPTH
STOP.FT                                                5244.0 : STOP DEPTH
STEP.FT                                                   0.5 : STEP BETWEEN DEPTHS
NULL.                                                 -999.25 : NULL VALUE
#___________________________________________________________________________________________________ 
~PARAMETER INFORMATION 
# MNEM.UNIT                                              DATA : DESCRIPTION OF MNEMONIC 
#-----.-----                    ----------------------------- : ----------------------------- 
EKB.FT                                                   3124 : ELEVATION ABOVE MSL
#___________________________________________________________________________________________________ 
~CURVE INFORMATION 
# MNEM.UNIT           : CURVE DESCRIPTION 
#-----.-----          : ----------------------------- 
 DEPT.FT               : MEASURED DEPTH 
 CALI.IN               : CALIPER (CAL - CALIPER) 
 GR.API                : GAMMA RAY (GAMMA RAY) 
 DT.US/FT              : SONIC DELTA TRANSIT TIME (SONIC) 
 PE.B/E                : PHOTOELECTRIC EFFECT/FACTOR (PHOTOELECTRIC FACTOR) 
 RESS.OHMM             : SHALLOW INDUCTION RESISTIVITY (ILS - SHALLOW RESISTIVITY) 
 RESS_LL.OHMM          : SHALLOW LATEROLOG (LLS - SHALLOW RESISTIVITY) 
 RESD_LL.OHMM          : DEEP LATEROLOG (LLD - DEEP RESISTIVITY) 
 DPHI.V/V              : DENSITY POROSITY (DENSITY POROSITY) 
 NPHI.V/V              : NEUTRON POROSITY (NEUTRON POROSITY) 
 RHOB.G/CC             : BULK DENSITY (DENSITY) 
 #___________________________________________________________________________________________________ 
~A         DEPT           CALI             GR             DT             PE           RESS        RESS_LL        RESD_LL           DPHI           NPHI           RHOB
# ...
         4951.0          7.700         59.330        310.491         2.3993          4.911         4.0803         6.0444        0.12563        0.08669         2.5108
         4951.5          7.680         60.151        309.580         2.4120          2.425         4.0803         6.3291        0.12291        0.08656         2.5103
         4952.0          7.671         63.180        317.129         2.3121          3.200         3.7172         6.2991        0.13215        0.09546         2.4941
         4952.5          7.660         67.155        334.074         2.3046          4.805         3.4217         5.0072        0.13461        0.09797         2.4954
         4953.0          7.660         70.030        341.384         2.4046          4.148         3.1488         4.8051        0.12520        0.10017         2.5063
         4953.5          7.660         70.842        339.466         2.5440          2.094         3.1071         4.7790        0.12834        0.09251         2.4919
         4954.0          7.695         73.581        330.031         2.4448          1.949         2.9245         4.3747        0.14914        0.10394         2.4614
         4954.5          7.755         81.097        323.146         2.3448          2.014         2.8893         4.1275        0.16154        0.11790         2.4569
         4955.0          7.818         82.986        333.828         2.3471          1.815         2.8893         4.1176        0.15635        0.12598         2.4604
         4955.5          7.896         77.794        331.864         2.3669          1.630         2.8038         3.8601        0.15365        0.13615         2.4601
         4956.0          7.917         74.804        316.873         2.3669          1.660         2.7113         3.4073        0.15685        0.14795         2.4550
         4956.5          7.937         74.804        313.011         2.3866          1.579         3.0237         3.2203        0.16153        0.15225         2.4450
         4957.0          7.937         73.150        313.864         2.4260          1.394         3.0749         2.7862        0.17224        0.15144         2.4215
         4957.5          7.917         63.284        316.873         2.3960          1.286         2.8595         2.7557        0.18934        0.17471         2.3960
         4958.0          7.917         53.610        329.610         2.3669          1.250         2.7309         2.7165        0.20144        0.18331         2.3801
         4958.5          7.878         55.574        341.860         2.3669          1.286         2.7430         2.8373        0.20963        0.19796         2.3761
         4959.0          7.818         65.730        341.956         2.4009          1.391         2.9516         2.8542        0.20658        0.18301         2.3837
         4959.5          7.818         72.676        341.956         2.4458          1.462         3.0236         2.7758        0.19678        0.17231         2.3981
         4960.0          7.818         71.839        341.956         2.4458          1.391         2.9832         2.7113        0.18932        0.16199         2.4043
         4960.5          7.818         68.617        341.956         2.4458          1.361         2.9570         2.7317        0.19105        0.15843         2.3982
         4961.0          7.779         67.363        341.956         2.4655          2.150         3.5041         3.1945        0.19625        0.15247         2.3988
         4961.5          7.759         67.787        341.956         2.4655          4.033         5.6842         3.5505        0.18093        0.15047         2.4364
         4962.0          7.739         71.855        341.956         2.4655          6.183         7.2034         4.9731        0.15879        0.14571         2.4949
         4962.5          7.739         78.692        341.895         2.5049          7.663         8.5019         8.1038        0.11779        0.13653         2.5261
         4963.0          7.739         88.721        324.866         2.5194          7.108         9.2411        11.7917        0.11133        0.13335         2.5323
         4963.5          7.779         96.551        317.375         2.4589          7.190         9.5830        12.3533        0.10861        0.13708         2.5386
         4964.0          7.779        102.577        314.966         2.4458          9.015        10.8897        12.5848        0.10315        0.13061         2.5484
         4964.5          7.798        104.569        312.835         2.4945         10.973        14.7876        19.9942        0.09600        0.13060         2.5574
         4965.0          7.798        104.569        312.191         2.5550          8.339        19.6512        26.3594        0.09284        0.12355         2.5555
         4965.5          7.798        105.619        312.609         2.6352          6.128        24.4326        32.6596        0.10199        0.12264         2.5413
         4966.0          7.798        110.940        320.303         2.6824          6.608        32.1072        42.6236        0.10644        0.11971         2.5437
         4966.5          7.826        118.795        336.380         2.6678          8.635        40.4228        57.8765        0.09460        0.11125         2.5673
         4967.0          7.719        122.156        341.148         2.5838         11.241        53.2168        71.9852        0.08188        0.10978         2.5822
         4967.5          7.648        121.802        341.962         2.5641         19.125        57.4948        70.8530        0.07719        0.11541         2.5870
         4968.0          7.608        126.545        335.370         2.6222         35.674        52.9327        65.9949        0.07559        0.12994         2.5906
         4968.5          7.561        129.192        322.848         2.7814         30.616        48.7325        63.0258        0.07278        0.13278         2.5908
         4969.0          7.561        125.557        328.432         2.8600         21.997        45.4811        58.5723        0.07644        0.14865         2.5830
         4969.5          7.561        121.473        330.342         2.8008         19.112        45.6142        60.5361        0.08191        0.13061         2.5789
         4970.0          7.542        114.588        342.002         2.7811         21.159        54.7456        70.3808        0.07949        0.12280         2.5874
         4970.5          7.542        108.094        342.594         2.8205         36.289        66.8260        94.7624        0.06566        0.13076         2.5995
         4971.0          7.502        109.273        342.693         2.7939         88.605       106.2313       111.2846        0.06922        0.15153         2.5860
         4971.5          7.502        112.856        342.793         2.7416         88.505       107.7814       139.2777        0.09133        0.15733         2.5510
         4972.0          7.502        120.477        342.892         2.7811         43.583       110.4279       135.5513        0.10757        0.15181         2.5323
         4972.5          7.502        138.630        342.899         2.7110         35.267       102.8695       114.2173        0.11223        0.12598         2.5325
         4973.0          7.502        139.349        342.700         2.5692         51.514        96.4814       109.0790        0.10514        0.11189         2.5421
         4973.5          7.502        135.449        319.094         2.4655         75.184       105.8718       116.7782        0.09617        0.10180         2.5560
         4974.0          7.502        115.023        314.348         2.5001         76.281       118.2567       133.9651        0.09151        0.09872         2.5628
         4974.5          7.522         97.889        310.915         2.6459         94.342       128.0960       171.0000        0.09285        0.10957         2.5570
         4975.0          7.522         98.938        323.634         2.8250        174.257       138.3566       219.1316        0.10027        0.12914         2.5391
