#--------------------------------------------------#
#----------------DRILLING INFO, INC.---------------#
#---------------WWW.DRILLINGINFO.COM---------------#
#------------------COPYRIGHT 2018------------------#
#--------------------------------------------------#
#THIS FILE MAY BE USED ONLY IN ACCORDANCE WITH A CURRENT SUBSCRIPTION AGREEMENT BETWEEN
#THE USER AND DRILLING INFO, INC. NO PART OF THIS FILE MAY BE REPRODUCED, USED, COPIED,
#MODIFIED, PROPAGATED, OR DISTRIBUTED EXCEPT IN ACCORDANCE WITH THE SUBSCRIPTION
#AGREEMENT. UNAUTHORIZED USE OR DISTRIBUTION OF ALL OR ANY PART OF THIS FILE MAY VIOLATE
#COPYRIGHT, TRADEMARK, AND/OR OTHER LAWS AND IS SUBJECT TO CIVIL AS WELL AS CRIMINAL
#SANCTIONS.
#--------------------------------------------------#
#THIS FILE IS PROVIDED "AS-IS" AND ALL WARRANTIES ARE EXPRESSLY DISCLAIMED, WHETHER
#EXPRESS, ORAL, IMPLIED, STATUTORY OR OTHERWISE, INCLUDING ANY IMPLIED WARRANTY OF FITNESS
#FOR A PARTICULAR PURPOSE, MERCHANTABILITY, TITLE OR NON-INFRINGEMENT, AND ANY WARRANTIES
#ARISING BY VIRTUE OF CUSTOM OF TRADE OR COURSE OF DEALING.  FURTHER, DRILLING INFO,
#INC. AND ITS LICENSORS DO NOT REPRESENT OR WARRANT THAT THIS FILE WILL MEET USER'S
#REQUIREMENTS OR ARE SUITABLE FOR USER'S NEEDS OR THAT THE DATA OR RESULTS PROVIDED IN
#CONJUNCTION THEREWITH ARE CORRECT, ACCURATE, TIMELY OR RELIABLE. THESE DISCLAIMERS SHALL
#APPLY REGARDLESS OF ANY FAILURE OF ESSENTIAL PURPOSE OF ANY LIMITED REMEDY.  SOME
#JURISDICTIONS DO NOT ALLOW THE EXCLUSION OF CERTAIN WARRANTIES SO SOME OF THE ABOVE
#EXCLUSIONS MAY NOT APPLY. IN NO EVENT SHALL DRILLING INFO, INC. OR ANY OF ITS AFFILIATES
#BE LIABLE UNDER ANY LEGAL THEORY, WHETHER IN TORT (INCLUDING WITHOUT LIMITATION
#NEGLIGENCE), CONTRACT, STRICT LIABILITY, STATUTORY OR OTHERWISE, FOR ANY SPECIAL,
#INCIDENTAL, CONSEQUENTIAL, EXEMPLARY, PUNITIVE OR INDIRECT DAMAGE OF ANY KIND, INCLUDING
#WITHOUT LIMITATION LOSS OF REVENUE, PROFITS, GOODWILL, USE, AND/OR DATA OR THE COST OF
#PROCUREMENT OF SUBSTITUTE GOODS OR SERVICES, EVEN IF APPRISED OF THE POSSIBILITY OF SUCH
#DAMAGES IN ADVANCE.
#--------------------------------------------------#
# Exported from DI Transform
# DI Transform - A Product of Drillinginfo, Inc. - www.drillinginfo.com
#--------------------------------------------------#
#
~VERSION INFORMATION
 VERS.        2.0 : LAS ASCII STANDARD - VERSION 2.0
 WRAP.         NO : ONE LINE PER DEPTH STEP

~WELL INFORMATION
#MNEM.UNIT       DATA TYPE       INFORMATION
#---------       ---------       -----------
 STRT.ft          9043 : Start Depth
 STOP.ft         16870 : Stop Depth
 STEP.ft           0.5 : Step Length
 NULL.         -999.25 : Null Value
 COMP.                 : Company
 WELL.          DRD_55 : Well Name
 FLD.                  : Field Name
 LOC.                  : Well Location
 CNTY.                 : County
 STAT.                 : State or Province
 CTRY.                 : Country
 SRVC.                 : Service Company
 DATE.                 : Date
 API.   42109326310000 : Well Identifier

~CURVE INFORMATION
#MNEM.UNIT       API CODE       CURVE DESCRIPTION
#---------       --------       -----------------
 DEPT.ft          : <Measured Depth>
 CAL.in           : Caliper
 DPHI.%           : Density Porosity
 DT.us/ft         : Sonic
 GR.gAPI          : Gamma Ray
 ILD.ohmm         : Deep Resistivity
 ILS.ohmm         : Shallow Resistivity
 RHOB.g/cm3       : Density

~PARAMETER INFORMATION
#MNEM.UNIT       VALUE       DESCRIPTION
#---------       -----       -----------
 EKB.ft      3382 : Elevation above MSL

~A       DEPT         CAL        DPHI          DT          GR         ILD         ILS        RHOB
# ...
        12487      6.1138      6.5144     64.8571    446.4229     17.4282      7.6506      2.5972
      12487.5      6.1138      6.3302     64.9157    428.4545     18.4195      7.5945      2.6066
        12488      6.1138      5.8606      65.102    415.5405     18.9415      7.5956      2.6147
      12488.5      6.1138      5.1393     64.9796    425.9137     18.7889      7.7147       2.623
        12489      6.1138      4.7334     64.7333    428.9727     16.4949      8.0626       2.624
      12489.5      6.1138      4.8559     64.6707    422.2385     15.1427      7.6481      2.6179
        12490      6.1138       5.247     64.3633     417.488      14.498      6.9302      2.6127
      12490.5      6.1138        5.48     64.1863    445.7203     14.2846      6.7887      2.6108
        12491      6.1138      5.4615     64.3741    453.6069     14.4145      7.2697      2.6128
      12491.5      6.1138      5.2554     64.6816    465.2507     15.3647      7.6352       2.614
        12492      6.1138      5.2785     64.7347    443.1171     16.5254      8.4095      2.6125
      12492.5      6.1138      5.4846     64.5402    427.6115     17.8752      9.0571       2.609
        12493      6.1138      5.7726     64.3495    413.1791     17.7498      9.1063      2.6049
      12493.5      6.1138      5.9787     64.2449    399.6647     16.7962      8.7562      2.6057
        12494      6.1138      5.7824     64.2293     391.964     15.1879      8.1238      2.6103
      12494.5      6.1138      5.5367     64.7058    399.1881     13.7354      7.2604      2.6129
        12495      6.1138      5.2883     65.1195    412.6721     13.4316      7.1002      2.6154
      12495.5      6.1138      5.3276      65.427    439.2405     13.3465      7.2995      2.6139
        12496      6.1138      5.5336     65.3267    455.6501     13.3465      7.1722      2.6093
      12496.5      6.1138      5.7817      65.102    473.0769     12.3415      6.7522      2.6068
        12497      6.1138      5.9836     64.8343    465.9091     12.2981      6.6118      2.6048
      12497.5      6.1138      6.0591     64.5268     465.545     13.2966      7.0995      2.6059
        12498      6.1138      5.7091     64.4642    448.4941     15.0064      8.5815      2.6089
      12498.5      6.1138      5.4918     64.3673    433.0986     15.7763       8.799      2.6114
        12499      6.1138      5.5405     64.3673    433.0986     15.0688      8.6239       2.608
      12499.5      6.1138      5.9283     64.4582    433.0986     15.2948      8.6239      2.6026
        12500      6.1138       6.429     64.4898    433.0986     17.4447       9.122      2.6005
      12500.5      6.1138      6.5574     64.5833    432.2779     19.1563     10.9395      2.5985
        12501      6.1138      6.5041     64.7347    423.2779          20     11.3148      2.5964
      12501.5      6.1138      6.4889     64.8571    421.2329          20     11.6883      2.5943
        12502      6.1138      6.6393     64.7347    421.2329     21.3832     13.1801      2.5923
      12502.5      6.1138      6.7213     64.6358    421.2329     26.1915     14.5849      2.5926
        12503      6.1138      6.6634     64.6122    421.2329     35.5338     21.6882      2.5946
      12503.5      6.1138      6.5393     64.6122    415.5405     38.6673     24.1002      2.5979
        12504      6.1138      6.3332     64.6539    415.5405     26.8977     16.8413      2.6026
      12504.5      6.1138      6.1272     64.8571    421.2329      17.597     11.3699      2.6072
        12505      6.1138      5.8898      65.024    427.0833     14.9827      9.3484      2.6107
      12505.5      6.1138      5.5511      65.209    427.0833     13.9951      8.9636      2.6132
        12506      6.1138      5.4098     65.3469    416.7325     13.0982      8.3525      2.6127
      12506.5      6.1138      5.5168     65.3469    403.0046     12.7148      8.0026      2.6106
        12507      6.1138      5.6557     65.3469    394.2308      13.068      8.0898      2.6111
      12507.5      6.1138      5.6285     65.3469    401.0986     13.7017      8.2431      2.6119
        12508      6.1138      5.5738     65.3076    414.6909     13.4555      8.5899      2.6119
      12508.5      6.1138      5.6557     65.3469     423.343     13.9684      8.9489      2.6106
        12509      6.1138      5.6557     65.0469    416.2538     15.7238     10.2415      2.6085
      12509.5      6.1138      5.6876     64.8571    404.6053     18.5491     11.3758      2.6065
        12510      6.1138      5.8117     64.7347    399.8618     19.8377     12.5545      2.6044
      12510.5      6.1138      6.0178     64.6122    417.9127     18.5407     12.2417      2.6025
        12511      6.0771      6.2238     64.6727     432.682     18.2545     10.9061      2.6031
      12511.5      6.0732      6.1931     64.7347     448.567     17.1471     10.3856      2.6037
        12512      6.0732       5.987     64.7347    465.6224      16.777      9.9652      2.6037
      12512.5      6.0732      6.1043     64.7314    484.0745     15.9356      9.3632      2.6023
        12513      6.0732      6.1475     64.6122    495.8639     15.8104      9.3632      2.6004
      12513.5      6.0732      6.1885     64.6063    504.0984     16.2242      9.3251      2.6053
        12514      6.0732      5.8998     64.4898    487.9821     16.4319       9.238      2.6113
      12514.5      6.0732      5.6124     64.4898    469.2862     15.3958       8.732      2.6122
        12515      6.0732      5.5773      64.561    451.9249     14.0381      8.1549      2.6097
      12515.5      6.0732       5.911     64.4898    445.6522     13.1985      7.7262      2.6059
        12516      6.0732      6.1534     64.4898    452.2059     13.0704      7.5945      2.6018
      12516.5      6.0732      6.3594     64.3673    458.9552     13.8325      7.7668      2.5984
        12517      6.0732      6.3853     64.3673    458.9552     13.5929      7.7282      2.5963
      12517.5      6.0732      6.4437     64.2282    458.9552     13.3341      7.5379      2.5993
        12518      6.0732      6.3011          64    458.9552     13.2769      7.5768      2.6037
      12518.5      6.0732      6.0687     63.8776    458.9552     13.3047      7.6673       2.607
        12519      6.0732       5.807     63.7956    458.9552     14.1357      8.0394      2.6093
      12519.5      6.0732      5.6009     63.7551    465.9091     14.8684      8.2455      2.6121
        12520      6.0732      5.4248     63.8397    467.2209     15.4654      8.2455      2.6106
      12520.5      6.0732      5.6595     63.8776    485.7847     15.6314      8.2455      2.6075
        12521      6.0732      6.0269     63.9649    504.0984     15.4287      8.3074      2.6036
      12521.5      6.0732      6.3709     63.9725    506.4083     14.5433      8.0756      2.5995
        12522      6.0732      6.3934     63.7875    486.2719     13.5509      7.6774      2.5956
      12522.5      6.0732      6.2189     63.7551    467.6789      12.781      7.3158      2.6042
        12523      6.0732      5.8797     63.7551    452.2059     12.7333      7.3595      2.6109
      12523.5      6.0732      5.6737     63.8776    440.6792     13.4867      7.4604      2.6159
        12524      6.0732      5.4676          64    425.3567     13.0649      7.5379      2.6129
      12524.5      6.0732      5.4762     64.1224    415.5405     12.5138      7.2441      2.6094
        12525      6.0732      5.8991          64    417.3801     12.2223      7.0917       2.603
      12525.5      6.0732      6.2981     63.7346    432.1192     12.5435      7.2453      2.5968
        12526      6.0732      6.3115     63.6244    441.5216     12.9252      7.3707      2.6015
      12526.5      6.0732      6.1586     63.6181    445.6522     12.8421      7.2754      2.6052
        12527      6.0732      5.9525     63.6181    433.0986     12.2987      7.1064      2.6075
      12527.5      6.0732      5.9749     63.6181    427.7255     12.0356      6.9948      2.6087
