###############################################
##         ENVERUS                           ##
##         ESS - Open Hole                   ##
##         PERMIAN / DELAWARE                ##
##         Nov 03 2023  V4.0                 ##
##         42-109-32572-90-00                ##
###############################################
## Copyright 2017-2023  ENVERUS.  All Rights Reserved. 
## Confidential - Property of ENVERUS, use governed by terms and 
## conditions found within the existing Information Services Subscription Agreement 
## (as may be amended, the “ISSA”) between Customer and ENVERUS. 
## 
~VERSION INFORMATION
# MNEM.UNIT                               DATA : DESCRIPTION OF MNEMONIC
#-----.-----     ----------------------------- : -----------------------------
VERS.                                     2.00 : CWLS LOG ASCII STANDARD - VERSION 2.00
WRAP.                                       NO : MULTIPLE LINES PER DEPTH STEP
VEND.                                  ENVERUS : VENDOR
TYPE.                          ESS - OPEN HOLE : ENVERUS ESSENTIAL CURVES – ACCESSIBLE THROUGH ENVERUS PRISM(TM)
DOC.                                  51093467 : ENVERUS HEADER RAW DOCUMENT ID
#___________________________________________________________________________________________________ 
~WELL INFORMATION 
# 8gl1O6v4swiPFL4GH+dnL3Th7drW/gNnufiOMC39xBbatiyIUGjWQRxOO2UkOAKZqu0QrDKM70MxnzzovQmAYg== 
# MNEM.UNIT                                              DATA : DESCRIPTION OF MNEMONIC 
#-----.-----                    ----------------------------- : ----------------------------- 
CNTY.                                               CULBERSON : COUNTY 
STATE.                                                  TEXAS : STATE 
CNTRY.                                                    USA : COUNTRY 
API.                                             42-109-32572 : API (10 Digit) 
API_14.                                    42-109-32572-90-00 : API (14 Digits) 
API_14_std.                                 42-109-32572-9000 : API (14 Digits Standard) 
UWI.                                           42109325729000 : UNIQUE WELL ID 
WELL.                               42109325720000_PREV_API14 : WELL NAME
STRT.FT                                                2248.5 : START DEPTH
STOP.FT                                               10757.5 : STOP DEPTH
STEP.FT                                                   0.5 : STEP BETWEEN DEPTHS
NULL.                                                 -999.25 : NULL VALUE
PREV_APII.                                     42109325720000 : WELL IDENTIFIER
#___________________________________________________________________________________________________ 
~PARAMETER INFORMATION 
# MNEM.UNIT                                              DATA : DESCRIPTION OF MNEMONIC 
#-----.-----                    ----------------------------- : ----------------------------- 
EKB.FT                                                   3340 : ELEVATION ABOVE MSL
#___________________________________________________________________________________________________ 
~CURVE INFORMATION 
# MNEM.UNIT           : CURVE DESCRIPTION 
#-----.-----          : ----------------------------- 
 DEPT.FT               : MEASURED DEPTH 
 CALI.IN               : CALIPER (CAL - CALIPER) 
 GR.API                : GAMMA RAY (GAMMA RAY) 
 DT.US/FT              : SONIC DELTA TRANSIT TIME (SONIC) 
 #___________________________________________________________________________________________________ 
~A         DEPT           CALI             GR             DT
# ...
         8386.5          9.190         82.849         65.690
         8387.0          9.190         68.600         62.975
         8387.5          9.190         63.282         60.625
         8388.0          9.190         61.284         60.231
         8388.5          9.190         64.680         61.181
         8389.0          9.190         78.554         62.460
         8389.5          9.190        105.775         71.618
         8390.0          9.190        102.857         71.699
         8390.5          9.190         84.224         58.610
         8391.0          9.190         62.235         55.347
         8391.5          9.197         41.112         54.732
         8392.0          9.209         33.146         54.381
         8392.5          9.190         44.687         57.376
         8393.0          9.190         50.095         66.043
         8393.5          9.190         71.767         67.832
         8394.0          9.190         82.145         68.016
         8394.5          9.190         88.190         69.493
         8395.0          9.190         81.861         67.636
         8395.5          9.170         75.137         62.617
         8396.0          9.190         71.259         62.637
         8396.5          9.190         63.470         63.457
         8397.0          9.190         78.108         66.088
         8397.5          9.190         95.338         77.179
         8398.0          9.190        102.789         78.133
         8398.5          9.190        108.280         80.155
         8399.0          9.190        111.706         80.339
         8399.5          9.197        120.691         81.437
         8400.0          9.197        124.650         82.540
         8400.5          9.197        136.204         80.237
         8401.0          9.197        135.509         76.546
         8401.5          9.197        116.586         76.146
         8402.0          9.190        102.094         75.140
         8402.5          9.190         81.944         70.269
         8403.0          9.190         86.270         70.601
         8403.5          9.190         91.760         67.876
         8404.0          9.190         88.601         67.583
         8404.5          9.190         77.252         65.250
         8405.0          9.190         84.677         64.366
         8405.5          9.190         97.939         77.659
         8406.0          9.190        109.701         79.857
         8406.5          9.190        115.416         80.430
         8407.0          9.190         98.763         80.735
         8407.5          9.190         80.464         78.957
         8408.0          9.190         65.713         64.814
         8408.5          9.209         57.139         60.262
         8409.0          9.209         57.964         60.075
         8409.5          9.209         83.199         61.916
         8410.0          9.170        108.444         67.081
         8410.5          9.209        128.464         80.440
         8411.0          9.209        125.295         80.221
         8411.5          9.209        112.630         77.720
         8412.0          9.209         90.183         77.139
         8412.5          9.209         53.588         67.588
         8413.0          9.209         46.997         63.487
         8413.5          9.229         48.492         62.146
         8414.0          9.229         51.300         62.082
         8414.5          9.249         67.737         62.135
         8415.0          9.249         98.897         65.802
         8415.5          9.213        128.834         71.284
         8416.0          9.241        135.397         72.852
         8416.5          9.241        120.376         70.352
         8417.0          9.268        108.045         69.531
         8417.5          9.268        118.580         69.331
         8418.0          9.268        127.064         75.631
         8418.5          9.268        123.326         71.955
         8419.0          9.268        107.810         71.484
         8419.5          9.268         91.389         69.404
         8420.0          9.268         85.127         68.125
         8420.5          9.268         85.848         69.291
         8421.0          9.268         87.411         68.004
         8421.5          9.268         79.770         67.719
         8422.0          9.268         85.334         68.246
         8422.5          9.268        113.747         75.644
         8423.0          9.289        130.257         81.933
         8423.5          9.268        138.356         79.517
         8424.0          9.268        131.109         78.670
         8424.5          9.268        110.899         76.458
         8425.0          9.268         55.949         62.896
         8425.5          9.268         40.144         58.068
         8426.0          9.268         42.077         60.223
         8426.5          9.268         50.626         61.388
         8427.0          9.249         67.907         63.438
         8427.5          9.229         94.417         68.651
         8428.0          9.190        102.154         69.707
         8428.5          9.151         89.766         69.537
         8429.0          9.151         81.612         69.298
         8429.5          9.151         78.711         69.177
         8430.0          9.151         85.709         70.057
         8430.5          9.151         99.877         78.534
         8431.0          9.151        107.082         80.396
         8431.5          9.151        110.781         80.023
         8432.0          9.151        107.055         79.554
         8432.5          9.151         74.335         73.598
         8433.0          9.151         61.801         61.566
         8433.5          9.151         56.320         62.502
         8434.0          9.151         55.459         63.140
         8434.5          9.151         77.319         65.058
         8435.0          9.151         97.839         72.275
         8435.5          9.151        116.587         73.870
         8436.0          9.151        121.668         73.052
         8436.5          9.151        113.776         71.239
         8437.0          9.151         98.184         70.996
         8437.5          9.151         90.343         70.866
         8438.0          9.151         93.324         73.919
         8438.5          9.151         99.587         73.643
         8439.0          9.151        109.822         73.289
         8439.5          9.151        105.129         73.001
         8440.0          9.151         94.952         70.828
         8440.5          9.151         62.903         64.171
         8441.0          9.151         57.701         66.509
         8441.5          9.151         66.175         68.526
         8442.0          9.151         76.275         69.797
         8442.5          9.151         77.527         69.227
         8443.0          9.151         76.549         67.920
         8443.5          9.151         76.092         68.759
         8444.0          9.151         78.830         68.780
         8444.5          9.151         87.206         68.535
         8445.0          9.151         84.686         69.445
         8445.5          9.151         77.383         70.750
         8446.0          9.151         75.382         73.094
         8446.5          9.151         83.868         75.109
         8447.0          9.151         93.781         75.391
         8447.5          9.151        103.264         74.379
         8448.0          9.151        102.369         71.478
         8448.5          9.151         83.976         65.951
         8449.0          9.151         75.396         65.723
         8449.5          9.151         74.570         66.119
         8450.0          9.151         76.078         66.133
         8450.5          9.151         76.761         65.114
         8451.0          9.151         74.978         64.844
         8451.5          9.151         71.283         65.004
         8452.0          9.151         61.108         64.859
