###############################################
##         ENVERUS                           ##
##         ESS - Open Hole                   ##
##         PERMIAN / DELAWARE                ##
##         Nov 02 2023  V4.0                 ##
##         42-109-10071-00-00                ##
###############################################
## Copyright 2017-2023  ENVERUS.  All Rights Reserved. 
## Confidential - Property of ENVERUS, use governed by terms and 
## conditions found within the existing Information Services Subscription Agreement 
## (as may be amended, the “ISSA”) between Customer and ENVERUS. 
## 
~VERSION INFORMATION
# MNEM.UNIT                               DATA : DESCRIPTION OF MNEMONIC
#-----.-----     ----------------------------- : -----------------------------
VERS.                                     2.00 : CWLS LOG ASCII STANDARD - VERSION 2.00
WRAP.                                       NO : MULTIPLE LINES PER DEPTH STEP
VEND.                                  ENVERUS : VENDOR
TYPE.                          ESS - OPEN HOLE : ENVERUS ESSENTIAL CURVES – ACCESSIBLE THROUGH ENVERUS PRISM(TM)
DOC.                                  31950413 : ENVERUS HEADER RAW DOCUMENT ID
#___________________________________________________________________________________________________ 
~WELL INFORMATION 
# OfUh2+mdeFjroaXzMJDg/lRWUsinBwpBr+LWp9Jgnw936lSgPWOOCrYxw0Bz1A8ekYSC2IJg55FhS+cGr4hs3w== 
# MNEM.UNIT                                              DATA : DESCRIPTION OF MNEMONIC 
#-----.-----                    ----------------------------- : ----------------------------- 
CNTY.                                               CULBERSON : COUNTY 
STATE.                                                  TEXAS : STATE 
CNTRY.                                                    USA : COUNTRY 
API.                                             42-109-10071 : API (10 Digit) 
API_14.                                    42-109-10071-00-00 : API (14 Digits) 
API_14_std.                                 42-109-10071-0000 : API (14 Digits Standard) 
UWI.                                           42109100710000 : UNIQUE WELL ID 
WELL.                                                  DRD_55 : WELL NAME
STRT.FT                                                 320.5 : START DEPTH
STOP.FT                                               12359.5 : STOP DEPTH
STEP.FT                                                   0.5 : STEP BETWEEN DEPTHS
NULL.                                                 -999.25 : NULL VALUE
#___________________________________________________________________________________________________ 
~PARAMETER INFORMATION 
# MNEM.UNIT                                              DATA : DESCRIPTION OF MNEMONIC 
#-----.-----                    ----------------------------- : -----------------------------
#___________________________________________________________________________________________________ 
~CURVE INFORMATION 
# MNEM.UNIT           : CURVE DESCRIPTION 
#-----.-----          : ----------------------------- 
 DEPT.FT               : MEASURED DEPTH 
 GR.API                : GAMMA RAY (GAMMA RAY) 
 DT.US/FT              : SONIC DELTA TRANSIT TIME (SONIC) 
 #___________________________________________________________________________________________________ 
~A         DEPT             GR             DT
# ...
         2669.5         57.166         63.585
         2670.0         51.471         61.876
         2670.5         49.867         61.046
         2671.0         52.441         60.935
         2671.5         57.675         60.771
         2672.0         65.414         61.496
         2672.5         73.153         63.300
         2673.0         80.892         65.184
         2673.5         88.631         65.747
         2674.0         95.936         66.029
         2674.5         97.514         66.433
         2675.0         93.135         66.950
         2675.5         90.087         67.031
         2676.0         88.773         66.976
         2676.5         88.447         66.686
         2677.0         89.235         66.467
         2677.5         91.659         66.581
         2678.0         93.256         66.716
         2678.5         99.169         66.749
         2679.0        108.525         66.867
         2679.5        114.739         67.629
         2680.0        124.572         67.776
         2680.5        125.210         67.490
         2681.0        117.546         67.420
         2681.5        111.015         67.420
         2682.0        104.402         66.844
         2682.5         97.789         65.433
         2683.0         91.175         64.973
         2683.5         85.807         64.527
         2684.0         87.168         64.670
         2684.5         90.890         64.791
         2685.0         90.472         64.891
         2685.5         87.889         65.726
         2686.0         76.723         63.831
         2686.5         65.557         64.767
         2687.0         64.702         65.140
         2687.5         69.494         65.356
         2688.0         93.529         67.360
         2688.5        101.055         68.518
         2689.0        104.043         68.347
         2689.5        101.041         66.827
         2690.0         87.575         66.229
         2690.5         76.655         66.093
         2691.0         66.301         66.435
         2691.5         60.358         66.489
         2692.0         59.453         67.732
         2692.5         59.073         68.766
         2693.0         58.030         69.507
         2693.5         56.698         70.095
         2694.0         56.136         70.540
         2694.5         54.713         70.294
         2695.0         52.565         69.360
         2695.5         50.630         70.113
         2696.0         48.629         70.736
         2696.5         48.303         70.489
         2697.0         49.782         70.489
         2697.5         47.890         71.520
         2698.0         49.885         71.649
         2698.5         48.730         71.540
         2699.0         47.622         72.142
         2699.5         48.876         72.429
         2700.0         50.242         72.361
         2700.5         50.674         71.863
         2701.0         50.674         71.264
         2701.5         49.674         70.381
         2702.0         49.225         69.309
         2702.5         48.265         69.449
         2703.0         48.803         69.689
         2703.5         51.626         69.404
         2704.0         54.056         70.094
         2704.5         59.735         70.054
         2705.0         65.414         71.318
         2705.5         65.678         71.568
         2706.0         60.651         72.743
         2706.5         55.049         74.238
         2707.0         52.462         75.732
         2707.5         51.159         76.509
         2708.0         48.340         76.240
         2708.5         48.629         75.819
         2709.0         48.956         75.233
         2709.5         49.421         74.628
         2710.0         50.097         74.027
         2710.5         50.739         73.626
         2711.0         52.609         73.567
         2711.5         54.628         73.471
         2712.0         53.420         73.396
         2712.5         52.406         73.269
         2713.0         50.855         73.553
         2713.5         48.348         73.946
         2714.0         48.091         73.788
         2714.5         49.118         71.859
         2715.0         50.529         71.842
         2715.5         50.453         72.148
         2716.0         49.683         72.114
         2716.5         49.029         71.787
         2717.0         49.991         72.642
         2717.5         51.220         74.529
         2718.0         52.306         74.286
         2718.5         52.689         74.080
         2719.0         52.693         74.214
         2719.5         52.570         74.157
         2720.0         50.907         74.181
         2720.5         49.367         74.257
         2721.0         48.290         73.971
         2721.5         49.894         75.004
         2722.0         51.498         75.315
         2722.5         52.961         74.486
         2723.0         53.811         74.175
         2723.5         55.061         74.010
         2724.0         58.294         73.907
         2724.5         61.374         71.893
         2725.0         64.454         70.918
         2725.5         67.534         70.430
         2726.0         70.615         69.707
         2726.5         73.692         68.435
         2727.0         75.408         68.431
         2727.5         77.452         68.709
         2728.0         78.476         68.400
         2728.5         77.315         68.640
         2729.0         71.252         69.240
         2729.5         66.241         71.164
         2730.0         58.466         70.051
         2730.5         47.091         69.864
         2731.0         42.375         69.741
         2731.5         40.470         70.388
         2732.0         40.096         70.844
         2732.5         41.049         70.819
         2733.0         43.071         72.464
         2733.5         45.170         74.215
         2734.0         46.415         74.557
         2734.5         47.660         74.038
         2735.0         49.804         74.333
         2735.5         51.747         74.661
         2736.0         53.714         74.616
         2736.5         52.475         74.745
         2737.0         51.285         76.384
         2737.5         50.095         76.648
         2738.0         50.769         76.029
         2738.5         53.039         75.783
         2739.0         52.769         75.575
         2739.5         51.584         75.149
         2740.0         50.399         72.480
         2740.5         49.215         70.532
         2741.0         48.030         69.541
         2741.5         46.845         70.039
         2742.0         45.661         69.995
         2742.5         44.852         70.009
         2743.0         46.628         71.263
         2743.5         47.873         74.437
         2744.0         48.303         74.779
         2744.5         48.629         74.768
         2745.0         49.019         73.853
         2745.5         53.302         73.760
         2746.0         55.199         74.515
         2746.5         59.048         75.064
         2747.0         58.234         75.375
         2747.5         54.217         75.336
         2748.0         47.646         75.222
         2748.5         43.907         74.899
         2749.0         42.220         74.406
         2749.5         42.249         73.720
         2750.0         42.428         73.509
         2750.5         43.081         73.561
         2751.0         43.699         74.266
         2751.5         44.060         74.522
         2752.0         44.883         73.763
         2752.5         45.802         73.803
         2753.0         46.345         73.925
         2753.5         46.345         73.746
         2754.0         45.438         73.273
         2754.5         44.193         73.135
         2755.0         43.081         72.965
         2755.5         42.428         69.162
         2756.0         41.776         71.513
