###############################################
##         ENVERUS                           ##
##         ESS - Open Hole                   ##
##         PERMIAN / DELAWARE                ##
##         Nov 03 2023  V4.0                 ##
##         42-109-33370-00-00                ##
###############################################
## Copyright 2017-2023  ENVERUS.  All Rights Reserved. 
## Confidential - Property of ENVERUS, use governed by terms and 
## conditions found within the existing Information Services Subscription Agreement 
## (as may be amended, the “ISSA”) between Customer and ENVERUS. 
## 
~VERSION INFORMATION
# MNEM.UNIT                               DATA : DESCRIPTION OF MNEMONIC
#-----.-----     ----------------------------- : -----------------------------
VERS.                                     2.00 : CWLS LOG ASCII STANDARD - VERSION 2.00
WRAP.                                       NO : MULTIPLE LINES PER DEPTH STEP
VEND.                                  ENVERUS : VENDOR
TYPE.                          ESS - OPEN HOLE : ENVERUS ESSENTIAL CURVES – ACCESSIBLE THROUGH ENVERUS PRISM(TM)
DOC.                                  52814434 : ENVERUS HEADER RAW DOCUMENT ID
#___________________________________________________________________________________________________ 
~WELL INFORMATION 
# 4wk/Fx8UuugU+iebl2dHJIcndKaYvWbTE+/Vf37HP7rynMiEVi3nAb6NYbehQO/VbM9PVY38flJCaeNisGRn4g== 
# MNEM.UNIT                                              DATA : DESCRIPTION OF MNEMONIC 
#-----.-----                    ----------------------------- : ----------------------------- 
CNTY.                                               CULBERSON : COUNTY 
STATE.                                                  TEXAS : STATE 
CNTRY.                                                    USA : COUNTRY 
API.                                             42-109-33370 : API (10 Digit) 
API_14.                                    42-109-33370-00-00 : API (14 Digits) 
API_14_std.                                 42-109-33370-0000 : API (14 Digits Standard) 
UWI.                                           42109333700000 : UNIQUE WELL ID 
WELL.                                       ROXANNE FEE 46 3H : WELL NAME
STRT.FT                                                8800.0 : START DEPTH
STOP.FT                                               14157.0 : STOP DEPTH
STEP.FT                                                   0.5 : STEP BETWEEN DEPTHS
NULL.                                                 -999.25 : NULL VALUE
LOC.                                        API  42-109-33370 : LOCATION 
FL1.                                        API  42-109-33370 : LOCATIONLINE1 
DMF.                                                       KB : DRILL MEAS FROM 
PDAT.                                                      GL : PERMANENT DATUM 
FLD.                                    FORD, WEST (WOLFCAMP) : FIELD NAME 
COMP.                                          CAPITAN ENERGY : COMPANY 
DATE.                                             29-APR-2019 : DATE 
SVCO.                                             HALLIBURTON : SERVICECONAME 
PROV.                                                   TEXAS : PROVINCE 
BASI.                                                 PERMIAN : BASIN 
RANG.                                                     N/A : RANGE 
TOWN.                                                     N/A : TOWNSHIP 
SECT.                                                     N/A : SECTION 
SON.                                                905631605 : JOB NUMBER 
SRVC.                                             HALLIBURTON : SERVICE COMPANY 
LMF.                                                       KB : LOG MEASURED FROM 
BAP.FT                                                 0.0000 : GL ELEV ONSHORE 
GVFD.G                                                 1.0000 : GRAVITY FIELD
#___________________________________________________________________________________________________ 
~CURVE INFORMATION 
# MNEM.UNIT           : CURVE DESCRIPTION 
#-----.-----          : ----------------------------- 
 DEPT.FT               : MEASURED DEPTH 
 GR.API                : GAMMA RAY (GR_CHI - GR_CHI) 
 GR__01.API            : GAMMA RAY (GR_OH - GR_OH) 
 DT.US/FT              : SONIC DELTA TRANSIT TIME (DTC_CHI - DTC_CHI) 
 DT__01.US/FT          : SONIC DELTA TRANSIT TIME (DTC_OH - DTC_OH) 
 PE.B/E                : PHOTOELECTRIC EFFECT/FACTOR (PE_CHI - PE_CHI) 
 PE__01.B/E            : PHOTOELECTRIC EFFECT/FACTOR (PE_OH - PE_OH) 
 RESS_10.OHMM          : 10 INCH SHALLOW INDUCTION RESISTIVITY (RT10_CHI - RT10_CHI) 
 RESS_10__01.OHMM      : 10 INCH SHALLOW INDUCTION RESISTIVITY (RT10_OH - RT10_OH) 
 RESM_30.OHMM          : 30 INCH MEDIUM INDUCTION RESISTIVITY (RT30_CHI - RT30_CHI) 
 RESM_30__01.OHMM      : 30 INCH MEDIUM INDUCTION RESISTIVITY (RT30_OH - RT30_OH) 
 RESD_90.OHMM          : 90 INCH DEEP INDUCTION RESISTIVITY (RT90_CHI - RT90_CHI) 
 RESD_90__01.OHMM      : 90 INCH DEEP INDUCTION RESISTIVITY (RT90_OH - RT90_OH) 
 NPHI.V/V              : NEUTRON POROSITY (NPHI_CHI - NPHI_CHI) 
 NPHI__01.V/V          : NEUTRON POROSITY (NPHI_OH - NPHI_OH) 
 SPHI.V/V              : SONIC POROSITY (SPHI_CHI - SPHI_CHI) 
 RHOB.G/CC             : BULK DENSITY (RHOB_CHI - RHOB_CHI) 
 RHOB__01.G/CC         : BULK DENSITY (RHOB_OH - RHOB_OH) 
 #___________________________________________________________________________________________________ 
~A         DEPT             GR         GR__01             DT         DT__01             PE         PE__01        RESS_10    RESS_10__01        RESM_30    RESM_30__01        RESD_90    RESD_90__01           NPHI       NPHI__01           SPHI           RHOB       RHOB__01
# ...
        12010.0        104.845       -999.250         74.740       -999.250         3.3819      -999.2500         31.254       -999.250         32.285       -999.250         34.345       -999.250        0.14930     -999.25000        0.19200         2.5691      -999.2500
        12010.5        104.480       -999.250         74.722       -999.250         3.3871      -999.2500         31.568       -999.250         32.608       -999.250         34.690       -999.250        0.14990     -999.25000        0.19180         2.5696      -999.2500
        12011.0        104.002       -999.250         74.684       -999.250         3.3928      -999.2500         31.896       -999.250         32.948       -999.250         35.051       -999.250        0.14990     -999.25000        0.19160         2.5702      -999.2500
        12011.5        105.062       -999.250         74.647       -999.250         3.3893      -999.2500         32.168       -999.250         33.229       -999.250         35.350       -999.250        0.14950     -999.25000        0.19160         2.5697      -999.2500
        12012.0        109.055       -999.250         74.682       -999.250         3.3716      -999.2500         32.322       -999.250         33.388       -999.250         35.519       -999.250        0.14980     -999.25000        0.19180         2.5672      -999.2500
        12012.5        113.828       -999.250         74.750       -999.250         3.3480      -999.2500         32.365       -999.250         33.432       -999.250         35.566       -999.250        0.15050     -999.25000        0.19210         2.5641      -999.2500
        12013.0        117.686       -999.250         74.843       -999.250         3.3308      -999.2500         32.433       -999.250         33.502       -999.250         35.641       -999.250        0.15160     -999.25000        0.19240         2.5616      -999.2500
        12013.5        118.817       -999.250         74.896       -999.250         3.3298      -999.2500         32.696       -999.250         33.774       -999.250         35.930       -999.250        0.15220     -999.25000        0.19260         2.5608      -999.2500
        12014.0        117.496       -999.250         74.879       -999.250         3.3437      -999.2500         33.250       -999.250         34.346       -999.250         36.538       -999.250        0.15190     -999.25000        0.19250         2.5618      -999.2500
        12014.5        115.131       -999.250         74.807       -999.250         3.3633      -999.2500         34.064       -999.250         35.187       -999.250         37.433       -999.250        0.15110     -999.25000        0.19210         2.5636      -999.2500
        12015.0        111.718       -999.250         74.674       -999.250         3.3871      -999.2500         35.079       -999.250         36.236       -999.250         38.549       -999.250        0.14960     -999.25000        0.19140         2.5662      -999.2500
        12015.5        109.290       -999.250         74.529       -999.250         3.4051      -999.2500         36.240       -999.250         37.435       -999.250         39.824       -999.250        0.14780     -999.25000        0.19050         2.5681      -999.2500
        12016.0        108.697       -999.250         74.420       -999.250         3.4177      -999.2500         37.532       -999.250         38.769       -999.250         41.244       -999.250        0.14630     -999.25000        0.18980         2.5688      -999.2500
        12016.5        109.751       -999.250         74.324       -999.250         3.4237      -999.2500         38.866       -999.250         40.147       -999.250         42.709       -999.250        0.14520     -999.25000        0.18910         2.5686      -999.2500
        12017.0        110.015       -999.250         74.226       -999.250         3.4328      -999.2500         40.111       -999.250         41.433       -999.250         44.078       -999.250        0.14400     -999.25000        0.18840         2.5689      -999.2500
        12017.5        108.327       -999.250         74.126       -999.250         3.4498      -999.2500         41.117       -999.250         42.473       -999.250         45.184       -999.250        0.14240     -999.25000        0.18790         2.5702      -999.2500
        12018.0        106.007       -999.250         74.055       -999.250         3.4644      -999.2500         41.655       -999.250         43.029       -999.250         45.775       -999.250        0.14080     -999.25000        0.18760         2.5716      -999.2500
        12018.5        104.250       -999.250         74.073       -999.250         3.4695      -999.2500         41.534       -999.250         42.903       -999.250         45.642       -999.250        0.14040     -999.25000        0.18760         2.5724      -999.2500
        12019.0        102.544       -999.250         74.149       -999.250         3.4685      -999.2500         40.827       -999.250         42.173       -999.250         44.865       -999.250        0.14090     -999.25000        0.18790         2.5730      -999.2500
        12019.5        100.925       -999.250         74.267       -999.250         3.4704      -999.2500         39.868       -999.250         41.182       -999.250         43.811       -999.250        0.14230     -999.25000        0.18830         2.5736      -999.2500
        12020.0         99.522       -999.250         74.331       -999.250         3.4722      -999.2500         38.893       -999.250         40.175       -999.250         42.739       -999.250        0.14370     -999.25000        0.18860         2.5743      -999.2500
        12020.5         99.065       -999.250         74.309       -999.250         3.4698      -999.2500         38.003       -999.250         39.256       -999.250         41.762       -999.250        0.14480     -999.25000        0.18860         2.5749      -999.2500
        12021.0        100.365       -999.250         74.238       -999.250         3.4593      -999.2500         37.179       -999.250         38.405       -999.250         40.856       -999.250        0.14580     -999.25000        0.18830         2.5748      -999.2500
        12021.5        103.639       -999.250         74.176       -999.250         3.4387      -999.2500         36.337       -999.250         37.535       -999.250         39.931       -999.250        0.14710     -999.25000        0.18810         2.5734      -999.2500
        12022.0        107.971       -999.250         74.116       -999.250         3.4100      -999.2500         35.421       -999.250         36.589       -999.250         38.924       -999.250        0.14810     -999.25000        0.18790         2.5713      -999.2500
        12022.5        112.453       -999.250         74.103       -999.250         3.3803      -999.2500         34.384       -999.250         35.518       -999.250         37.785       -999.250        0.14930     -999.25000        0.18800         2.5688      -999.2500
        12023.0        115.898       -999.250         74.169       -999.250         3.3502      -999.2500         33.128       -999.250         34.220       -999.250         36.404       -999.250        0.15070     -999.25000        0.18860         2.5665      -999.2500
        12023.5        118.132       -999.250         74.361       -999.250         3.3239      -999.2500         31.686       -999.250         32.730       -999.250         34.819       -999.250        0.15280     -999.25000        0.18980         2.5644      -999.2500
        12024.0        118.930       -999.250         74.624       -999.250         3.3020      -999.2500         30.157       -999.250         31.151       -999.250         33.140       -999.250        0.15520     -999.25000        0.19130         2.5628      -999.2500
        12024.5        119.286       -999.250         74.890       -999.250         3.2867      -999.2500         28.761       -999.250         29.709       -999.250         31.605       -999.250        0.15750     -999.25000        0.19300         2.5615      -999.2500
