~Version Information
 VERS.                  2.0:   CWLS log ASCII Standard -VERSION 2.0
 WRAP.                   NO:   One line per depth step
~Well Information Block
#MNEM.UNIT     VALUE/NAME     DESCRIPTION
#---------     -----------    ---------------------------
 STRT.F              8650.0000: START DEPTH
 STOP.F             14150.0000: STOP DEPTH
 STEP.F                 0.5000: STEP DEPTH
 NULL.                 -999.25: NULL VALUE
 LOC .     A1759-SEC34-BLK58-T2-:  LOCATION
 FL4 .        API 42-109-33169:  LOCATIONLINE4
 FL2 .     T&P RR CO-337FSL-25:  LOCATIONLINE2
 FL1 .     A1759-SEC34-BLK58-T2-:  LOCATIONLINE1
 DMF .                      KB:  DRILL MEAS FROM
 PDAT.                      GL:  PERMANENT DATUM
 CNTY.               CULBERSON:  COUNTY NAME
 FLD .     FORD, WEST (WOLFCAMP):  FIELD NAME
 WELL.         ALICE FEE 34 2H:  WELL NAME
 COMP.     CAPITAN ENERGY INC.:  COMPANY
 DATE.             27-Mar-2018:  DATE
 SVCO.             Halliburton:  SERVICECONAME
 PROV.                   TEXAS:  PROVINCE
 STAT.                   TEXAS:  STATE NAME
 CTRY.                     USA:  COUNTRY NAME
 HIDE.                        :  WELLNAMEOPERAT
 BASI.                 PERMIAN:  BASIN
 UWI .            42-109-33169LAT:  UNIQUE WELL IDENTIFIER
 API .            42-109-33169LAT:  API NUMBER
 RANG.                     N/A:  RANGE
 TOWN.                     N/A:  TOWNSHIP
 SECT.                     N/A:  SECTION
 SRVC.             Halliburton:  SERVICE COMPANY
 LMF .                      KB:  LOG MEASURED FROM
 TVDS.ft             3088.0000:  TVDSS CORRECTN
 EGL .ft             3063.0000:  GROUND ELEVATION
 APD .ft               25.0000:  DEPTH ABOVE PD
 EPD .ft             3063.0000:  ELEVATION
 BAP .ft                0.0000:  GL ELEV ONSHORE
 GVFD.g                 1.0000:  GRAVITY FIELD
 EKB .ft             3088.0000:  KB ELEVATION
 EDF .ft             3087.0000:  DF ELEVATION
~Curve Information Block
#MNEM.UNIT                 API CODE     Curve Description
#---------               -----------    ---------------------------
 DEPT.F                 00 000 000 000:  Depth
 CCL .mV                00 000 000 000:  Casing Collar Locator
 NPHI_OH.pu             00 000 000 000:  NPHI_OH
 NPHI_CHI.pu            00 000 000 000:  NPHI_CHI
 GR_OH.api              00 000 000 000:  GR_OH
 GR_CHI.api             00 000 000 000:  GR_CHI
 RHOB_OH.g/cc           00 000 000 000:  RHOB_OH
 RHOB_CHI.g/cc          00 000 000 000:  RHOB_CHI
 PE_OH.b/e              00 000 000 000:  PE_OH
 PE_CHI.b/e             00 000 000 000:  PE_CHI
 MSFL_OH.ohmm           00 000 000 000:  MSFL_OH
 MSFL_CHI.ohmm          00 000 000 000:  MSFL_CHI
 LLS_OH.ohmm            00 000 000 000:  LLS_OH
 LLS_CHI.ohmm           00 000 000 000:  LLS_CHI
 LLD_OH.ohmm            00 000 000 000:  LLD_OH
 LLD_CHI.ohmm           00 000 000 000:  LLD_CHI
 DTC_OH.uspf            00 000 000 000:  DTC_OH
 DTC_CHI.uspf           00 000 000 000:  DTC_CHI
 SPHI_CHI.pu            00 000 000 000:  SPHI_CHI
 SGF .cu                00 000 000 000:  Formation Sigma
 CRNF.NONE              00 000 000 000:  CM GrsCaptRatio
 RIN .NONE              00 000 000 000:  CM GrsInelRatio
#Other Information
#
#WARRANTY: Halliburton will use its best efforts to furnish customers with 
#accurate information and interpretations that are part of, and incident to, the services 
#provided.  However, Halliburton cannot and does not warrant the accuracy 
#or correctness of such information and interpretations.  Under no circumstances should any 
#such information or interpretation be relied upon as the sole basis for any drilling, 
#completion, production, or financial decision or any procedure involving any risk to the 
#safety of any drilling venture, drilling rig or its crew or any other third party.  The 
#Customer has full responsibility for all drilling, completion and production operation.  
#Halliburton makes no representations or warranties, either expressed or 
#implied, including, but not limited to, the implied warranties of merchantability or fitness 
#for a particular purpose, with respect to the services rendered.  In no event will 
#Halliburton be liable for failure to obtain any particular results or for 
#any damages, including, but not limited to, indirect, special or consequential damages, 
#resulting from the use of any information or interpretation provided by Halliburton.
#
~A    DEPT       CCL    NPHI_OH NPHI_CHI  GR_OH    GR_CHI  RHOB_OH RHOB_CHI  PE_OH  PE_CHI  MSFL_OH   MSFL_CHI  LLS_OH   LLS_CHI   LLD_OH   LLD_CHI  DTC_OH  DTC_CHI SPHI_CHI   SGF    CRNF   RIN   
# ...
    9388.0000    0.0000 19.3100  17.8091 194.6879 176.2040  2.4980   2.5098  3.3642 3.0425    44.4141  23.0937   59.6858  40.5077   82.1996  46.8731 83.6428 80.5840  23.3300 36.0927 1.1590 1.3011
    9388.5000    0.0000 18.8600  17.6649 196.3593 160.8800  2.5010   2.5091  3.4527 3.0267    32.8264  21.1652   60.2308  38.4917   82.8468  45.1419 83.6484 80.7517  23.4500 35.8344 1.1017 1.2953
    9389.0000    0.0000 18.8600  17.8934 196.3593 168.1107  2.5010   2.5060  3.4527 3.0354    32.8264  22.7080   60.2308  41.0626   82.8468  48.0441 82.6582 80.8226  23.5000 34.7188 1.0410 1.2869
    9389.5000    0.0000 17.6700  17.4302 172.5071 156.0371  2.5231   2.5106  3.4788 3.0013    31.2321  21.4846   62.1154  39.4041   90.4089  46.6092 81.7741 79.8626  22.8200 33.1567 0.9972 1.2792
    9390.0000    0.0000 17.6700  16.7525 172.5071 140.8775  2.5231   2.5170  3.4788 2.9878    31.2321  20.2959   62.1154  38.3369   90.4089  45.8119 81.2207 78.6470  21.9600 31.8842 0.9668 1.2757
    9390.5000    0.0000 14.8900  16.6058 147.3279 150.0478  2.5393   2.5168  3.4916 3.0396    34.8947  26.7743   62.6400  51.0184   94.1684  59.7050 80.8593 77.5416  21.1800 31.0674 0.9652 1.2767
    9391.0000    0.0000 14.8900  15.9452 147.3279 147.2565  2.5393   2.5248  3.4916 3.0624    34.8947  29.3735   62.6400  56.3075   94.1684  65.4550 79.7457 75.8084  19.9500 30.8062 0.9785 1.2818
    9391.5000    0.0000 15.2200  15.3330 130.2725 136.9967  2.5417   2.5322  3.4196 3.0881    33.7713  28.4290   43.1289  55.9262   62.5773  65.0519 79.0708 74.8948  19.3000 30.7349 1.0119 1.2889
    9392.0000    0.0000 15.2200  15.2353 130.2725 135.1988  2.5417   2.5335  3.4196 3.0988    33.7713  28.1353   43.1289  55.6698   62.5773  64.6207 78.1945 74.8712  19.2900 31.0014 1.0414 1.2945
    9392.5000    0.0000 16.1300  15.1881 125.2660 130.7895  2.5450   2.5339  3.3026 3.1055    27.9500  26.7956   33.3081  53.5704   50.6266  62.2907 76.7962 75.1614  19.4900 31.4283 1.0580 1.2932
    9393.0000    0.0000 15.3500  15.8868 132.6173 143.8110  2.5502   2.5254  3.2258 3.0980    17.4819  27.4005   32.1967  53.5425   49.2840  61.7405 76.5082 76.4001  20.3700 32.1766 1.0407 1.2863
    9393.5000    0.0000 15.3500  15.9827 132.6173 138.5253  2.5502   2.5235  3.2258 3.0986    17.4819  25.6248   32.1967  50.8265   49.2840  58.9429 76.0471 77.0416  20.8200 32.9217 0.9980 1.2752
    9394.0000    0.0000 16.3000  15.6107 136.3801 124.9149  2.5561   2.5285  3.1630 3.0814    12.5284  22.9727   31.7431  46.0027   47.8741  54.0216 75.9169 76.9367  20.7500 33.6521 0.9621 1.2623
    9394.5000    0.0000 16.3000  15.1483 136.3801 111.9862  2.5561   2.5352  3.1630 3.0565    12.5284  19.9361   31.7431  39.4032   47.8741  47.0517 75.7287 76.5616  20.4800 33.4830 0.9328 1.2486
    9395.0000    0.0000 15.0200  15.0341 131.6667 121.3799  2.5595   2.5396  3.1240 3.0196    10.7556  19.4485   26.5089  36.4371   40.1640  43.3795 74.7194 75.6377  19.8300 32.9051 0.9051 1.2328
    9395.5000    0.0000 15.0200  14.5674 131.6667 120.0055  2.5595   2.5472  3.1240 3.0088    10.7556  18.1958   26.5089  32.9194   40.1640  39.3255 73.8604 74.5331  19.0500 31.5809 0.8691 1.2157
    9396.0000    0.0000 13.8300  14.6054 117.5542 131.8612  2.5542   2.5475  3.1166 3.0266    11.3371  21.7127   32.7691  38.9870   46.4134  45.6868 73.1337 73.9608  18.6400 30.2114 0.8489 1.2035
    9396.5000    0.0000 13.8300  13.3043 117.5542 107.7627  2.5542   2.5630  3.1166 3.0970    11.3371  20.6733   32.7691  36.8951   46.4134  43.7918 72.5622 72.4117  17.5500 29.0266 0.8413 1.1968
    9397.0000    0.0000 12.8900  12.2440  97.6311  91.2857  2.5537   2.5760  3.1273 3.1910    14.5285  22.1552   39.8235  38.6021   52.6979  46.1039 71.6902 71.1197  16.6300 28.0879 0.8511 1.1975
    9397.5000    0.0000 12.8900  11.6134  97.6311  81.4990  2.5537   2.5833  3.1273 3.2760    14.5285  24.4596   39.8235  42.4914   52.6979  50.8061 71.0160 70.3771  16.1100 27.4023 0.8647 1.2040
    9398.0000    0.0000 11.5500  11.8325  85.6059  87.9681  2.5664   2.5796  3.1901 3.3059    18.7895  27.3206   42.7871  50.1724   55.6207  59.0272 70.5640 70.4735  16.1800 26.9446 0.8816 1.2168
    9398.5000    0.0000 11.5500  12.0788  85.6059  88.6056  2.5664   2.5752  3.1901 3.3188    18.7895  27.2626   42.7871  53.2001   55.6207  62.4289 70.1903 70.8073  16.4100 26.5520 0.9008 1.2332
    9399.0000    0.0000 10.1900  12.0547  79.8508  82.9787  2.5750   2.5742  3.2445 3.3584    18.3913  26.9004   43.0183  55.7902   55.9846  65.7278 69.7691 70.8457  16.4400 26.6964 0.9226 1.2491
    9399.5000    0.0000 10.9400  12.1330  80.2746  78.8887  2.5558   2.5721  3.1814 3.3870    17.2556  26.7297   43.6211  57.8461   57.0765  68.3418 70.0644 71.1219  16.6400 26.9664 0.9455 1.2591
    9400.0000    0.0000 10.9400  12.0877  80.2746  74.3439  2.5558   2.5725  3.1814 3.4054    17.2556  26.8062   43.6211  56.7150   57.0765  67.1694 70.7667 71.5110  16.9100 27.5980 0.9595 1.2589
    9400.5000    0.0000 11.7800  12.1339  91.1115  72.7430  2.5287   2.5722  3.0372 3.3903    20.8847  26.7419   38.1970  53.5513   45.6447  63.6268 71.5294 71.9997  17.2600 28.4804 0.9666 1.2533
    9401.0000    0.0000 11.7800  12.4099  91.1115  73.2869  2.5287   2.5688  3.0372 3.3414    20.8847  25.4833   38.1970  49.9766   45.6447  59.6996 71.7312 72.6441  17.7100 29.6181 0.9695 1.2520
    9401.5000  -54.4177 12.6700  13.9590 101.6672 104.5740  2.5267   2.5487  2.9590 3.2277    20.8444  25.0686   24.6559  51.1970   29.6458  59.6882 72.0369 74.3232  18.9000 31.1078 0.9696 1.2528
    9402.0000    0.0000 12.6700  14.0409 101.6672 104.2629  2.5267   2.5483  2.9590 3.1769    20.8444  23.9447   24.6559  48.6311   29.6458  57.1668 72.4881 74.3531  18.9200 32.1216 0.9822 1.2568
    9402.5000    0.0000 12.6800  13.5176 106.8163  90.2388  2.5312   2.5564  2.9762 3.1326    15.5956  19.0554   20.1296  37.0353   25.3912  44.7552 72.8306 73.8341  18.5500 32.7811 0.9868 1.2585
    9403.0000    0.0000 12.6800  13.3434 106.8163  86.2457  2.5312   2.5597  2.9762 3.0956    15.5956  15.9105   20.1296  29.8348   25.3912  36.5765 73.3367 73.5744  18.3700 33.0151 0.9933 1.2581
    9403.5000    0.0000 13.5300  14.0298 107.3946 100.8988  2.5280   2.5511  3.0004 3.0602    12.3142  17.2496   19.5316  32.9323   24.5454  39.8624 73.6887 74.2778  18.8700 32.9302 0.9855 1.2584
    9404.0000    0.0000 13.5300  14.2649 107.3946 106.8968  2.5280   2.5486  3.0004 3.0391    12.3142  17.2819   19.5316  32.7545   24.5454  39.5439 74.4652 74.4407  18.9800 33.0547 0.9873 1.2567
    9404.5000  -32.7657 14.7900  14.2824 107.4025 107.5393  2.5302   2.5489  2.9961 3.0363    12.6388  17.4613   17.7518  32.6567   22.3675  39.3721 75.1480 74.5544  19.0600 32.9026 0.9992 1.2551
    9405.0000    0.0000 14.7900  13.7735 107.4025  95.8578  2.5302   2.5561  2.9961 3.0477    12.6388  16.4515   17.7518  29.2089   22.3675  35.6069 74.7784 74.3148  18.8900 32.7080 1.0213 1.2559
    9405.5000  -44.3227 14.6400  13.8021 107.0104  99.3759  2.5340   2.5563  2.9634 3.0475    15.1146  17.2814   19.2200  30.2725   23.7303  36.7036 74.8804 74.2550  18.8500 32.3604 1.0409 1.2580
    9406.0000    0.0000 14.7000  14.0285 107.3471 102.5556  2.5390   2.5528  2.9495 3.0549    18.6632  18.4199   25.0723  32.9712   29.2873  39.7100 74.4885 74.6286  19.1100 32.1715 1.0506 1.2620
    9406.5000    0.0000 14.7000  15.2796 107.3471 128.0698  2.5390   2.5358  2.9495 3.0543    18.6632  22.4328   25.0723  42.5497   29.2873  49.8362 73.8847 76.0611  20.1300 32.3745 1.0368 1.2663
    9407.0000    0.0000 14.7700  15.5584 111.3000 129.2324  2.5490   2.5310  3.0178 3.0631    23.5034  22.8420   28.2981  44.2769   31.9796  51.8317 73.8835 76.6486  20.5400 32.6218 1.0123 1.2669
    9407.5000    0.0000 14.7700  15.6813 111.3000 129.6691  2.5490   2.5292  3.0178 3.0573    23.5034  22.6684   28.2981  44.1398   31.9796  51.7766 73.8787 76.8756  20.7000 32.7485 0.9861 1.2669
    9408.0000    0.0000 14.5200  15.0491 114.7261 113.4835  2.5513   2.5369  3.1381 3.0491    24.9508  19.8008   28.6596  38.9736   32.6884  46.5751 74.5459 76.0895  20.1500 32.4757 0.9641 1.2649
