~VERSION INFORMATION
VERS. 2.0 : CWLS Log ASCII Standard - Version 2.0
WRAP. NO : One line per depth step
#--------------------------------------------------#
#----------------DRILLING INFO, INC.---------------#
#---------------WWW.DRILLINGINFO.COM---------------#
#------------------COPYRIGHT 2015------------------#
#--------------------------------------------------#
#THIS FILE MAY BE USED ONLY IN ACCORDANCE WITH A CURRENT SUBSCRIPTION AGREEMENT BETWEEN
#THE USER AND DRILLING INFO, INC. NO PART OF THIS FILE MAY BE REPRODUCED, USED, COPIED,
#MODIFIED, PROPAGATED, OR DISTRIBUTED EXCEPT IN ACCORDANCE WITH THE SUBSCRIPTION
#AGREEMENT. UNAUTHORIZED USE OR DISTRIBUTION OF ALL OR ANY PART OF THIS FILE MAY VIOLATE
#COPYRIGHT, TRADEMARK, AND/OR OTHER LAWS AND IS SUBJECT TO CIVIL AS WELL AS CRIMINAL
#SANCTIONS.
#--------------------------------------------------#
#THIS FILE IS PROVIDED "AS-IS" AND ALL WARRANTIES ARE EXPRESSLY DISCLAIMED, WHETHER
#EXPRESS, ORAL, IMPLIED, STATUTORY OR OTHERWISE, INCLUDING ANY IMPLIED WARRANTY OF FITNESS
#FOR A PARTICULAR PURPOSE, MERCHANTABILITY, TITLE OR NON-INFRINGEMENT, AND ANY WARRANTIES
#ARISING BY VIRTUE OF CUSTOM OF TRADE OR COURSE OF DEALING.  FURTHER, DRILLING INFO,
#INC. AND ITS LICENSORS DO NOT REPRESENT OR WARRANT THAT THIS FILE WILL MEET USER'S
#REQUIREMENTS OR ARE SUITABLE FOR USER'S NEEDS OR THAT THE DATA OR RESULTS PROVIDED IN
#CONJUNCTION THEREWITH ARE CORRECT, ACCURATE, TIMELY OR RELIABLE. THESE DISCLAIMERS SHALL
#APPLY REGARDLESS OF ANY FAILURE OF ESSENTIAL PURPOSE OF ANY LIMITED REMEDY.  SOME
#JURISDICTIONS DO NOT ALLOW THE EXCLUSION OF CERTAIN WARRANTIES SO SOME OF THE ABOVE
#EXCLUSIONS MAY NOT APPLY. IN NO EVENT SHALL DRILLING INFO, INC. OR ANY OF ITS AFFILIATES
#BE LIABLE UNDER ANY LEGAL THEORY, WHETHER IN TORT (INCLUDING WITHOUT LIMITATION
#NEGLIGENCE), CONTRACT, STRICT LIABILITY, STATUTORY OR OTHERWISE, FOR ANY SPECIAL,
#INCIDENTAL, CONSEQUENTIAL, EXEMPLARY, PUNITIVE OR INDIRECT DAMAGE OF ANY KIND, INCLUDING
#WITHOUT LIMITATION LOSS OF REVENUE, PROFITS, GOODWILL, USE, AND/OR DATA OR THE COST OF
#PROCUREMENT OF SUBSTITUTE GOODS OR SERVICES, EVEN IF APPRISED OF THE POSSIBILITY OF SUCH
#DAMAGES IN ADVANCE.
#--------------------------------------------------#
~WELL INFORMATION
#MNEMONIC     .UNIT              VALUE :DESCRIPTION
#--------------------------------------------------#
STRT       .ft                52.00000 :START DEPTH
STOP       .ft                8797.00000 :STOP DEPTH
STEP       .ft                0.50000 :STEP
NULL       .                -999.25000 :NULL VALUE
COMP       .                 :COMPANY
WELL       .                 :WELL
FLD       .                 :FIELD
LOC       .                 :LOCATION
CNTY       .                 :COUNTY
STAT       .                 :STATE
CTRY       .                 :COUNTRY
SRVC       .                 :SERVICE COMPANY
DATE       .                 :DATE
API       .                42109700290000 :API NUMBER
~CURVE INFORMATION
#MNEMONIC     .UNIT      API CODE :CURVE DESCRIPTION
#--------------------------------------------------#
DEPTH       .ft                      :Measured Depth
DT       .us/ft        UNKNOWN   :DT
GR       .gAPI        UNKNOWN   :GR
ILD       .ohmm        UNKNOWN   :ILD
ILS       .ohmm        UNKNOWN   :ILS
SP       .mV        UNKNOWN   :SP
~A    DEPTH    DT    GR    ILD    ILS    SP
# ...
8713.00000    45.62103    28.26670    63.99794    397.51239    -87.19212
8713.50000    45.57183    26.22207    63.99255    398.73839    -87.03522
8714.00000    45.52263    24.17743    63.98715    399.96438    -86.87833
8714.50000    45.47342    22.13280    63.98176    401.19038    -86.72143
8715.00000    45.42422    20.49455    63.97636    402.41637    -86.56453
8715.50000    45.82215    20.09711    63.97096    403.64237    -86.40764
8716.00000    46.25671    19.69967    63.96557    404.86836    -86.25074
8716.50000    46.69127    19.30223    63.96017    406.09436    -86.09385
8717.00000    47.12582    18.90479    63.95478    407.32035    -85.93695
8717.50000    47.56038    18.50735    63.94938    408.54635    -85.78005
8718.00000    47.55747    18.10991    63.94399    408.23543    -85.52290
8718.50000    47.52121    17.71247    63.93859    407.60541    -84.88885
8719.00000    47.48496    17.31503    63.93320    406.97540    -84.25480
8719.50000    47.44870    17.29019    63.92780    406.34539    -83.62075
8720.00000    47.41244    17.39977    63.92241    405.71537    -82.98670
8720.50000    47.37618    17.50936    63.91701    405.08536    -82.35265
8721.00000    47.33992    17.61894    63.91305    404.45535    -81.71860
8721.50000    47.30366    17.72853    63.91361    403.82534    -81.08455
8722.00000    47.26740    17.83811    63.91416    403.19532    -80.45050
8722.50000    47.33386    17.66207    63.91472    403.26154    -79.81645
8723.00000    47.43427    16.43262    63.91527    406.49802    -79.18240
8723.50000    47.53469    15.20317    63.91583    409.73449    -78.54835
8724.00000    47.63511    13.97373    63.91638    412.97096    -77.91430
8724.50000    47.73553    12.74428    63.91694    416.20743    -77.28025
8725.00000    47.83595    12.81712    63.91749    419.44391    -76.64620
8725.50000    47.89294    13.12356    63.91805    422.68038    -76.01215
8726.00000    47.79734    13.43000    63.91860    425.91685    -75.37810
8726.50000    47.70175    13.73644    63.91916    429.15333    -74.74406
8727.00000    47.60616    14.04289    63.91971    432.38980    -74.11001
8727.50000    47.51056    14.34933    63.92027    435.62627    -73.47596
8728.00000    47.61233    14.65577    63.92082    438.86274    -72.98392
8728.50000    48.03596    14.96221    63.92138    442.09922    -72.59872
8729.00000    48.45959    13.45233    63.92193    445.33569    -72.21352
8729.50000    48.88322    11.89607    63.92249    448.57216    -71.82832
8730.00000    49.02966    10.86656    63.92305    451.80863    -71.44312
8730.50000    48.89639    10.31500    63.92360    455.04511    -71.05792
8731.00000    48.76312    9.76345    63.92416    458.28158    -70.67272
8731.50000    48.62985    9.46906    63.92471    461.51805    -70.28752
8732.00000    48.49659    10.20734    63.92527    464.75453    -69.90232
8732.50000    48.36332    10.94563    63.92582    467.99100    -69.51712
8733.00000    48.22553    11.68391    63.92638    471.22747    -69.13192
8733.50000    48.00947    12.42220    63.92693    474.46394    -68.74672
8734.00000    47.79342    13.16048    63.92749    476.15429    -68.36152
8734.50000    47.57736    13.16099    63.92804    477.01391    -67.97632
8735.00000    47.36131    10.99264    63.92860    477.87353    -67.59112
8735.50000    47.14525    -999.25000    63.92915    478.73315    -67.20592
8736.00000    46.92920    -999.25000    63.92971    479.59277    -66.82072
8736.50000    47.18100    -999.25000    63.93026    480.45239    -66.43552
8737.00000    47.69232    -999.25000    63.93082    481.31201    -66.05032
8737.50000    -999.25000    -999.25000    63.93137    482.17163    -65.66512
8738.00000    -999.25000    -999.25000    63.93193    483.03125    -65.27992
8738.50000    -999.25000    -999.25000    63.93248    483.89087    -64.89472
8739.00000    -999.25000    -999.25000    63.93304    484.75049    -64.50952
8739.50000    -999.25000    -999.25000    63.93359    485.61011    -64.12432
8740.00000    -999.25000    -999.25000    63.93415    486.46973    -63.73912
8740.50000    -999.25000    -999.25000    63.93470    487.32935    -63.35392
8741.00000    -999.25000    -999.25000    63.93526    488.18897    -62.96872
8741.50000    -999.25000    -999.25000    63.93581    489.04859    -62.58352
8742.00000    -999.25000    -999.25000    63.93637    492.51603    -62.19832
8742.50000    -999.25000    -999.25000    63.93693    496.97684    -61.81312
8743.00000    -999.25000    -999.25000    63.93748    501.43765    -61.32748
8743.50000    -999.25000    -999.25000    63.93803    505.89847    -60.29982
8744.00000    -999.25000    -999.25000    63.93859    510.35928    -59.27215
8744.50000    -999.25000    -999.25000    63.93915    514.82009    -58.24448
8745.00000    -999.25000    -999.25000    63.93970    519.28090    -57.21682
8745.50000    -999.25000    -999.25000    63.94026    523.74171    -56.18915
8746.00000    -999.25000    -999.25000    63.94081    528.20252    -55.16148
8746.50000    -999.25000    -999.25000    63.94137    540.42587    -54.13382
8747.00000    -999.25000    -999.25000    63.94192    553.79612    -53.10615
8747.50000    -999.25000    -999.25000    63.94248    567.16637    -52.07848
8748.00000    -999.25000    -999.25000    63.94303    580.53661    -51.05082
8748.50000    -999.25000    -999.25000    63.94359    593.90686    -50.02315
8749.00000    -999.25000    -999.25000    63.94414    607.27711    -48.99548
8749.50000    -999.25000    -999.25000    63.94470    620.64736    -47.96782
8750.00000    -999.25000    -999.25000    63.94525    634.01760    -46.94015
8750.50000    -999.25000    -999.25000    63.94581    647.38785    -45.91248
8751.00000    -999.25000    -999.25000    63.94636    660.75810    -44.88482
8751.50000    -999.25000    -999.25000    63.94692    674.12835    -43.85715
8752.00000    -999.25000    -999.25000    63.84259    687.49859    -42.82948
8752.50000    -999.25000    -999.25000    63.03272    700.86884    -41.80181
8753.00000    -999.25000    -999.25000    60.20003    714.23909    -40.77415
8753.50000    -999.25000    -999.25000    48.46751    727.60933    -39.74648
8754.00000    -999.25000    -999.25000    36.73499    740.97958    -38.71881
8754.50000    -999.25000    -999.25000    64.15983    754.34983    -37.69115
8755.00000    -999.25000    -999.25000    58.45583    767.72008    -36.66348
8755.50000    -999.25000    -999.25000    52.75182    781.09032    -35.63581
8756.00000    -999.25000    -999.25000    61.45621    794.46057    -34.60815
8756.50000    -999.25000    -999.25000    61.07133    807.83082    -33.58048
8757.00000    -999.25000    -999.25000    58.11239    821.20107    -32.55281
8757.50000    -999.25000    -999.25000    55.75965    845.28951    -31.52515
8758.00000    -999.25000    -999.25000    57.35227    876.50317    -30.49748
8758.50000    -999.25000    -999.25000    58.94489    907.71683    -29.46981
8759.00000    -999.25000    -999.25000    60.53750    938.93049    -28.47963
8759.50000    -999.25000    -999.25000    61.78833    970.14415    -28.24583
8760.00000    -999.25000    -999.25000    63.03845    983.06953    -28.01203
8760.50000    -999.25000    -999.25000    64.28857    983.15691    -27.77823
8761.00000    -999.25000    -999.25000    58.92559    983.24429    -27.54443
8761.50000    -999.25000    -999.25000    52.35439    983.33167    -27.31063
8762.00000    -999.25000    -999.25000    45.78319    983.41905    -27.07683
8762.50000    -999.25000    -999.25000    39.21199    983.50642    -26.84304
8763.00000    -999.25000    -999.25000    32.64079    983.59380    -26.60924
8763.50000    -999.25000    -999.25000    54.06289    983.68118    -26.37544
8764.00000    -999.25000    -999.25000    48.93895    983.76856    -26.14164
8764.50000    -999.25000    -999.25000    43.81502    983.85594    -25.90784
8765.00000    -999.25000    -999.25000    38.69109    983.94331    -25.67404
8765.50000    -999.25000    -999.25000    33.56716    984.03069    -25.59335
8766.00000    -999.25000    -999.25000    38.34156    984.11807    -25.66456
