###############################################
##         ENVERUS                           ##
##         ESS - Open Hole                   ##
##         PERMIAN / DELAWARE                ##
##         Nov 02 2023  V4.0                 ##
##         42-109-32346-90-00                ##
###############################################
## Copyright 2017-2023  ENVERUS.  All Rights Reserved. 
## Confidential - Property of ENVERUS, use governed by terms and 
## conditions found within the existing Information Services Subscription Agreement 
## (as may be amended, the “ISSA”) between Customer and ENVERUS. 
## 
~VERSION INFORMATION
# MNEM.UNIT                               DATA : DESCRIPTION OF MNEMONIC
#-----.-----     ----------------------------- : -----------------------------
VERS.                                     2.00 : CWLS LOG ASCII STANDARD - VERSION 2.00
WRAP.                                       NO : MULTIPLE LINES PER DEPTH STEP
VEND.                                  ENVERUS : VENDOR
TYPE.                          ESS - OPEN HOLE : ENVERUS ESSENTIAL CURVES – ACCESSIBLE THROUGH ENVERUS PRISM(TM)
DOC.                                  51092887 : ENVERUS HEADER RAW DOCUMENT ID
#___________________________________________________________________________________________________ 
~WELL INFORMATION 
# XhrHiXkIrwGIJmPLTIo0+WseqdI1VWn+o0JF90EYfb9BJ/ikjsIPmHpj3yVLlwnYQ/npclNvflN3Ll99f4ZCqQ== 
# MNEM.UNIT                                              DATA : DESCRIPTION OF MNEMONIC 
#-----.-----                    ----------------------------- : ----------------------------- 
CNTY.                                               CULBERSON : COUNTY 
STATE.                                                  TEXAS : STATE 
CNTRY.                                                    USA : COUNTRY 
API.                                             42-109-32346 : API (10 Digit) 
API_14.                                    42-109-32346-90-00 : API (14 Digits) 
API_14_std.                                 42-109-32346-9000 : API (14 Digits Standard) 
UWI.                                           42109323469000 : UNIQUE WELL ID 
WELL.                                                  DRD_55 : WELL NAME
STRT.FT                                                 334.5 : START DEPTH
STOP.FT                                                4950.0 : STOP DEPTH
STEP.FT                                                   0.5 : STEP BETWEEN DEPTHS
NULL.                                                 -999.25 : NULL VALUE
PREV_APII.                                     42109323460000 : WELL IDENTIFIER
#___________________________________________________________________________________________________ 
~PARAMETER INFORMATION 
# MNEM.UNIT                                              DATA : DESCRIPTION OF MNEMONIC 
#-----.-----                    ----------------------------- : -----------------------------
#___________________________________________________________________________________________________ 
~CURVE INFORMATION 
# MNEM.UNIT           : CURVE DESCRIPTION 
#-----.-----          : ----------------------------- 
 DEPT.FT               : MEASURED DEPTH 
 CALI.IN               : CALIPER (CAL - CALIPER) 
 GR.API                : GAMMA RAY (GAMMA RAY) 
 DT.US/FT              : SONIC DELTA TRANSIT TIME (SONIC) 
 #___________________________________________________________________________________________________ 
~A         DEPT           CALI             GR             DT
# ...
         3964.5          8.615         44.550         71.400
         3965.0          8.595         45.614         70.766
         3965.5          8.576         43.676         70.472
         3966.0          8.558         40.417         69.408
         3966.5          8.539         38.886         68.053
         3967.0          8.521         44.481         66.773
         3967.5          8.503         59.051         66.049
         3968.0          8.484         76.389         66.942
         3968.5          8.466         83.241         68.351
         3969.0          8.448         89.163         68.400
         3969.5          8.438         82.380         67.493
         3970.0          8.430         73.123         66.092
         3970.5          8.421         71.670         65.551
         3971.0          8.413         71.735         65.539
         3971.5          8.404         71.338         65.891
         3972.0          8.396         71.363         66.536
         3972.5          8.387         72.945         66.756
         3973.0          8.379         77.266         66.698
         3973.5          8.370         80.747         67.216
         3974.0          8.361         84.258         67.172
         3974.5          8.353         87.812         67.381
         3975.0          8.350         89.561         68.611
         3975.5          8.348         72.330         67.442
         3976.0          8.326         47.270         62.665
         3976.5          8.326         34.755         59.102
         3977.0          8.417         19.424         55.891
         3977.5          8.508         17.348         55.470
         3978.0          8.581         23.141         57.868
         3978.5          8.585         37.275         63.251
         3979.0          8.585         44.401         65.728
         3979.5          8.585         43.448         66.865
         3980.0          8.585         38.417         59.847
         3980.5          8.612         29.918         61.897
         3981.0          8.626         24.946         67.029
         3981.5          8.691         25.473         69.551
         3982.0          8.764         31.435         69.157
         3982.5          8.757         31.933         68.871
         3983.0          8.746         30.764         70.170
         3983.5          8.726         26.954         72.613
         3984.0          8.704         24.300         73.391
         3984.5          8.637         22.654         68.990
         3985.0          8.570         20.349         65.957
         3985.5          8.523         20.563         65.293
         3986.0          8.525         26.813         63.527
         3986.5          8.536         36.141         66.426
         3987.0          8.536         35.325         66.688
         3987.5          8.538         31.373         66.281
         3988.0          8.555         26.044         66.171
         3988.5          8.584         22.794         67.910
         3989.0          8.618         22.000         69.426
         3989.5          8.667         23.642         71.204
         3990.0          8.743         26.894         72.853
         3990.5          8.813         32.529         74.775
         3991.0          8.840         40.153         77.969
         3991.5          8.819         43.213         78.367
         3992.0          8.797         44.639         77.366
         3992.5          8.776         44.259         76.266
         3993.0          8.755         42.690         74.853
         3993.5          8.734         44.249         74.850
         3994.0          8.718         43.590         74.205
         3994.5          8.714         37.046         73.444
         3995.0          8.711         30.868         72.232
         3995.5          8.709         27.969         71.554
         3996.0          8.694         37.542         70.823
         3996.5          8.663         53.222         70.146
         3997.0          8.633         67.577         68.894
         3997.5          8.603         69.398         68.018
         3998.0          8.578         63.236         68.408
         3998.5          8.579         51.008         69.441
         3999.0          8.582         37.106         70.569
         3999.5          8.585         33.834         71.018
         4000.0          8.588         32.554         71.020
         4000.5          8.591         31.572         70.777
         4001.0          8.595         27.269         69.154
         4001.5          8.598         27.679         68.120
         4002.0          8.601         29.672         67.452
         4002.5          8.604         28.303         68.111
         4003.0          8.607         26.643         69.338
         4003.5          8.610         25.731         69.701
         4004.0          8.613         30.764         69.655
         4004.5          8.616         34.104         69.177
         4005.0          8.619         35.799         68.014
         4005.5          8.622         31.353         67.731
         4006.0          8.626         32.621         69.011
         4006.5          8.629         34.252         69.785
         4007.0          8.632         31.928         70.968
         4007.5          8.635         29.914         71.033
         4008.0          8.638         31.599         70.622
         4008.5          8.638         32.815         70.437
         4009.0          8.632         33.355         70.695
         4009.5          8.626         30.995         70.438
         4010.0          8.620         28.850         67.471
         4010.5          8.615         29.709         66.405
         4011.0          8.609         34.840         66.125
         4011.5          8.603         34.383         68.460
         4012.0          8.599         29.819         70.628
         4012.5          8.598         28.212         71.484
         4013.0          8.596         28.761         70.570
         4013.5          8.595         29.939         70.321
         4014.0          8.594         28.954         68.385
         4014.5          8.593         29.449         67.442
         4015.0          8.592         32.455         67.055
         4015.5          8.595         34.806         67.463
         4016.0          8.585         35.410         70.043
         4016.5          8.576         34.166         68.733
         4017.0          8.566         34.460         68.207
         4017.5          8.556         35.283         69.174
         4018.0          8.546         32.146         69.214
         4018.5          8.536         31.379         69.141
         4019.0          8.526         41.482         67.794
         4019.5          8.516         57.270         66.761
         4020.0          8.506         62.697         66.946
         4020.5          8.496         63.827         67.014
         4021.0          8.487         64.878         66.989
         4021.5          8.477         57.855         66.887
         4022.0          8.467         44.796         68.226
         4022.5          8.457         41.544         67.485
         4023.0          8.451         40.349         64.114
         4023.5          8.448         37.533         61.659
         4024.0          8.444         44.525         62.262
         4024.5          8.440         50.465         63.808
         4025.0          8.437         68.660         66.322
         4025.5          8.433         71.297         66.317
         4026.0          8.430         61.064         65.731
         4026.5          8.426         55.730         65.759
         4027.0          8.422         43.575         66.446
         4027.5          8.419         44.601         67.509
         4028.0          8.415         51.513         66.057
         4028.5          8.412         56.816         64.794
         4029.0          8.408         58.758         62.038
         4029.5          8.404         58.219         62.166
         4030.0          8.401         68.415         65.054
