#--------------------------------------------------#
#----------------DRILLING INFO, INC.---------------#
#---------------WWW.DRILLINGINFO.COM---------------#
#------------------COPYRIGHT 2018------------------#
#--------------------------------------------------#
#THIS FILE MAY BE USED ONLY IN ACCORDANCE WITH A CURRENT SUBSCRIPTION AGREEMENT BETWEEN
#THE USER AND DRILLING INFO, INC. NO PART OF THIS FILE MAY BE REPRODUCED, USED, COPIED,
#MODIFIED, PROPAGATED, OR DISTRIBUTED EXCEPT IN ACCORDANCE WITH THE SUBSCRIPTION
#AGREEMENT. UNAUTHORIZED USE OR DISTRIBUTION OF ALL OR ANY PART OF THIS FILE MAY VIOLATE
#COPYRIGHT, TRADEMARK, AND/OR OTHER LAWS AND IS SUBJECT TO CIVIL AS WELL AS CRIMINAL
#SANCTIONS.
#--------------------------------------------------#
#THIS FILE IS PROVIDED "AS-IS" AND ALL WARRANTIES ARE EXPRESSLY DISCLAIMED, WHETHER
#EXPRESS, ORAL, IMPLIED, STATUTORY OR OTHERWISE, INCLUDING ANY IMPLIED WARRANTY OF FITNESS
#FOR A PARTICULAR PURPOSE, MERCHANTABILITY, TITLE OR NON-INFRINGEMENT, AND ANY WARRANTIES
#ARISING BY VIRTUE OF CUSTOM OF TRADE OR COURSE OF DEALING.  FURTHER, DRILLING INFO,
#INC. AND ITS LICENSORS DO NOT REPRESENT OR WARRANT THAT THIS FILE WILL MEET USER'S
#REQUIREMENTS OR ARE SUITABLE FOR USER'S NEEDS OR THAT THE DATA OR RESULTS PROVIDED IN
#CONJUNCTION THEREWITH ARE CORRECT, ACCURATE, TIMELY OR RELIABLE. THESE DISCLAIMERS SHALL
#APPLY REGARDLESS OF ANY FAILURE OF ESSENTIAL PURPOSE OF ANY LIMITED REMEDY.  SOME
#JURISDICTIONS DO NOT ALLOW THE EXCLUSION OF CERTAIN WARRANTIES SO SOME OF THE ABOVE
#EXCLUSIONS MAY NOT APPLY. IN NO EVENT SHALL DRILLING INFO, INC. OR ANY OF ITS AFFILIATES
#BE LIABLE UNDER ANY LEGAL THEORY, WHETHER IN TORT (INCLUDING WITHOUT LIMITATION
#NEGLIGENCE), CONTRACT, STRICT LIABILITY, STATUTORY OR OTHERWISE, FOR ANY SPECIAL,
#INCIDENTAL, CONSEQUENTIAL, EXEMPLARY, PUNITIVE OR INDIRECT DAMAGE OF ANY KIND, INCLUDING
#WITHOUT LIMITATION LOSS OF REVENUE, PROFITS, GOODWILL, USE, AND/OR DATA OR THE COST OF
#PROCUREMENT OF SUBSTITUTE GOODS OR SERVICES, EVEN IF APPRISED OF THE POSSIBILITY OF SUCH
#DAMAGES IN ADVANCE.
#--------------------------------------------------#
# Exported from DI Transform
# DI Transform - A Product of Drillinginfo, Inc. - www.drillinginfo.com
#--------------------------------------------------#
#
~VERSION INFORMATION
 VERS.        2.0 : LAS ASCII STANDARD - VERSION 2.0
 WRAP.         NO : ONE LINE PER DEPTH STEP

~WELL INFORMATION
#MNEM.UNIT       DATA TYPE       INFORMATION
#---------       ---------       -----------
 STRT.ft          9043 : Start Depth
 STOP.ft         16870 : Stop Depth
 STEP.ft           0.5 : Step Length
 NULL.         -999.25 : Null Value
 COMP.                 : Company
 WELL.          DRD_55 : Well Name
 FLD.                  : Field Name
 LOC.                  : Well Location
 CNTY.                 : County
 STAT.                 : State or Province
 CTRY.                 : Country
 SRVC.                 : Service Company
 DATE.                 : Date
 API.   42109326310000 : Well Identifier

~CURVE INFORMATION
#MNEM.UNIT       API CODE       CURVE DESCRIPTION
#---------       --------       -----------------
 DEPT.ft          : <Measured Depth>
 CAL.in           : Caliper
 DPHI.%           : Density Porosity
 DT.us/ft         : Sonic
 GR.gAPI          : Gamma Ray
 ILD.ohmm         : Deep Resistivity
 ILS.ohmm         : Shallow Resistivity
 RHOB.g/cm3       : Density

~PARAMETER INFORMATION
#MNEM.UNIT       VALUE       DESCRIPTION
#---------       -----       -----------
 EKB.ft      3382 : Elevation above MSL

~A       DEPT         CAL        DPHI          DT          GR         ILD         ILS        RHOB
# ...
        14414      6.0732      6.8852     65.2245     464.023     70.8289      15.446      2.5868
      14414.5      6.0732      6.9496     65.2375    447.0596     67.8391     14.7077      2.5852
        14415      6.0732      7.1557      65.102    431.2985     66.9299     14.5106      2.5857
      14415.5      6.0732      7.2131     64.8861    421.2329     66.9299     13.8924      2.5878
        14416      6.0732      7.1043     64.7347    429.0521     65.9044     13.2493      2.5908
      14416.5      6.0732      6.8638     64.6122    447.3785     64.4506     13.2039      2.5973
        14417      6.0732      6.3352     64.6122    468.4559     64.4506     13.2039      2.6037
      14417.5      6.0732      5.9997     64.6023    487.0987     64.4506     13.2039      2.6076
        14418      6.0732      5.8021     64.7347    495.9677      64.619     13.2039      2.6082
      14418.5      6.0732      5.8932     64.8363    481.2515     62.0631     13.2039      2.6031
        14419      6.0732      6.0993     64.9796    463.0484     61.0367     13.4333      2.6011
      14419.5      6.0732      6.3054     64.9837    446.1411     62.0631     13.7118      2.5988
        14420      6.0732      6.3115     64.9796    445.6522     63.2456     13.7118      2.5976
      14420.5      6.0732      6.3077     64.7502    445.6522     60.9027     14.0841      2.5996
        14421      6.0732      6.3934     64.7347    445.6522     58.7272     14.2393      2.6002
      14421.5      6.0732       6.313     64.7347    445.6522     56.0109     14.2393      2.6023
        14422      6.0732      6.1069     64.7347    448.8993     52.0023     13.9865      2.6037
      14422.5      6.0732      5.9024     64.7347     465.977     46.5976     13.3397      2.6044
        14423      6.0732      6.1085     64.7347    484.4612      44.211     12.6099      2.6036
      14423.5      6.0732      6.4785     64.7347    504.4135     43.7589     12.7148      2.5968
        14424      6.0732      6.6393     64.7347    499.6141     44.1868     13.2021      2.5928
      14424.5      6.0732      6.7213     64.8524    479.9843     43.7706     13.4555      2.5928
        14425      6.0732      6.7213     64.9796    461.8789     43.3606     13.7118      2.5928
      14425.5      6.0732       6.565     65.2224    458.3237     43.3606      13.973       2.593
        14426      6.0732      6.5895     65.3776    452.2059     45.0597     14.7973      2.5934
      14426.5      6.0732      6.5673     65.7149    451.4089     47.9968     16.3003      2.5939
        14427      6.0732      6.7734     65.8999    435.3531       55.02     17.8884      2.5919
      14427.5      6.0732      6.9795     65.9625    420.3812     59.6044     19.1801      2.5877
        14428      6.0732      6.9948     66.1475    406.4198     63.3414     19.2883      2.5895
      14428.5      6.0732      6.7887      66.455    404.6053      66.792      20.225      2.5917
        14429      6.0732      6.5826       66.64    408.3367     71.0348     20.7694      2.5952
      14429.5      6.0732      6.6562     66.7026    411.1396     77.4472     20.7694      2.5946
        14430      6.0325      6.8623     66.8163    425.4435     84.2385      20.818      2.5904
      14430.5      6.0325      7.0492     66.8277    440.7737     89.9049     21.5119      2.5868
        14431      6.0325       6.824     66.9388    452.2059     92.5037     21.1079      2.5913
      14431.5      6.0325      6.6179     66.9388    450.9231     96.9946     20.4033      2.5977
        14432      6.0325      6.4118     66.8163    437.3348     104.957     21.2321      2.5985
      14432.5      6.0325      6.2766     66.8132    433.9672    112.8492     22.2628      2.5949
        14433      6.0325      6.5413     66.8956    432.3083    122.0076      23.343      2.5872
      14433.5      6.0325      6.9653     66.9582    427.8857    116.3619     23.5757      2.5873
        14434      6.0325      7.0589     67.0612    420.4147    110.9754     22.3051      2.5907
      14434.5      6.0325      6.8569     67.0612    407.2784    105.8397     21.2778      2.5942
        14435      6.0325      6.5746     67.0612    385.0569    100.9407     20.2929       2.598
      14435.5      6.0325      6.3628     67.0612    379.6296    100.8901     19.3538      2.5983
        14436      6.0325      6.3843     67.0612    379.6296     97.1619      18.458      2.5946
      14436.5      6.0325      6.5084     67.0612    382.4679    100.4918     17.6037       2.591
        14437      6.0325      6.7144     67.1513    370.8618    114.1286     17.5991      2.5884
      14437.5      6.0325      6.9205     67.2138    370.4819    127.7931     18.4713      2.5863
        14438      6.0325      7.1266     67.5213    379.3701    170.8824     23.2187      2.5852
      14438.5      6.0325      7.2951     67.6891    391.5258    235.1194     26.1725      2.5862
        14439      6.0325      7.1334     67.4079     404.458    301.8639     30.2337       2.587
      14439.5      6.0325       7.171     66.6129    412.8479    307.9092      28.497      2.5819
        14440      6.0325       7.459     65.6158    404.6053     241.545     24.9244      2.5754
      14440.5      6.0325      7.8091     64.6391    391.6657    219.3018     23.7704      2.5713
        14441      6.0325      8.0351     64.1441     384.375    164.3228      21.778      2.5661
      14441.5      6.0325      8.2412      63.837    391.9455    181.5544     21.9267      2.5621
        14442      6.0325      8.4472     63.6516    399.3506     153.043     22.9913       2.559
      14442.5      6.0325      8.7176     63.6327    396.4319    154.2563     24.1065      2.5608
        14443      6.0325      8.5962     63.5102     383.976    165.1106     26.0234      2.5659
      14443.5      6.0325      8.2216     63.1115    376.8606    145.1061     25.4768      2.5694
        14444      6.0325      7.9416     62.6122         375    147.9718     27.6414       2.572
      14444.5      6.0325      7.8689     61.8694         375    142.0615     30.4927       2.574
        14445      6.0325      7.8689     61.0218    370.4819    149.1329     35.0075      2.5761
      14445.5      6.0325      7.8689     60.4069    366.0714    119.4548     30.3793      2.5782
        14446      6.0325      7.6911     59.9674    361.7647     101.594     28.3751      2.5802
      14446.5      6.0325      7.4851     59.6599    361.7647     88.9161     26.9495      2.5821
        14447      6.0325      7.3623     59.3525    361.7647     91.4022     29.3553      2.5788
      14447.5      6.0325      7.4353     59.2566    364.8234      87.168     28.6253      2.5706
        14448      6.0325      7.8696     59.4694    369.4929     83.1372     27.8218      2.5607
      14448.5      6.0325      8.6154     59.7143    358.6592     82.3729     27.0386       2.554
        14449      6.0325      9.0064     59.6693    358.6193     83.2119     26.5449      2.5507
      14449.5      6.0325      9.2431     59.5918    369.4511     89.8716     26.5378      2.5525
        14450      6.0325      9.0754     59.4669    371.7483     96.8137     27.3374      2.5563
      14450.5      6.0325      8.7307     59.1594    375.9522    102.7406     28.6631      2.5607
        14451      6.0325      8.4174     59.0968    364.7436    122.0884     30.0551      2.5658
      14451.5      6.0325      8.1776     58.8571    354.1784    135.1321     31.5397      2.5639
        14452      6.0325      8.3063     58.8493    345.5056     161.363     34.2567      2.5596
      14452.5      6.0325      8.5123     58.7347    345.5056    151.6478     35.7921      2.5567
        14453      6.0325      8.7184     58.7347    354.9459    161.1826     35.6501      2.5582
      14453.5      6.0325      8.7705     58.9303    365.5477    167.8854     36.1931      2.5622
        14454      6.0325      8.5583     59.2377    370.4819    114.6753     29.9564      2.5656
      14454.5      6.0325      8.2864     59.5452    366.4841     98.2374     26.1091       2.564
