~VERSION INFORMATION
VERS. 2.0 : CWLS Log ASCII Standard - version 2.0
WRAP.  NO : One line per depth step
#--------------------------------------------------#
#----------------DRILLING INFO, INC.---------------#
#---------------WWW.DRILLINGINFO.COM---------------#
#------------------COPYRIGHT 2015------------------#
#--------------------------------------------------#
#THIS FILE MAY BE USED ONLY IN ACCORDANCE WITH A CURRENT SUBSCRIPTION AGREEMENT BETWEEN
#THE USER AND DRILLING INFO, INC. NO PART OF THIS FILE MAY BE REPRODUCED, USED, COPIED,
#MODIFIED, PROPAGATED, OR DISTRIBUTED EXCEPT IN ACCORDANCE WITH THE SUBSCRIPTION
#AGREEMENT. UNAUTHORIZED USE OR DISTRIBUTION OF ALL OR ANY PART OF THIS FILE MAY VIOLATE
#COPYRIGHT, TRADEMARK, AND/OR OTHER LAWS AND IS SUBJECT TO CIVIL AS WELL AS CRIMINAL
#SANCTIONS.
#--------------------------------------------------#
#THIS FILE IS PROVIDED "AS-IS" AND ALL WARRANTIES ARE EXPRESSLY DISCLAIMED, WHETHER
#EXPRESS, ORAL, IMPLIED, STATUTORY OR OTHERWISE, INCLUDING ANY IMPLIED WARRANTY OF FITNESS
#FOR A PARTICULAR PURPOSE, MERCHANTABILITY, TITLE OR NON-INFRINGEMENT, AND ANY WARRANTIES
#ARISING BY VIRTUE OF CUSTOM OF TRADE OR COURSE OF DEALING.  FURTHER, DRILLING INFO,
#INC. AND ITS LICENSORS DO NOT REPRESENT OR WARRANT THAT THIS FILE WILL MEET USER'S
#REQUIREMENTS OR ARE SUITABLE FOR USER'S NEEDS OR THAT THE DATA OR RESULTS PROVIDED IN
#CONJUNCTION THEREWITH ARE CORRECT, ACCURATE, TIMELY OR RELIABLE. THESE DISCLAIMERS SHALL
#APPLY REGARDLESS OF ANY FAILURE OF ESSENTIAL PURPOSE OF ANY LIMITED REMEDY.  SOME
#JURISDICTIONS DO NOT ALLOW THE EXCLUSION OF CERTAIN WARRANTIES SO SOME OF THE ABOVE
#EXCLUSIONS MAY NOT APPLY. IN NO EVENT SHALL DRILLING INFO, INC. OR ANY OF ITS AFFILIATES
#BE LIABLE UNDER ANY LEGAL THEORY, WHETHER IN TORT (INCLUDING WITHOUT LIMITATION
#NEGLIGENCE), CONTRACT, STRICT LIABILITY, STATUTORY OR OTHERWISE, FOR ANY SPECIAL,
#INCIDENTAL, CONSEQUENTIAL, EXEMPLARY, PUNITIVE OR INDIRECT DAMAGE OF ANY KIND, INCLUDING
#WITHOUT LIMITATION LOSS OF REVENUE, PROFITS, GOODWILL, USE, AND/OR DATA OR THE COST OF
#PROCUREMENT OF SUBSTITUTE GOODS OR SERVICES, EVEN IF APPRISED OF THE POSSIBILITY OF SUCH
#DAMAGES IN ADVANCE.
#--------------------------------------------------#
~WELL INFORMATION
#MNEMONIC     .UNIT              VALUE :DESCRIPTION
#--------------------------------------------------#
STRT       .FT                4 :START DEPTH
STOP       .FT                10042 :STOP DEPTH
STEP       .FT                   0.500 :STEP
NULL       .                  -999.250 :NULL
API        .                421093139500 :API NUMBER
COMP       .         MOBIL OIL CORPORATION :COMPANY
WELL       .        MADERA-BROMAN  1 :WELL
DATE       .                27-Jun-1979 :LOG DATE
~CURVE INFORMATION
#MNEMONIC     .UNIT      API CODE :CURVE DESCRIPTION
#--------------------------------------------------#
DEPTH       .FT                      :Measured Depth
DT.US/FT        UNKNOWN   :DT
GR.API        UNKNOWN   :GR
CAL.INCH        UNKNOWN   :CAL
~A    DEPTH    DT    GR    CAL
# ...
 8496     55.062   19.028   6.694
 8496.5     52.194   19.1   6.696
 8497     48.281   19.173   6.699
 8497.5     45.918   20.205   6.702
 8498     49.439   21.321   6.705
 8498.5     52.961   22.438   6.707
 8499     51.024   23.554   6.71
 8499.5     48.232   23.757   6.713
 8500     45.735   21.293   6.716
 8500.5     45.782   18.828   6.719
 8501     45.828   16.363   6.721
 8501.5     47.281   14.308   6.724
 8502     50.954   14.371   6.727
 8502.5     54.627   14.434   6.73
 8503     58.3   14.498   6.732
 8503.5     57.277   14.561   6.735
 8504     41.661   14.624   6.738
 8504.5     41.64   16.937   6.741
 8505     45.132   19.837   6.743
 8505.5     53.394   22.084   6.746
 8506     49.935   20.835   6.749
 8506.5     46.161   19.585   6.752
 8507     44.613   18.336   6.755
 8507.5     44.627   17.087   6.757
 8508     44.641   17.073   6.76
 8508.5     48.671   18.763   6.763
 8509     54.771   20.452   6.766
 8509.5     59.962   22.142   6.768
 8510     52.599   23.831   6.771
 8510.5     45.467   25.521   6.771
 8511     45.682   27.211   6.767
 8511.5     45.897   28.9   6.764
 8512     46.112   30.59   6.76
 8512.5     46.327   30.785   6.756
 8513     46.542   30.576   6.752
 8513.5     44.916   30.368   6.749
 8514     42.241   30.491   6.745
 8514.5     41.668   31.061   6.741
 8515     41.71   31.631   6.737
 8515.5     41.751   32.201   6.734
 8516     41.793   32.771   6.73
 8516.5     45.292   33.341   6.726
 8517     45.887   33.911   6.722
 8517.5     45.908   33.326   6.719
 8518     41.903   32.33   6.715
 8518.5     41.958   31.334   6.711
 8519     42.013   30.337   6.707
 8519.5     48.052   29.341   6.704
 8520     45.36   28.345   6.7
 8520.5     43.798   27.349   6.696
 8521     47.435   26.352   6.692
 8521.5     51.073   25.356   6.688
 8522     54.71   24.36   6.685
 8522.5     58.347   23.07   6.681
 8523     57.443   21.586   6.687
 8523.5     53.116   20.103   6.699
 8524     48.789   18.62   6.711
 8524.5     45.835   17.136   6.723
 8525     46.121   15.653   6.734
 8525.5     46.407   15.884   6.746
 8526     45.733   17.804   6.758
 8526.5     41.73   19.724   6.77
 8527     41.753   21.644   6.782
 8527.5     41.776   22.07   6.794
 8528     41.798   21.142   6.805
 8528.5     44.224   20.214   6.817
 8529     48.667   19.772   6.829
 8529.5     46.34   22.136   6.841
 8530     44.013   24.5   6.853
 8530.5     42.736   25.072   6.864
 8531     42.412   23.871   6.876
 8531.5     41.622   22.45   6.888
 8532     41.696   20.784   7.376
 8532.5     45.577   19.117   8.051
 8533     49.891   17.451   9.362
 8533.5     51.887   15.784   10.731
 8534     56.192   14.189   12.1
 8534.5     63.44   14.101   12.445
 8535     70.687   14.013   12.45
 8535.5     69.619   13.925   11.763
 8536     57.648   13.872   9.602
 8536.5     45.678   16.129   7.706
 8537     41.788   18.386   7.069
 8537.5     41.801   20.643   7.051
 8538     41.814   22.9   7.032
 8538.5     51.606   25.157   7.014
 8539     60.881   27.413   6.995
 8539.5     63.321   28.076   6.977
 8540     50.103   26.319   6.958
 8540.5     50.755   24.562   6.942
 8541     51.407   22.805   6.931
 8541.5     52.058   21.049   6.921
 8542     51.8   21.027   6.91
 8542.5     52.619   21.963   6.899
 8543     54.431   22.899   6.888
 8543.5     56.242   22.729   6.878
 8544     58.054   20.081   6.867
 8544.5     59.866   17.432   6.856
 8545     60.731   14.784   6.845
 8545.5     57.85   16   6.835
 8546     54.969   17.673   6.832
 8546.5     51.519   19.346   6.832
 8547     46.386   21.018   6.833
 8547.5     47.048   22.691   6.834
 8548     47.711   24.364   6.834
 8548.5     48.374   25.201   6.835
 8549     48.17   23.56   6.836
 8549.5     47.689   21.919   6.836
 8550     47.208   20.278   6.837
 8550.5     46.726   19.603   6.837
 8551     46.435   19.085   6.838
 8551.5     46.42   18.568   6.839
 8552     46.405   18.05   6.839
 8552.5     46.601   16.591   6.84
 8553     46.888   14.924   6.841
 8553.5     47.175   13.454   6.841
 8554     47.461   13.646   6.841
 8554.5     47.748   13.839   6.842
 8555     48.035   14.032   6.842
 8555.5     48.322   14.224   6.842
 8556     48.609   14.417   6.843
 8556.5     48.524   15.498   6.843
 8557     48.076   16.889   6.843
 8557.5     47.628   18.281   6.844
 8558     47.179   19.672   6.844
 8558.5     46.731   19.154   6.874
 8559     46.283   17.996   6.906
 8559.5     46.259   16.963   6.938
 8560     46.335   18.662   6.97
 8560.5     46.411   20.36   7.002
 8561     46.487   20.96   7.034
 8561.5     46.563   19.816   7.065
 8562     46.639   18.672   7.097
 8562.5     46.715   17.528   7.129
 8563     46.791   16.384   7.161
 8563.5     46.867   15.24   7.193
 8564     46.943   14.46   7.225
 8564.5     46.943   14.523   7.257
 8565     46.75   14.586   7.212
 8565.5     46.557   14.649   7.125
 8566     46.365   14.712   7.038
 8566.5     46.172   14.775   6.952
 8567     45.979   15.75   6.865
 8567.5     45.868   16.791   6.778
 8568     46.066   17.831   6.693
 8568.5     46.263   18.872   6.634
 8569     46.461   19.913   6.574
 8569.5     46.658   20.953   6.515
 8570     46.816   21.628   6.487
 8570.5     46.64   22.276   6.487
 8571     46.464   22.547   6.487
 8571.5     46.288   21.721   6.487
 8572     46.112   20.895   6.487
 8572.5     45.935   20.069   6.487
 8573     45.759   20.582   6.486
 8573.5     45.583   21.274   6.486
 8574     45.407   21.965   6.486
 8574.5     46.487   22.657   6.488
 8575     50.158   23.348   6.492
 8575.5     51.085   24.04   6.496
 8576     49.142   24.731   6.5
 8576.5     47.199   25.423   6.504
 8577     45.808   24.778   6.508
 8577.5     46.23   23.918   6.512
 8578     46.653   23.058   6.516
 8578.5     46.982   22.198   6.52
 8579     46.803   22.457   6.524
 8579.5     46.624   22.974   6.528
 8580     46.475   23.492   6.532
 8580.5     46.549   24.009   6.536
 8581     46.624   24.527   6.541
 8581.5     46.698   25.767   6.545
 8582     48.033   27.411   6.549
 8582.5     49.852   26.089   6.553
 8583     51.67   24.766   6.557
 8583.5     53.489   23.444   6.561
 8584     52.062   22.122   6.565
 8584.5     45.959   21.783   6.569
 8585     46.327   22.955   6.573
 8585.5     46.696   24.127   6.577
 8586     47.065   25.298   6.581
 8586.5     47.434   26.47   6.583
 8587     46.977   27.781   6.575
 8587.5     43.188   31.161   6.566
 8588     41.739   34.54   6.557
 8588.5     41.739   37.92   6.548
 8589     47.15   39.845   6.54
 8589.5     53.662   41.345   6.531
 8590     52.574   42.845   6.522
 8590.5     51.486   44.345   6.513
 8591     50.399   45.845   6.505
 8591.5     49.311   44.293   6.496
 8592     48.223   39.03   6.487
 8592.5     48.445   33.767   6.478
 8593     51.015   28.504   6.47
 8593.5     48.78   23.241   6.471
 8594     46.235   17.979   6.471
 8594.5     46.876   16.843   6.472
 8595     49.102   16.154   6.473
 8595.5     51.329   15.464   6.473
 8596     41.712   14.775   6.474
 8596.5     41.725   14.086   6.475
 8597     41.738   13.397   6.476
 8597.5     43.096   12.708   6.476
 8598     47.75   12.019   6.477
 8598.5     49.795   12.239   6.478
 8599     48.69   12.669   6.479
 8599.5     47.584   13.1   6.479
 8600     46.479   13.531   6.48
 8600.5     45.374   13.413   6.481
 8601     45.211   13.153   6.481
 8601.5     45.296   12.893   6.482
 8602     45.381   12.633   6.483
 8602.5     45.465   14.027   6.484
 8603     45.55   15.946   6.484
 8603.5     45.635   17.865   6.485
 8604     41.879   19.784   6.486
 8604.5     41.889   21.702   6.486
 8605     41.899   23.621   6.487
 8605.5     41.909   22.139   6.488
 8606     41.919   19.74   6.489
 8606.5     42.661   17.342   6.489
 8607     43.788   14.944   6.49
 8607.5     44.915   12.545   6.491
 8608     46.042   10.147   6.491
 8608.5     43.986   7.749   6.492
 8609     42.012   7.68   6.493
 8609.5     42.028   7.678   6.494
 8610     42.044   7.676   6.494
 8610.5     45.182   7.675   6.495
 8611     51.25   7.504   6.496
