###############################################
##         ENVERUS                           ##
##         ESS - Open Hole                   ##
##         PERMIAN / DELAWARE                ##
##         Nov 03 2023  V4.0                 ##
##         42-109-32572-90-00                ##
###############################################
## Copyright 2017-2023  ENVERUS.  All Rights Reserved. 
## Confidential - Property of ENVERUS, use governed by terms and 
## conditions found within the existing Information Services Subscription Agreement 
## (as may be amended, the “ISSA”) between Customer and ENVERUS. 
## 
~VERSION INFORMATION
# MNEM.UNIT                               DATA : DESCRIPTION OF MNEMONIC
#-----.-----     ----------------------------- : -----------------------------
VERS.                                     2.00 : CWLS LOG ASCII STANDARD - VERSION 2.00
WRAP.                                       NO : MULTIPLE LINES PER DEPTH STEP
VEND.                                  ENVERUS : VENDOR
TYPE.                          ESS - OPEN HOLE : ENVERUS ESSENTIAL CURVES – ACCESSIBLE THROUGH ENVERUS PRISM(TM)
DOC.                                  51093467 : ENVERUS HEADER RAW DOCUMENT ID
#___________________________________________________________________________________________________ 
~WELL INFORMATION 
# 8gl1O6v4swiPFL4GH+dnL3Th7drW/gNnufiOMC39xBbatiyIUGjWQRxOO2UkOAKZqu0QrDKM70MxnzzovQmAYg== 
# MNEM.UNIT                                              DATA : DESCRIPTION OF MNEMONIC 
#-----.-----                    ----------------------------- : ----------------------------- 
CNTY.                                               CULBERSON : COUNTY 
STATE.                                                  TEXAS : STATE 
CNTRY.                                                    USA : COUNTRY 
API.                                             42-109-32572 : API (10 Digit) 
API_14.                                    42-109-32572-90-00 : API (14 Digits) 
API_14_std.                                 42-109-32572-9000 : API (14 Digits Standard) 
UWI.                                           42109325729000 : UNIQUE WELL ID 
WELL.                               42109325720000_PREV_API14 : WELL NAME
STRT.FT                                                2248.5 : START DEPTH
STOP.FT                                               10757.5 : STOP DEPTH
STEP.FT                                                   0.5 : STEP BETWEEN DEPTHS
NULL.                                                 -999.25 : NULL VALUE
PREV_APII.                                     42109325720000 : WELL IDENTIFIER
#___________________________________________________________________________________________________ 
~PARAMETER INFORMATION 
# MNEM.UNIT                                              DATA : DESCRIPTION OF MNEMONIC 
#-----.-----                    ----------------------------- : ----------------------------- 
EKB.FT                                                   3340 : ELEVATION ABOVE MSL
#___________________________________________________________________________________________________ 
~CURVE INFORMATION 
# MNEM.UNIT           : CURVE DESCRIPTION 
#-----.-----          : ----------------------------- 
 DEPT.FT               : MEASURED DEPTH 
 CALI.IN               : CALIPER (CAL - CALIPER) 
 GR.API                : GAMMA RAY (GAMMA RAY) 
 DT.US/FT              : SONIC DELTA TRANSIT TIME (SONIC) 
 #___________________________________________________________________________________________________ 
~A         DEPT           CALI             GR             DT
# ...
         7264.5          8.873        103.648         73.901
         7265.0          8.872        100.955         73.457
         7265.5          8.871        101.255         73.492
         7266.0          8.870        104.778         72.262
         7266.5          8.869        100.708         66.837
         7267.0          8.869         82.555         65.530
         7267.5          8.868         75.898         64.877
         7268.0          8.867         73.794         62.478
         7268.5          8.866         54.054         55.899
         7269.0          8.865         34.584         52.517
         7269.5          8.864         26.230         51.614
         7270.0          8.863         24.152         50.872
         7270.5          8.863         22.770         53.128
         7271.0          8.862         34.406         57.690
         7271.5          8.861         65.596         60.179
         7272.0          8.861         76.449         60.793
         7272.5          8.862        117.909         65.638
         7273.0          8.862        127.005         73.070
         7273.5          8.863        134.434         77.460
         7274.0          8.864        138.175         77.850
         7274.5          8.865        140.594         77.987
         7275.0          8.865        134.352         77.797
         7275.5          8.866        127.850         77.201
         7276.0          8.867        123.642         76.856
         7276.5          8.868        114.946         76.931
         7277.0          8.868        105.408         75.176
         7277.5          8.869         95.818         68.682
         7278.0          8.870         89.082         67.406
         7278.5          8.871         89.222         67.555
         7279.0          8.871        106.893         67.965
         7279.5          8.872        113.162         70.955
         7280.0          8.873        113.453         71.421
         7280.5          8.874        108.075         65.591
         7281.0          8.874         99.571         65.430
         7281.5          8.875         97.443         65.285
         7282.0          8.876        102.961         65.492
         7282.5          8.876        104.541         71.881
         7283.0          8.877        101.913         73.057
         7283.5          8.878        100.847         73.652
         7284.0          8.879        102.019         74.015
         7284.5          8.879        110.958         76.793
         7285.0          8.880        121.844         77.494
         7285.5          8.881        135.493         77.734
         7286.0          8.882        138.729         77.852
         7286.5          8.882        142.306         76.684
         7287.0          8.883        136.032         68.765
         7287.5          8.884        101.845         62.211
         7288.0          8.885         96.246         59.852
         7288.5          8.885         41.455         58.434
         7289.0          8.886         31.280         55.694
         7289.5          8.887         28.425         55.826
         7290.0          8.888         33.137         58.342
         7290.5          8.888         64.718         60.763
         7291.0          8.889         79.171         62.194
         7291.5          8.890        101.123         68.720
         7292.0          8.891        106.145         69.952
         7292.5          8.891        107.871         66.595
         7293.0          8.892         91.404         66.298
         7293.5          8.893         77.230         64.691
         7294.0          8.893         82.017         65.084
         7294.5          8.894         92.456         73.873
         7295.0          8.895         95.518         73.393
         7295.5          8.896         95.286         72.866
         7296.0          8.896         95.573         72.600
         7296.5          8.897        102.402         68.433
         7297.0          8.898        102.757         64.768
         7297.5          8.899         83.847         63.488
         7298.0          8.899         72.854         62.943
         7298.5          8.900         64.797         61.976
         7299.0          8.901         67.256         64.148
         7299.5          8.902         71.617         65.313
         7300.0          8.902         69.464         65.371
         7300.5          8.903         64.534         65.193
         7301.0          8.904         61.051         64.608
         7301.5          8.905         59.492         63.672
         7302.0          8.905         65.176         64.493
         7302.5          8.907         72.120         65.460
         7303.0          8.908         73.188         65.606
         7303.5          8.910         72.407         65.790
         7304.0          8.912         72.212         66.836
         7304.5          8.913         72.797         67.654
         7305.0          8.915         76.399         68.242
         7305.5          8.916         87.233         68.417
         7306.0          8.918         92.950         69.589
         7306.5          8.920        103.987         71.552
         7307.0          8.921        101.964         67.485
         7307.5          8.923         64.104         65.991
         7308.0          8.924         49.426         64.553
         7308.5          8.926         35.628         58.460
         7309.0          8.927         44.250         60.329
         7309.5          8.929         57.202         65.538
         7310.0          8.931         65.153         65.836
         7310.5          8.932         71.738         66.425
         7311.0          8.934         62.042         63.369
         7311.5          8.935         53.088         59.703
         7312.0          8.937         47.375         59.336
         7312.5          8.939         37.577         59.166
         7313.0          8.940         34.197         56.748
         7313.5          8.942         34.361         58.748
         7314.0          8.943         37.944         62.142
         7314.5          8.945         48.119         62.969
         7315.0          8.946         48.303         62.642
         7315.5          8.948         41.010         59.742
         7316.0          8.950         38.237         59.570
         7316.5          8.951         43.402         60.090
         7317.0          8.953         52.261         60.324
         7317.5          8.954         63.959         63.891
         7318.0          8.956         66.115         67.185
         7318.5          8.958         69.591         66.116
         7319.0          8.959         69.324         65.674
         7319.5          8.961         72.961         66.284
         7320.0          8.962         76.564         66.484
         7320.5          8.964         81.213         64.971
         7321.0          8.965         73.507         64.655
         7321.5          8.967         63.230         64.375
         7322.0          8.969         59.529         63.810
         7322.5          8.970         54.990         63.496
         7323.0          8.972         52.682         64.504
         7323.5          8.973         55.253         63.263
         7324.0          8.973         58.275         62.923
         7324.5          8.973         60.274         63.288
         7325.0          8.973         61.315         63.555
         7325.5          8.973         66.332         64.316
         7326.0          8.973         68.354         63.276
         7326.5          8.973         62.593         62.668
         7327.0          8.973         61.448         61.819
         7327.5          8.973         61.425         62.558
         7328.0          8.973         61.252         61.812
         7328.5          8.973         63.354         61.154
         7329.0          8.973         53.834         59.993
         7329.5          8.973         43.107         56.608
         7330.0          8.973         32.508         56.328
