###############################################
##         ENVERUS                           ##
##         ESS - Open Hole                   ##
##         PERMIAN / DELAWARE                ##
##         Nov 02 2023  V4.0                 ##
##         42-109-10429-00-00                ##
###############################################
## Copyright 2017-2023  ENVERUS.  All Rights Reserved. 
## Confidential - Property of ENVERUS, use governed by terms and 
## conditions found within the existing Information Services Subscription Agreement 
## (as may be amended, the “ISSA”) between Customer and ENVERUS. 
## 
~VERSION INFORMATION
# MNEM.UNIT                               DATA : DESCRIPTION OF MNEMONIC
#-----.-----     ----------------------------- : -----------------------------
VERS.                                     2.00 : CWLS LOG ASCII STANDARD - VERSION 2.00
WRAP.                                       NO : MULTIPLE LINES PER DEPTH STEP
VEND.                                  ENVERUS : VENDOR
TYPE.                          ESS - OPEN HOLE : ENVERUS ESSENTIAL CURVES – ACCESSIBLE THROUGH ENVERUS PRISM(TM)
DOC.                                  32032754 : ENVERUS HEADER RAW DOCUMENT ID
#___________________________________________________________________________________________________ 
~WELL INFORMATION 
# hXqYWT5FmhW7UEcPXxReyvN++rqgSwBrBdup88XCyeQNQmx1Fo1vv7xYmZNr9HC+TZh0ltY2ePdKOSE9Z1hlZw== 
# MNEM.UNIT                                              DATA : DESCRIPTION OF MNEMONIC 
#-----.-----                    ----------------------------- : ----------------------------- 
CNTY.                                               CULBERSON : COUNTY 
STATE.                                                  TEXAS : STATE 
CNTRY.                                                    USA : COUNTRY 
API.                                             42-109-10429 : API (10 Digit) 
API_14.                                    42-109-10429-00-00 : API (14 Digits) 
API_14_std.                                 42-109-10429-0000 : API (14 Digits Standard) 
UWI.                                           42109104290000 : UNIQUE WELL ID 
WELL.                                          ROUNSAVILLE  1 : WELL NAME
STRT.FT                                                     0 : START DEPTH
STOP.FT                                                8409.0 : STOP DEPTH
STEP.FT                                                   0.5 : STEP BETWEEN DEPTHS
NULL.                                                 -999.25 : NULL VALUE
COMP.                                     EOG RESOURCES  INC. : COMPANY
#___________________________________________________________________________________________________ 
~CURVE INFORMATION 
# MNEM.UNIT           : CURVE DESCRIPTION 
#-----.-----          : ----------------------------- 
 DEPT.FT               : MEASURED DEPTH 
 CALI.IN               : CALIPER (CAL - CAL) 
 GR.API                : GAMMA RAY (GR) 
 SP.MV                 : SPONTANEOUS POTENTIAL (SP) 
 DT.US/FT              : SONIC DELTA TRANSIT TIME (DT) 
 RESD.OHMM             : DEEP INDUCTION RESISTIVITY (ILD - ILD) 
 #___________________________________________________________________________________________________ 
~A         DEPT           CALI             GR             SP             DT           RESD
# ...
         5720.0          9.616         36.121        -28.630         52.888        219.308
         5720.5          9.602         35.817        -28.679         53.967        247.669
         5721.0          9.587         38.054        -28.598         57.553        270.006
         5721.5          9.602         49.301        -28.391         61.568        281.756
         5722.0          9.628         60.862        -28.185         65.244        255.465
         5722.5          9.653         69.704        -27.978         68.495        229.175
         5723.0          9.679         75.726        -27.772         69.493        200.615
         5723.5          9.704         81.504        -27.566         70.492        171.743
         5724.0          9.730         83.206        -27.359         71.490        149.224
         5724.5          9.671         80.539        -27.153         70.570        129.903
         5725.0          9.600         75.534        -26.946         64.583        110.583
         5725.5          9.544         70.529        -26.999         58.748         96.361
         5726.0          9.538         60.247        -27.129         52.913         88.527
         5726.5          9.532         44.880        -27.260         50.408         92.975
         5727.0          9.526         31.176        -27.390         48.884        104.142
         5727.5          9.551         26.143        -27.521         48.945        115.309
         5728.0          9.576         25.455        -27.652         49.988        167.975
         5728.5          9.601         25.588        -27.782         51.786        249.703
         5729.0          9.626         27.299        -27.913         53.583        758.863
         5729.5          9.651         30.262        -28.043         54.654       1268.022
         5730.0          9.676         38.711        -28.174         55.323       1079.923
         5730.5          9.701         47.161        -28.304         55.880        790.257
         5731.0          9.714         48.239        -28.435         54.577        500.592
         5731.5          9.700         47.713        -28.256         53.274        429.889
         5732.0          9.685         45.393        -28.044         53.386        362.396
         5732.5          9.671         45.111        -27.832         56.121        294.903
         5733.0          9.657         47.931        -27.620         58.758        227.409
         5733.5          9.643         53.102        -27.408         60.530        159.916
         5734.0          9.628         53.222        -27.196         62.302        131.173
         5734.5          9.614         54.434        -26.984         64.074        119.798
         5735.0          9.600         57.775        -26.772         65.846        110.835
         5735.5          9.633         65.049        -26.560         67.413        107.742
         5736.0          9.681         71.452        -26.348         68.856        104.649
         5736.5          9.728         74.635        -26.136         70.298        101.556
         5737.0          9.776         77.817        -25.924         71.741         98.463
         5737.5          9.804         79.858        -25.712         72.040         95.370
         5738.0          9.792         78.975        -25.500         72.319         92.277
         5738.5          9.779         78.093        -25.489         71.973         92.125
         5739.0          9.767         77.400        -25.554         71.697         92.972
         5739.5          9.754         77.405        -25.618         71.539         93.818
         5740.0          9.771         76.806        -25.683         71.306         94.664
         5740.5          9.823         73.798        -25.748         70.047         90.867
         5741.0          9.828         67.220        -25.813         65.027         84.001
         5741.5          9.769         59.517        -25.878         58.723         83.250
         5742.0          9.709         43.922        -25.943         54.454        105.822
         5742.5          9.650         32.905        -26.008         52.559        128.393
         5743.0          9.620         30.597        -26.073         52.071        349.368
         5743.5          9.612         32.990        -25.961         56.916        513.478
         5744.0          9.603         40.984        -25.850         62.115        334.871
         5744.5          9.595         57.016        -25.738         65.743        195.911
         5745.0          9.587         65.048        -25.627         69.372        212.137
         5745.5          9.657         73.081        -25.515         71.786        228.363
         5746.0          9.761         77.383        -25.404         71.300        237.249
         5746.5          9.840         77.679        -25.292         69.905        230.342
         5747.0          9.852         76.218        -25.181         69.064        223.434
         5747.5          9.863         77.413        -25.069         70.068        169.202
         5748.0          9.875         78.608        -24.958         69.458        106.960
         5748.5          9.917         79.804        -24.934         69.791         76.149
         5749.0         10.003         80.999        -25.101         70.735         73.874
         5749.5         10.045         78.734        -25.268         71.018         71.600
         5750.0          9.917         78.117        -25.435         71.301         66.924
         5750.5         10.029         77.654        -25.750         71.238         62.300
         5751.0         10.322         75.960        -26.157         71.000         64.425
         5751.5         10.614         73.754        -26.565         70.762         66.551
         5752.0         10.469         73.896        -26.972         70.524         68.676
         5752.5         10.195         74.038        -27.379         70.286         70.802
         5753.0          9.949         74.180        -27.599         70.607         72.927
         5753.5          9.957         79.207        -27.492         71.164         75.053
         5754.0          9.965         79.211        -27.384         71.099         79.701
         5754.5          9.989         79.216        -27.277         70.761        100.282
         5755.0         10.058         80.245        -27.170         71.325         99.739
         5755.5          9.999         80.376        -27.062         71.070        100.770
         5756.0          9.818         78.997        -26.955         70.810        104.389
         5756.5          9.788         77.618        -26.848         70.550        104.317
         5757.0          9.764         77.327        -26.740         70.291         90.725
         5757.5          9.773         76.644        -26.633         70.031         83.206
         5758.0          9.781         75.323        -26.526         69.896         79.636
         5758.5          9.809         75.192        -26.450         70.457         76.067
         5759.0          9.853         75.714        -26.453         71.017         70.686
         5759.5          9.896         77.292        -26.455         71.368         64.218
         5760.0          9.940         79.501        -26.457         71.655         63.674
         5760.5          9.984         80.460        -26.460         71.917         66.678
         5761.0          9.890         80.693        -26.462         71.599         69.682
         5761.5          9.737         79.277        -26.464         72.044         73.460
         5762.0          9.631         77.475        -26.467         71.897         78.068
         5762.5          9.672         77.404        -26.469         71.417         82.677
         5763.0          9.714         77.610        -26.471         71.834         87.285
         5763.5          9.768         77.990        -26.474         72.189         91.893
