~VERSION INFORMATION
VERS. 2.0 : CWLS Log ASCII Standard - version 2.0
WRAP.  NO : One line per depth step
#--------------------------------------------------#
#----------------DRILLING INFO, INC.---------------#
#---------------WWW.DRILLINGINFO.COM---------------#
#------------------COPYRIGHT 2015------------------#
#--------------------------------------------------#
#THIS FILE MAY BE USED ONLY IN ACCORDANCE WITH A CURRENT SUBSCRIPTION AGREEMENT BETWEEN
#THE USER AND DRILLING INFO, INC. NO PART OF THIS FILE MAY BE REPRODUCED, USED, COPIED,
#MODIFIED, PROPAGATED, OR DISTRIBUTED EXCEPT IN ACCORDANCE WITH THE SUBSCRIPTION
#AGREEMENT. UNAUTHORIZED USE OR DISTRIBUTION OF ALL OR ANY PART OF THIS FILE MAY VIOLATE
#COPYRIGHT, TRADEMARK, AND/OR OTHER LAWS AND IS SUBJECT TO CIVIL AS WELL AS CRIMINAL
#SANCTIONS.
#--------------------------------------------------#
#THIS FILE IS PROVIDED "AS-IS" AND ALL WARRANTIES ARE EXPRESSLY DISCLAIMED, WHETHER
#EXPRESS, ORAL, IMPLIED, STATUTORY OR OTHERWISE, INCLUDING ANY IMPLIED WARRANTY OF FITNESS
#FOR A PARTICULAR PURPOSE, MERCHANTABILITY, TITLE OR NON-INFRINGEMENT, AND ANY WARRANTIES
#ARISING BY VIRTUE OF CUSTOM OF TRADE OR COURSE OF DEALING.  FURTHER, DRILLING INFO,
#INC. AND ITS LICENSORS DO NOT REPRESENT OR WARRANT THAT THIS FILE WILL MEET USER'S
#REQUIREMENTS OR ARE SUITABLE FOR USER'S NEEDS OR THAT THE DATA OR RESULTS PROVIDED IN
#CONJUNCTION THEREWITH ARE CORRECT, ACCURATE, TIMELY OR RELIABLE. THESE DISCLAIMERS SHALL
#APPLY REGARDLESS OF ANY FAILURE OF ESSENTIAL PURPOSE OF ANY LIMITED REMEDY.  SOME
#JURISDICTIONS DO NOT ALLOW THE EXCLUSION OF CERTAIN WARRANTIES SO SOME OF THE ABOVE
#EXCLUSIONS MAY NOT APPLY. IN NO EVENT SHALL DRILLING INFO, INC. OR ANY OF ITS AFFILIATES
#BE LIABLE UNDER ANY LEGAL THEORY, WHETHER IN TORT (INCLUDING WITHOUT LIMITATION
#NEGLIGENCE), CONTRACT, STRICT LIABILITY, STATUTORY OR OTHERWISE, FOR ANY SPECIAL,
#INCIDENTAL, CONSEQUENTIAL, EXEMPLARY, PUNITIVE OR INDIRECT DAMAGE OF ANY KIND, INCLUDING
#WITHOUT LIMITATION LOSS OF REVENUE, PROFITS, GOODWILL, USE, AND/OR DATA OR THE COST OF
#PROCUREMENT OF SUBSTITUTE GOODS OR SERVICES, EVEN IF APPRISED OF THE POSSIBILITY OF SUCH
#DAMAGES IN ADVANCE.
#--------------------------------------------------#
~WELL INFORMATION
#MNEMONIC     .UNIT              VALUE :DESCRIPTION
#--------------------------------------------------#
STRT       .FT                0 :START DEPTH
STOP       .FT                10142 :STOP DEPTH
STEP       .FT                   0.500 :STEP
NULL       .                  -999.250 :NULL
API        .                421093138200 :API NUMBER
COMP       .         SHELL OIL COMPANY :COMPANY
WELL       .        SIBLEY  1 :WELL
DATE       .                08-Aug-1978 :LOG DATE
~CURVE INFORMATION
#MNEMONIC     .UNIT      API CODE :CURVE DESCRIPTION
#--------------------------------------------------#
DEPTH       .FT                      :Measured Depth
CAL.INCH        UNKNOWN   :CAL
DT.US/FT        UNKNOWN   :DT
GR.API        UNKNOWN   :GR
~A    DEPTH    CAL    DT    GR
# ...
 9317     12.412   79.597   116.623
 9317.5     12.553   83.062   118.867
 9318     12.694   83.497   121.111
 9318.5     12.835   81.246   123.355
 9319     11.88   79.579   124.253
 9319.5     11.687   80.162   121.949
 9320     11.819   80.744   119.646
 9320.5     11.951   78.054   117.342
 9321     12.082   73.952   115.038
 9321.5     12.214   75.727   113.799
 9322     12.209   78.566   115.177
 9322.5     12.077   81.405   116.554
 9323     12.108   83.047   118.936
 9323.5     12.161   81.659   122.915
 9324     12.086   80.27   122.853
 9324.5     11.74   78.882   120.673
 9325     11.393   77.493   118.493
 9325.5     11.047   76.105   116.312
 9326     11.285   75.558   114.536
 9326.5     11.555   76.628   114.127
 9327     11.825   76.983   113.718
 9327.5     11.87   74.869   113.309
 9328     11.788   72.755   112.899
 9328.5     11.802   74.507   115.577
 9329     11.943   76.723   119.753
 9329.5     12.084   78.94   124.851
 9330     12.225   78.879   129.459
 9330.5     12.23   78.341   126.557
 9331     11.981   77.336   123.655
 9331.5     11.732   75.621   120.753
 9332     11.483   73.906   117.85
 9332.5     11.287   72.19   114.948
 9333     11.509   70.475   112.046
 9333.5     11.73   68.76   123.068
 9334     11.952   67.805   134.519
 9334.5     11.877   72.403   145.97
 9335     11.55   77.001   140.445
 9335.5     11.259   81.147   132.734
 9336     11.059   84.159   125.023
 9336.5     11.162   81.637   120.189
 9337     11.266   78.704   118.167
 9337.5     11.37   75.771   116.145
 9338     11.473   72.838   114.123
 9338.5     11.577   71.172   112.101
 9339     11.491   71.536   110.079
 9339.5     11.07   73.487   108.057
 9340     10.649   79.006   111.171
 9340.5     10.229   81.984   114.33
 9341     9.917   84.229   117.488
 9341.5     9.871   82.626   121.858
 9342     9.829   81.023   126.304
 9342.5     9.849   79.42   129.678
 9343     9.869   77.172   125.468
 9343.5     9.975   74.869   98.009
 9344     10.353   72.566   99.262
 9344.5     10.731   70.263   102.173
 9345     10.44   67.96   106.258
 9345.5     9.934   68.124   110.343
 9346     9.885   68.513   114.428
 9346.5     9.978   79.16   115.263
 9347     10.072   83.667   111.084
 9347.5     10.165   80.382   106.904
 9348     10.259   77.097   105.683
 9348.5     10.352   73.812   111.267
 9349     10.446   70.528   116.85
 9349.5     10.515   67.243   119.646
 9350     10.518   70.686   118.026
 9350.5     10.522   74.728   116.406
 9351     10.362   72.646   114.786
 9351.5     10.011   73.317   112.508
 9352     9.659   77.029   107.651
 9352.5     9.343   79.814   102.795
 9353     9.335   77.554   100.315
 9353.5     9.326   75.282   100.853
 9354     9.318   73.002   101.391
 9354.5     9.309   70.722   101.929
 9355     9.301   68.442   106.276
 9355.5     9.292   67.136   110.758
 9356     9.284   66.109   115.239
 9356.5     9.275   65.083   118.42
 9357     9.429   65.61   106.859
 9357.5     9.464   67.222   100.285
 9358     9.448   68.835   93.86
 9358.5     9.432   67.161   95.278
 9359     9.427   65.472   99.432
 9359.5     9.486   63.783   106.143
 9360     9.545   62.518   113.575
 9360.5     9.709   65.476   111.764
 9361     10.12   68.434   108.338
 9361.5     10.53   68.571   104.911
 9362     10.941   68.116   107.681
 9362.5     11.44   67.66   110.479
 9363     11.715   67.34   113.277
 9363.5     11.713   67.632   116.075
 9364     11.711   68.274   118.873
 9364.5     11.708   71.858   121.671
 9365     11.706   89.945   124.469
 9365.5     11.703   90.592   126.37
 9366     10.722   88.73   125.615
 9366.5     9.597   86.555   124.859
 9367     9.613   84.379   124.104
 9367.5     9.63   82.204   123.348
 9368     9.646   78.983   122.593
 9368.5     9.778   75.261   113.266
 9369     9.937   71.54   108.67
 9369.5     10.095   67.818   118.263
 9370     10.254   64.096   127.856
 9370.5     10.412   64.453   137.449
 9371     10.486   66.803   147.042
 9371.5     10.351   74.586   156.635
 9372     10.154   83.262   166.228
 9372.5     9.957   87.904   175.821
 9373     9.761   84.095   175.052
 9373.5     9.613   80.286   153.779
 9374     9.534   76.478   143.72
 9374.5     9.456   74.074   142.427
 9375     9.428   72.215   141.133
 9375.5     9.428   70.386   135.999
 9376     9.43   71.253   127.735
 9376.5     9.447   72.119   119.497
 9377     9.488   72.985   111.285
 9377.5     9.672   73.851   96.751
 9378     9.663   73.645   93.357
 9378.5     9.559   71.474   92.694
 9379     9.455   69.304   94.59
 9379.5     9.351   67.133   96.486
 9380     9.578   64.963   98.382
 9380.5     9.868   67.24   100.278
 9381     10.159   70.937   101.282
 9381.5     10.45   74.634   102.067
 9382     10.74   72.986   102.852
 9382.5     10.65   70.973   105.715
 9383     10.357   68.961   108.716
 9383.5     10.065   66.948   111.717
 9384     9.773   70.203   114.717
 9384.5     9.552   75.649   117.718
 9385     9.583   81.095   116.576
 9385.5     9.614   81.485   114.666
 9386     9.855   79.287   111.26
 9386.5     10.2   77.089   106.209
 9387     10.546   74.892   101.281
 9387.5     10.808   72.694   103.815
 9388     10.827   70.496   106.35
 9388.5     10.847   68.501   108.884
 9389     11.144   67.467   111.418
 9389.5     11.443   66.433   113.952
 9390     11.742   68.009   116.486
 9390.5     11.926   73.532   119.171
 9391     11.861   77.487   121.859
 9391.5     11.851   78.576   124.546
 9392     11.929   79.666   124.379
 9392.5     12.008   80.755   122.378
 9393     12.086   81.436   123.008
 9393.5     12.091   81.12   123.638
 9394     11.911   80.804   124.268
 9394.5     11.168   80.488   124.898
 9395     10.426   81.426   125.919
 9395.5     9.684   82.621   127.409
 9396     9.526   82.433   127.407
 9396.5     9.422   81.585   127.404
 9397     9.386   80.737   127.401
 9397.5     9.353   82.211   127.398
 9398     9.347   83.399   127.396
 9398.5     9.34   80.517   95.608
 9399     9.334   77.821   89.929
 9399.5     9.327   75.126   85.15
 9400     9.321   72.431   88.311
 9400.5     9.317   69.735   91.471
 9401     9.317   67.04   94.632
 9401.5     9.328   65.86   95.263
 9402     9.373   66.754   95.422
 9402.5     9.418   66.049   95.58
 9403     9.462   65.345   95.738
 9403.5     9.507   64.641   98.447
 9404     9.523   64.352   101.638
 9404.5     9.539   67.465   102.964
 9405     9.555   68.032   104.289
 9405.5     9.57   67.587   105.615
 9406     9.586   67.142   106.941
 9406.5     9.627   74.978   105.372
 9407     9.721   72.644   103.273
 9407.5     9.815   70.309   101.173
 9408     9.909   77.261   95.908
 9408.5     10.003   78.363   96.173
 9409     10.097   76.705   96.438
 9409.5     10.191   75.046   102.097
 9410     10.292   73.388   104.78
 9410.5     10.454   74.157   107.463
 9411     10.615   77.774   112.597
 9411.5     10.716   79.075   118.395
 9412     10.506   78.48   124.192
 9412.5     10.297   77.885   129.99
 9413     10.191   78.236   135.787
 9413.5     10.186   80.475   137.598
 9414     10.181   82.436   136.15
 9414.5     10.331   81.211   134.702
 9415     10.485   79.986   113.303
 9415.5     10.639   78.761   110.607
 9416     10.693   77.536   107.912
 9416.5     10.623   76.311   105.217
 9417     10.553   77.275   104.896
 9417.5     10.483   78.288   107.5
 9418     10.883   76.757   110.105
 9418.5     10.936   74.726   112.709
 9419     10.933   74.503   115.314
 9419.5     10.93   75.4   117.456
 9420     10.927   75.278   119.428
 9420.5     11.074   75.341   121.4
 9421     11.459   76.114   123.885
 9421.5     11.845   76.367   127.067
 9422     12.23   76.481   129.997
 9422.5     12.5   77.482   120.142
 9423     12.691   77.12   118.001
 9423.5     12.792   75.749   120.709
 9424     12.806   76.476   118.105
 9424.5     12.82   78.459   118.661
 9425     12.834   80.443   120.462
 9425.5     12.723   80.587   122.263
 9426     12.508   78.859   124.064
 9426.5     12.294   77.972   125.865
 9427     12.079   80.667   127.666
