~VERSION INFORMATION
VERS. 2.0 : CWLS Log ASCII Standard - Version 2.0
WRAP. NO : One line per depth step
#--------------------------------------------------#
#----------------DRILLING INFO, INC.---------------#
#---------------WWW.DRILLINGINFO.COM---------------#
#------------------COPYRIGHT 2015------------------#
#--------------------------------------------------#
#THIS FILE MAY BE USED ONLY IN ACCORDANCE WITH A CURRENT SUBSCRIPTION AGREEMENT BETWEEN
#THE USER AND DRILLING INFO, INC. NO PART OF THIS FILE MAY BE REPRODUCED, USED, COPIED,
#MODIFIED, PROPAGATED, OR DISTRIBUTED EXCEPT IN ACCORDANCE WITH THE SUBSCRIPTION
#AGREEMENT. UNAUTHORIZED USE OR DISTRIBUTION OF ALL OR ANY PART OF THIS FILE MAY VIOLATE
#COPYRIGHT, TRADEMARK, AND/OR OTHER LAWS AND IS SUBJECT TO CIVIL AS WELL AS CRIMINAL
#SANCTIONS.
#--------------------------------------------------#
#THIS FILE IS PROVIDED "AS-IS" AND ALL WARRANTIES ARE EXPRESSLY DISCLAIMED, WHETHER
#EXPRESS, ORAL, IMPLIED, STATUTORY OR OTHERWISE, INCLUDING ANY IMPLIED WARRANTY OF FITNESS
#FOR A PARTICULAR PURPOSE, MERCHANTABILITY, TITLE OR NON-INFRINGEMENT, AND ANY WARRANTIES
#ARISING BY VIRTUE OF CUSTOM OF TRADE OR COURSE OF DEALING.  FURTHER, DRILLING INFO,
#INC. AND ITS LICENSORS DO NOT REPRESENT OR WARRANT THAT THIS FILE WILL MEET USER'S
#REQUIREMENTS OR ARE SUITABLE FOR USER'S NEEDS OR THAT THE DATA OR RESULTS PROVIDED IN
#CONJUNCTION THEREWITH ARE CORRECT, ACCURATE, TIMELY OR RELIABLE. THESE DISCLAIMERS SHALL
#APPLY REGARDLESS OF ANY FAILURE OF ESSENTIAL PURPOSE OF ANY LIMITED REMEDY.  SOME
#JURISDICTIONS DO NOT ALLOW THE EXCLUSION OF CERTAIN WARRANTIES SO SOME OF THE ABOVE
#EXCLUSIONS MAY NOT APPLY. IN NO EVENT SHALL DRILLING INFO, INC. OR ANY OF ITS AFFILIATES
#BE LIABLE UNDER ANY LEGAL THEORY, WHETHER IN TORT (INCLUDING WITHOUT LIMITATION
#NEGLIGENCE), CONTRACT, STRICT LIABILITY, STATUTORY OR OTHERWISE, FOR ANY SPECIAL,
#INCIDENTAL, CONSEQUENTIAL, EXEMPLARY, PUNITIVE OR INDIRECT DAMAGE OF ANY KIND, INCLUDING
#WITHOUT LIMITATION LOSS OF REVENUE, PROFITS, GOODWILL, USE, AND/OR DATA OR THE COST OF
#PROCUREMENT OF SUBSTITUTE GOODS OR SERVICES, EVEN IF APPRISED OF THE POSSIBILITY OF SUCH
#DAMAGES IN ADVANCE.
#--------------------------------------------------#
~WELL INFORMATION
#MNEMONIC     .UNIT              VALUE :DESCRIPTION
#--------------------------------------------------#
STRT       .ft                25.00000 :START DEPTH
STOP       .ft                17086.00000 :STOP DEPTH
STEP       .ft                0.50000 :STEP
NULL       .                -999.25000 :NULL VALUE
COMP       .                 :COMPANY
WELL       .                 :WELL
FLD       .                 :FIELD
LOC       .                 :LOCATION
CNTY       .                 :COUNTY
STAT       .                 :STATE
CTRY       .                 :COUNTRY
SRVC       .                 :SERVICE COMPANY
DATE       .                 :DATE
API       .                42109309270000 :API NUMBER
~CURVE INFORMATION
#MNEMONIC     .UNIT      API CODE :CURVE DESCRIPTION
#--------------------------------------------------#
DEPTH       .ft                      :Measured Depth
CAL       .in        UNKNOWN   :CAL
DT       .us/ft        UNKNOWN   :DT
GR       .gAPI        UNKNOWN   :GR
~A    DEPTH    CAL    DT    GR
# ...
3589.50000    15.59318    67.92001    59.23287
3590.00000    15.59299    67.64387    57.06598
3590.50000    15.59280    67.36773    54.89908
3591.00000    15.59261    67.09160    52.73219
3591.50000    15.59242    66.81546    50.56529
3592.00000    15.59222    66.53932    51.42101
3592.50000    15.59203    66.26318    53.57201
3593.00000    15.59184    66.18504    55.42535
3593.50000    15.59165    66.36162    55.19628
3594.00000    15.59146    66.53820    54.96721
3594.50000    15.59127    66.71478    54.73814
3595.00000    15.59108    66.89136    56.60784
3595.50000    15.59089    67.06793    59.14915
3596.00000    15.59070    67.24295    61.41934
3596.50000    15.59051    67.41724    62.53089
3597.00000    15.59032    67.59152    63.64243
3597.50000    15.59013    67.76581    64.75398
3598.00000    15.58994    67.94010    65.86553
3598.50000    15.58975    68.11438    65.33595
3599.00000    15.58955    68.28867    61.99961
3599.50000    15.58936    68.62602    59.61984
3600.00000    15.58917    69.14200    57.43214
3600.50000    15.58898    69.65797    55.24444
3601.00000    15.58879    70.17395    53.85912
3601.50000    15.58860    70.65010    53.60017
3602.00000    15.58841    70.43142    53.58341
3602.50000    15.58822    70.21275    53.24593
3603.00000    15.58803    69.99408    52.42810
3603.50000    15.58784    69.77541    51.61027
3604.00000    15.58765    69.55674    50.34416
3604.50000    15.58746    69.33806    48.95510
3605.00000    15.58726    69.11939    47.56605
3605.50000    15.58707    68.66846    45.71349
3606.00000    15.58688    68.05185    43.13271
3606.50000    15.58669    67.43523    40.55192
3607.00000    15.58650    66.81862    37.97113
3607.50000    15.58631    66.20201    38.73477
3608.00000    15.58612    65.58539    39.65185
3608.50000    15.58593    65.40602    41.91066
3609.00000    15.58574    66.72724    46.58340
3609.50000    15.58555    67.97246    51.25614
3610.00000    15.58536    68.71594    55.92888
3610.50000    15.58516    69.45942    63.03789
3611.00000    15.58497    69.79974    61.82492
3611.50000    15.58478    69.89936    60.61195
3612.00000    15.58459    69.99898    59.34075
3612.50000    15.58440    70.09860    55.03556
3613.00000    15.58421    70.19822    51.21299
3613.50000    15.58402    70.29785    51.92625
3614.00000    15.58383    70.39747    52.63952
3614.50000    15.58364    70.07033    53.35279
3615.00000    15.58345    69.24981    54.06605
3615.50000    15.58326    68.42929    49.45607
3616.00000    15.58307    67.60877    42.09074
3616.50000    15.58288    66.78825    41.80928
3617.00000    15.58268    66.25241    41.52781
3617.50000    15.58249    65.95688    41.24634
3618.00000    15.57998    65.66135    40.96487
3618.50000    15.57588    65.36582    38.07793
3619.00000    15.57178    65.07030    38.49628
3619.50000    15.56768    64.23700    39.89575
3620.00000    15.56358    62.69803    41.29522
3620.50000    15.55948    61.15906    42.69469
3621.00000    15.55537    59.62009    44.09416
3621.50000    15.55127    60.75162    40.75054
3622.00000    15.54717    63.68671    37.68816
3622.50000    15.54307    66.62180    42.41684
3623.00000    15.53897    68.11213    47.14553
3623.50000    15.53487    68.57233    51.87421
3624.00000    15.53077    69.11105    56.60289
3624.50000    15.52667    69.69643    61.33158
3625.00000    15.52257    70.28182    66.06026
3625.50000    15.51847    70.04116    69.73143
3626.00000    15.51437    69.35968    72.48781
3626.50000    15.51027    68.67822    75.24420
3627.00000    15.50616    67.99675    114.58894
3627.50000    15.51904    67.78219    138.01194
3628.00000    15.53356    70.43193    149.83243
3628.50000    15.54809    73.08167    147.85437
3629.00000    15.56261    74.99985    120.48768
3629.50000    15.57714    73.77337    112.44762
3630.00000    15.59166    72.54689    103.01373
3630.50000    15.57393    71.32041    91.97845
3631.00000    15.55323    70.09392    87.36006
3631.50000    15.53254    68.86745    90.70052
3632.00000    15.51185    68.45937    94.04098
3632.50000    15.49115    68.79906    97.38144
3633.00000    15.49047    69.68593    97.40354
3633.50000    15.50504    70.57280    92.91505
3634.00000    15.51962    71.39034    83.64345
3634.50000    15.53420    70.34268    69.44296
3635.00000    15.54877    69.29502    61.15207
3635.50000    15.56335    68.24735    53.98439
3636.00000    15.56891    67.19969    47.28728
3636.50000    15.56773    66.15203    45.34439
3637.00000    15.56655    65.10436    43.40150
3637.50000    15.56537    65.67208    41.51808
3638.00000    15.56419    66.45559    40.67056
3638.50000    15.56302    67.23910    39.82305
3639.00000    15.56184    67.59614    39.06598
3639.50000    15.56066    67.17236    40.07536
3640.00000    15.55948    66.74859    41.08475
3640.50000    15.55830    66.32482    42.09413
3641.00000    15.55712    66.08201    42.91748
3641.50000    15.55594    66.47302    43.66481
3642.00000    15.55476    66.86404    43.00433
3642.50000    15.55358    67.25505    42.09250
3643.00000    15.55240    67.64606    41.18068
3643.50000    15.55122    68.03707    40.26885
3644.00000    15.55004    67.90215    41.68311
3644.50000    15.54886    67.67505    47.72055
3645.00000    15.54768    67.44795    57.68879
3645.50000    15.54651    67.22084    71.06335
3646.00000    15.54533    66.99374    80.07853
3646.50000    15.54415    66.76664    88.16620
3647.00000    15.54297    66.53953    91.66551
3647.50000    15.54179    69.41683    86.07031
3648.00000    15.54061    71.83201    74.92111
3648.50000    15.53943    74.24719    56.26978
3649.00000    15.53825    75.70671    44.94815
3649.50000    15.53707    74.79727    34.66821
3650.00000    15.53589    73.88783    35.49006
3650.50000    15.53471    72.97839    36.31190
3651.00000    15.53353    72.06895    37.13375
3651.50000    15.53236    71.15951    37.95559
3652.00000    15.53118    70.25008    38.80603
3652.50000    15.53000    69.72639    39.74109
3653.00000    15.52882    70.77365    40.67616
3653.50000    15.52742    70.67630    41.64912
3654.00000    15.52524    69.95610    42.71860
3654.50000    15.52305    69.23591    43.78808
3655.00000    15.52087    68.51572    44.85755
3655.50000    15.51868    67.79553    48.38577
3656.00000    15.51650    68.99548    53.41750
3656.50000    15.51432    69.90987    68.75996
3657.00000    15.51213    70.07555    84.10243
3657.50000    15.50995    70.24122    99.44490
3658.00000    15.50777    70.40690    96.94396
3658.50000    15.50558    73.77579    87.55604
3659.00000    15.50340    70.84199    78.16814
3659.50000    15.50122    67.90820    70.64656
3660.00000    15.49903    64.97440    75.43177
3660.50000    15.49685    64.45968    83.67831
3661.00000    15.49466    64.14642    99.38688
3661.50000    15.49248    67.00609    115.09546
3662.00000    15.49030    71.59990    123.24345
3662.50000    15.48811    71.52567    130.93671
3663.00000    15.48593    71.45144    137.85386
3663.50000    15.48374    71.37720    137.50494
3664.00000    15.48156    71.90962    132.77385
3664.50000    15.47938    72.62605    127.93188
3665.00000    15.47719    73.34248    61.93269
3665.50000    15.47501    72.02545    52.78275
3666.00000    15.47283    70.02247    49.92529
3666.50000    15.47064    68.01948    49.77232
3667.00000    15.46846    67.24346    49.61935
3667.50000    15.46627    62.48726    49.46637
3668.00000    15.46409    61.48213    48.37501
3668.50000    15.46191    60.47699    46.51876
3669.00000    15.45972    60.18717    44.66251
3669.50000    15.45754    60.14780    43.38477
3670.00000    15.46268    60.10842    42.16808
3670.50000    15.47440    60.06905    40.95138
3671.00000    15.48612    60.01414    39.73468
3671.50000    15.49784    59.17956    39.46586
3672.00000    15.50956    58.34498    40.71444
3672.50000    15.52128    57.82505    41.96302
3673.00000    15.53300    57.89077    43.21160
3673.50000    15.54472    57.95650    44.46017
3674.00000    15.55644    58.02222    44.15653
