###############################################
##         ENVERUS                           ##
##         ESS - Open Hole                   ##
##         PERMIAN / DELAWARE                ##
##         Nov 03 2023  V4.0                 ##
##         42-109-32620-90-00                ##
###############################################
## Copyright 2017-2023  ENVERUS.  All Rights Reserved. 
## Confidential - Property of ENVERUS, use governed by terms and 
## conditions found within the existing Information Services Subscription Agreement 
## (as may be amended, the “ISSA”) between Customer and ENVERUS. 
## 
~VERSION INFORMATION
# MNEM.UNIT                               DATA : DESCRIPTION OF MNEMONIC
#-----.-----     ----------------------------- : -----------------------------
VERS.                                     2.00 : CWLS LOG ASCII STANDARD - VERSION 2.00
WRAP.                                       NO : MULTIPLE LINES PER DEPTH STEP
VEND.                                  ENVERUS : VENDOR
TYPE.                          ESS - OPEN HOLE : ENVERUS ESSENTIAL CURVES – ACCESSIBLE THROUGH ENVERUS PRISM(TM)
DOC.                                  51092952 : ENVERUS HEADER RAW DOCUMENT ID
#___________________________________________________________________________________________________ 
~WELL INFORMATION 
# LYPeWtxrle9FodilXqet+3VuPRh8A73lGXm1Q3+VPjdIM+tEhu367IfA47DlYFnVF+yDwY76OrXOyADpoj01xA== 
# MNEM.UNIT                                              DATA : DESCRIPTION OF MNEMONIC 
#-----.-----                    ----------------------------- : ----------------------------- 
CNTY.                                               CULBERSON : COUNTY 
STATE.                                                  TEXAS : STATE 
CNTRY.                                                    USA : COUNTRY 
API.                                             42-109-32620 : API (10 Digit) 
API_14.                                    42-109-32620-90-00 : API (14 Digits) 
API_14_std.                                 42-109-32620-9000 : API (14 Digits Standard) 
UWI.                                           42109326209000 : UNIQUE WELL ID 
WELL.                               42109326200000_PREV_API14 : WELL NAME
STRT.FT                                                2339.0 : START DEPTH
STOP.FT                                               10866.0 : STOP DEPTH
STEP.FT                                                   0.5 : STEP BETWEEN DEPTHS
NULL.                                                 -999.25 : NULL VALUE
PREV_APII.                                     42109326200000 : WELL IDENTIFIER
#___________________________________________________________________________________________________ 
~PARAMETER INFORMATION 
# MNEM.UNIT                                              DATA : DESCRIPTION OF MNEMONIC 
#-----.-----                    ----------------------------- : ----------------------------- 
EKB.FT                                                   3330 : ELEVATION ABOVE MSL
#___________________________________________________________________________________________________ 
~CURVE INFORMATION 
# MNEM.UNIT           : CURVE DESCRIPTION 
#-----.-----          : ----------------------------- 
 DEPT.FT               : MEASURED DEPTH 
 GR__A.API             : GAMMA RAY (GAMMA RAY) 
 DT__A.US/FT           : SONIC DELTA TRANSIT TIME (SONIC) 
 #___________________________________________________________________________________________________ 
~A         DEPT          GR__A          DT__A
# ...
         3470.0        118.637         36.583
         3470.5        121.357         36.911
         3471.0        116.567         37.312
         3471.5        118.164         37.729
         3472.0        117.020         39.565
         3472.5        109.780         44.622
         3473.0        116.548         48.193
         3473.5        131.557         48.275
         3474.0        131.897         42.760
         3474.5        120.433         25.454
         3475.0        103.753         18.616
         3475.5        100.826         11.804
         3476.0        104.023          7.853
         3476.5        103.140         26.727
         3477.0        103.806         37.958
         3477.5        112.762         42.299
         3478.0        117.286         41.324
         3478.5        117.024         29.720
         3479.0        115.804         29.639
         3479.5        109.260         33.685
         3480.0        100.966         37.918
         3480.5        102.168         37.450
         3481.0        114.614         34.049
         3481.5        130.642         32.565
         3482.0        134.996         30.643
         3482.5        122.854         31.354
         3483.0        118.405         32.297
         3483.5        122.602         32.615
         3484.0        122.368         31.802
         3484.5        111.853         31.800
         3485.0        109.329         32.271
         3485.5        116.110         38.238
         3486.0        124.056         46.955
         3486.5        154.975         69.422
         3487.0        187.075         79.802
         3487.5        191.603         84.253
         3488.0        186.462         82.354
         3488.5        193.131         84.340
         3489.0        206.221         85.867
         3489.5        209.549         87.077
         3490.0        207.224         87.891
         3490.5        201.673         88.064
         3491.0        205.383         87.864
         3491.5        217.889         87.602
         3492.0        225.253         85.736
         3492.5        206.782         79.848
         3493.0        166.935         68.139
         3493.5        145.935         62.568
         3494.0        137.577         63.464
         3494.5        135.475         66.745
         3495.0        134.255         66.994
         3495.5        136.325         61.463
         3496.0        143.634         51.713
         3496.5        152.325         52.343
         3497.0        158.875         59.222
         3497.5        165.819         67.782
         3498.0        170.878         74.441
         3498.5        176.096         77.031
         3499.0        184.930         77.232
         3499.5        193.129         76.993
         3500.0        194.810         75.778
         3500.5        190.353         74.964
         3501.0        180.349         74.223
         3501.5        167.134         74.105
         3502.0        170.130         75.969
         3502.5        198.440         80.547
         3503.0        210.031         80.525
         3503.5        199.781         76.967
         3504.0        185.997         70.604
         3504.5        165.228         64.678
         3505.0        148.810         67.605
         3505.5        135.920         68.806
         3506.0        129.044         67.528
         3506.5        126.934         62.326
         3507.0        129.352         55.253
         3507.5        132.914         57.605
         3508.0        141.536         60.609
         3508.5        149.301         64.648
         3509.0        150.846         67.928
         3509.5        159.593         69.269
         3510.0        163.888         70.684
         3510.5        161.228         73.085
         3511.0        160.667         73.727
         3511.5        170.249         71.694
         3512.0        178.923         67.913
         3512.5        184.294         63.672
         3513.0        172.330         63.329
         3513.5        166.168         64.719
         3514.0        167.187         66.761
         3514.5        174.116         68.778
         3515.0        173.104         70.394
         3515.5        170.066         72.105
         3516.0        177.127         73.832
         3516.5        193.382         74.825
         3517.0        181.622         74.022
         3517.5        173.575         72.780
         3518.0        175.998         73.696
         3518.5        180.077         78.231
         3519.0        198.959         82.299
         3519.5        210.130         74.910
         3520.0        203.539         65.417
         3520.5        168.781         30.841
         3521.0        143.830         25.304
         3521.5        134.964         48.146
         3522.0        126.891         61.295
         3522.5        111.078         73.170
         3523.0        111.383         73.412
         3523.5        124.341         61.576
         3524.0        133.384         60.782
         3524.5        154.004         64.076
         3525.0        169.745         64.995
         3525.5        182.119         64.611
         3526.0        181.553         65.767
         3526.5        180.517         69.523
         3527.0        182.835         71.766
         3527.5        190.554         75.834
         3528.0        197.945         79.865
         3528.5        196.806         85.064
         3529.0        206.595         86.755
         3529.5        219.124         87.262
         3530.0        210.328         87.145
         3530.5        202.651         85.802
         3531.0        203.171         82.360
         3531.5        180.283         76.729
         3532.0        165.497         73.938
         3532.5        167.816         70.968
         3533.0        175.783         70.027
         3533.5        177.726         70.899
         3534.0        174.211         73.756
         3534.5        167.797         76.229
         3535.0        167.290         73.795
         3535.5        177.472         68.675
         3536.0        184.331         65.346
         3536.5        177.217         67.726
         3537.0        166.197         70.922
         3537.5        157.685         72.702
         3538.0        163.306         72.523
         3538.5        189.950         71.509
         3539.0        190.268         71.130
         3539.5        188.966         72.695
         3540.0        219.148         75.845
         3540.5        246.611         83.978
         3541.0        239.882         84.210
         3541.5        200.837         76.225
         3542.0        187.150         71.555
         3542.5        169.128         63.202
         3543.0        152.339         65.852
         3543.5        135.614         81.737
         3544.0        124.076         89.465
         3544.5        108.903         90.520
         3545.0        115.571         64.672
         3545.5        130.264         49.054
         3546.0        142.025         47.524
         3546.5        161.973         58.731
         3547.0        175.314         63.202
         3547.5        181.531         45.796
         3548.0        174.100         37.938
         3548.5        143.230         20.033
         3549.0        125.754         13.552
         3549.5        130.598         31.126
         3550.0        137.939         36.757
         3550.5        124.450         38.890
         3551.0        115.266         37.284
         3551.5        114.547         29.136
         3552.0        119.629         27.890
         3552.5        116.394         28.067
         3553.0        111.833         27.053
         3553.5        112.176         22.932
         3554.0        108.524         17.952
         3554.5         96.883         16.387
         3555.0        107.952         15.446
         3555.5        115.369         16.375
         3556.0        112.100         19.024
         3556.5        118.103         37.209
