###############################################
##         ENVERUS                           ##
##         ESS - Open Hole                   ##
##         PERMIAN / DELAWARE                ##
##         Nov 02 2023  V4.0                 ##
##         42-109-31448-00-00                ##
###############################################
## Copyright 2017-2023  ENVERUS.  All Rights Reserved. 
## Confidential - Property of ENVERUS, use governed by terms and 
## conditions found within the existing Information Services Subscription Agreement 
## (as may be amended, the “ISSA”) between Customer and ENVERUS. 
## 
~VERSION INFORMATION
# MNEM.UNIT                               DATA : DESCRIPTION OF MNEMONIC
#-----.-----     ----------------------------- : -----------------------------
VERS.                                     2.00 : CWLS LOG ASCII STANDARD - VERSION 2.00
WRAP.                                       NO : MULTIPLE LINES PER DEPTH STEP
VEND.                                  ENVERUS : VENDOR
TYPE.                          ESS - OPEN HOLE : ENVERUS ESSENTIAL CURVES – ACCESSIBLE THROUGH ENVERUS PRISM(TM)
DOC.                                  31981796 : ENVERUS HEADER RAW DOCUMENT ID
#___________________________________________________________________________________________________ 
~WELL INFORMATION 
# ZFHslD71edIju97HcKZ52TF5U8X6gSJhIkoGhJkY8ckYnZzQD/y6zifgDis2Hn4asra90GxYkgpqCQaJUi2DCw== 
# MNEM.UNIT                                              DATA : DESCRIPTION OF MNEMONIC 
#-----.-----                    ----------------------------- : ----------------------------- 
CNTY.                                               CULBERSON : COUNTY 
STATE.                                                  TEXAS : STATE 
CNTRY.                                                    USA : COUNTRY 
API.                                             42-109-31448 : API (10 Digit) 
API_14.                                    42-109-31448-00-00 : API (14 Digits) 
API_14_std.                                 42-109-31448-0000 : API (14 Digits Standard) 
UWI.                                           42109314480000 : UNIQUE WELL ID 
WELL.                                               TRIKEN  1 : WELL NAME
STRT.FT                                                   4.0 : START DEPTH
STOP.FT                                               13097.0 : STOP DEPTH
STEP.FT                                                   0.5 : STEP BETWEEN DEPTHS
NULL.                                                 -999.25 : NULL VALUE
COMP.                                             MARALO  LLC : COMPANY 
DATE.                                             04-NOV-1984 : LOG DATE
#___________________________________________________________________________________________________ 
~CURVE INFORMATION 
# MNEM.UNIT           : CURVE DESCRIPTION 
#-----.-----          : ----------------------------- 
 DEPT.FT               : MEASURED DEPTH 
 CALI.IN               : CALIPER (CAL - CAL) 
 GR.API                : GAMMA RAY (GR) 
 DT.US/FT              : SONIC DELTA TRANSIT TIME (DT) 
 #___________________________________________________________________________________________________ 
~A         DEPT           CALI             GR             DT
# ...
         9706.0         10.567         96.648         76.306
         9706.5         10.557         94.492         75.807
         9707.0         10.547         86.514         75.308
         9707.5         10.537         78.537         74.809
         9708.0         10.527         70.559         70.566
         9708.5         10.517         62.582         67.377
         9709.0         10.507         60.229         64.188
         9709.5         10.495         58.311         60.999
         9710.0         10.478         56.393         57.810
         9710.5         10.461         56.898         56.954
         9711.0         10.444         57.698         58.171
         9711.5         10.427         58.498         59.389
         9712.0         10.410         59.299         61.060
         9712.5         10.393         60.099         62.764
         9713.0         10.375         64.464         64.468
         9713.5         10.358         71.938         66.173
         9714.0         10.341         79.412         67.877
         9714.5         10.324         86.886         69.582
         9715.0         10.307         96.362         67.070
         9715.5         10.290        104.967         63.242
         9716.0         10.273         82.341         59.414
         9716.5         10.256         59.715         55.586
         9717.0         10.239         37.088         51.758
         9717.5         10.222         23.741         51.920
         9718.0         10.205         20.133         54.887
         9718.5         10.188         28.392         57.854
         9719.0         10.171         36.891         60.821
         9719.5         10.154         45.390         63.788
         9720.0         10.137         53.888         63.553
         9720.5         10.120         60.250         63.243
         9721.0         10.103         60.760         62.932
         9721.5         10.086         61.270         62.622
         9722.0         10.069         55.218         62.214
         9722.5         10.052         48.981         59.208
         9723.0         10.035         42.744         56.202
         9723.5         10.036         36.507         53.264
         9724.0         10.045         30.270         55.512
         9724.5         10.055         24.033         57.760
         9725.0         10.064         32.041         60.009
         9725.5         10.073         40.186         62.257
         9726.0         10.083         48.332         64.505
         9726.5         10.092         56.477         65.013
         9727.0         10.101         64.623         64.407
         9727.5         10.111         64.688         63.801
         9728.0         10.120         56.683         63.195
         9728.5         10.129         53.271         62.589
         9729.0         10.139         62.478         63.856
         9729.5         10.148         71.685         65.854
         9730.0         10.157         80.891         68.989
         9730.5         10.167         86.406         72.029
         9731.0         10.176         84.726         72.272
         9731.5         10.185         83.047         72.515
         9732.0         10.195         81.368         72.758
         9732.5         10.204         79.688         73.000
         9733.0         10.208         78.161         73.243
         9733.5         10.208         83.480         73.486
         9734.0         10.208         88.799         73.729
         9734.5         10.208         94.119         73.972
         9735.0         10.208         97.857         74.215
         9735.5         10.208         92.425         73.127
         9736.0         10.209         86.993         71.762
         9736.5         10.209         81.561         70.396
         9737.0         10.209         76.128         69.030
         9737.5         10.209         70.696         67.664
         9738.0         10.210         65.264         66.298
         9738.5         10.214         59.832         69.134
         9739.0         10.217         66.447         73.919
         9739.5         10.221         79.969         73.227
         9740.0         10.225         90.314         72.535
         9740.5         10.229         91.079         71.844
         9741.0         10.233         91.843         71.152
         9741.5         10.236         91.717         70.460
         9742.0         10.240         87.772         69.769
         9742.5         10.244         83.827         69.077
         9743.0         10.248         82.268         68.386
         9743.5         10.251         80.905         67.694
         9744.0         10.255         73.997         67.002
         9744.5         10.259         64.020         66.311
         9745.0         10.263         64.513         68.944
         9745.5         10.267         79.281         71.708
         9746.0         10.270         93.506         73.897
         9746.5         10.274         88.340         73.672
         9747.0         10.278         87.355         73.446
         9747.5         10.282         90.187         73.221
         9748.0         10.286         93.018         72.996
         9748.5         10.289         95.850         72.771
         9749.0         10.293         93.863         72.546
         9749.5         10.297         89.567         72.320
         9750.0         10.301         85.272         72.095
         9750.5         10.304         80.976         71.985
         9751.0         10.308         77.868         72.817
         9751.5         10.312         81.328         73.649
         9752.0         10.316         84.787         74.481
         9752.5         10.320         88.247         74.718
         9753.0         10.323         91.707         74.668
         9753.5         10.327         95.167         74.619
         9754.0         10.331         93.415         74.569
         9754.5         10.335         89.987         74.519
         9755.0         10.339         89.773         74.470
         9755.5         10.339         92.904         74.420
         9756.0         10.340         96.035         74.371
         9756.5         10.340         99.166         74.014
         9757.0         10.340         97.091         73.127
         9757.5         10.340         92.070         72.240
         9758.0         10.340         87.050         71.353
         9758.5         10.340         82.029         70.466
         9759.0         10.340         77.008         69.578
         9759.5         10.341         78.714         68.691
         9760.0         10.341         91.627         68.561
         9760.5         10.341        104.541         73.960
         9761.0         10.341         98.912         72.675
         9761.5         10.341         93.214         71.389
         9762.0         10.341         87.515         70.103
         9762.5         10.341         81.817         68.818
         9763.0         10.342         76.119         69.003
         9763.5         10.342         70.421         72.826
         9764.0         10.363         82.710         76.649
         9764.5         10.398         95.106         78.682
         9765.0         10.433        107.503         77.766
         9765.5         10.468        104.668         76.850
         9766.0         10.485         98.622         75.934
         9766.5         10.460         92.576         75.018
         9767.0         10.435         86.530         74.102
         9767.5         10.410         76.532         73.185
         9768.0         10.385         58.349         67.812
         9768.5         10.360         44.110         60.811
         9769.0         10.335         49.677         61.940
         9769.5         10.310         55.243         63.070
         9770.0         10.294         60.810         64.199
         9770.5         10.294         66.376         65.328
         9771.0         10.294         71.943         66.457
         9771.5         10.294         77.509         67.586
