# Exported from Transform Software 5.2.0 on 17-Oct-2019 by user kathryn.gehrke
# DI Transform - A Product of Drillinginfo, Inc. - www.drillinginfo.com
#
~VERSION INFORMATION
 VERS.        2.0 : LAS ASCII STANDARD - VERSION 2.0
 WRAP.         NO : ONE LINE PER DEPTH STEP

~WELL INFORMATION
#MNEM.UNIT       DATA TYPE       INFORMATION
#---------       ---------       -----------
 STRT.ft                 100 : Start Depth
 STOP.ft               10126 : Stop Depth
 STEP.ft                 0.5 : Step Length
 NULL.               -999.25 : Null Value
 COMP.                       : Company
 WELL.  42109329790000_API14 : Well Name
 FLD.                        : Field Name
 LOC.                        : Well Location
 CNTY.                       : County
 STAT.                       : State or Province
 CTRY.                       : Country
 SRVC.                       : Service Company
 DATE.                       : Date
 API.         42109329790000 : Well Identifier

~CURVE INFORMATION
#MNEM.UNIT       API CODE       CURVE DESCRIPTION
#---------       --------       -----------------
 DEPT.ft        : <Measured Depth>
 DT.us/ft       : Sonic
 GR.gAPI        : Gamma Ray

~PARAMETER INFORMATION
#MNEM.UNIT       VALUE       DESCRIPTION
#---------       -----       -----------
 EKB.ft      3282 : Elevation above MSL

~A      DEPT          DT          GR
# ...
      7369.5    264.4258     42.5543
        7370    264.4258      46.855
      7370.5    264.4258     46.4377
        7371    264.4258     45.3782
      7371.5    264.4258      43.901
        7372    264.4258     43.1611
      7372.5    264.4258     40.4925
        7373    264.4258     38.4557
      7373.5    264.4258     38.6555
        7374    264.4258     39.0756
      7374.5    264.4258      40.031
        7375    264.4258     41.9368
      7375.5    264.4258     44.3047
        7376    264.4258     46.2487
      7376.5    264.4258     47.0588
        7377    264.4258     44.9404
      7377.5    264.4258     41.4955
        7378    264.4258     41.3739
      7378.5    264.4258     42.0168
        7379    264.4258     42.0168
      7379.5    264.4258     43.6564
        7380    264.4258     45.3225
      7380.5    264.4258     42.1704
        7381    264.4258     37.9694
      7381.5    264.4258     35.5047
        7382    264.4258     33.9221
      7382.5    264.9369      34.397
        7383    266.9267     35.9093
      7383.5    267.7871     36.5279
        7384    267.7871     36.8332
      7384.5    267.7871     36.1345
        7385    267.7871     35.2941
      7385.5    267.7871     35.2941
        7386    266.6326     36.5802
      7386.5     264.986     36.2772
        7387    264.4258     37.0839
      7387.5    263.9324     37.8151
        7388    263.8655     40.6078
      7388.5    263.8655     43.3139
        7389    263.8655     47.0473
      7389.5    263.8655     51.2124
        7390    263.8655     50.9007
      7390.5    263.8655     48.5665
        7391    263.8655     45.3201
      7391.5    263.8655     42.8647
        7392    263.8655     38.8621
      7392.5    264.4258     37.7536
        7393    264.4258     38.8458
      7393.5    264.4258     40.3692
        7394    264.4258     42.8478
      7394.5    264.4258     45.7466
        7395    264.4258     46.6387
      7395.5    264.4258      47.248
        7396    264.4258     48.7708
      7396.5    264.4258     51.5959
        7397    264.4258     53.3613
      7397.5    264.4258     55.5445
        7398    264.4258      57.563
      7398.5    264.4258     58.3837
        7399    264.4258     55.4878
      7399.5    264.4258     53.3613
        7400    264.4258     53.7815
      7400.5    264.4258     53.9683
        7401    264.4258      53.763
      7401.5    264.4258     53.6317
        7402    264.4258      57.029
      7402.5    264.4258     59.5977
        7403    264.4258     60.6899
      7403.5    264.4258     61.3272
        7404    264.4258     60.5042
      7404.5    263.8655      59.563
        7405    263.8655     58.4034
      7405.5    263.8655     57.3375
        7406    263.8655     53.3452
      7406.5    263.8655     50.2463
        7407    263.8655     45.4492
      7407.5    263.8655     39.0325
        7408    263.8655     33.1284
      7408.5    263.8655     30.4247
        7409    263.8655     28.1513
      7409.5    263.8655     28.0527
        7410    263.8655     26.8908
      7410.5    263.8655     27.5841
        7411    263.8655     30.7068
      7411.5    263.8655      33.459
        7412    263.8655     33.9362
      7412.5    263.8655     34.3829
        7413    263.8655     35.9535
      7413.5    263.8655     35.7143
        7414    263.8655     35.8699
      7414.5    263.8655     36.2307
        7415    263.8655     36.6267
      7415.5    263.8655     35.2941
        7416    263.8655     35.2941
      7416.5    263.8655     34.8739
        7417    263.8655     35.2941
      7417.5    263.8655     36.6182
        7418    263.8655     39.7637
      7418.5    263.8655     41.8222
        7419    263.8655      42.595
      7419.5    263.8655     40.7786
        7420    263.8655     38.3469
      7420.5    263.8655     36.4985
        7421    263.8655     33.5906
      7421.5    263.8655     31.0924
        7422    263.8655     32.0255
      7422.5    263.8655     33.1177
        7423    263.8655      33.017
      7423.5    263.8655     32.9951
        7424    263.8655      34.194
      7424.5    263.8655     34.5453
        7425    263.8655     35.3709
      7425.5    263.8655     36.6947
        7426    263.8746     38.6623
      7426.5    265.8911     39.7545
        7427    267.7871     42.3624
      7427.5    267.7871     41.1223
        7428    267.7871     39.0248
      7428.5    267.7871     37.3893
        7429    267.7871     36.5546
      7429.5    267.2269     37.9489
        7430    265.6517     46.2035
      7430.5    264.4258     49.7526
        7431    264.4258     50.8403
      7431.5    263.8655     50.8403
        7432    263.8655     48.3094
      7432.5    263.8655     41.5779
        7433    263.8655     37.2234
      7433.5    263.8655     37.3999
        7434    263.8655     40.5538
      7434.5    263.8655      45.472
        7435    263.8655     52.1137
      7435.5    263.8655      59.295
        7436    263.8655     62.1849
      7436.5    263.8655     60.6265
        7437    263.8655     57.8547
      7437.5    263.8655     54.9972
        7438    263.8655      50.038
      7438.5    263.8655     46.2176
        7439    263.8655     44.7052
      7439.5    263.9782     41.3009
        7440    264.4258     38.3191
      7440.5    264.4258     38.8235
        7441    264.4258     38.6557
      7441.5    264.4258     37.1433
        7442    264.4258     38.3186
      7442.5    264.4258     38.3203
        7443    264.4258     36.8079
      7443.5    264.4258     37.3935
        7444    264.4258     39.2412
      7444.5    264.4258      43.688
        7445    264.4258     51.1206
      7445.5    264.4258     61.9571
        7446    264.4258     66.8028
      7446.5    264.4258     68.3165
        7447    264.4258     67.1054
      7447.5    264.4258     61.0719
        7448    264.4258     52.9956
      7448.5    264.4258      48.325
        7449    264.4258     48.9876
      7449.5    264.4258     50.4202
        7450    264.4258     54.0465
      7450.5    264.4258     62.3832
        7451    264.4258     66.5843
      7451.5    264.4258      69.945
        7452    264.4258     72.2689
      7452.5    264.4258     70.3923
        7453    264.4258     65.1887
      7453.5    264.4258     60.7265
        7454    264.4258     58.9979
      7454.5    264.4258     57.1593
        7455    264.4258     54.6218
      7455.5    264.4258     56.4635
        7456    264.4258     57.9759
      7456.5    264.4258     58.8235
        7457    264.4258     61.1913
      7457.5    264.4258      65.034
        7458    264.4258     63.3358
      7458.5    264.4258     58.4372
        7459    264.4258     51.8792
      7459.5    264.4258     47.9966
        7460    264.4258     47.3858
      7460.5    264.4258     50.2145
        7461    264.4258     56.0635
      7461.5    264.4258     57.3208
        7462    264.4258     55.8084
      7462.5    264.4258     53.1771
        7463    264.4258     47.3744
      7463.5    264.4258     40.9934
        7464    264.4258     38.8346
      7464.5    264.4258     37.4677
        7465    264.4258     39.1424
      7465.5    264.4258     43.2479
        7466    264.4258     48.4695
      7466.5    264.4258     54.6814
        7467    264.5212     57.1117
      7467.5    266.5377     60.3591
        7468    269.0299     61.7647
      7468.5    267.8047     60.9375
        7469    267.2269     57.2671
      7469.5    267.2269     53.4658
        7470    267.2269     52.1987
      7470.5    267.0216     52.2548
        7471    265.0051     53.7672
      7471.5    264.4258     54.9781
        7472    264.4258     58.0524
      7472.5    264.4258     59.1446
        7473    264.4258     57.6012
      7473.5    264.4258     55.0265
        7474    264.1106     55.2258
      7474.5    263.8655     52.1748
        7475    263.8655     48.8899
      7475.5    263.8655     49.8073
        7476    263.8655     51.2605
      7476.5    263.8655     51.6133
        7477    263.8655     52.8743
      7477.5    263.8655     51.7821
