~Version Information
 VERS.                  2.0:   CWLS log ASCII Standard -VERSION 2.0
 WRAP.                   NO:   One line per depth step
~Well Information Block
#MNEM.UNIT     VALUE/NAME     DESCRIPTION
#---------     -----------    ---------------------------
 STRT.F              8400.0000: START DEPTH
 STOP.F             13890.0000: STOP DEPTH
 STEP.F                 0.5000: STEP DEPTH
 NULL.                 -999.25: NULL VALUE
 LOC .     506' FEL & 344' FSL:  LOCATION
 FL6 .       API  42-109-33224:  LOCATIONLINE6
 FL4 .           ABSTRACT 4479:  LOCATIONLINE4
 FL3 .        T&P RR CO SURVEY:  LOCATIONLINE3
 FL2 .     SECTION 30, BLOCK 58 T2:  LOCATIONLINE2
 FL1 .     506' FEL & 344' FSL:  LOCATIONLINE1
 DMF .                      KB:  DRILL MEAS FROM
 PDAT.                      GL:  PERMANENT DATUM
 CNTY.               CULBERSON:  COUNTY NAME
 FLD .     FORD, WEST (WOLFCAMP):  FIELD NAME
 WELL.      LAUREN STATE 30 2H:  WELL NAME
 COMP.     CAPITAN ENERGY, INC.:  COMPANY
 DATE.             19-Feb-2018:  DATE
 SVCO.             Halliburton:  SERVICECONAME
 PROV.                   TEXAS:  PROVINCE
 STAT.                   TEXAS:  STATE NAME
 CTRY.                     USA:  COUNTRY NAME
 HIDE.                        :  WELLNAMEOPERAT
 BASI.                 PERMIAN:  BASIN
 UWI .            42-109-33224:  UNIQUE WELL IDENTIFIER
 API .            42-109-33224:  API NUMBER
 RANG.                     N/A:  RANGE
 TOWN.                     N/A:  TOWNSHIP
 SECT.                     N/A:  SECTION
 SON .               904646015:  JOB NUMBER
 SRVC.             Halliburton:  SERVICE COMPANY
 LMF .                      KB:  LOG MEASURED FROM
 EGL .ft             3168.0000:  GROUND ELEVATION
 BAP .ft                0.0000:  GL ELEV ONSHORE
 GVFD.g                 1.0000:  GRAVITY FIELD
 EKB .ft             3194.0000:  KB ELEVATION
 EDF .ft             3193.0000:  DF ELEVATION
~Curve Information Block
#MNEM.UNIT                 API CODE     Curve Description
#---------               -----------    ---------------------------
 DEPT.F                 00 000 000 000:  Depth
 CCL .V                 00 000 000 000:  Casing Collar Locator
 NPHI_OH.pu             00 000 000 000:  NPHI_OH
 NPHI_CHI.pu            00 000 000 000:  NPHI_CHI
 GR_OH.api              00 000 000 000:  GR_OH
 GR_CHI.api             00 000 000 000:  GR_CHI
 RHOB_OH.g/cc           00 000 000 000:  RHOB_OH
 RHOB_CHI.g/cc          00 000 000 000:  RHOB_CHI
 PE_OH.b/e              00 000 000 000:  PE_OH
 PE_CHI.b/e             00 000 000 000:  PE_CHI
 RT10_OH.ohmm           00 000 000 000:  RT10_OH
 RT10_CHI.ohmm          00 000 000 000:  RT10_CHI
 RT30_OH.ohmm           00 000 000 000:  RT30_OH
 RT30_CHI.ohmm          00 000 000 000:  RT30_CHI
 RT90_OH.ohmm           00 000 000 000:  RT90_OH
 RT90_CHI.ohmm          00 000 000 000:  RT90_CHI
 DTC_OH.uspf            00 000 000 000:  DTC_OH
 DTC_CHI.uspf           00 000 000 000:  DTC_CHI
 SPHI_CHI.pu            00 000 000 000:  SPHI_CHI
 SGF .cu                00 000 000 000:  Formation Sigma
 CRNF.NONE              00 000 000 000:  CM GrsCaptRatio
 RIN .NONE              00 000 000 000:  CM GrsInelRatio
#Other Information
#
#WARRANTY: Halliburton will use its best efforts to furnish customers with 
#accurate information and interpretations that are part of, and incident to, the services 
#provided.  However, Halliburton cannot and does not warrant the accuracy 
#or correctness of such information and interpretations.  Under no circumstances should any 
#such information or interpretation be relied upon as the sole basis for any drilling, 
#completion, production, or financial decision or any procedure involving any risk to the 
#safety of any drilling venture, drilling rig or its crew or any other third party.  The 
#Customer has full responsibility for all drilling, completion and production operation.  
#Halliburton makes no representations or warranties, either expressed or 
#implied, including, but not limited to, the implied warranties of merchantability or fitness 
#for a particular purpose, with respect to the services rendered.  In no event will 
#Halliburton be liable for failure to obtain any particular results or for 
#any damages, including, but not limited to, indirect, special or consequential damages, 
#resulting from the use of any information or interpretation provided by Halliburton.
#
~A    DEPT      CCL   NPHI_OH NPHI_CHI  GR_OH    GR_CHI  RHOB_OH RHOB_CHI  PE_OH  PE_CHI  RT10_OH  RT10_CHI RT30_OH  RT30_CHI RT90_OH  RT90_CHI DTC_OH  DTC_CHI SPHI_CHI   SGF    CRNF   RIN   
# ...
   13860.0000  0.0000 -999.25  16.1808  -999.25 153.9694 -999.25   2.5144 -999.25  3.7980  -999.25  22.7937  -999.25  20.2203  -999.25  22.8401 -999.25 73.3028  18.1800 23.6834 1.0357 1.1188
   13860.5000  0.0000 -999.25  15.9422  -999.25 150.7152 -999.25   2.5176 -999.25  3.8116  -999.25  22.5561  -999.25  20.0184  -999.25  22.6284 -999.25 73.0616  18.0100 23.4056 1.0350 1.1189
   13861.0000  0.0000 -999.25  15.7047  -999.25 147.2086 -999.25   2.5198 -999.25  3.8216  -999.25  23.8317  -999.25  21.2208  -999.25  23.9655 -999.25 72.9794  17.9500 23.1335 1.0327 1.1127
   13861.5000  0.0000 -999.25  15.8680  -999.25 148.1989 -999.25   2.5169 -999.25  3.8139  -999.25  24.9454  -999.25  22.2379  -999.25  25.1363 -999.25 73.2249  18.1200 23.2666 1.0284 1.1075
   13862.0000  0.0000 -999.25  16.1425  -999.25 153.0304 -999.25   2.5122 -999.25  3.8206  -999.25  25.9860  -999.25  23.1580  -999.25  26.1643 -999.25 73.5893  18.3800 23.3042 1.0256 1.1044
   13862.5000  0.0000 -999.25  17.0867  -999.25 169.4231 -999.25   2.4988 -999.25  3.8154  -999.25  26.0823  -999.25  23.1232  -999.25  26.0874 -999.25 74.4479  18.9900 23.5555 1.0278 1.1063
   13863.0000  0.0000 -999.25  16.3237  -999.25 157.8835 -999.25   2.5098 -999.25  3.8342  -999.25  24.8587  -999.25  22.0577  -999.25  24.9250 -999.25 73.6822  18.4500 23.8571 1.0332 1.1103
   13863.5000  0.0000 -999.25  14.8653  -999.25 134.5993 -999.25   2.5314 -999.25  3.8348  -999.25  24.1422  -999.25  21.6424  -999.25  24.4076 -999.25 72.1772  17.3800 24.0191 1.0346 1.1128
   13864.0000  0.0000 -999.25  15.7450  -999.25 148.2224 -999.25   2.5195 -999.25  3.8124  -999.25  23.9042  -999.25  21.2984  -999.25  24.0033 -999.25 73.0255  17.9800 24.3702 1.0428 1.1141
   13864.5000  0.0000 -999.25  16.5680  -999.25 160.2250 -999.25   2.5082 -999.25  3.7867  -999.25  24.2868  -999.25  21.5611  -999.25  24.2886 -999.25 73.8130  18.5400 24.6741 1.0417 1.1144
   13865.0000  0.0000 -999.25  17.0614  -999.25 167.9057 -999.25   2.5019 -999.25  3.7590  -999.25  24.5208  -999.25  21.7507  -999.25  24.4307 -999.25 74.2603  18.8500 24.8589 1.0395 1.1150
   13865.5000 -0.0706 -999.25  16.7156  -999.25 159.6567 -999.25   2.5081 -999.25  3.7370  -999.25  23.5474  -999.25  20.9304  -999.25  23.5598 -999.25 73.8204  18.5400 24.9085 1.0293 1.1156
   13866.0000  0.0000 -999.25  16.1988  -999.25 151.3447 -999.25   2.5162 -999.25  3.7444  -999.25  22.3551  -999.25  19.8984  -999.25  22.4263 -999.25 73.1983  18.1000 24.9023 1.0176 1.1172
   13866.5000  0.0000 -999.25  16.7075  -999.25 160.4811 -999.25   2.5090 -999.25  3.7566  -999.25  21.5788  -999.25  19.0903  -999.25  21.5678 -999.25 73.6035  18.3900 24.9409 1.0152 1.1188
   13867.0000  0.0000 -999.25  17.1206  -999.25 170.2472 -999.25   2.5023 -999.25  3.7611  -999.25  22.4361  -999.25  19.8123  -999.25  22.2698 -999.25 74.1136  18.7500 25.0798 1.0246 1.1179
   13867.5000  0.0000 -999.25  16.4012  -999.25 161.3223 -999.25   2.5118 -999.25  3.7536  -999.25  24.3135  -999.25  21.6789  -999.25  24.1133 -999.25 73.6955  18.4600 25.2233 1.0408 1.1148
   13868.0000  0.0000 -999.25  16.1325  -999.25 157.3535 -999.25   2.5155 -999.25  3.7296  -999.25  25.8972  -999.25  23.2484  -999.25  25.6761 -999.25 73.5941  18.3800 25.3051 1.0530 1.1119
   13868.5000  0.0000 -999.25  16.3573  -999.25 158.3248 -999.25   2.5130 -999.25  3.6995  -999.25  26.2808  -999.25  23.6079  -999.25  26.0797 -999.25 73.7941  18.5200 25.1337 1.0624 1.1111
   13869.0000  0.0539 -999.25  16.4687  -999.25 155.6095 -999.25   2.5125 -999.25  3.6755  -999.25  25.4290  -999.25  22.8191  -999.25  25.3691 -999.25 73.7567  18.5000 24.7981 1.0619 1.1115
   13869.5000  0.0000 -999.25  16.2940  -999.25 149.3823 -999.25   2.5154 -999.25  3.6708  -999.25  24.9866  -999.25  22.4350  -999.25  25.0938 -999.25 73.4941  18.3100 24.9617 1.0580 1.1115
   13870.0000  0.0000 -999.25  16.7620  -999.25 154.6715 -999.25   2.5082 -999.25  3.6666  -999.25  25.8192  -999.25  23.1459  -999.25  25.9868 -999.25 73.9901  18.6600 25.5069 1.0572 1.1091
   13870.5000  0.0000 -999.25  17.7794  -999.25 171.8703 -999.25   2.4934 -999.25  3.6327  -999.25  28.4821  -999.25  25.5684  -999.25  28.4849 -999.25 75.1171  19.4600 26.1061 1.0635 1.1056
   13871.0000  0.0292 -999.25  17.4981  -999.25 167.7641 -999.25   2.4982 -999.25  3.5893  -999.25  29.9892  -999.25  27.0886  -999.25  29.8685 -999.25 74.9796  19.3600 26.4961 1.0790 1.1038
   13871.5000  0.0000 -999.25  16.8915  -999.25 157.3407 -999.25   2.5082 -999.25  3.5436  -999.25  30.3696  -999.25  27.6060  -999.25  30.1972 -999.25 74.4625  19.0000 26.7050 1.0913 1.1032
   13872.0000  0.0000 -999.25  16.2327  -999.25 144.3886 -999.25   2.5190 -999.25  3.5131  -999.25  29.2100  -999.25  26.6608  -999.25  29.1589 -999.25 73.7154  18.4700 26.7787 1.0983 1.1045
   13872.5000 -0.0276 -999.25  16.4163  -999.25 143.0399 -999.25   2.5178 -999.25  3.4892  -999.25  27.6438  -999.25  25.1908  -999.25  27.7554 -999.25 73.6762  18.4400 26.9393 1.0968 1.1078
   13873.0000  0.0000 -999.25  17.0900  -999.25 150.9017 -999.25   2.5091 -999.25  3.4800  -999.25  26.4010  -999.25  23.9478  -999.25  26.6009 -999.25 74.1635  18.7900 26.8567 1.0866 1.1111
   13873.5000  0.0000 -999.25  17.0636  -999.25 148.4055 -999.25   2.5102 -999.25  3.4592  -999.25  26.2441  -999.25  23.8415  -999.25  26.5127 -999.25 74.0771  18.7200 26.7616 1.0899 1.1137
   13874.0000  0.0000 -999.25  16.8704  -999.25 145.5653 -999.25   2.5126 -999.25  3.4558  -999.25  27.1638  -999.25  24.7302  -999.25  27.4236 -999.25 73.9803  18.6600 26.7365 1.0962 1.1131
   13874.5000  0.0000 -999.25  16.1954  -999.25 137.1548 -999.25   2.5214 -999.25  3.4627  -999.25  28.4770  -999.25  26.0469  -999.25  28.6732 -999.25 73.4691  18.2900 26.6977 1.0998 1.1105
   13875.0000  0.0000 -999.25  15.7257  -999.25 128.4159 -999.25   2.5281 -999.25  3.4433  -999.25  29.8270  -999.25  27.4208  -999.25  30.0917 -999.25 73.0573  18.0000 26.7568 1.1033 1.1077
   13875.5000  0.0000 -999.25  15.8897  -999.25 129.3627 -999.25   2.5260 -999.25  3.4355  -999.25  29.8574  -999.25  27.4332  -999.25  30.1848 -999.25 73.1908  18.1000 26.6748 1.0933 1.1053
   13876.0000  0.0000 -999.25  17.0358  -999.25 147.4104 -999.25   2.5097 -999.25  3.4285  -999.25  30.0368  -999.25  27.4488  -999.25  30.2683 -999.25 74.3724  18.9300 26.8165 1.0873 1.1049
   13876.5000 -0.0643 -999.25  16.3232  -999.25 134.6533 -999.25   2.5203 -999.25  3.4469  -999.25  27.9063  -999.25  25.5177  -999.25  28.3147 -999.25 73.4391  18.2700 26.8300 1.0791 1.1062
   13877.0000  0.0000 -999.25  15.8799  -999.25 130.0931 -999.25   2.5266 -999.25  3.4596  -999.25  27.3129  -999.25  25.0104  -999.25  27.6476 -999.25 72.9785  17.9500 26.8555 1.0745 1.1047
   13877.5000  0.0391 -999.25  16.3651  -999.25 139.8375 -999.25   2.5194 -999.25  3.4771  -999.25  26.7096  -999.25  24.3438  -999.25  26.9290 -999.25 73.4818  18.3000 26.7088 1.0659 1.1038
   13878.0000  0.0000 -999.25  16.6549  -999.25 146.9760 -999.25   2.5149 -999.25  3.4924  -999.25  26.4916  -999.25  24.0726  -999.25  26.5851 -999.25 73.8115  18.5400 26.4453 1.0578 1.1004
   13878.5000  0.0000 -999.25  16.9104  -999.25 152.5958 -999.25   2.5105 -999.25  3.5030  -999.25  27.2117  -999.25  24.6908  -999.25  27.2231 -999.25 74.1558  18.7800 26.2559 1.0537 1.0972
   13879.0000  0.0000 -999.25  15.9048  -999.25 138.3970 -999.25   2.5240 -999.25  3.5266  -999.25  27.7526  -999.25  25.3211  -999.25  27.8253 -999.25 73.2483  18.1400 26.1271 1.0599 1.0950
   13879.5000 -0.0401 -999.25  15.3478  -999.25 131.5627 -999.25   2.5310 -999.25  3.5381  -999.25  29.1072  -999.25  26.6854  -999.25  29.1776 -999.25 72.8314  17.8400 26.0507 1.0712 1.0927
   13880.0000  0.0000 -999.25  15.9420  -999.25 142.4765 -999.25   2.5217 -999.25  3.5408  -999.25  30.7425  -999.25  28.1235  -999.25  30.6529 -999.25 73.5916  18.3800 26.1640 1.0765 1.0916
   13880.5000  0.0000 -999.25  16.0046  -999.25 141.8073 -999.25   2.5209 -999.25  3.5359  -999.25  30.7295  -999.25  28.1005  -999.25  30.7167 -999.25 73.6166  18.4000 26.5058 1.0735 1.0926
