###############################################
##         ENVERUS                           ##
##         ESS - Open Hole                   ##
##         PERMIAN / DELAWARE                ##
##         Nov 02 2023  V4.0                 ##
##         42-109-32255-00-00                ##
###############################################
## Copyright 2017-2023  ENVERUS.  All Rights Reserved. 
## Confidential - Property of ENVERUS, use governed by terms and 
## conditions found within the existing Information Services Subscription Agreement 
## (as may be amended, the “ISSA”) between Customer and ENVERUS. 
## 
~VERSION INFORMATION
# MNEM.UNIT                               DATA : DESCRIPTION OF MNEMONIC
#-----.-----     ----------------------------- : -----------------------------
VERS.                                     2.00 : CWLS LOG ASCII STANDARD - VERSION 2.00
WRAP.                                       NO : MULTIPLE LINES PER DEPTH STEP
VEND.                                  ENVERUS : VENDOR
TYPE.                          ESS - OPEN HOLE : ENVERUS ESSENTIAL CURVES – ACCESSIBLE THROUGH ENVERUS PRISM(TM)
DOC.                                  22531479 : ENVERUS HEADER RAW DOCUMENT ID
#___________________________________________________________________________________________________ 
~WELL INFORMATION 
# hWe/832LbRsDOXT7erJRLf+k/AYA64twV/RtTeeHm/CkPExvlrAQ0qJE/El28xU0WYmlktkqeCNHArF5iUyCGg== 
# MNEM.UNIT                                              DATA : DESCRIPTION OF MNEMONIC 
#-----.-----                    ----------------------------- : ----------------------------- 
CNTY.                                               CULBERSON : COUNTY 
STATE.                                                  TEXAS : STATE 
CNTRY.                                                    USA : COUNTRY 
API.                                             42-109-32255 : API (10 Digit) 
API_14.                                    42-109-32255-00-00 : API (14 Digits) 
API_14_std.                                 42-109-32255-0000 : API (14 Digits Standard) 
UWI.                                           42109322550000 : UNIQUE WELL ID 
WELL.                               MELISSA TAYLOR STATE 27-1 : WELL NAME
STRT.FT                                                7612.0 : START DEPTH
STOP.FT                                               13645.5 : STOP DEPTH
STEP.FT                                                   0.5 : STEP BETWEEN DEPTHS
NULL.                                                 -999.25 : NULL VALUE
COMP.                                         PETRO-HUNT,LLC. : COMPANY 
FLD.                                                  WILDCAT : FIELD 
SRVC.                                            SCHLUMBERGER : SERVICE COMPANY 
DATE.                                              04/06/2006 : DATE 
TVD.                                                       NO : TVD FLAG
#___________________________________________________________________________________________________ 
~PARAMETER INFORMATION 
# MNEM.UNIT                                              DATA : DESCRIPTION OF MNEMONIC 
#-----.-----                    ----------------------------- : ----------------------------- 
RUN.                                                      ONE : RUN NUMBER 
PDAT.                                                      GL : PERMANENT DATUM 
EPD.FT                                               000.0000 : ELEVATION OF PERM. DATUM 
LMF.                                            KELLY BUSHING : LOG MEASURED FROM 
EKB.FT                                                 3796.6 : ELEVATION OF KELLY BUSHING 
DF.FT                                                  3773.0 : ELEVATION OF DERRICK FLOOR 
GL.FT                                                  3795.6 : ELEVATION OF GROUND LEVEL 
TD.FT                                              13716.0000 : TOTAL DEPTH 
BHT.DEGF                                               224.00 : BOTTOM HOLE TEMPERATURE 
BLI.FT                                             13716.0000 : BOTTOM LOG INTERVAL 
CSGSIZE.IN                                             9.6250 : CASING SIZE 
BITSIZE.IN                                              8.750 : BITSIZE 
CSGD.FT                                               12804.0 : CASING BOTTOM (DRILLER) 1 
CSGL.FT                                               12802.0 : CASING BOTTOM (LOGGER) 1 
MUD.                                                    BRINE : DRILLING FLUID TYPE 
MUDV.CP                                                  45.0 : DRILLING FLUID VISCOSITY 
MUDD.LB/USG                                               9.5 : DRILLING FLUID DENSITY 
PH.                                                      10.0 : DRILLING FLUID PH 
FL.ML/30MIN                                               5.0 : DRILLING FLUID LOSS 
MUDS.                                               CIRC TANK : MUD SAMPLE SOURCE 
RM.OHMM                                                 0.064 : RESISTIVITY OF MUD SAMPLE 
RMT.DEGF                                                66.00 : MUD SAMPLE TEMPERATURE 
RMF.OHMM                                                0.048 : MUD FILTRATE RESISTIVITY 
RMFT.DEGF                                               66.00 : MUD FILTRATE SAMPLE TEMPERATURE 
RMC.OHMM                                                0.095 : MUD CAKE RESISTIVITY 
RMCT.DEGF                                               66.00 : MUD CAKE SAMPLE TEMPERATURE 
RMB.OHMM                                                0.015 : MUD RESISTIVITY AT BHT 
TMAX.DEGF                                              224.00 : BOTTOM HOLE TEMPERATURE
#___________________________________________________________________________________________________ 
~CURVE INFORMATION 
# MNEM.UNIT           : CURVE DESCRIPTION 
#-----.-----          : ----------------------------- 
 DEPT.FT               : MEASURED DEPTH 
 DT__A.US/FT           : SONIC DELTA TRANSIT TIME (DELTA T COMP) 
 SPHI__A.V/V           : SONIC POROSITY (SONIC POROSITY) 
 #___________________________________________________________________________________________________ 
~A         DEPT          DT__A        SPHI__A
# ...
        12745.0         83.581     -999.25000
        12745.5         83.983     -999.25000
        12746.0         84.369     -999.25000
        12746.5         77.890     -999.25000
        12747.0         72.144     -999.25000
        12747.5         75.752     -999.25000
        12748.0         72.886     -999.25000
        12748.5         67.265     -999.25000
        12749.0         61.643     -999.25000
        12749.5         55.912     -999.25000
        12750.0         56.037     -999.25000
        12750.5         56.249     -999.25000
        12751.0         56.461     -999.25000
        12751.5         56.513     -999.25000
        12752.0         56.407     -999.25000
        12752.5         56.207     -999.25000
        12753.0         56.395     -999.25000
        12753.5         56.986     -999.25000
        12754.0         56.601     -999.25000
        12754.5         54.134     -999.25000
        12755.0         54.722     -999.25000
        12755.5         56.300     -999.25000
        12756.0         61.568     -999.25000
        12756.5         66.934     -999.25000
        12757.0         66.533     -999.25000
        12757.5         60.784     -999.25000
        12758.0         56.364     -999.25000
        12758.5         56.542     -999.25000
        12759.0         56.721     -999.25000
        12759.5         56.895     -999.25000
        12760.0         57.075     -999.25000
        12760.5         56.929     -999.25000
        12761.0         56.701     -999.25000
        12761.5         56.476     -999.25000
        12762.0         56.397     -999.25000
        12762.5         56.705     -999.25000
        12763.0         57.118     -999.25000
        12763.5         57.006     -999.25000
        12764.0         56.802     -999.25000
        12764.5         56.513     -999.25000
        12765.0         56.713     -999.25000
        12765.5         56.914     -999.25000
        12766.0         56.619     -999.25000
        12766.5         56.262     -999.25000
        12767.0         55.904     -999.25000
        12767.5         55.511     -999.25000
        12768.0         55.934     -999.25000
        12768.5         56.402     -999.25000
        12769.0         56.870     -999.25000
        12769.5         57.339     -999.25000
        12770.0         57.715     -999.25000
        12770.5         57.634     -999.25000
        12771.0         57.438     -999.25000
        12771.5         57.241     -999.25000
        12772.0         57.045     -999.25000
        12772.5         56.848     -999.25000
        12773.0         56.713     -999.25000
        12773.5         57.119     -999.25000
        12774.0         57.886     -999.25000
        12774.5         58.517     -999.25000
        12775.0         57.758     -999.25000
        12775.5         57.237     -999.25000
        12776.0         57.078     -999.25000
        12776.5         56.922     -999.25000
        12777.0         56.683     -999.25000
        12777.5         61.889     -999.25000
        12778.0         68.677     -999.25000
        12778.5         78.213     -999.25000
        12779.0         79.960     -999.25000
        12779.5         80.361     -999.25000
        12780.0         80.361     -999.25000
        12780.5         66.911     -999.25000
        12781.0         57.916     -999.25000
        12781.5         56.713     -999.25000
        12782.0         56.313     -999.25000
        12782.5         55.862     -999.25000
        12783.0         55.285     -999.25000
        12783.5         54.720     -999.25000
        12784.0         54.914     -999.25000
        12784.5         55.623     -999.25000
        12785.0         55.758     -999.25000
        12785.5         55.505     -999.25000
        12786.0         54.890     -999.25000
        12786.5         55.568     -999.25000
        12787.0         56.313     -999.25000
        12787.5         60.000     -999.25000
        12788.0         65.531     -999.25000
        12788.5         66.733     -999.25000
        12789.0         69.506     -999.25000
        12789.5         73.124     -999.25000
        12790.0         76.743     -999.25000
        12790.5         79.006     -999.25000
        12791.0         79.128     -999.25000
        12791.5         79.251     -999.25000
        12792.0         79.359     -999.25000
        12792.5         81.012     -999.25000
        12793.0         82.588     -999.25000
        12793.5         84.271     -999.25000
        12794.0         85.955     -999.25000
        12794.5         86.829     -999.25000
        12795.0         86.974     -999.25000
        12795.5         86.683     -999.25000
        12796.0         86.172     -999.25000
        12796.5         85.264     -999.25000
        12797.0         84.317     -999.25000
        12797.5         83.370     -999.25000
        12798.0         82.423     -999.25000
        12798.5         81.477     -999.25000
        12799.0         80.621     -999.25000
        12799.5         80.048     -999.25000
        12800.0         79.476     -999.25000
        12800.5         81.550     -999.25000
        12801.0         84.304     -999.25000
        12801.5         87.058     -999.25000
        12802.0         88.809     -999.25000
        12802.5         90.058     -999.25000
        12803.0         91.307     -999.25000
        12803.5         92.385     -999.25000
        12804.0         94.626     -999.25000
        12804.5         96.597     -999.25000
        12805.0         97.595     -999.25000
        12805.5         86.856     -999.25000
        12806.0         74.549     -999.25000
        12806.5         76.160     -999.25000
        12807.0         80.120     -999.25000
        12807.5         82.123     -999.25000
        12808.0         83.230     -999.25000
        12808.5         84.181     -999.25000
        12809.0         84.820     -999.25000
        12809.5         84.970     -999.25000
        12810.0         84.421     -999.25000
        12810.5         83.855     -999.25000
        12811.0         83.292     -999.25000
        12811.5         83.044     -999.25000
        12812.0         83.267     -999.25000
        12812.5         83.491     -999.25000
        12813.0         83.761     -999.25000
        12813.5         83.496     -999.25000
        12814.0         83.263     -999.25000
        12814.5         83.097     -999.25000
        12815.0         82.931     -999.25000
        12815.5         82.763     -999.25000
        12816.0         82.405     -999.25000
        12816.5         82.051     -999.25000
        12817.0         81.771     -999.25000
        12817.5         80.727     -999.25000
        12818.0         79.108     -999.25000
        12818.5         77.021     -999.25000
        12819.0         75.351     -999.25000
        12819.5         76.360     -999.25000
        12820.0         77.202     -999.25000
        12820.5         78.043     -999.25000
        12821.0         78.437     -999.25000
        12821.5         78.557     -999.25000
        12822.0         79.948     -999.25000
        12822.5         81.263     -999.25000
        12823.0         82.204     -999.25000
        12823.5         82.332     -999.25000
        12824.0         82.296     -999.25000
        12824.5         82.203     -999.25000
        12825.0         82.110     -999.25000
        12825.5         82.017     -999.25000
        12826.0         81.670     -999.25000
        12826.5         80.999     -999.25000
        12827.0         80.361     -999.25000
        12827.5         80.160     -999.25000
        12828.0         80.160     -999.25000
        12828.5         80.160     -999.25000
        12829.0         80.160     -999.25000
        12829.5         80.160     -999.25000
        12830.0         80.456     -999.25000
        12830.5         80.960     -999.25000
        12831.0         81.363     -999.25000
        12831.5         81.384     -999.25000
