~VERSION INFORMATION
 VERS.                2.0:   CWLS LOG ASCII STANDARD - VERSION 2.0
 WRAP.                 NO:   ONE LINE PER DEPTH STEP
~WELL INFORMATION
#MNEM.UNIT      DATA TYPE    INFORMATION
#----------   ------------   ------------------------------
 STRT.FT        8672.0000:   START DEPTH
 STOP.FT       14432.0000:   STOP DEPTH
 STEP.FT           0.5000:   STEP LENGTH
 NULL.          -999.2500:   NULL VALUE
 COMP. CAPITAN ENERGY, INCORPORATED:   COMPANY
 WELL.  MOTHER FEE 28 #1H:   WELL
 FLD . FORD, WEST (WOLFCAMP)	:   FIELD
 LOC .                   :   LOCATION
 CNTY.          CULBERSON:   COUNTY
 STAT.              TEXAS:   STATE
 CTRY. UNITED STATES OF AMERICA:   COUNTRY
 SRVC.        HALLIBURTON:   SERVICE COMPANY
 DATE.        16-Nov-2015:   LOGDATE
 API .     42109328880000:   API NUMBER
~CURVE INFORMATION
#MNEM.UNIT       API CODE    CURVE DESCRIPTION
#----------   ------------   ------------------------------
 DEPT.FT                 :   
 CALD_C.IN   45 280 60 00:   CALIPER FROM DENSITY COMPOSITE LOG
 DCOR.G/C3   45 356 01 00:   DENSITY CORRECTION
 DPHI_LS.DEC 45 890 10 00:   DENSITY POROSITY LIMESTONE
 DT_CH.US/F  60 501 00 00:   DELTA FROM THE FULL WAVE SONIC IN CASED HOLE
 GRD .GAPI   45 310 01 00:   GAMMA RAY FROM DENSITY LOG
 LLDC.OHMM   11 220 10 00:   CORRECTED LATEROLOG DEEP RESISTIVITY
 LLSC.OHMM   11 220 09 00:   CORRECTED LATEROLOG SHALLOW RESISTIVITY
 MSFLC.OHMM  11 270 04 00:   CORRECTED MICRO SPHERICALLY FOCUSED RESISTIVITY
 NPHI_LS.DEC 42 890 01 00:   NEUTRON POROSITY LIMESTONE
 PE  .B/E    45 358 01 00:   PHOTO ELECTRIC CROSS SECTION
 RHOB_CH.G/C3 45 350 01 00:   
~PARAMETER INFORMATION
#MNEM.UNIT          VALUE    DESCRIPTION
#----------   ------------   ------------------------------
 DATE.           11/16/15:   RUN DATE
 RUN .                  1:   RUN NUMBER
 BLI .FT            14432:   BOTTOM LOG INTERVAL
 TLI .FT             8672:   TOP LOG INTERVAL
 ORIG.     1" 2" 5" PRINT:   ORIGIN OF DATA
 UWI .     42109328880000:   UNIQUE WELL ID
~OTHER INFORMATION
~A   DEPT         CALD_C      DCOR       DPHI_LS      DT_CH       GRD        LLDC        LLSC        MSFLC       NPHI_LS         PE      RHOB_CH
# ...
  9064.0000      8.4291      0.0048      0.0897     70.2000     87.9408     17.9451     13.3716      9.6083      0.1299      2.7986      2.5869
  9064.5000      8.4290      0.0085      0.0832     69.1260     82.1969     25.2121     22.0033     12.1703      0.1204      2.9466      2.5847
  9065.0000      8.4126      0.0082      0.0766     68.2002     74.5344     31.7906     26.9754     15.2082      0.1126      3.1680      2.5847
  9065.5000      8.4126      0.0069      0.0782     68.1002     81.4091     47.1539     34.4504     18.8182      0.1091      3.3603      2.5832
  9066.0000      8.4126      0.0055      0.0809     68.0336     86.7456     48.7669     39.1772     21.4246      0.1104      3.4109      2.5788
  9066.5000      8.4126      0.0042      0.0823     67.9670     85.1093     48.3356     36.8614     20.3505      0.1105      3.3842      2.5795
  9067.0000      8.4135      0.0029      0.0824     67.9337     75.3390     41.2304     32.6092     18.3114      0.1094      3.3824      2.5840
  9067.5000      8.4399      0.0041      0.0757     68.2002     67.0821     35.9116     28.5717     16.0649      0.1054      3.3805      2.5862
  9068.0000      8.5008      0.0083      0.0765     68.8773     76.3459     35.1421     28.8382     15.7012      0.1087      3.3541      2.5840
  9068.5000      8.5130      0.0141      0.0843     69.6544     84.5440     32.3699     26.4814     15.4481      0.1158      3.2828      2.5721
  9069.0000      8.5128      0.0199      0.0869     70.4315     85.4783     23.3357     19.9542     10.7913      0.1212      3.1022      2.5691
  9069.5000      8.5011      0.0234      0.0883     70.5314     85.4573     15.6774     13.4270      8.1674      0.1265      2.9024      2.5684
  9070.0000      8.5303      0.0242      0.0875     70.4981     86.5063     13.6735     12.4101      7.6330      0.1276      2.8051      2.5684
  9070.5000      8.5043      0.0234      0.0884     70.1984     91.4341     15.1403     12.7080      7.6167      0.1291      2.7530      2.5698
  9071.0000      8.4784      0.0194      0.0902     69.8653    100.3775     17.8432     15.2435      9.1868      0.1283      2.7935      2.5736
  9071.5000      8.4525      0.0126      0.0821     69.5989     85.6414     16.7916     15.1026      8.5951      0.1246      2.8339      2.5795
  9072.0000      8.4266      0.0058      0.0786     69.5656     77.9196     16.0113     14.6390      7.9653      0.1233      2.8471      2.5817
  9072.5000      8.4440     -0.0009      0.0813     69.8320     81.4045     16.5659     14.0215      7.8146      0.1241      2.8339      2.5817
  9073.0000      8.4458     -0.0067      0.0814     70.7756     77.6410     14.1912     12.5865      7.1890      0.1250      2.7764      2.5758
  9073.5000      8.4475     -0.0042      0.0823     71.7470     74.0185     11.6960     10.4109      6.1156      0.1270      2.7163      2.5713
  9074.0000      8.4492      0.0006      0.0864     72.3964     79.9071     10.6257      9.6176      5.8506      0.1304      2.6186      2.5691
  9074.5000      8.4509      0.0054      0.0906     72.4297     87.2829     10.0030      9.2617      5.6614      0.1338      2.5519      2.5684
  9075.0000      8.4105      0.0083      0.0904     72.2965     87.6412     10.0242      9.1477      5.5676      0.1334      2.5052      2.5676
  9075.5000      8.4105      0.0132      0.0904     71.8802     90.6177     10.2855      9.2103      5.7944      0.1315      2.4734      2.5676
  9076.0000      8.4105      0.0154      0.0908     71.4639     94.2589     11.0385      9.8003      6.0740      0.1290      2.5178      2.5661
  9076.5000      8.4105      0.0182      0.0893     71.1235     90.1538     11.7667     10.4822      6.3681      0.1250      2.5786      2.5661
  9077.0000      8.4105      0.0210      0.0885     70.2539     90.1379     12.6681     11.5735      6.6899      0.1234      2.6500      2.5654
  9077.5000      8.4430      0.0218      0.0896     69.3843     94.7210     14.7690     13.2487      8.0888      0.1241      2.7569      2.5654
  9078.0000      8.4542      0.0243      0.0882     68.5147     92.4932     20.2773     18.1222     10.3956      0.1225      2.8996      2.5669
  9078.5000      8.4653      0.0253      0.0829     67.6451     84.7570     30.0204     23.7296     14.5183      0.1156      3.1578      2.5802
  9079.0000      8.4764      0.0231      0.0779     66.7755     76.0409     41.9351     33.5604     17.8463      0.1077      3.3299      2.5936
  9079.5000      8.5107      0.0208      0.0717     66.5683     66.4433     41.9351     33.7689     18.0108      0.0961      3.4817      2.5951
  9080.0000      8.5359      0.0186      0.0711     67.5579     75.8625     43.0396     34.9396     18.6114      0.1008      3.4817      2.5933
  9080.5000      8.5255      0.0164      0.0776     68.9852     84.8777     43.6428     34.8303     19.3170      0.1066      3.4480      2.5886
  9081.0000      8.5151      0.0074      0.0818     70.4125     86.7606     38.9209     24.7964     16.6098      0.1128      3.2909      2.5840
  9081.5000      8.5047     -0.0034      0.0850     71.0833     85.3277     16.9126     14.0323      6.2900      0.1192      2.9995      2.5793
  9082.0000      8.4944     -0.0040      0.0871     71.5305     86.8751      8.2926      7.0066      4.2747      0.1229      2.8519      2.5747
  9082.5000      8.4840      0.0019      0.0888     71.5305     89.7294      7.8819      6.1556      3.8409      0.1257      2.7125      2.5700
  9083.0000      8.5100      0.0078      0.0888     70.5772     90.3710      8.7153      6.8136      4.1284      0.1274      2.6734      2.5654
  9083.5000      8.4735      0.0137      0.0867     70.0652     86.4765      9.2153      7.3077      4.3625      0.1261      2.6852      2.5694
  9084.0000      8.4633      0.0172      0.0837     69.9986     80.2566      9.6197      7.6683      4.4294      0.1231      2.7185      2.5735
  9084.5000      8.4657      0.0201      0.0825     69.9653     80.5569     10.4302      8.0825      4.6821      0.1228      2.7530      2.5758
  9085.0000      8.4766      0.0247      0.0839     69.8320     87.9786     11.8437     10.0287      5.6538      0.1238      2.7854      2.5765
  9085.5000      8.5095      0.0317      0.0839     69.6322     90.4668     13.3000     10.6152      6.2150      0.1256      2.8093      2.5780
  9086.0000      8.5095      0.0372      0.0802     69.2576     82.3587     13.9228     11.5402      6.1058      0.1258      2.8536      2.5788
  9086.5000      8.5095      0.0394      0.0799     68.7372     84.3107     18.6730     16.8305      8.2988      0.1242      2.9169      2.5802
  9087.0000      8.5095      0.0416      0.0795     68.3833     81.3084     22.7105     19.4969     10.5153      0.1154      3.0120      2.5841
  9087.5000      8.5095      0.0437      0.0738     67.8005     67.1171     24.8480     21.1622     10.9156      0.1091      3.1325      2.5892
  9088.0000      8.5095      0.0459      0.0709     67.8774     60.7912     24.1202     20.4612     10.5357      0.0990      3.2108      2.5944
  9088.5000      8.5095      0.0465      0.0724     68.4282     60.6435     22.1231     17.7469      9.9931      0.0974      3.2388      2.5939
  9089.0000      8.4771      0.0450      0.0758     68.9790     64.4144     19.5232     15.8203      9.0715      0.1016      3.2123      2.5877
  9089.5000      8.4654      0.0357      0.0830     69.2326     77.9781     21.5451     16.2169     10.7053      0.1071      3.1591      2.5862
  9090.0000      8.4607      0.0264      0.0872     69.1993     83.7859     25.2121     20.1825     12.5270      0.1076      3.1584      2.5845
  9090.5000      8.4609      0.0171      0.0811     69.0328     74.6246     26.5577     22.2961     12.3194      0.1045      3.1785      2.5840
  9091.0000      8.4685      0.0152      0.0776     68.8662     67.7602     30.8110     25.4015     14.0588      0.0978      3.2793      2.5869
  9091.5000      8.4761      0.0145      0.0740     68.6997     61.8952     30.2442     25.9580     14.1382      0.0941      3.3788      2.5877
