###############################################
##         ENVERUS                           ##
##         ESS - Open Hole                   ##
##         PERMIAN / DELAWARE                ##
##         Nov 02 2023  V4.0                 ##
##         42-109-31383-00-00                ##
###############################################
## Copyright 2017-2023  ENVERUS.  All Rights Reserved. 
## Confidential - Property of ENVERUS, use governed by terms and 
## conditions found within the existing Information Services Subscription Agreement 
## (as may be amended, the “ISSA”) between Customer and ENVERUS. 
## 
~VERSION INFORMATION
# MNEM.UNIT                               DATA : DESCRIPTION OF MNEMONIC
#-----.-----     ----------------------------- : -----------------------------
VERS.                                     2.00 : CWLS LOG ASCII STANDARD - VERSION 2.00
WRAP.                                       NO : MULTIPLE LINES PER DEPTH STEP
VEND.                                  ENVERUS : VENDOR
TYPE.                          ESS - OPEN HOLE : ENVERUS ESSENTIAL CURVES – ACCESSIBLE THROUGH ENVERUS PRISM(TM)
DOC.                                  31887493 : ENVERUS HEADER RAW DOCUMENT ID
#___________________________________________________________________________________________________ 
~WELL INFORMATION 
# e8MMFGpko9nixUfuEkfb9P8cKS4olzuguLrtdgPIjARTX3oRymgI2EYtnk6GmA/F0PbYW2Z7xnLx5OgyGayifw== 
# MNEM.UNIT                                              DATA : DESCRIPTION OF MNEMONIC 
#-----.-----                    ----------------------------- : ----------------------------- 
CNTY.                                               CULBERSON : COUNTY 
STATE.                                                  TEXAS : STATE 
CNTRY.                                                    USA : COUNTRY 
API.                                             42-109-31383 : API (10 Digit) 
API_14.                                    42-109-31383-00-00 : API (14 Digits) 
API_14_std.                                 42-109-31383-0000 : API (14 Digits Standard) 
UWI.                                           42109313830000 : UNIQUE WELL ID 
WELL.                                          KIRK  T. A.  1 : WELL NAME
STRT.FT                                                  43.0 : START DEPTH
STOP.FT                                               16492.0 : STOP DEPTH
STEP.FT                                                   0.5 : STEP BETWEEN DEPTHS
NULL.                                                 -999.25 : NULL VALUE
COMP.                                             EXXON CORP. : COMPANY 
DATE.                                             05-AUG-1981 : LOG DATE
#___________________________________________________________________________________________________ 
~CURVE INFORMATION 
# MNEM.UNIT           : CURVE DESCRIPTION 
#-----.-----          : ----------------------------- 
 DEPT.FT               : MEASURED DEPTH 
 CALI.IN               : CALIPER (CAL - CAL) 
 GR.API                : GAMMA RAY (GR) 
 SP.MV                 : SPONTANEOUS POTENTIAL (SP) 
 DT.US/FT              : SONIC DELTA TRANSIT TIME (DT) 
 RESS.OHMM             : SHALLOW INDUCTION RESISTIVITY (ILS - ILS) 
 RESD.OHMM             : DEEP INDUCTION RESISTIVITY (ILD - ILD) 
 NPHI.V/V              : NEUTRON POROSITY (NPHI) 
 #___________________________________________________________________________________________________ 
~A         DEPT           CALI             GR             SP             DT           RESS           RESD           NPHI
# ...
          143.5       -999.250         19.083        -49.188       -999.250       -999.250       -999.250        0.25891
          144.0       -999.250         18.894        -49.030       -999.250       -999.250       -999.250        0.23565
          144.5       -999.250         18.706        -48.872       -999.250       -999.250       -999.250        0.23195
          145.0       -999.250         19.005        -48.715       -999.250       -999.250       -999.250        0.27980
          145.5       -999.250         19.491        -48.557       -999.250       -999.250       -999.250        0.30526
          146.0       -999.250         19.934        -48.399       -999.250       -999.250       -999.250        0.31533
          146.5       -999.250         17.801        -48.242       -999.250       -999.250       -999.250        0.32539
          147.0       -999.250         15.668        -48.084       -999.250       -999.250       -999.250        0.30986
          147.5       -999.250         14.221        -47.926       -999.250       -999.250       -999.250        0.28118
          148.0       -999.250         14.261        -47.769       -999.250       -999.250       -999.250        0.25122
          148.5       -999.250         14.302        -47.636       -999.250       -999.250       -999.250        0.23331
          149.0       -999.250         14.708        -47.635       -999.250       -999.250       -999.250        0.28410
          149.5       -999.250         16.676        -47.634       -999.250       -999.250       -999.250        0.31374
          150.0       -999.250         18.644        -47.634       -999.250       -999.250       -999.250        0.33246
          150.5       -999.250         20.612        -47.633       -999.250       -999.250       -999.250        0.35118
          151.0       -999.250         23.240        -47.632       -999.250       -999.250       -999.250        0.35409
          151.5       -999.250         21.047        -47.631       -999.250       -999.250       -999.250        0.33794
          152.0       -999.250         18.771        -47.631       -999.250       -999.250       -999.250        0.32179
          152.5       -999.250         17.417        -47.630       -999.250       -999.250       -999.250        0.30564
          153.0       -999.250         16.430        -47.629       -999.250       -999.250       -999.250        0.18672
          153.5       -999.250         15.444        -47.546       -999.250       -999.250       -999.250        0.08539
          154.0       -999.250         15.142        -47.345       -999.250       -999.250       -999.250        0.07514
          154.5       -999.250         15.197        -47.144       -999.250       -999.250       -999.250        0.06489
          155.0       -999.250         15.129        -46.943       -999.250       -999.250       -999.250        0.05465
          155.5       -999.250         14.208        -46.741       -999.250       -999.250       -999.250        0.04440
          156.0       -999.250         14.850        -46.540       -999.250       -999.250       -999.250        0.04764
          156.5       -999.250         15.849        -46.339       -999.250       -999.250       -999.250        0.07227
          157.0       -999.250         16.849        -46.138       -999.250       -999.250       -999.250        0.19218
          157.5       -999.250         20.030        -45.937       -999.250       -999.250       -999.250        0.33202
          158.0       -999.250         20.741        -45.735       -999.250       -999.250       -999.250        0.36645
          158.5       -999.250         20.002        -45.534       -999.250       -999.250       -999.250        0.38077
          159.0       -999.250         18.613        -45.333       -999.250       -999.250       -999.250        0.37118
          159.5       -999.250         16.429        -45.132       -999.250       -999.250       -999.250        0.35823
          160.0       -999.250         14.497        -44.931       -999.250       -999.250       -999.250        0.34527
          160.5       -999.250         13.742        -44.802       -999.250       -999.250       -999.250        0.33232
          161.0       -999.250         14.414        -44.676       -999.250       -999.250       -999.250        0.34696
          161.5       -999.250         16.232        -44.550       -999.250       -999.250       -999.250        0.39497
          162.0       -999.250         20.657        -44.424       -999.250       -999.250       -999.250        0.44298
          162.5       -999.250         25.083        -44.298       -999.250       -999.250       -999.250        0.47318
          163.0       -999.250         28.224        -44.171       -999.250       -999.250       -999.250        0.50042
          163.5       -999.250         28.513        -44.045       -999.250       -999.250       -999.250        0.52825
          164.0       -999.250         27.362        -43.919       -999.250       -999.250          9.201        0.55608
          164.5       -999.250         27.471        -43.793       -999.250       -999.250         11.284        0.58391
          165.0       -999.250         27.752        -43.606       -999.250       -999.250         13.367        0.53865
          165.5       -999.250         24.651        -43.186       -999.250       -999.250         14.973        0.48456
          166.0       -999.250         23.630        -42.766       -999.250       -999.250         14.151        0.42203
          166.5       -999.250         22.610        -42.346       -999.250       -999.250         13.329        0.35949
          167.0       -999.250         20.661        -41.927       -999.250       -999.250         12.507        0.29802
          167.5       -999.250         16.435        -41.507       -999.250       -999.250         11.685        0.26716
          168.0       -999.250         16.335        -41.087       -999.250       -999.250         10.863        0.27354
          168.5       -999.250         16.234        -40.668       -999.250       -999.250         10.042        0.29041
          169.0       -999.250         17.540        -40.248       -999.250          6.224          9.220        0.33061
          169.5       -999.250         19.326        -39.828       -999.250          6.238          8.398        0.38716
          170.0       -999.250         21.111        -39.408       -999.250          6.252          7.576        0.44371
          170.5       -999.250         21.683        -38.989       -999.250          6.266          7.674        0.47996
          171.0       -999.250         21.970        -38.569       -999.250          6.280          8.017        0.46412
          171.5       -999.250         22.257        -38.268       -999.250          6.294          8.360        0.44827
          172.0       -999.250         22.544        -38.187       -999.250          6.308          8.703        0.43243
          172.5       -999.250         22.831        -38.106       -999.250          6.323         10.244        0.41658
          173.0       -999.250         22.572        -38.025       -999.250          6.337         16.493        0.33891
          173.5       -999.250         18.290        -37.944       -999.250          6.596         15.503        0.28717
          174.0       -999.250         15.986        -37.863       -999.250          6.974         14.513        0.26010
          174.5       -999.250         16.309        -37.782       -999.250          7.352         13.523        0.24179
          175.0       -999.250         16.632        -37.701       -999.250          7.731         12.533        0.22406
          175.5       -999.250         16.643        -37.620       -999.250          8.109         11.544        0.20798
          176.0       -999.250         15.407        -37.507       -999.250          8.487         12.377        0.19391
          176.5       -999.250         14.171        -37.275       -999.250          8.865         19.657        0.18263
