~Version Information
 VERS.                  2.0:   CWLS log ASCII Standard -VERSION 2.0
 WRAP.                   NO:   One line per depth step
~Well Information Block
#MNEM.UNIT     VALUE/NAME     DESCRIPTION
#---------     -----------    ---------------------------
 STRT.F              8564.0000: START DEPTH
 STOP.F             14132.0000: STOP DEPTH
 STEP.F                 0.5000: STEP DEPTH
 NULL.                 -999.25: NULL VALUE
 FL6 .       API  42-109-33219:  LOCATIONLINE6
 LOC .     253' FEL & 408' FNL:  LOCATION
 FL4 .           ABSTRACT 1760:  LOCATIONLINE4
 FL3 .        T&P RR CO SURVEY:  LOCATIONLINE3
 FL2 .     SECTION 32, BLOCK 58 T2:  LOCATIONLINE2
 FL1 .     253' FEL & 408' FNL:  LOCATIONLINE1
 DMF .                      KB:  DRILL MEAS FROM
 PDAT.                      GL:  PERMANENT DATUM
 CTRY.                     USA:  COUNTRY NAME
 PROV.                   TEXAS:  PROVINCE
 STAT.                   TEXAS:  STATE NAME
 CNTY.               CULBERSON:  COUNTY NAME
 FLD .     FORD, WEST (WOLFCAMP):  FIELD NAME
 WELL.        MOTHER FEE 28 2H:  WELL NAME
 COMP.     CAPITAN ENERGY INC.:  COMPANY
 DATE.             24-Jan-2018:  DATE
 SVCO.             Halliburton:  SERVICECONAME
 HIDE.                        :  WELLNAMEOPERAT
 BASI.                 PERMIAN:  BASIN
 UWI .            42-109-33219LAT:  UNIQUE WELL IDENTIFIER
 API .            42-109-33219LAT:  API NUMBER
 RANG.                     N/A:  RANGE
 TOWN.                     N/A:  TOWNSHIP
 SECT.                     N/A:  SECTION
 SON .               904563795:  JOB NUMBER
 SRVC.             Halliburton:  SERVICE COMPANY
 LMF .                      KB:  LOG MEASURED FROM
 EGL .ft             3142.0000:  GROUND ELEVATION
 BAP .ft                0.0000:  GL ELEV ONSHORE
 GVFD.g                 1.0000:  GRAVITY FIELD
 EKB .ft             3167.0000:  KB ELEVATION
 EDF .ft             3166.0000:  DF ELEVATION
~Curve Information Block
#MNEM.UNIT                 API CODE     Curve Description
#---------               -----------    ---------------------------
 DEPT.F                 00 000 000 000:  Depth
 CCL .V                 00 000 000 000:  Casing Collar Locator
 NPHI_OH.pu             00 000 000 000:  NPHI_OH
 NPHI_CHI.pu            00 000 000 000:  NPHI_CHI
 GR_OH.api              00 000 000 000:  GR_OH
 GR_CHI.api             00 000 000 000:  GR_CHI
 RHOB_OH.g/cc           00 000 000 000:  RHOB_OH
 RHOB_CHI.g/cc          00 000 000 000:  RHOB_CHI
 PE_OH.b/e              00 000 000 000:  PE_OH
 PE_CHI.b/e             00 000 000 000:  PE_CHI
 DTC_OH.uspf            00 000 000 000:  DTC_OH
 DTC_CHI.uspf           00 000 000 000:  DTC_CHI
 SPHI_CHI.pu            00 000 000 000:  SPHI_CHI
 RT10_OH.ohmm           00 000 000 000:  RT10_OH
 RT10_CHI.ohmm          00 000 000 000:  RT10_CHI
 RT30_OH.ohmm           00 000 000 000:  RT30_OH
 RT30_CHI.ohmm          00 000 000 000:  RT30_CHI
 RT90_OH.ohmm           00 000 000 000:  RT90_OH
 RT90_CHI.ohmm          00 000 000 000:  RT90_CHI
 SGF .cu                00 000 000 000:  Formation Sigma
 CRNF.NONE              00 000 000 000:  CaptMode Capt Ratio
 RIN .NONE              00 000 000 000:  CaptMode Gross Inel Ratio
#Other Information
#
#WARRANTY: Halliburton will use its best efforts to furnish customers with 
#accurate information and interpretations that are part of, and incident to, the services 
#provided.  However, Halliburton cannot and does not warrant the accuracy 
#or correctness of such information and interpretations.  Under no circumstances should any 
#such information or interpretation be relied upon as the sole basis for any drilling, 
#completion, production, or financial decision or any procedure involving any risk to the 
#safety of any drilling venture, drilling rig or its crew or any other third party.  The 
#Customer has full responsibility for all drilling, completion and production operation.  
#Halliburton makes no representations or warranties, either expressed or 
#implied, including, but not limited to, the implied warranties of merchantability or fitness 
#for a particular purpose, with respect to the services rendered.  In no event will 
#Halliburton be liable for failure to obtain any particular results or for 
#any damages, including, but not limited to, indirect, special or consequential damages, 
#resulting from the use of any information or interpretation provided by Halliburton.
#
~A    DEPT       CCL    NPHI_OH NPHI_CHI  GR_OH    GR_CHI  RHOB_OH RHOB_CHI  PE_OH   PE_CHI   DTC_OH  DTC_CHI SPHI_CHI RT10_OH  RT10_CHI RT30_OH  RT30_CHI RT90_OH  RT90_CHI   SGF    CRNF   RIN   
# ...
   10034.0000    2.8877 -999.25  10.5499  -999.25  95.4675 -999.25   2.5953 -999.25    3.2607 -999.25 70.5386  16.2200  -999.25  37.6404  -999.25  37.1363  -999.25  41.3881 23.0574 1.0387 1.1182
   10034.5000    0.0000 -999.25  10.4685  -999.25  87.5142 -999.25   2.5937 -999.25    3.1816 -999.25 71.0759  16.6000  -999.25  39.6672  -999.25  39.3950  -999.25  43.8576 23.2165 1.0343 1.1272
   10035.0000    0.0000 -999.25  10.9751  -999.25  92.3547 -999.25   2.5882 -999.25    3.1275 -999.25 71.7313  17.0700  -999.25  36.0704  -999.25  35.5038  -999.25  39.2880 23.4020 1.0188 1.1345
   10035.5000    0.0000 -999.25  10.9539  -999.25  88.7244 -999.25   2.5887 -999.25    3.1168 -999.25 72.1516  17.3600  -999.25  35.1897  -999.25  34.6145  -999.25  38.1846 23.5441 0.9954 1.1369
   10036.0000    0.0000 -999.25  11.2688  -999.25  90.7663 -999.25   2.5882 -999.25    3.1369 -999.25 72.8530  17.8600  -999.25  29.5628  -999.25  28.6804  -999.25  31.3025 23.6466 0.9807 1.1347
   10036.5000    0.0000 -999.25  10.9587  -999.25  86.6615 -999.25   2.5936 -999.25    3.2018 -999.25 72.5838  17.6700  -999.25  28.5516  -999.25  27.6719  -999.25  30.1504 23.7680 0.9791 1.1272
   10037.0000    0.0000 -999.25  10.9392  -999.25  91.6623 -999.25   2.5964 -999.25    3.2693 -999.25 72.0644  17.3000  -999.25  26.3747  -999.25  25.3103  -999.25  27.4974 23.9299 0.9890 1.1209
   10037.5000    0.0000 -999.25  10.5351  -999.25  92.3599 -999.25   2.6002 -999.25    3.3036 -999.25 71.0977  16.6200  -999.25  29.6117  -999.25  28.5297  -999.25  31.2074 24.0898 1.0044 1.1189
   10038.0000    0.0000 -999.25  10.4386  -999.25  94.6035 -999.25   2.6001 -999.25    3.2899 -999.25 70.6226  16.2800  -999.25  31.6231  -999.25  30.4753  -999.25  33.4480 24.2842 1.0134 1.1175
   10038.5000    0.0000 -999.25  10.8831  -999.25 101.3853 -999.25   2.5942 -999.25    3.2176 -999.25 70.9767  16.5300  -999.25  29.8786  -999.25  28.5201  -999.25  31.1722 24.4595 1.0197 1.1173
   10039.0000    0.0000 -999.25  11.1181  -999.25 101.3717 -999.25   2.5901 -999.25    3.1390 -999.25 71.4683  16.8800  -999.25  29.4978  -999.25  28.0747  -999.25  30.5717 24.6704 1.0217 1.1185
   10039.5000    0.0000 -999.25  11.1795  -999.25  99.8823 -999.25   2.5884 -999.25    3.0902 -999.25 71.7033  17.0500  -999.25  29.8718  -999.25  28.4215  -999.25  30.8993 24.8839 1.0319 1.1225
   10040.0000    0.0000 -999.25  10.9379  -999.25  92.5831 -999.25   2.5899 -999.25    3.0690 -999.25 71.7958  17.1100  -999.25  31.7956  -999.25  30.4819  -999.25  33.1870 25.1217 1.0434 1.1265
   10040.5000    0.0000 -999.25  11.1382  -999.25  96.4434 -999.25   2.5880 -999.25    3.0445 -999.25 71.8784  17.1700  -999.25  30.2669  -999.25  28.7700  -999.25  31.1972 25.2914 1.0506 1.1303
   10041.0000    0.0000 -999.25  10.7657  -999.25  86.8774 -999.25   2.5906 -999.25    3.0174 -999.25 71.7672  17.0900  -999.25  33.0130  -999.25  31.6562  -999.25  34.3823 25.3923 1.0487 1.1288
   10041.5000    0.0000 -999.25  10.5639  -999.25  78.4167 -999.25   2.5912 -999.25    2.9715 -999.25 71.8552  17.1500  -999.25  35.3996  -999.25  34.2089  -999.25  37.1693 25.4921 1.0415 1.1244
   10042.0000   31.7222 -999.25  11.0600  -999.25  84.9021 -999.25   2.5868 -999.25    2.9378 -999.25 72.4793  17.5900  -999.25  31.7613  -999.25  30.3042  -999.25  32.6980 25.6299 1.0366 1.1199
   10042.5000    0.0000 -999.25  11.7565  -999.25  98.8385 -999.25   2.5811 -999.25    2.9214 -999.25 72.9218  17.9100  -999.25  27.2822  -999.25  25.5150  -999.25  27.2954 25.8643 1.0421 1.1174
   10043.0000    0.0000 -999.25  11.5634  -999.25  97.9269 -999.25   2.5829 -999.25    2.9281 -999.25 72.5571  17.6500  -999.25  28.0709  -999.25  26.2703  -999.25  28.1504 26.0437 1.0467 1.1182
   10043.5000    0.0000 -999.25  11.5252  -999.25  99.3242 -999.25   2.5829 -999.25    2.9128 -999.25 72.2998  17.4700  -999.25  28.5297  -999.25  26.6287  -999.25  28.5388 26.2800 1.0514 1.1194
   10044.0000    0.0000 -999.25  11.8772  -999.25 104.3497 -999.25   2.5801 -999.25    2.8939 -999.25 72.6530  17.7200  -999.25  26.3714  -999.25  24.3723  -999.25  25.9650 26.3597 1.0490 1.1219
   10044.5000    0.0000 -999.25  11.8879  -999.25 102.7962 -999.25   2.5800 -999.25    2.8715 -999.25 72.7608  17.7900  -999.25  26.2489  -999.25  24.2084  -999.25  25.7279 26.5798 1.0434 1.1225
   10045.0000    0.0000 -999.25  11.6342  -999.25  95.6136 -999.25   2.5821 -999.25    2.8634 -999.25 72.7226  17.7700  -999.25  27.4438  -999.25  25.4679  -999.25  27.0950 26.7665 1.0461 1.1232
   10045.5000    0.0000 -999.25  11.7630  -999.25  97.6772 -999.25   2.5817 -999.25    2.8721 -999.25 72.8272  17.8400  -999.25  25.8483  -999.25  23.8423  -999.25  25.2660 26.9198 1.0452 1.1250
   10046.0000    0.0000 -999.25  11.7187  -999.25  98.0132 -999.25   2.5824 -999.25    2.8681 -999.25 72.6304  17.7000  -999.25  25.5918  -999.25  23.5214  -999.25  24.8867 26.9212 1.0463 1.1230
   10046.5000    0.0000 -999.25  11.4579  -999.25  92.9774 -999.25   2.5847 -999.25    2.8645 -999.25 72.3179  17.4800  -999.25  26.5462  -999.25  24.4780  -999.25  25.9188 26.7897 1.0460 1.1209
   10047.0000    0.0000 -999.25  11.9291  -999.25 102.5419 -999.25   2.5812 -999.25    2.8622 -999.25 72.6704  17.7300  -999.25  24.0442  -999.25  21.8915  -999.25  23.0513 26.6371 1.0438 1.1203
   10047.5000    0.0000 -999.25  12.1182  -999.25 106.7815 -999.25   2.5792 -999.25    2.8625 -999.25 72.8468  17.8500  -999.25  23.8530  -999.25  21.7006  -999.25  22.8700 26.5791 1.0425 1.1223
   10048.0000   -0.5348 -999.25  11.5912  -999.25  95.5816 -999.25   2.5833 -999.25    2.8712 -999.25 72.5351  17.6300  -999.25  26.3129  -999.25  24.2749  -999.25  25.7299 26.6372 1.0376 1.1281
   10048.5000   -0.5348 -999.25  12.0700  -999.25 105.9680 -999.25   2.5799 -999.25    2.8849 -999.25 72.8475  17.8600  -999.25  23.7299  -999.25  21.6425  -999.25  22.8341 26.6602 1.0313 1.1303
   10049.0000   -0.5348 -999.25  12.0715  -999.25 105.0750 -999.25   2.5811 -999.25    2.9074 -999.25 72.8420  17.8500  -999.25  22.4775  -999.25  20.4338  -999.25  21.4847 26.6865 1.0265 1.1295
   10049.5000   -0.5348 -999.25  11.8423  -999.25 101.4027 -999.25   2.5835 -999.25    2.9258 -999.25 72.5540  17.6500  -999.25  22.7279  -999.25  20.7121  -999.25  21.7965 26.7878 1.0269 1.1268
   10050.0000   -0.5348 -999.25  12.0791  -999.25 108.5682 -999.25   2.5818 -999.25    2.9347 -999.25 72.5424  17.6400  -999.25  21.7570  -999.25  19.6940  -999.25  20.6959 27.0160 1.0288 1.1269
   10050.5000   -0.5348 -999.25  11.6236  -999.25  99.6440 -999.25   2.5855 -999.25    2.9336 -999.25 72.1659  17.3700  -999.25  23.5264  -999.25  21.4827  -999.25  22.6574 27.1421 1.0254 1.1292
   10051.0000   -0.5348 -999.25  11.8036  -999.25 104.8572 -999.25   2.5839 -999.25    2.9278 -999.25 72.1722  17.3800  -999.25  22.9221  -999.25  20.8109  -999.25  21.9203 27.3229 1.0206 1.1277
   10051.5000   -0.5348 -999.25  12.6646  -999.25 121.5664 -999.25   2.5776 -999.25    2.9218 -999.25 72.6482  17.7100  -999.25  19.8824  -999.25  17.7298  -999.25  18.5131 27.3703 1.0167 1.1240
   10052.0000   -0.5348 -999.25  12.6553  -999.25 120.6255 -999.25   2.5779 -999.25    2.9138 -999.25 72.6169  17.6900  -999.25  19.6898  -999.25  17.5217  -999.25  18.2598 27.3945 1.0179 1.1190
   10052.5000   -0.5348 -999.25  11.8965  -999.25 106.9559 -999.25   2.5835 -999.25    2.9040 -999.25 72.0026  17.2600  -999.25  22.2081  -999.25  19.9946  -999.25  20.9662 27.3600 1.0256 1.1196
   10053.0000   -0.5348 -999.25  12.6393  -999.25 126.0006 -999.25   2.5771 -999.25    2.8989 -999.25 72.2140  17.4100  -999.25  20.9546  -999.25  18.6400  -999.25  19.5281 27.2511 1.0308 1.1248
   10053.5000   -0.5348 -999.25  12.4396  -999.25 121.6622 -999.25   2.5785 -999.25    2.8956 -999.25 72.1615  17.3700  -999.25  21.5460  -999.25  19.2337  -999.25  20.1784 27.1376 1.0323 1.1309
   10054.0000   -0.5348 -999.25  12.4499  -999.25 118.4901 -999.25   2.5787 -999.25    2.9015 -999.25 72.4389  17.5700  -999.25  20.9488  -999.25  18.7215  -999.25  19.5924 26.7812 1.0299 1.1323
   10054.5000   -0.5348 -999.25  12.6143  -999.25 118.9514 -999.25   2.5782 -999.25    2.9195 -999.25 72.6980  17.7500  -999.25  19.7080  -999.25  17.5753  -999.25  18.3239 26.6018 1.0312 1.1314
