###############################################
##         ENVERUS                           ##
##         ESS - Open Hole                   ##
##         PERMIAN / DELAWARE                ##
##         Nov 02 2023  V4.0                 ##
##         42-109-31550-00-00                ##
###############################################
## Copyright 2017-2023  ENVERUS.  All Rights Reserved. 
## Confidential - Property of ENVERUS, use governed by terms and 
## conditions found within the existing Information Services Subscription Agreement 
## (as may be amended, the “ISSA”) between Customer and ENVERUS. 
## 
~VERSION INFORMATION
# MNEM.UNIT                               DATA : DESCRIPTION OF MNEMONIC
#-----.-----     ----------------------------- : -----------------------------
VERS.                                     2.00 : CWLS LOG ASCII STANDARD - VERSION 2.00
WRAP.                                       NO : MULTIPLE LINES PER DEPTH STEP
VEND.                                  ENVERUS : VENDOR
TYPE.                          ESS - OPEN HOLE : ENVERUS ESSENTIAL CURVES – ACCESSIBLE THROUGH ENVERUS PRISM(TM)
DOC.                                  22584426 : ENVERUS HEADER RAW DOCUMENT ID
#___________________________________________________________________________________________________ 
~WELL INFORMATION 
# ASdzl/zqz3tyMoI2i40d5lqA861uk+/GXWRvioHJ4uiq1sQ7a4yIDDt4z64Puw3+ifUTTkKIB4eyCaXtXAsvCw== 
# MNEM.UNIT                                              DATA : DESCRIPTION OF MNEMONIC 
#-----.-----                    ----------------------------- : ----------------------------- 
CNTY.                                               CULBERSON : COUNTY 
STATE.                                                  TEXAS : STATE 
CNTRY.                                                    USA : COUNTRY 
API.                                             42-109-31550 : API (10 Digit) 
API_14.                                    42-109-31550-00-00 : API (14 Digits) 
API_14_std.                                 42-109-31550-0000 : API (14 Digits Standard) 
UWI.                                           42109315500000 : UNIQUE WELL ID 
WELL.                                       UNIVERSITY_6-46-1 : WELL NAME
STRT.FT                                                 249.5 : START DEPTH
STOP.FT                                               10300.0 : STOP DEPTH
STEP.FT                                                   0.5 : STEP BETWEEN DEPTHS
NULL.                                                 -999.25 : NULL VALUE
COMP.                                    MONSANTO OIL COMPANY : COMPANY 
FLD.                                                  WILDCAT : FIELD 
DATE.                                              10/31/2016 : DATE 
TVD.                                                       NO : TVD FLAG 
WSTA.                                                     LOC : WELL STATUS
#___________________________________________________________________________________________________ 
~PARAMETER INFORMATION 
# MNEM.UNIT                                              DATA : DESCRIPTION OF MNEMONIC 
#-----.-----                    ----------------------------- : ----------------------------- 
RUN.                                                      ONE : RUN NUMBER 
PDAT.                                                      GL : PERMANENT DATUM 
LMF.                                            KELLY BUSHING : LOG MEASURED FROM
#___________________________________________________________________________________________________ 
~CURVE INFORMATION 
# MNEM.UNIT           : CURVE DESCRIPTION 
#-----.-----          : ----------------------------- 
 DEPT.FT               : MEASURED DEPTH 
 DT.US/FT              : SONIC DELTA TRANSIT TIME (DELTA-T) 
 RESS_LL.OHMM          : SHALLOW LATEROLOG (LLS - LATERO-LOG SHALLOW (RESISTIVITY)) 
 RESD_LL.OHMM          : DEEP LATEROLOG (LLD - LATERO-LOG DEEP (RESISTIVITY)) 
 #___________________________________________________________________________________________________ 
~A         DEPT             DT        RESS_LL        RESD_LL
# ...
         1173.5         69.067       139.7512       143.6519
         1174.0         68.766       139.8574       141.0169
         1174.5         68.035       133.5083       135.8910
         1175.0         67.040       127.2863       135.8910
         1175.5         66.996       126.1915       135.8910
         1176.0         68.584       129.7449       137.1548
         1176.5         71.787       125.0288       134.6389
         1177.0         72.785       119.3739       130.9515
         1177.5         73.044       123.8767       139.5399
         1178.0         72.467       143.9114       168.8234
         1178.5         69.549       169.3709       214.0914
         1179.0         67.202       235.9656       271.4974
         1179.5         65.637       252.5512       304.0462
         1180.0         64.824       245.8166       318.4491
         1180.5         64.704       236.8083       292.8807
         1181.0         65.787       211.9120       262.1911
         1181.5         66.931       198.6163       241.2332
         1182.0         68.014       189.6332       240.0837
         1182.5         69.218       196.7863       239.0105
         1183.0         69.157       206.1082       261.8320
         1183.5         68.315       217.8793       272.5336
         1184.0         67.412       224.0145       279.5726
         1184.5         66.690       221.9505       263.6571
         1185.0         66.179       204.2092       249.2918
         1185.5         66.118       198.6163       234.9667
         1186.0         66.660       198.6163       243.6245
         1186.5         66.810       200.4634       252.6606
         1187.0         66.720       204.2092       257.3817
         1187.5         66.449       204.2092       243.6174
         1188.0         66.690       191.2126       232.0345
         1188.5         67.442       177.7353       217.0023
         1189.0         68.646       168.1331       202.9439
         1189.5         69.609       165.0490       198.6163
         1190.0         69.563       165.0490       196.7863
         1190.5         68.095       163.5283       196.7863
         1191.0         67.381       150.4568       174.1817
         1191.5         67.830       134.6389       155.6847
         1192.0         69.261       108.8199       137.9223
         1192.5         71.302       100.1215       127.3650
         1193.0         72.122       116.1045       132.5573
         1193.5         71.742       125.0288       144.0647
         1194.0         70.873       130.9515       153.2682
         1194.5         70.330       130.9515       154.6936
         1195.0         70.663       123.8767       146.0317
         1195.5         71.655       112.9247       130.8536
         1196.0         72.648       104.8644       130.8244
         1196.5         73.009       108.8199       137.0175
         1197.0         72.618       116.0639       147.6970
         1197.5         71.595       125.0570       160.5287
         1198.0         70.812       128.8198       166.5839
         1198.5         70.421       129.6174       165.0490
         1199.0         70.301       132.0256       168.0044
         1199.5         69.970       137.1722       180.5690
         1200.0         69.458       139.8679       185.6237
         1200.5         69.639       142.3283       191.3967
         1201.0         69.759       137.1548       177.7353
         1201.5         70.542       129.7449       165.2401
         1202.0         71.143       120.7073       155.7352
         1202.5         71.384       116.1045       148.3178
         1203.0         71.625       112.9247       144.0264
         1203.5         71.929       110.8533       142.0794
         1204.0         72.227       109.8319       141.6629
         1204.5         72.404       109.8319       141.2476
         1205.0         71.978       109.8319       141.0169
         1205.5         70.722       116.1045       149.6365
         1206.0         69.338       121.6045       156.7113
         1206.5         68.195       128.6125       163.5283
         1207.0         68.315       128.6113       162.3325
         1207.5         69.458       119.6033       151.5050
         1208.0         70.542       106.9822       139.9025
         1208.5         70.963       100.1215       130.4735
         1209.0         70.781        96.4822       121.6045
         1209.5         70.476        92.9751       122.3478
         1210.0         70.307        97.7406       126.3585
         1210.5         70.233       104.8644       135.8910
         1211.0         70.000       118.2740       157.5841
         1211.5         69.880       127.3650       172.8675
         1212.0         70.120       130.9515       174.4751
         1212.5         71.083       122.8705       153.9124
         1213.0         71.866       111.7719       139.8470
         1213.5         72.828        96.3781       125.0939
         1214.0         73.490        96.5538       111.1175
         1214.5         74.875        87.9521       102.9409
         1215.0         75.898        83.9741       102.9409
         1215.5         76.138        88.7700       105.9662
         1216.0         75.898        91.2697       112.1805
         1216.5         75.356        96.4822       119.9673
         1217.0         74.621       103.8982       133.5528
         1217.5         72.592       118.2740       150.1959
         1218.0         69.814       141.0169       183.6219
         1218.5         67.133       163.5283       219.9055
         1219.0         65.547       176.0977       224.0145
         1219.5         65.908       176.0977       213.6107
         1220.0         68.024       160.5287       199.8458
         1220.5         69.519       153.2682       184.4396
         1221.0         69.880       157.5841       187.5818
         1221.5         69.579       162.0215       196.7863
         1222.0         68.977       165.0490       196.7863
         1222.5         68.796       165.0490       191.3967
         1223.0         68.857       169.6966       191.3967
         1223.5         68.375       184.3456       215.2348
         1224.0         67.412       240.8782       260.7586
         1224.5         65.607       259.1387       315.2309
         1225.0         64.223       295.7190       392.9920
         1225.5         63.801       333.5343       416.7772
         1226.0         64.841       362.5112       444.9859
         1226.5         66.570       420.7394       562.9596
         1227.0         67.653       605.4874       700.9493
         1227.5         68.195       771.8250       882.0686
         1228.0         68.495       813.6303      1070.7133
         1228.5         68.814       748.4073       996.0157
         1229.0         69.304       515.1714       549.8269
         1229.5         70.264       267.0903       247.5960
         1230.0         71.387       151.2326       108.8199
         1230.5         72.708        90.4287        76.5499
         1231.0         74.092        69.7820        68.5020
         1231.5         75.657        71.0859        79.4374
         1232.0         75.777        84.6319       107.8173
         1232.5         75.477       103.8982       122.7354
         1233.0         74.874       143.6817       155.4806
         1233.5         73.485       168.2893       238.3578
         1234.0         72.398       181.0559       235.1001
         1234.5         71.264       181.0564       211.9120
         1235.0         70.181       168.1331       224.0145
         1235.5         68.796       160.5287       209.9595
         1236.0         67.412       159.0496       202.3276
         1236.5         67.132       153.2682       194.9731
         1237.0         67.713       143.6519       177.7353
         1237.5         69.639       135.7750       169.6966
         1238.0         70.870       145.6192       166.5839
         1238.5         70.265       162.0102       207.1842
         1239.0         68.819       194.9731       251.5172
