###############################################
##         ENVERUS                           ##
##         ESS - Open Hole                   ##
##         PERMIAN / DELAWARE                ##
##         Nov 02 2023  V4.0                 ##
##         42-109-30915-00-00                ##
###############################################
## Copyright 2017-2023  ENVERUS.  All Rights Reserved. 
## Confidential - Property of ENVERUS, use governed by terms and 
## conditions found within the existing Information Services Subscription Agreement 
## (as may be amended, the “ISSA”) between Customer and ENVERUS. 
## 
~VERSION INFORMATION
# MNEM.UNIT                               DATA : DESCRIPTION OF MNEMONIC
#-----.-----     ----------------------------- : -----------------------------
VERS.                                     2.00 : CWLS LOG ASCII STANDARD - VERSION 2.00
WRAP.                                       NO : MULTIPLE LINES PER DEPTH STEP
VEND.                                  ENVERUS : VENDOR
TYPE.                          ESS - OPEN HOLE : ENVERUS ESSENTIAL CURVES – ACCESSIBLE THROUGH ENVERUS PRISM(TM)
DOC.                                  32305988 : ENVERUS HEADER RAW DOCUMENT ID
#___________________________________________________________________________________________________ 
~WELL INFORMATION 
# YiEbrulvYUtXh1D3opxUtnvhUVpPAvxlEBgV2kjbCTHvWrxGcz1+vOa1jEIuqGtoxi0rQ+ZQV9RU/rHAPCAAKQ== 
# MNEM.UNIT                                              DATA : DESCRIPTION OF MNEMONIC 
#-----.-----                    ----------------------------- : ----------------------------- 
CNTY.                                               CULBERSON : COUNTY 
STATE.                                                  TEXAS : STATE 
CNTRY.                                                    USA : COUNTRY 
API.                                             42-109-30915 : API (10 Digit) 
API_14.                                    42-109-30915-00-00 : API (14 Digits) 
API_14_std.                                 42-109-30915-0000 : API (14 Digits Standard) 
UWI.                                           42109309150000 : UNIQUE WELL ID 
WELL.                             VELMA CASEY ROUNSAVILLE A 1 : WELL NAME
STRT.FT                                                  82.0 : START DEPTH
STOP.FT                                               11225.0 : STOP DEPTH
STEP.FT                                                   0.5 : STEP BETWEEN DEPTHS
NULL.                                                 -999.25 : NULL VALUE
#___________________________________________________________________________________________________ 
~CURVE INFORMATION 
# MNEM.UNIT           : CURVE DESCRIPTION 
#-----.-----          : ----------------------------- 
 DEPT.FT               : MEASURED DEPTH 
 CALI.IN               : CALIPER (CAL - CAL) 
 GR.API                : GAMMA RAY (GR) 
 DT.US/FT              : SONIC DELTA TRANSIT TIME (DT) 
 NPHI.V/V              : NEUTRON POROSITY (NPHI) 
 RHOB.G/CC             : BULK DENSITY (RHOB) 
 #___________________________________________________________________________________________________ 
~A         DEPT           CALI             GR             DT           NPHI           RHOB
# ...
         8794.0          7.485        123.111         64.144        0.16196         2.6319
         8794.5          7.486        120.182         64.092        0.16032         2.6341
         8795.0          7.487        122.638         64.040        0.15867         2.6524
         8795.5          7.487        125.093         63.988        0.15703         2.6708
         8796.0          7.488        125.609         63.936        0.15538         2.6892
         8796.5          7.489        123.625         63.884        0.15374         2.6925
         8797.0          7.490        121.642         64.226        0.15105         2.6889
         8797.5          7.491        119.658         63.816        0.14810         2.6854
         8798.0          7.492        117.671         62.190        0.14514         2.6818
         8798.5          7.492        114.281         60.564        0.14218         2.6782
         8799.0          7.493        110.891         58.939        0.05799         2.6746
         8799.5          7.494        107.501         57.313        0.06245         2.6711
         8800.0          7.495        104.111         58.962        0.06692         2.6719
         8800.5          7.496        100.721         61.219        0.07138         2.6780
         8801.0          7.496         97.331         63.476        0.07645         2.6842
         8801.5          7.497         93.941         65.234        0.08360         2.6903
         8802.0          7.498         93.224         65.295        0.09074         2.6965
         8802.5          7.499         98.399         64.926        0.09788         2.7026
         8803.0          7.500        103.575         63.930        0.10502         2.7044
         8803.5          7.500        108.751         62.935        0.11200         2.6993
         8804.0          7.501        113.927         61.939        0.11854         2.6942
         8804.5          7.502        119.103         60.943        0.12507         2.6891
         8805.0          7.503        124.278         59.948        0.13161         2.6841
         8805.5          7.503        128.658         59.375        0.13814         2.6790
         8806.0          7.503        124.536         59.282        0.14468         2.6739
         8806.5          7.503        120.414         59.249        0.14233         2.6688
         8807.0          7.503        116.292         59.528        0.13714         2.6637
         8807.5          7.502        112.170         60.780        0.13196         2.6586
         8808.0          7.502        108.048         62.086        0.12677         2.6537
         8808.5          7.502        106.340         63.251        0.09001         2.6587
         8809.0          7.502        110.484         63.312        0.09812         2.6638
         8809.5          7.502        114.629         63.163        0.10623         2.6688
         8810.0          7.502        118.773         62.505        0.11434         2.6739
         8810.5          7.502        122.917         61.848        0.12246         2.6789
         8811.0          7.501        127.061         61.190        0.13057         2.6840
         8811.5          7.501        129.399         60.532        0.13868         2.6890
         8812.0          7.501        125.453         59.874        0.14109         2.6881
         8812.5          7.501        121.508         59.899        0.13591         2.6791
         8813.0          7.501        117.562         60.080        0.13074         2.6701
         8813.5          7.501        113.616         60.262        0.12556         2.6610
         8814.0          7.501        109.670         60.444        0.12038         2.6520
         8814.5          7.500        105.725         60.625        0.09648         2.6430
         8815.0          7.500        101.779         60.807        0.07186         2.6339
         8815.5          7.500         97.833         60.989        0.07395         2.6256
         8816.0          7.500        101.786         61.126        0.07604         2.6250
         8816.5          7.500        106.681         60.775        0.07813         2.6243
         8817.0          7.500        106.031         60.423        0.08022         2.6238
         8817.5          7.500        105.382         60.071        0.08231         2.6434
         8818.0          7.499        104.732         59.720        0.07590         2.6616
         8818.5          7.499        104.082         59.368        0.06397         2.6540
         8819.0          7.499        103.433         59.301        0.06518         2.6465
         8819.5          7.499        102.783         60.798        0.07076         2.6390
         8820.0          7.499        106.508         62.296        0.07635         2.6314
         8820.5          7.499        111.490         62.909        0.08194         2.6239
         8821.0          7.499        116.473         63.423        0.09126         2.6268
         8821.5          7.498        121.455         63.937        0.10082         2.6318
         8822.0          7.498        126.437         64.596        0.11039         2.6368
         8822.5          7.498        128.584         65.310        0.11996         2.6418
         8823.0          7.498        125.471         66.025        0.12791         2.6468
         8823.5          7.498        124.555         66.432        0.13342         2.6518
         8824.0          7.498        126.524         64.147        0.13892         2.6568
         8824.5          7.498        128.493         61.861        0.14443         2.6618
         8825.0          7.497        130.461         59.575        0.14993         2.6668
         8825.5          7.497        131.644         57.289        0.15543         2.6554
         8826.0          7.497        127.008         58.858        0.15619         2.6375
         8826.5          7.497        122.372         60.430        0.14993         2.6450
         8827.0          7.497        117.736         60.533        0.14366         2.6714
         8827.5          7.497        113.101         60.636        0.13740         2.6977
         8828.0          7.497        108.465         60.575        0.13114         2.7240
         8828.5          7.496        103.829         60.280        0.07402         2.7193
         8829.0          7.496         99.211         59.986        0.08011         2.7025
         8829.5          7.496        110.683         59.691        0.08621         2.6856
         8830.0          7.496        118.225         59.396        0.09231         2.6688
         8830.5          7.496        115.395         59.102        0.09841         2.6520
         8831.0          7.496        112.566         58.915        0.10354         2.6351
         8831.5          7.496        109.737         58.844        0.09857         2.6183
         8832.0          7.495        106.908         58.773        0.09360         2.6115
         8832.5          7.495        104.079         58.859        0.08863         2.6078
         8833.0          7.495        101.249         59.319        0.06426         2.6040
         8833.5          7.495         98.420         59.780        0.06663         2.6003
         8834.0          7.495         98.571         60.177        0.06900         2.6056
         8834.5          7.495        100.615         60.106        0.07137         2.6163
         8835.0          7.495        102.659         60.035        0.07390         2.6270
         8835.5          7.494        104.704         59.964        0.07749         2.6360
         8836.0          7.494        106.748         59.462        0.08108         2.6342
         8836.5          7.494        108.792         58.928        0.08467         2.6325
         8837.0          7.494        110.837         58.394        0.08827         2.6308
         8837.5          7.494        112.881         57.861        0.09186         2.6365
