# Exported from Transform Software 5.2.0 on 27-Jun-2019 by user brian.umlang
# DI Transform - A Product of Drillinginfo, Inc. - www.drillinginfo.com
#
~VERSION INFORMATION
 VERS.        2.0 : LAS ASCII STANDARD - VERSION 2.0
 WRAP.         NO : ONE LINE PER DEPTH STEP

~WELL INFORMATION
#MNEM.UNIT       DATA TYPE       INFORMATION
#---------       ---------       -----------
 STRT.ft                   0 : Start Depth
 STOP.ft               12430 : Stop Depth
 STEP.ft                 0.5 : Step Length
 NULL.               -999.25 : Null Value
 COMP.                       : Company
 WELL.  42109313590000_API14 : Well Name
 FLD.                        : Field Name
 LOC.                        : Well Location
 CNTY.                       : County
 STAT.                       : State or Province
 CTRY.                       : Country
 SRVC.                       : Service Company
 DATE.                       : Date
 API.         42109313590000 : Well Identifier

~CURVE INFORMATION
#MNEM.UNIT       API CODE       CURVE DESCRIPTION
#---------       --------       -----------------
 DEPT.ft          : <Measured Depth>
 CAL.in           : Caliper
 DPHI.%           : Density Porosity
 DT.us/ft         : Sonic
 GR.gAPI          : Gamma Ray
 ILD.ohmm         : Deep Resistivity
 ILM.ohmm         : Medium Resistivity
 ILS.ohmm         : Shallow Resistivity
 NPHI.%           : Neutron Porosity
 RHOB.g/cm3       : Density
 SP.mV            : Spontaneous Potential

~PARAMETER INFORMATION
#MNEM.UNIT       VALUE       DESCRIPTION
#---------       -----       -----------
 EKB.ft      3771 : Elevation above MSL

~A      DEPT         CAL        DPHI          DT          GR         ILD         ILM         ILS        NPHI        RHOB          SP
# ...
      4300.5     13.3557     29.9202     70.8929     24.9942     14.4372     12.7728     17.8048     29.8018      2.4589      7.3373
        4301     13.3359     29.9202     71.3997     26.4979     14.4838     12.2251     17.8048     29.8018      2.4698       6.481
      4301.5      13.316     29.9202     71.3056     26.4856      14.503      11.712     17.2202     29.8018      2.4456      5.6539
        4302     13.2947     29.9202     70.5288     25.2285      14.503     11.5187     17.8048     29.8018      2.4696      5.0161
      4302.5     13.2636     29.9202     69.1692     25.4334      14.503     11.5187     18.2415     29.8018      2.4723      4.3784
        4303     13.2324     29.9202     68.6345     22.0903      14.503     11.3872     19.1986     29.8018      2.4411      3.7122
      4303.5     13.2013     29.9202     69.1716      25.641      14.503     11.6636     18.8024     29.8018      2.4652      2.6834
        4304     13.1701     29.9202     69.5496     24.8845     14.5395     12.9516      17.509     29.8018      2.4697      1.6546
      4304.5      13.139     29.9202     70.1605     25.4357     14.5628       12.64     17.4024     29.8018      2.4745      0.6258
        4305     13.1079     29.9202     69.2579     26.6928     14.5628     11.9111     16.5329     29.8018      2.4746      -0.403
      4305.5     13.0767     29.9202     67.7482       27.95      14.622     12.2111      15.839     29.8018      2.4706     -1.4318
        4306     13.0456     29.9202     66.4387     28.5996     15.3247     12.8532     19.8675     29.8018      2.4686     -2.4606
      4306.5     13.0145     29.9202     65.9662     30.4417     16.9156     12.9516     22.6123     29.8018      2.4737     -3.4894
        4307     12.9833     29.9202     65.5702     45.8959     18.3081     13.1704     26.9176     29.8018       2.483     -4.5182
      4307.5     12.9522     29.4395     64.6547     49.9967     18.7223     13.0606     31.2943     29.8018      2.4866      -5.547
        4308      12.921     29.5905     63.6125     58.6438     18.7223     13.5699     35.9796     29.8018      2.5045     -6.5758
      4308.5     12.8899     25.6556     63.4067     59.4181     18.7223     14.1643     35.9796     29.8018      2.5194     -7.4455
        4309     12.8588     24.2515     63.3533     58.4179     18.7223     14.2977     35.7379     29.8018       2.536     -8.2533
      4309.5     12.8276      24.688     63.7673     58.2238     18.1169     14.1556     34.2379     29.8018       2.549     -9.0611
        4310     12.7965     24.8902     64.8881     59.4181     18.1055     13.7336     34.2163     29.8018      2.5708     -9.2308
      4310.5     12.7653     24.4838     65.1261     59.6647     18.1304     13.5055     34.2163     29.8018      2.5674     -9.2308
        4311     12.7342      23.896     65.0656     59.6647     18.5662     13.2812     34.2163     29.8018      2.5674     -9.2308
      4311.5     12.7031     23.4889     64.9861      60.684      18.629     13.2812      33.648     29.8018      2.5709     -9.2308
        4312     12.6719     22.0439     64.4474     62.0623     19.9399     13.7939      33.648     29.8018      2.5819     -9.2308
      4312.5     12.6408     21.3475     62.6649     52.9182     20.7016     14.3982     33.8295     29.8018      2.5982     -9.2308
        4313     12.6331     21.2974     60.5062     46.0618     20.8757     14.4414     34.4353     29.8018      2.6012     -9.2308
      4313.5     12.6331     22.5663     59.1572     44.3919     20.8757     14.3209      38.424     29.8018      2.5924     -9.2308
        4314     12.6331     23.9358     59.3517     43.6278     20.8757     14.3209     42.5401     29.8018      2.6005     -9.2308
      4314.5      12.636     24.8906     61.1894     42.6884     20.8757     14.3209     42.5401     29.8018      2.6077     -9.2308
        4315     12.6485     25.3887      64.209     46.8708     21.2283     14.5628     41.8335     29.8018      2.5894     -9.2308
      4315.5     12.6611     26.5028       65.36     56.4302     21.2283     14.7295     41.8335     29.8018      2.5854     -9.2308
        4316     12.6737     27.3653     65.4316     61.3614     21.2283     14.8088     41.8335     29.8018      2.5737     -9.2308
      4316.5     12.6862      27.568     64.3692     55.8334     21.2283     14.8088     42.1494     29.8018      2.5714     -9.2308
        4317     12.6988     27.3287     62.7784     49.5265     21.2283     14.8088     41.8335     29.8018      2.5726     -9.2308
      4317.5     12.7095     26.5878     61.7273     35.4741     21.1834     14.6031     41.5418     29.8018      2.5564     -9.2308
        4318     12.7167      26.487     61.5816     26.9141     20.3654      14.083     41.4846     29.8018      2.5612     -9.2308
      4318.5     12.7239      26.487      61.554     26.3807     19.5107     13.7336     41.4846     29.8018      2.5497     -9.2308
        4319     12.7311     26.6576     61.7528     26.3807     18.9129     13.6191     41.4846     29.8018      2.5549     -9.2308
      4319.5     12.7383     28.5735     62.3128     25.9617     18.1055     13.5055     39.0201     29.8018      2.5621     -9.2308
        4320     12.7455     28.9806     63.7714     24.9585     18.1055     13.5055     37.6969     29.8018      2.5666     -9.2308
      4320.5     12.7526     29.4675     65.5561     26.3807     16.1629     13.3929      28.728     29.8018      2.5679     -9.2308
        4321     12.7598     29.5665     65.6868     26.3807     16.6055     13.3929     27.0641     29.8018      2.5636     -9.2308
      4321.5      12.767     28.9387     64.7192     26.3807      16.791     13.4938     26.8384     29.8018      2.5538     -9.2308
        4322     12.7742     28.3234     63.2177     25.3945      16.791     13.5055     26.8384     29.8018      2.5446     -9.2308
      4322.5     12.7814     28.1746     62.7945        28.9      16.791     13.7336      31.205     29.8018      2.5307     -9.2308
        4323     12.7886     28.2295     63.5695     30.5288       16.77     13.3929     30.4308     29.8018      2.5299     -9.2308
      4323.5     12.7958     28.3234     64.5185     31.7859     16.5121     13.1704     28.9395     29.8018      2.5339     -9.2308
        4324     12.8029     28.1637     64.8405     32.5444     16.5121     13.1704     28.9395     29.8018      2.5455     -9.2308
      4324.5     12.8101     28.2629      65.005     29.3093     16.5121     13.4501     28.6981     29.8018      2.5457     -9.2308
        4325     12.8173     29.1393     65.1491     28.0522     16.0181     13.5055     28.0736     29.8018      2.5492     -9.2308
      4325.5     12.8245     29.7061     65.7677     26.7951     15.5719     13.7336     26.6711     29.8018      2.5459     -9.2308
        4326     12.8317     29.7605     66.5256     24.5518     15.5719     13.7336     25.5517     29.8018      2.5425     -9.2308
      4326.5     12.8389     29.9202     67.4724     19.5965     15.1856     13.8491     23.4753     29.8018      2.5532     -9.2308
        4327      12.846     29.9202     67.7296     18.3394     15.1856      13.049     22.4902     29.8018      2.5458     -9.2308
      4327.5     12.8532     29.9202     67.5774     17.0823     14.6577     12.7365     21.9515     29.8018      2.5349     -9.2308
        4328     12.8996     29.9202     67.3663     16.0717     14.0426     12.7365     21.9515     29.8018      2.5193     -9.2308
      4328.5     12.9591     29.9202     67.3149     17.2584     13.6191     12.5814     22.1361     29.8018      2.5098     -9.2308
        4329     13.0187     29.9202     67.5604     16.0229     13.6524     12.0534     21.6625     29.8018      2.5035     -9.2308
      4329.5     13.0775     29.9202     67.8984     13.6984     13.7336     12.0113     21.5869     29.8018      2.4905     -9.2308
        4330     13.1026     29.9202     68.0928     12.6254     13.7336     12.0113     21.5869     29.8018      2.5065     -9.2308
      4330.5     13.1277     29.9202     68.3003     14.1291     13.7336     12.0113     21.5869     29.8018      2.5054     -9.2308
