###############################################
##         ENVERUS                           ##
##         ESS - Open Hole                   ##
##         PERMIAN / DELAWARE                ##
##         Nov 02 2023  V4.0                 ##
##         42-109-31383-00-00                ##
###############################################
## Copyright 2017-2023  ENVERUS.  All Rights Reserved. 
## Confidential - Property of ENVERUS, use governed by terms and 
## conditions found within the existing Information Services Subscription Agreement 
## (as may be amended, the “ISSA”) between Customer and ENVERUS. 
## 
~VERSION INFORMATION
# MNEM.UNIT                               DATA : DESCRIPTION OF MNEMONIC
#-----.-----     ----------------------------- : -----------------------------
VERS.                                     2.00 : CWLS LOG ASCII STANDARD - VERSION 2.00
WRAP.                                       NO : MULTIPLE LINES PER DEPTH STEP
VEND.                                  ENVERUS : VENDOR
TYPE.                          ESS - OPEN HOLE : ENVERUS ESSENTIAL CURVES – ACCESSIBLE THROUGH ENVERUS PRISM(TM)
DOC.                                  31887493 : ENVERUS HEADER RAW DOCUMENT ID
#___________________________________________________________________________________________________ 
~WELL INFORMATION 
# e8MMFGpko9nixUfuEkfb9P8cKS4olzuguLrtdgPIjARTX3oRymgI2EYtnk6GmA/F0PbYW2Z7xnLx5OgyGayifw== 
# MNEM.UNIT                                              DATA : DESCRIPTION OF MNEMONIC 
#-----.-----                    ----------------------------- : ----------------------------- 
CNTY.                                               CULBERSON : COUNTY 
STATE.                                                  TEXAS : STATE 
CNTRY.                                                    USA : COUNTRY 
API.                                             42-109-31383 : API (10 Digit) 
API_14.                                    42-109-31383-00-00 : API (14 Digits) 
API_14_std.                                 42-109-31383-0000 : API (14 Digits Standard) 
UWI.                                           42109313830000 : UNIQUE WELL ID 
WELL.                                          KIRK  T. A.  1 : WELL NAME
STRT.FT                                                  43.0 : START DEPTH
STOP.FT                                               16492.0 : STOP DEPTH
STEP.FT                                                   0.5 : STEP BETWEEN DEPTHS
NULL.                                                 -999.25 : NULL VALUE
COMP.                                             EXXON CORP. : COMPANY 
DATE.                                             05-AUG-1981 : LOG DATE
#___________________________________________________________________________________________________ 
~CURVE INFORMATION 
# MNEM.UNIT           : CURVE DESCRIPTION 
#-----.-----          : ----------------------------- 
 DEPT.FT               : MEASURED DEPTH 
 CALI.IN               : CALIPER (CAL - CAL) 
 GR.API                : GAMMA RAY (GR) 
 SP.MV                 : SPONTANEOUS POTENTIAL (SP) 
 DT.US/FT              : SONIC DELTA TRANSIT TIME (DT) 
 RESS.OHMM             : SHALLOW INDUCTION RESISTIVITY (ILS - ILS) 
 RESD.OHMM             : DEEP INDUCTION RESISTIVITY (ILD - ILD) 
 NPHI.V/V              : NEUTRON POROSITY (NPHI) 
 #___________________________________________________________________________________________________ 
~A         DEPT           CALI             GR             SP             DT           RESS           RESD           NPHI
# ...
        13778.0          9.607         37.838       -999.250         54.547       1677.358        102.707     -999.25000
        13778.5          9.639         38.151       -999.250         54.802       1726.217        497.487     -999.25000
        13779.0          9.671         38.665       -999.250         55.057       1726.132       1264.993     -999.25000
        13779.5          9.703         39.179       -999.250         55.313       1726.047       1625.018     -999.25000
        13780.0          9.735         39.948       -999.250         55.565       1393.027       1524.764     -999.25000
        13780.5          9.767         43.632       -999.250         55.367       1054.578       1066.411     -999.25000
        13781.0          9.799         47.025       -999.250         55.169        716.129        368.094     -999.25000
        13781.5          9.831         49.278       -999.250         54.971        377.680        184.497     -999.25000
        13782.0          9.863         50.507       -999.250         54.773        305.920         96.507     -999.25000
        13782.5          9.895         49.374       -999.250         54.890        239.791         87.641     -999.25000
        13783.0          9.927         48.240       -999.250         55.127        173.662         78.775     -999.25000
        13783.5          9.950         47.107       -999.250         55.363        107.533         69.909     -999.25000
        13784.0          9.953         45.974       -999.250         55.599         60.287         61.043     -999.25000
        13784.5          9.956         44.840       -999.250         55.835         54.743         52.177     -999.25000
        13785.0          9.959         43.707       -999.250         56.184         49.200         43.311     -999.25000
        13785.5          9.962         42.574       -999.250         57.912         43.409         34.444     -999.25000
        13786.0          9.965         41.441       -999.250         60.490         37.430         28.013     -999.25000
        13786.5          9.968         40.307       -999.250         63.068         31.452         24.238     -999.25000
        13787.0          9.971         39.174       -999.250         65.646         25.473         20.464     -999.25000
        13787.5          9.974         40.280       -999.250         66.563         19.494         16.689     -999.25000
        13788.0          9.983         41.728       -999.250         67.470         15.316         12.914     -999.25000
        13788.5         10.005         43.175       -999.250         68.378         14.325         10.433     -999.25000
        13789.0         10.027         45.920       -999.250         68.808         13.335          9.734     -999.25000
        13789.5         10.049         49.280       -999.250         69.045         12.344          9.036     -999.25000
        13790.0         10.071         52.639       -999.250         69.357         11.353          8.338     -999.25000
        13790.5         10.093         52.518       -999.250         69.684         10.362          7.640     -999.25000
        13791.0         10.116         49.461       -999.250         70.355          9.371          6.941     -999.25000
        13791.5         10.138         46.404       -999.250         71.052          8.380          6.243     -999.25000
        13792.0         10.160         43.347       -999.250         71.749          8.184          6.079     -999.25000
        13792.5         10.239         55.451       -999.250         71.791          8.127          5.949     -999.25000
        13793.0         10.325         53.861       -999.250         71.304          8.211          5.819     -999.25000
        13793.5         10.411         52.272       -999.250         70.163          9.148          5.689     -999.25000
        13794.0         10.496         50.683       -999.250         69.022         10.085          5.558     -999.25000
        13794.5         10.582         48.900       -999.250         67.881         11.022          5.528     -999.25000
        13795.0         10.668         45.443       -999.250         66.741         11.165          5.499     -999.25000
        13795.5         10.754         41.987       -999.250         67.420         10.359          5.470     -999.25000
        13796.0         10.824         38.531       -999.250         68.482          9.552          5.441     -999.25000
        13796.5         10.832         35.798       -999.250         69.544          8.746          5.412     -999.25000
        13797.0         10.839         39.095       -999.250         70.606          7.940          5.383     -999.25000
        13797.5         10.847         42.392       -999.250         71.668          7.925          5.373     -999.25000
        13798.0         10.855         45.689       -999.250         71.268          8.284          5.604     -999.25000
        13798.5         10.863         48.987       -999.250         70.504          8.643          5.834     -999.25000
        13799.0         10.871         50.353       -999.250         69.740         10.928          6.065     -999.25000
        13799.5         10.879         50.941       -999.250         68.976         13.243          6.296     -999.25000
        13800.0         10.886         51.528       -999.250         68.211         15.558          6.526     -999.25000
        13800.5         10.894         52.116       -999.250         67.061         17.873          7.050     -999.25000
        13801.0         10.902         53.368       -999.250         65.806         18.079          7.727     -999.25000
        13801.5         10.861         57.049       -999.250         64.552         17.221          8.404     -999.25000
        13802.0         10.812         56.003       -999.250         63.298         16.364          8.985     -999.25000
        13802.5         10.764         54.773       -999.250         62.044         15.506          9.242     -999.25000
        13803.0         10.715         53.543       -999.250         62.617         14.649          9.500     -999.25000
        13803.5         10.667         52.313       -999.250         63.925         13.791          9.800     -999.25000
        13804.0         10.618         51.083       -999.250         65.232         12.933         10.213     -999.25000
        13804.5         10.570         50.086       -999.250         66.539         14.396         10.626     -999.25000
        13805.0         10.521         51.562       -999.250         67.847         16.237         11.039     -999.25000
        13805.5         10.473         53.038       -999.250         66.448         17.833         11.451     -999.25000
        13806.0         10.424         54.513       -999.250         64.908         18.371         11.864     -999.25000
        13806.5         10.376         55.989       -999.250         63.582         19.543         12.277     -999.25000
        13807.0         10.327         54.706       -999.250         63.259         21.346         12.689     -999.25000
        13807.5         10.279         51.731       -999.250         62.937         23.149         12.734     -999.25000
        13808.0         10.230         48.756       -999.250         62.614         22.853         12.734     -999.25000
        13808.5         10.182         45.780       -999.250         62.587         20.316         12.733     -999.25000
        13809.0         10.133         42.805       -999.250         63.225         17.779         12.733     -999.25000
        13809.5         10.122         41.646       -999.250         63.862         15.242         12.732     -999.25000
        13810.0         10.133         44.453       -999.250         64.500         13.633         12.731     -999.25000
        13810.5         10.144         47.260       -999.250         65.138         13.632         12.731     -999.25000
        13811.0         10.155         50.067       -999.250         65.776         13.631         13.804     -999.25000
