###############################################
##         ENVERUS                           ##
##         ESS - Open Hole                   ##
##         PERMIAN / DELAWARE                ##
##         Nov 02 2023  V4.0                 ##
##         42-109-31375-00-00                ##
###############################################
## Copyright 2017-2023  ENVERUS.  All Rights Reserved. 
## Confidential - Property of ENVERUS, use governed by terms and 
## conditions found within the existing Information Services Subscription Agreement 
## (as may be amended, the “ISSA”) between Customer and ENVERUS. 
## 
~VERSION INFORMATION
# MNEM.UNIT                               DATA : DESCRIPTION OF MNEMONIC
#-----.-----     ----------------------------- : -----------------------------
VERS.                                     2.00 : CWLS LOG ASCII STANDARD - VERSION 2.00
WRAP.                                       NO : MULTIPLE LINES PER DEPTH STEP
VEND.                                  ENVERUS : VENDOR
TYPE.                          ESS - OPEN HOLE : ENVERUS ESSENTIAL CURVES – ACCESSIBLE THROUGH ENVERUS PRISM(TM)
DOC.                                  32006335 : ENVERUS HEADER RAW DOCUMENT ID
#___________________________________________________________________________________________________ 
~WELL INFORMATION 
# Eb7Zbut2Nwqt2ftj1i2q6V2Ye1Joym9Qrd6BFF0aHeZ6Mf1z+VAuEcbs4uVngcAWjTW62nvWGWatc34NWk2mnA== 
# MNEM.UNIT                                              DATA : DESCRIPTION OF MNEMONIC 
#-----.-----                    ----------------------------- : ----------------------------- 
CNTY.                                               CULBERSON : COUNTY 
STATE.                                                  TEXAS : STATE 
CNTRY.                                                    USA : COUNTRY 
API.                                             42-109-31375 : API (10 Digit) 
API_14.                                    42-109-31375-00-00 : API (14 Digits) 
API_14_std.                                 42-109-31375-0000 : API (14 Digits Standard) 
UWI.                                           42109313750000 : UNIQUE WELL ID 
WELL.                                      7806 JV-P DUVAL  1 : WELL NAME
STRT.FT                                                     0 : START DEPTH
STOP.FT                                               15739.0 : STOP DEPTH
STEP.FT                                                   0.5 : STEP BETWEEN DEPTHS
NULL.                                                 -999.25 : NULL VALUE
COMP.                                  BTA OIL PRODUCERS  LLC : COMPANY 
DATE.                                             26-MAY-1978 : LOG DATE
#___________________________________________________________________________________________________ 
~CURVE INFORMATION 
# MNEM.UNIT           : CURVE DESCRIPTION 
#-----.-----          : ----------------------------- 
 DEPT.FT               : MEASURED DEPTH 
 CALI.IN               : CALIPER (CAL - CAL) 
 GR.API                : GAMMA RAY (GR) 
 DT.US/FT              : SONIC DELTA TRANSIT TIME (DT) 
 #___________________________________________________________________________________________________ 
~A         DEPT           CALI             GR             DT
# ...
         4950.0         13.080         72.429         63.535
         4950.5         13.056         69.696         64.562
         4951.0         13.042         65.745         64.833
         4951.5         13.029         59.826         64.551
         4952.0         13.016         53.908         64.268
         4952.5         13.002         52.580         63.773
         4953.0         12.989         53.706         63.249
         4953.5         12.975         54.831         62.726
         4954.0         12.962         55.957         62.990
         4954.5         12.937         65.987         63.518
         4955.0         12.911         73.249         64.046
         4955.5         12.886         80.511         64.574
         4956.0         12.860         87.773         65.102
         4956.5         12.839         95.035         65.454
         4957.0         12.836        101.811         65.394
         4957.5         12.833        104.450         65.334
         4958.0         12.831        107.090         65.274
         4958.5         12.828        109.729         65.214
         4959.0         12.825        107.288         65.154
         4959.5         12.823        103.371         65.094
         4960.0         12.820         99.089         65.300
         4960.5         12.817         94.807         65.732
         4961.0         12.815         90.525         66.165
         4961.5         12.829         86.243         66.119
         4962.0         12.866         74.891         65.971
         4962.5         12.902         60.616         65.823
         4963.0         12.939         51.542         65.449
         4963.5         12.960         46.807         64.965
         4964.0         12.967         46.268         64.481
         4964.5         12.974         47.636         63.997
         4965.0         12.972         49.615         63.725
         4965.5         12.928         59.749         64.350
         4966.0         12.885         78.454         64.975
         4966.5         12.842         96.009         65.599
         4967.0         12.798        111.858         66.224
         4967.5         12.792        112.156         66.849
         4968.0         12.800        112.453         66.382
         4968.5         12.808        113.729         65.529
         4969.0         12.816        116.036         65.681
         4969.5         12.824        118.342         65.883
         4970.0         12.832        110.789         66.086
         4970.5         12.840         94.315         66.289
         4971.0         12.847         64.821         63.592
         4971.5         12.855         52.158         60.817
         4972.0         12.866         39.512         59.763
         4972.5         12.878         45.208         58.709
         4973.0         12.889         51.472         57.725
         4973.5         12.901         58.931         58.707
         4974.0         12.912         63.939         59.689
         4974.5         12.924         65.091         60.670
         4975.0         12.934         66.273         61.652
         4975.5         12.944         67.828         62.627
         4976.0         12.954         69.383         62.990
         4976.5         12.964         70.937         63.353
         4977.0         12.974         72.320         63.213
         4977.5         12.962         70.395         62.904
         4978.0         12.949         68.470         62.594
         4978.5         12.936         66.545         62.375
         4979.0         12.922         65.645         62.648
         4979.5         12.909         68.491         62.921
         4980.0         12.898         71.337         63.194
         4980.5         12.889         74.388         63.467
         4981.0         12.881         79.897         63.691
         4981.5         12.872         85.160         63.886
         4982.0         12.863         88.510         64.082
         4982.5         12.855         91.860         64.789
         4983.0         12.846         95.209         65.541
         4983.5         12.837         94.510         66.188
         4984.0         12.829         91.026         66.374
         4984.5         12.820         83.849         66.560
         4985.0         12.811         77.129         66.715
         4985.5         12.803         71.141         65.679
         4986.0         12.794         73.825         64.642
         4986.5         12.787         87.648         63.606
         4987.0         12.780         96.738         63.341
         4987.5         12.774        100.819         63.977
         4988.0         12.767        104.899         64.612
         4988.5         12.761        105.439         65.248
         4989.0         12.755        105.436         65.884
         4989.5         12.748        105.433         66.510
         4990.0         12.742        106.977         66.250
         4990.5         12.735        109.300         65.989
         4991.0         12.729        109.192         66.159
         4991.5         12.723        104.621         66.462
         4992.0         12.716         98.319         66.720
         4992.5         12.710         97.513         66.065
         4993.0         12.703         99.559         65.410
         4993.5         12.697        101.604         65.125
         4994.0         12.691        105.181         65.491
         4994.5         12.692        114.411         65.857
         4995.0         12.694        114.213         66.223
         4995.5         12.696        103.049         66.589
         4996.0         12.698         84.687         66.360
         4996.5         12.700         74.621         65.174
         4997.0         12.701         79.870         63.987
         4997.5         12.703         85.118         62.801
         4998.0         12.705         90.367         62.791
         4998.5         12.707         95.615         64.700
         4999.0         12.709         92.499         66.305
         4999.5         12.710         82.332         64.146
         5000.0         12.712         70.500         61.987
         5000.5         12.711         60.334         64.672
         5001.0         12.711         62.757         68.050
         5001.5         12.711         65.567         66.601
         5002.0         12.711         71.407         65.147
         5002.5         12.711         75.964         63.693
         5003.0         12.710         73.465         63.422
         5003.5         12.710         71.567         63.293
         5004.0         12.710         76.480         63.163
         5004.5         12.710         82.171         63.180
         5005.0         12.714         89.076         63.551
         5005.5         12.720        101.924         63.921
         5006.0         12.714        123.782         64.292
         5006.5         12.708        123.332         64.663
         5007.0         12.701        114.587         65.034
         5007.5         12.695         99.822         65.405
         5008.0         12.689         84.242         64.074
         5008.5         12.682         72.363         62.659
         5009.0         12.676         76.345         61.244
         5009.5         12.673         80.327         61.513
         5010.0         12.677         97.481         62.092
         5010.5         12.681        103.996         62.671
         5011.0         12.689        110.511         63.249
         5011.5         12.701        113.885         63.828
         5012.0         12.713        115.515         64.407
         5012.5         12.725        117.145         64.985
         5013.0         12.725        118.776         65.480
         5013.5         12.717        117.772         65.416
         5014.0         12.709        110.068         65.351
         5014.5         12.701        100.669         65.287
         5015.0         12.693         89.950         64.564
         5015.5         12.686         75.061         63.246
