~VERSION INFORMATION
VERS. 2.0 : CWLS Log ASCII Standard - version 2.0
WRAP.  NO : One line per depth step
#--------------------------------------------------#
#----------------DRILLING INFO, INC.---------------#
#---------------WWW.DRILLINGINFO.COM---------------#
#------------------COPYRIGHT 2015------------------#
#--------------------------------------------------#
#THIS FILE MAY BE USED ONLY IN ACCORDANCE WITH A CURRENT SUBSCRIPTION AGREEMENT BETWEEN
#THE USER AND DRILLING INFO, INC. NO PART OF THIS FILE MAY BE REPRODUCED, USED, COPIED,
#MODIFIED, PROPAGATED, OR DISTRIBUTED EXCEPT IN ACCORDANCE WITH THE SUBSCRIPTION
#AGREEMENT. UNAUTHORIZED USE OR DISTRIBUTION OF ALL OR ANY PART OF THIS FILE MAY VIOLATE
#COPYRIGHT, TRADEMARK, AND/OR OTHER LAWS AND IS SUBJECT TO CIVIL AS WELL AS CRIMINAL
#SANCTIONS.
#--------------------------------------------------#
#THIS FILE IS PROVIDED "AS-IS" AND ALL WARRANTIES ARE EXPRESSLY DISCLAIMED, WHETHER
#EXPRESS, ORAL, IMPLIED, STATUTORY OR OTHERWISE, INCLUDING ANY IMPLIED WARRANTY OF FITNESS
#FOR A PARTICULAR PURPOSE, MERCHANTABILITY, TITLE OR NON-INFRINGEMENT, AND ANY WARRANTIES
#ARISING BY VIRTUE OF CUSTOM OF TRADE OR COURSE OF DEALING.  FURTHER, DRILLING INFO,
#INC. AND ITS LICENSORS DO NOT REPRESENT OR WARRANT THAT THIS FILE WILL MEET USER'S
#REQUIREMENTS OR ARE SUITABLE FOR USER'S NEEDS OR THAT THE DATA OR RESULTS PROVIDED IN
#CONJUNCTION THEREWITH ARE CORRECT, ACCURATE, TIMELY OR RELIABLE. THESE DISCLAIMERS SHALL
#APPLY REGARDLESS OF ANY FAILURE OF ESSENTIAL PURPOSE OF ANY LIMITED REMEDY.  SOME
#JURISDICTIONS DO NOT ALLOW THE EXCLUSION OF CERTAIN WARRANTIES SO SOME OF THE ABOVE
#EXCLUSIONS MAY NOT APPLY. IN NO EVENT SHALL DRILLING INFO, INC. OR ANY OF ITS AFFILIATES
#BE LIABLE UNDER ANY LEGAL THEORY, WHETHER IN TORT (INCLUDING WITHOUT LIMITATION
#NEGLIGENCE), CONTRACT, STRICT LIABILITY, STATUTORY OR OTHERWISE, FOR ANY SPECIAL,
#INCIDENTAL, CONSEQUENTIAL, EXEMPLARY, PUNITIVE OR INDIRECT DAMAGE OF ANY KIND, INCLUDING
#WITHOUT LIMITATION LOSS OF REVENUE, PROFITS, GOODWILL, USE, AND/OR DATA OR THE COST OF
#PROCUREMENT OF SUBSTITUTE GOODS OR SERVICES, EVEN IF APPRISED OF THE POSSIBILITY OF SUCH
#DAMAGES IN ADVANCE.
#--------------------------------------------------#
~WELL INFORMATION
#MNEMONIC     .UNIT              VALUE :DESCRIPTION
#--------------------------------------------------#
STRT       .FT                0 :START DEPTH
STOP       .FT                10142 :STOP DEPTH
STEP       .FT                   0.500 :STEP
NULL       .                  -999.250 :NULL
API        .                421093138200 :API NUMBER
COMP       .         SHELL OIL COMPANY :COMPANY
WELL       .        SIBLEY  1 :WELL
DATE       .                08-Aug-1978 :LOG DATE
~CURVE INFORMATION
#MNEMONIC     .UNIT      API CODE :CURVE DESCRIPTION
#--------------------------------------------------#
DEPTH       .FT                      :Measured Depth
CAL.INCH        UNKNOWN   :CAL
DT.US/FT        UNKNOWN   :DT
GR.API        UNKNOWN   :GR
~A    DEPTH    CAL    DT    GR
# ...
 3957.5     13.009   60.367   37.827
 3958     13.009   59.861   34.585
 3958.5     13.01   59.59   35.607
 3959     13.01   59.756   36.628
 3959.5     13.011   59.922   37.65
 3960     13.011   59.441   35.946
 3960.5     13.012   58.282   33.882
 3961     13.012   57.124   31.818
 3961.5     13.013   55.965   29.754
 3962     13.013   55.523   32.359
 3962.5     13.014   55.984   36.413
 3963     13.014   57.408   40.466
 3963.5     13.015   59.3   39.137
 3964     13.015   61.192   36.323
 3964.5     13.016   58.011   33.51
 3965     13.016   55.705   30.696
 3965.5     13.017   57.496   27.882
 3966     13.017   58.962   27.953
 3966.5     13.018   59.169   33.315
 3967     13.018   59.376   38.678
 3967.5     13.019   63.775   42.036
 3968     13.019   62.357   42.524
 3968.5     13.02   59.729   43.011
 3969     13.02   57.912   43.499
 3969.5     13.021   62.375   43.987
 3970     13.021   69.609   44.474
 3970.5     13.022   74.045   59.823
 3971     13.022   75.047   64.236
 3971.5     13.023   76.048   68.649
 3972     13.023   77.05   73.062
 3972.5     13.024   78.052   77.475
 3973     13.027   79.054   81.872
 3973.5     13.032   79.38   85.725
 3974     13.036   77.149   86.99
 3974.5     13.041   74.919   79.955
 3975     13.046   72.689   72.92
 3975.5     13.051   70.458   65.884
 3976     13.056   68.352   62.082
 3976.5     13.061   67.137   60.827
 3977     13.066   65.904   59.572
 3977.5     13.071   64.52   54.049
 3978     13.076   63.135   42.544
 3978.5     13.081   61.75   35.455
 3979     13.085   60.365   38.367
 3979.5     13.09   60.606   41.278
 3980     13.095   61.75   44.189
 3980.5     13.1   62.893   47.101
 3981     13.105   64.037   49.249
 3981.5     13.11   62.938   48.034
 3982     13.115   61.414   46.818
 3982.5     13.12   59.89   45.316
 3983     13.125   58.366   37.595
 3983.5     13.13   59.275   40.129
 3984     13.134   60.403   42.664
 3984.5     13.145   61.53   43.139
 3985     13.156   62.357   38.957
 3985.5     13.167   61.016   34.775
 3986     13.178   59.674   32.751
 3986.5     13.189   58.715   34.114
 3987     13.2   60.236   35.477
 3987.5     13.211   61.757   36.84
 3988     13.196   63.278   36.903
 3988.5     13.175   62.195   35.103
 3989     13.155   60.57   33.304
 3989.5     13.134   58.946   31.504
 3990     13.114   57.322   30.284
 3990.5     13.093   57.192   30.404
 3991     13.072   57.162   30.523
 3991.5     13.058   57.132   30.98
 3992     13.063   57.101   32.759
 3992.5     13.067   58.154   34.539
 3993     13.072   60.559   37.146
 3993.5     13.077   62.964   44.216
 3994     13.081   65.369   51.286
 3994.5     13.086   67.774   58.355
 3995     13.09   69.197   65.425
 3995.5     13.095   68.363   59.605
 3996     13.1   67.528   50.882
 3996.5     13.104   64.348   42.16
 3997     13.109   60.153   38.614
 3997.5     13.113   55.957   36.293
 3998     13.118   56.114   28.539
 3998.5     13.123   56.776   24.577
 3999     13.127   57.437   24.577
 3999.5     13.132   58.099   28.107
 4000     13.137   58.76   33.725
 4000.5     13.141   59.421   38.746
 4001     13.146   60.083   42.301
 4001.5     13.15   60.744   46.513
 4002     13.155   62.288   50.726
 4002.5     13.16   64.817   54.939
 4003     13.164   67.346   59.152
 4003.5     13.169   71.863   63.365
 4004     13.173   78.45   63.978
 4004.5     13.178   77.24   63.255
 4005     13.183   75.549   58.761
 4005.5     13.187   72.287   53.454
 4006     13.192   69.025   48.122
 4006.5     13.196   65.763   42.79
 4007     13.201   63.21   42.166
 4007.5     13.205   64.627   44.832
 4008     13.208   66.044   47.499
 4008.5     13.211   67.461   50.165
 4009     13.214   69.247   52.721
 4009.5     13.218   71.078   53.521
 4010     13.221   72.91   54.321
 4010.5     13.224   74.741   66.55
 4011     13.228   76.61   79.989
 4011.5     13.231   78.8   79.029
 4012     13.234   78.927   78.025
 4012.5     13.238   78.072   77.02
 4013     13.241   77.217   76.015
 4013.5     13.244   76.362   75.011
 4014     13.248   75.508   75.315
 4014.5     13.251   74.653   78.009
 4015     13.254   75.261   80.703
 4015.5     13.258   75.938   81.301
 4016     13.261   75.38   77.73
 4016.5     13.264   73.798   74.158
 4017     13.268   72.217   70.587
 4017.5     13.271   70.636   67.016
 4018     13.274   70.023   64.61
 4018.5     13.278   69.962   63.355
 4019     13.281   69.901   62.619
 4019.5     13.284   69.488   61.921
 4020     13.288   68.162   61.223
 4020.5     13.291   67.205   60.526
 4021     13.294   67.196   52.541
 4021.5     13.298   67.186   53.213
 4022     13.301   67.177   53.886
 4022.5     13.304   67.168   54.559
 4023     13.308   67.159   55.231
 4023.5     13.311   67.149   55.904
 4024     13.312   67.14   55.208
 4024.5     13.309   65.256   51.498
 4025     13.306   63.308   48.11
 4025.5     13.303   61.36   50.438
 4026     13.301   59.413   52.765
 4026.5     13.298   59.307   55.092
 4027     13.295   65.641   57.42
 4027.5     13.292   71.974   59.747
 4028     13.29   74.969   60.998
 4028.5     13.287   71.975   61.531
 4029     13.284   68.981   55.892
 4029.5     13.281   65.504   48.174
 4030     13.279   60.868   40.457
 4030.5     13.276   58.682   36.902
 4031     13.273   61.154   40.187
 4031.5     13.271   63.627   43.472
 4032     13.268   66.099   46.539
 4032.5     13.265   68.572   46.988
 4033     13.262   68.733   47.437
 4033.5     13.26   68.47   48.252
 4034     13.257   67.489   49.306
 4034.5     13.258   66.509   49.719
 4035     13.259   65.528   46.518
 4035.5     13.259   65.169   44.071
 4036     13.26   65.169   44.216
 4036.5     13.261   64.782   44.36
 4037     13.262   63.767   44.504
 4037.5     13.263   62.753   43.613
 4038     13.264   62.459   42.491
 4038.5     13.265   63.844   43.509
 4039     13.266   65.229   45.833
 4039.5     13.266   66.614   48.157
 4040     13.267   67.999   50.481
 4040.5     13.268   69.383   52.228
 4041     13.269   69.712   53.029
 4041.5     13.27   68.807   53.83
 4042     13.271   67.903   53.164
 4042.5     13.272   66.998   43.753
 4043     13.272   66.094   44.084
 4043.5     13.273   65.3   44.416
 4044     13.274   64.794   44.748
 4044.5     13.275   64.288   45.08
 4045     13.276   63.782   45.412
 4045.5     13.277   63.275   44.84
 4046     13.278   63.79   43.872
 4046.5     13.278   63.979   42.903
 4047     13.277   62.793   41.935
 4047.5     13.273   61.607   41.03
 4048     13.269   60.539   39.841
 4048.5     13.265   60.073   33.813
 4049     13.261   59.606   36.096
 4049.5     13.257   59.14   38.379
 4050     13.253   58.674   40.663
 4050.5     13.249   58.207   42.344
 4051     13.245   62.648   39.525
 4051.5     13.241   59.839   36.707
 4052     13.237   57.031   33.889
 4052.5     13.233   54.222   31.071
 4053     13.229   55.845   28.252
 4053.5     13.225   59.045   25.434
 4054     13.243   57.32   22.616
 4054.5     13.29   55.596   24.632
 4055     13.336   53.871   28.101
 4055.5     13.383   55.399   31.57
 4056     13.43   58.644   35.039
 4056.5     13.476   61.889   36.866
 4057     13.523   65.134   37.484
 4057.5     13.494   66.599   38.101
 4058     13.438   66.835   38.753
 4058.5     13.383   66.83   39.554
 4059     13.327   66.231   39.984
 4059.5     13.271   65.631   39.686
 4060     13.216   65.032   39.389
 4060.5     13.188   64.432   39.091
 4061     13.186   63.833   39.702
 4061.5     13.184   66.433   40.876
 4062     13.182   66.586   42.035
 4062.5     13.18   66.739   43.193
 4063     13.178   66.892   44.352
 4063.5     13.175   67.418   45.51
 4064     13.173   68.086   46.053
 4064.5     13.171   68.754   45.909
 4065     13.169   69.423   45.765
 4065.5     13.167   70.091   45.699
 4066     13.165   70.759   47.008
 4066.5     13.163   71.248   48.317
 4067     13.16   70.33   49.626
 4067.5     13.158   69.412   49.378
 4068     13.156   68.494   46.612
 4068.5     13.185   68.608   45.412
 4069     13.22   69.816   46.012
 4069.5     13.242   71.024   46.611
