###############################################
##         ENVERUS                           ##
##         ESS - Open Hole                   ##
##         PERMIAN / DELAWARE                ##
##         Nov 03 2023  V4.0                 ##
##         42-109-33144-00-00                ##
###############################################
## Copyright 2017-2023  ENVERUS.  All Rights Reserved. 
## Confidential - Property of ENVERUS, use governed by terms and 
## conditions found within the existing Information Services Subscription Agreement 
## (as may be amended, the “ISSA”) between Customer and ENVERUS. 
## 
~VERSION INFORMATION
# MNEM.UNIT                               DATA : DESCRIPTION OF MNEMONIC
#-----.-----     ----------------------------- : -----------------------------
VERS.                                     2.00 : CWLS LOG ASCII STANDARD - VERSION 2.00
WRAP.                                       NO : MULTIPLE LINES PER DEPTH STEP
VEND.                                  ENVERUS : VENDOR
TYPE.                          ESS - OPEN HOLE : ENVERUS ESSENTIAL CURVES – ACCESSIBLE THROUGH ENVERUS PRISM(TM)
DOC.                                  44408038 : ENVERUS HEADER RAW DOCUMENT ID
#___________________________________________________________________________________________________ 
~WELL INFORMATION 
# jhvnPe+1QU9E4rmF00QVhgJB4IQXrbTj+4JQBaOQ+xeerJB1ro+a2ny8/YeKPBUHGPa8yPZn1kHe7+9ZkyRs1A== 
# MNEM.UNIT                                              DATA : DESCRIPTION OF MNEMONIC 
#-----.-----                    ----------------------------- : ----------------------------- 
CNTY.                                               CULBERSON : COUNTY 
STATE.                                                  TEXAS : STATE 
CNTRY.                                                    USA : COUNTRY 
API.                                             42-109-33144 : API (10 Digit) 
API_14.                                    42-109-33144-00-00 : API (14 Digits) 
API_14_std.                                 42-109-33144-0000 : API (14 Digits Standard) 
UWI.                                           42109331440000 : UNIQUE WELL ID 
WELL.                                        PAT FEE 4 NO. 3H : WELL NAME
STRT.FT                                                8880.0 : START DEPTH
STOP.FT                                               14320.0 : STOP DEPTH
STEP.FT                                                   0.5 : STEP BETWEEN DEPTHS
NULL.                                                 -999.25 : NULL VALUE
LOC.                                     API  42-109-33144LAT : LOCATION 
FL1.                                     API  42-109-33144LAT : LOCATIONLINE1 
DMF.                                                       KB : DRILL MEAS FROM 
PDAT.                                                      GL : PERMANENT DATUM 
FLD.                                    FORD, WEST (WOLFCAMP) : FIELD NAME 
COMP.                            CAPITAN ENERGY, INCORPORATED : COMPANY 
DATE.                                             21-SEP-2017 : DATE 
SVCO.                                             HALLIBURTON : SERVICECONAME 
PROV.                                                   TEXAS : PROVINCE 
BASI.                                                 PERMIAN : BASIN 
RANG.                                                     N/A : RANGE 
TOWN.                                                     N/A : TOWNSHIP 
SECT.                                                     N/A : SECTION 
SON.                                                      N/A : JOB NUMBER 
SRVC.                                             HALLIBURTON : SERVICE COMPANY 
LMF.                                                       KB : LOG MEASURED FROM 
EGL.FT                                              3093.0000 : GROUND ELEVATION 
BAP.FT                                                 0.0000 : GL ELEV ONSHORE 
GVFD.G                                                 1.0000 : GRAVITY FIELD 
EKB.FT                                              3114.0000 : KB ELEVATION 
EDF.FT                                              3113.0000 : DF ELEVATION
#___________________________________________________________________________________________________ 
~CURVE INFORMATION 
# MNEM.UNIT           : CURVE DESCRIPTION 
#-----.-----          : ----------------------------- 
 DEPT.FT               : MEASURED DEPTH 
 GR.API                : GAMMA RAY (GR_CHI - GR_CHI) 
 GR__01.API            : GAMMA RAY (GR_OH - GR_OH) 
 DT.US/FT              : SONIC DELTA TRANSIT TIME (DTC_CHI - DTC_CHI) 
 DT__01.US/FT          : SONIC DELTA TRANSIT TIME (DTC_OH - DTC_OH) 
 PE.B/E                : PHOTOELECTRIC EFFECT/FACTOR (PE_CHI - PE_CHI) 
 PE__01.B/E            : PHOTOELECTRIC EFFECT/FACTOR (PE_OH - PE_OH) 
 RESS_LL.OHMM          : SHALLOW LATEROLOG (LLS_CHI - LLS_CHI) 
 RESS_LL__01.OHMM      : SHALLOW LATEROLOG (LLS_OH - LLS_OH) 
 RESD_LL.OHMM          : DEEP LATEROLOG (LLD_CHI - LLD_CHI) 
 RESD_LL__01.OHMM      : DEEP LATEROLOG (LLD_OH - LLD_OH) 
 NPHI.V/V              : NEUTRON POROSITY (NPHI_CHI - NPHI_CHI) 
 NPHI__01.V/V          : NEUTRON POROSITY (NPHI_OH - NPHI_OH) 
 SPHI.V/V              : SONIC POROSITY (SPHI_CHI - SPHI_CHI) 
 RHOB.G/CC             : BULK DENSITY (RHOB_CHI - RHOB_CHI) 
 RHOB__01.G/CC         : BULK DENSITY (RHOB_OH - RHOB_OH) 
 #___________________________________________________________________________________________________ 
~A         DEPT             GR         GR__01             DT         DT__01             PE         PE__01        RESS_LL    RESS_LL__01        RESD_LL    RESD_LL__01           NPHI       NPHI__01           SPHI           RHOB       RHOB__01
# ...
         9968.0         39.812       -999.250         57.402       -999.250         3.9724      -999.2500        98.9849      -999.2500        96.7644      -999.2500        0.08414     -999.25000        0.06930         2.6279      -999.2500
         9968.5         49.181       -999.250         57.937       -999.250         3.9459      -999.2500       105.5603      -999.2500       103.0030      -999.2500        0.08817     -999.25000        0.07310         2.6221      -999.2500
         9969.0         48.658       -999.250         57.684       -999.250         3.8618      -999.2500       103.1630      -999.2500       100.2595      -999.2500        0.08956     -999.25000        0.07130         2.6211      -999.2500
         9969.5         43.009       -999.250         57.075       -999.250         3.8181      -999.2500        97.5529      -999.2500        94.5419      -999.2500        0.08793     -999.25000        0.06700         2.6238      -999.2500
         9970.0         42.476       -999.250         57.058       -999.250         3.8158      -999.2500        97.1140      -999.2500        94.1322      -999.2500        0.08780     -999.25000        0.06690         2.6242      -999.2500
         9970.5         43.100       -999.250         57.246       -999.250         3.8504      -999.2500        98.1993      -999.2500        95.4075      -999.2500        0.08742     -999.25000        0.06820         2.6244      -999.2500
         9971.0         41.676       -999.250         57.346       -999.250         3.8635      -999.2500        97.9028      -999.2500        95.3078      -999.2500        0.08703     -999.25000        0.06890         2.6254      -999.2500
         9971.5         50.082       -999.250         58.176       -999.250         3.8714      -999.2500       104.9342      -999.2500       102.3815      -999.2500        0.09076     -999.25000        0.07480         2.6205      -999.2500
         9972.0         55.822       -999.250         58.828       -999.250         3.8920      -999.2500       111.2385      -999.2500       108.7752      -999.2500        0.09328     -999.25000        0.07940         2.6172      -999.2500
         9972.5         63.439       -999.250         59.537       -999.250         3.8985      -999.2500       119.5078      -999.2500       116.9925      -999.2500        0.09677     -999.25000        0.08440         2.6127      -999.2500
         9973.0         56.381       -999.250         59.022       -999.250         3.8486      -999.2500       112.5869      -999.2500       110.0108      -999.2500        0.09532     -999.25000        0.08080         2.6160      -999.2500
         9973.5         56.725       -999.250         59.017       -999.250         3.8442      -999.2500       112.8542      -999.2500       110.2209      -999.2500        0.09551     -999.25000        0.08070         2.6157      -999.2500
         9974.0         61.340       -999.250         59.268       -999.250         3.8437      -999.2500       115.3956      -999.2500       112.7306      -999.2500        0.09687     -999.25000        0.08250         2.6132      -999.2500
         9974.5         57.685       -999.250         59.029       -999.250         3.8329      -999.2500       113.1846      -999.2500       110.4665      -999.2500        0.09601     -999.25000        0.08080         2.6150      -999.2500
         9975.0         49.105       -999.250         58.414       -999.250         3.8068      -999.2500       107.0877      -999.2500       104.3107      -999.2500        0.09362     -999.25000        0.07650         2.6194      -999.2500
         9975.5         57.188       -999.250         59.025       -999.250         3.8561      -999.2500       115.8597      -999.2500       112.9863      -999.2500        0.09582     -999.25000        0.08080         2.6152      -999.2500
         9976.0         55.010       -999.250         58.859       -999.250         3.8620      -999.2500       115.2096      -999.2500       112.2670      -999.2500        0.09501     -999.25000        0.07960         2.6164      -999.2500
         9976.5         43.229       -999.250         57.940       -999.250         3.8083      -999.2500       104.3933      -999.2500       101.4776      -999.2500        0.09155     -999.25000        0.07310         2.6225      -999.2500
         9977.0         54.372       -999.250         58.759       -999.250         3.8490      -999.2500       113.5097      -999.2500       110.5728      -999.2500        0.09479     -999.25000        0.07890         2.6167      -999.2500
         9977.5         55.335       -999.250         58.802       -999.250         3.8148      -999.2500       113.6359      -999.2500       110.5660      -999.2500        0.09601     -999.25000        0.07920         2.6156      -999.2500
         9978.0         57.381       -999.250         58.878       -999.250         3.7636      -999.2500       115.0700      -999.2500       111.6710      -999.2500        0.09819     -999.25000        0.07980         2.6134      -999.2500
         9978.5         57.890       -999.250         58.891       -999.250         3.7029      -999.2500       115.2201      -999.2500       111.5209      -999.2500        0.10019     -999.25000        0.07980         2.6120      -999.2500
         9979.0         64.056       -999.250         59.269       -999.250         3.7081      -999.2500       120.3897      -999.2500       116.5175      -999.2500        0.10224     -999.25000        0.08250         2.6085      -999.2500
         9979.5         55.305       -999.250         58.613       -999.250         3.6797      -999.2500       111.3331      -999.2500       107.6645      -999.2500        0.09936     -999.25000        0.07790         2.6133      -999.2500
         9980.0         49.739       -999.250         58.247       -999.250         3.6780      -999.2500       106.5658      -999.2500       103.0875      -999.2500        0.09724     -999.25000        0.07530         2.6166      -999.2500
         9980.5         53.010       -999.250         58.626       -999.250         3.7216      -999.2500       110.6956      -999.2500       107.3381      -999.2500        0.09777     -999.25000        0.07800         2.6153      -999.2500
         9981.0         51.951       -999.250         58.687       -999.250         3.7407      -999.2500       111.3783      -999.2500       108.1203      -999.2500        0.09738     -999.25000        0.07840         2.6161      -999.2500
         9981.5         52.964       -999.250         58.845       -999.250         3.7768      -999.2500       113.8343      -999.2500       110.6540      -999.2500        0.09718     -999.25000        0.07950         2.6160      -999.2500
         9982.0         57.520       -999.250         59.121       -999.250         3.8147      -999.2500       117.3628      -999.2500       114.2544      -999.2500        0.09761     -999.25000        0.08150         2.6141      -999.2500
         9982.5         62.074       -999.250         59.344       -999.250         3.8407      -999.2500       120.4440      -999.2500       117.3483      -999.2500        0.09818     -999.25000        0.08310         2.6121      -999.2500
         9983.0         59.179       -999.250         58.887       -999.250         3.7980      -999.2500       114.0776      -999.2500       110.9253      -999.2500        0.09704     -999.25000        0.07980         2.6134      -999.2500
         9983.5         54.674       -999.250         58.431       -999.250         3.7557      -999.2500       107.1226      -999.2500       104.0614      -999.2500        0.09560     -999.25000        0.07660         2.6158      -999.2500
         9984.0         50.412       -999.250         58.198       -999.250         3.7339      -999.2500       102.9979      -999.2500       100.0893      -999.2500        0.09456     -999.25000        0.07490         2.6181      -999.2500
         9984.5         63.585       -999.250         59.342       -999.250         3.7956      -999.2500       115.3705      -999.2500       112.5333      -999.2500        0.09861     -999.25000        0.08300         2.6113      -999.2500
