###############################################
##         ENVERUS                           ##
##         ESS - Open Hole                   ##
##         PERMIAN / DELAWARE                ##
##         Nov 02 2023  V4.0                 ##
##         42-109-31375-00-00                ##
###############################################
## Copyright 2017-2023  ENVERUS.  All Rights Reserved. 
## Confidential - Property of ENVERUS, use governed by terms and 
## conditions found within the existing Information Services Subscription Agreement 
## (as may be amended, the “ISSA”) between Customer and ENVERUS. 
## 
~VERSION INFORMATION
# MNEM.UNIT                               DATA : DESCRIPTION OF MNEMONIC
#-----.-----     ----------------------------- : -----------------------------
VERS.                                     2.00 : CWLS LOG ASCII STANDARD - VERSION 2.00
WRAP.                                       NO : MULTIPLE LINES PER DEPTH STEP
VEND.                                  ENVERUS : VENDOR
TYPE.                          ESS - OPEN HOLE : ENVERUS ESSENTIAL CURVES – ACCESSIBLE THROUGH ENVERUS PRISM(TM)
DOC.                                  32006335 : ENVERUS HEADER RAW DOCUMENT ID
#___________________________________________________________________________________________________ 
~WELL INFORMATION 
# Eb7Zbut2Nwqt2ftj1i2q6V2Ye1Joym9Qrd6BFF0aHeZ6Mf1z+VAuEcbs4uVngcAWjTW62nvWGWatc34NWk2mnA== 
# MNEM.UNIT                                              DATA : DESCRIPTION OF MNEMONIC 
#-----.-----                    ----------------------------- : ----------------------------- 
CNTY.                                               CULBERSON : COUNTY 
STATE.                                                  TEXAS : STATE 
CNTRY.                                                    USA : COUNTRY 
API.                                             42-109-31375 : API (10 Digit) 
API_14.                                    42-109-31375-00-00 : API (14 Digits) 
API_14_std.                                 42-109-31375-0000 : API (14 Digits Standard) 
UWI.                                           42109313750000 : UNIQUE WELL ID 
WELL.                                      7806 JV-P DUVAL  1 : WELL NAME
STRT.FT                                                     0 : START DEPTH
STOP.FT                                               15739.0 : STOP DEPTH
STEP.FT                                                   0.5 : STEP BETWEEN DEPTHS
NULL.                                                 -999.25 : NULL VALUE
COMP.                                  BTA OIL PRODUCERS  LLC : COMPANY 
DATE.                                             26-MAY-1978 : LOG DATE
#___________________________________________________________________________________________________ 
~CURVE INFORMATION 
# MNEM.UNIT           : CURVE DESCRIPTION 
#-----.-----          : ----------------------------- 
 DEPT.FT               : MEASURED DEPTH 
 CALI.IN               : CALIPER (CAL - CAL) 
 GR.API                : GAMMA RAY (GR) 
 DT.US/FT              : SONIC DELTA TRANSIT TIME (DT) 
 #___________________________________________________________________________________________________ 
~A         DEPT           CALI             GR             DT
# ...
        11220.0          9.743         58.729         62.647
        11220.5          9.741         58.510         60.615
        11221.0          9.739         58.291         59.923
        11221.5          9.725         57.102         60.130
        11222.0          9.707         55.169         60.338
        11222.5          9.713         55.342         59.481
        11223.0          9.730         57.998         58.421
        11223.5          9.748         64.164         57.361
        11224.0          9.765         74.619         57.075
        11224.5          9.778         85.075         58.421
        11225.0          9.782         95.531         59.768
        11225.5          9.786         97.225         61.114
        11226.0          9.790         94.882         62.461
        11226.5          9.793         84.757         63.807
        11227.0          9.797         77.784         65.153
        11227.5          9.801         74.158         66.500
        11228.0          9.798         70.532         67.448
        11228.5          9.763         66.906         66.118
        11229.0          9.728         66.680         64.789
        11229.5          9.693         68.760         63.459
        11230.0          9.689         74.091         62.129
        11230.5          9.706         79.952         60.800
        11231.0          9.723         85.813         59.470
        11231.5          9.740         91.675         58.861
        11232.0          9.757         91.256         61.079
        11232.5          9.775         87.569         63.297
        11233.0          9.782         78.765         65.514
        11233.5          9.785         71.895         67.732
        11234.0          9.788         76.468         67.325
        11234.5          9.791         81.042         65.823
        11235.0          9.799         83.125         64.321
        11235.5          9.824         85.057         62.820
        11236.0          9.849         71.999         61.318
        11236.5          9.874         71.568         64.390
        11237.0          9.899         71.137         66.233
        11237.5          9.924         70.245         66.025
        11238.0          9.935         67.860         65.816
        11238.5          9.939         65.474         65.607
        11239.0          9.943         63.465         65.399
        11239.5          9.946         62.833         65.190
        11240.0          9.939         63.777         64.949
        11240.5          9.933         65.306         64.205
        11241.0          9.926         68.326         63.461
        11241.5          9.920         71.372         62.717
        11242.0          9.913         74.418         62.597
        11242.5          9.902         77.464         63.067
        11243.0          9.885         79.464         63.538
        11243.5          9.868         81.425         64.008
        11244.0          9.851         83.386         64.479
        11244.5          9.834         85.347         64.949
        11245.0          9.817         86.062         65.420
        11245.5          9.800         84.151         65.890
        11246.0          9.783         78.598         65.690
        11246.5          9.766         69.661         65.046
        11247.0          9.749         60.724         64.401
        11247.5          9.732         63.811         63.757
        11248.0          9.726         68.846         62.963
        11248.5          9.734         77.751         62.067
        11249.0          9.742         80.333         61.170
        11249.5          9.750         78.604         60.274
        11250.0          9.758         76.874         59.618
        11250.5          9.766         75.145         60.080
        11251.0          9.775         73.416         60.542
        11251.5          9.783         75.388         61.004
        11252.0          9.791         78.323         61.466
        11252.5          9.799         81.257         61.928
        11253.0          9.821         83.416         63.206
        11253.5          9.844         73.735         65.032
        11254.0          9.867         68.540         66.859
        11254.5          9.890         64.926         68.686
        11255.0          9.899         67.179         67.427
        11255.5          9.895         69.431         64.526
        11256.0          9.891         71.684         64.957
        11256.5          9.900         70.845         65.388
        11257.0          9.943         66.222         65.819
        11257.5          9.986         61.600         66.249
        11258.0          9.980         62.315         66.680
        11258.5          9.970         65.670         66.630
        11259.0          9.960         67.110         65.955
        11259.5          9.949         65.390         65.279
        11260.0          9.939         63.669         64.604
        11260.5          9.928         63.100         63.929
        11261.0          9.918         64.466         63.254
        11261.5          9.922         65.833         63.390
        11262.0          9.930         67.200         63.953
        11262.5          9.938         69.352         64.000
        11263.0          9.947         72.073         62.927
        11263.5          9.955         74.793         61.855
        11264.0          9.963         71.626         60.782
        11264.5          9.983         68.784         59.710
        11265.0         10.011         68.178         63.805
        11265.5         10.007         67.571         64.524
        11266.0          9.993         66.965         64.405
        11266.5          9.979         65.976         64.285
        11267.0          9.956         64.052         64.166
        11267.5          9.904         62.127         64.046
        11268.0          9.851         60.956         63.926
        11268.5          9.851         61.736         63.807
        11269.0          9.862         62.515         63.687
        11269.5          9.873         63.334         63.010
        11270.0          9.883         64.884         62.004
        11270.5          9.899         66.433         60.997
        11271.0          9.968         66.891         61.208
        11271.5         10.006         66.926         62.414
        11272.0         10.025         66.962         63.619
        11272.5         10.044         66.997         64.825
        11273.0         10.022         67.032         65.484
        11273.5          9.998         71.822         64.248
        11274.0          9.974         76.664         63.013
        11274.5          9.950         81.506         61.777
        11275.0          9.931         82.916         62.148
        11275.5          9.914         81.911         63.078
        11276.0          9.896         80.906         64.007
        11276.5          9.878         79.934         64.237
        11277.0          9.861         84.826         63.476
        11277.5          9.842         89.649         62.714
        11278.0          9.820         90.586         61.952
        11278.5          9.797         91.523         62.600
        11279.0          9.774         92.460         64.176
        11279.5          9.784         93.396         64.245
        11280.0          9.801         93.949         64.314
        11280.5          9.818         93.687         64.383
        11281.0          9.834         93.425         64.621
        11281.5          9.851         93.163         65.314
        11282.0          9.876         92.900         66.006
        11282.5          9.908         90.578         66.699
        11283.0          9.938         86.729         67.391
        11283.5          9.956         80.273         67.551
        11284.0          9.974         72.909         67.287
        11284.5          9.991         68.969         67.022
        11285.0         10.024         68.095         66.757
        11285.5         10.067         67.221         66.493
