###############################################
##         ENVERUS                           ##
##         ESS - Open Hole                   ##
##         PERMIAN / DELAWARE                ##
##         Nov 02 2023  V4.0                 ##
##         42-109-31408-00-00                ##
###############################################
## Copyright 2017-2023  ENVERUS.  All Rights Reserved. 
## Confidential - Property of ENVERUS, use governed by terms and 
## conditions found within the existing Information Services Subscription Agreement 
## (as may be amended, the “ISSA”) between Customer and ENVERUS. 
## 
~VERSION INFORMATION
# MNEM.UNIT                               DATA : DESCRIPTION OF MNEMONIC
#-----.-----     ----------------------------- : -----------------------------
VERS.                                     2.00 : CWLS LOG ASCII STANDARD - VERSION 2.00
WRAP.                                       NO : MULTIPLE LINES PER DEPTH STEP
VEND.                                  ENVERUS : VENDOR
TYPE.                          ESS - OPEN HOLE : ENVERUS ESSENTIAL CURVES – ACCESSIBLE THROUGH ENVERUS PRISM(TM)
DOC.                                  31850517 : ENVERUS HEADER RAW DOCUMENT ID
#___________________________________________________________________________________________________ 
~WELL INFORMATION 
# bqLd+XSZJOn45CI61XVoQu+UOVndmKoY6sdO6/bnbKn7IExcVbobTFa2ZjWyWmdO1mIol927X6bTh1nHm93KmQ== 
# MNEM.UNIT                                              DATA : DESCRIPTION OF MNEMONIC 
#-----.-----                    ----------------------------- : ----------------------------- 
CNTY.                                               CULBERSON : COUNTY 
STATE.                                                  TEXAS : STATE 
CNTRY.                                                    USA : COUNTRY 
API.                                             42-109-31408 : API (10 Digit) 
API_14.                                    42-109-31408-00-00 : API (14 Digits) 
API_14_std.                                 42-109-31408-0000 : API (14 Digits Standard) 
UWI.                                           42109314080000 : UNIQUE WELL ID 
WELL.                                           CASTILE 48  1 : WELL NAME
STRT.FT                                                2207.0 : START DEPTH
STOP.FT                                               11710.0 : STOP DEPTH
STEP.FT                                                   0.5 : STEP BETWEEN DEPTHS
NULL.                                                 -999.25 : NULL VALUE
COMP.                                         TENNECO OIL CO. : COMPANY 
DATE.                                             28-APR-1980 : LOG DATE
#___________________________________________________________________________________________________ 
~CURVE INFORMATION 
# MNEM.UNIT           : CURVE DESCRIPTION 
#-----.-----          : ----------------------------- 
 DEPT.FT               : MEASURED DEPTH 
 CALI.IN               : CALIPER (CAL - CAL) 
 GR.API                : GAMMA RAY (GR) 
 DT.US/FT              : SONIC DELTA TRANSIT TIME (DT) 
 RESS.OHMM             : SHALLOW INDUCTION RESISTIVITY (ILS - ILS) 
 RESD.OHMM             : DEEP INDUCTION RESISTIVITY (ILD - ILD) 
 #___________________________________________________________________________________________________ 
~A         DEPT           CALI             GR             DT           RESS           RESD
# ...
         4099.0         12.889         48.351         67.592         23.558         23.821
         4099.5         12.910         43.932         68.750         23.544         24.013
         4100.0         12.929         39.514         69.908         23.529         24.206
         4100.5         12.938         35.323         71.066         19.322         16.701
         4101.0         12.947         33.757         71.774         13.362         12.731
         4101.5         12.956         32.191         72.142          7.666          8.762
         4102.0         12.965         30.625         72.509          5.880          5.770
         4102.5         12.974         29.060         72.876          5.532          5.312
         4103.0         12.983         27.947         73.493          5.185          4.853
         4103.5         12.992         28.922         75.042          4.837          4.395
         4104.0         13.001         29.897         76.592          3.368          3.988
         4104.5         13.009         30.872         76.250          3.209          3.608
         4105.0         13.018         31.847         75.622          3.049          3.227
         4105.5         13.027         32.821         74.995          2.890          3.164
         4106.0         13.036         33.796         74.367          3.265          3.386
         4106.5         13.045         33.245         73.739          3.669          3.607
         4107.0         13.054         32.682         73.726          3.761          3.814
         4107.5         13.055         32.119         74.684          3.852          3.832
         4108.0         13.042         31.556         75.643          3.944          3.849
         4108.5         13.029         30.993         76.601          4.009          3.765
         4109.0         13.017         30.429         77.560          3.878          3.666
         4109.5         13.004         29.866         78.518          3.740          3.566
         4110.0         12.991         29.303         78.940          3.576          3.467
         4110.5         12.979         28.740         79.103          3.411          3.370
         4111.0         12.966         28.176         79.266          3.246          3.279
         4111.5         12.953         27.613         79.367          3.182          3.189
         4112.0         12.940         27.050         79.298          3.135          3.099
         4112.5         12.928         26.487         79.229          3.088          3.009
         4113.0         12.915         28.333         79.160          3.041          2.929
         4113.5         12.902         30.959         79.091          2.965          2.866
         4114.0         12.880         33.586         77.489          2.844          2.803
         4114.5         12.851         36.212         75.623          2.723          2.739
         4115.0         12.822         38.838         73.757          2.750          2.772
         4115.5         12.793         41.410         73.002          2.868          2.843
         4116.0         12.764         37.913         75.982          2.986          2.915
         4116.5         12.735         34.416         78.962          3.032          2.986
         4117.0         12.706         30.919         77.329          3.016          3.057
         4117.5         12.677         27.422         75.601          3.001          2.879
         4118.0         12.647         23.925         73.872          2.206          2.139
         4118.5         12.618         21.171         72.144          1.861          2.040
         4119.0         12.598         22.323         70.416          1.846          2.169
         4119.5         12.592         23.475         70.798          2.418          2.963
         4120.0         12.585         24.628         71.636          3.237          3.756
         4120.5         12.578         25.780         72.474          4.076          3.848
         4121.0         12.572         26.932         71.877          3.660          3.857
         4121.5         12.565         27.041         71.217          3.243          3.867
         4122.0         12.558         26.194         70.557          2.934          4.157
         4122.5         12.552         25.347         69.897          3.606          5.405
         4123.0         12.545         24.906         69.237          4.279          6.653
         4123.5         12.538         25.868         68.743          4.952          7.902
         4124.0         12.531         26.830         68.439          5.117          7.797
         4124.5         12.525         27.793         68.135          5.008          7.606
         4125.0         12.518         28.755         67.832          4.696          7.416
         4125.5         12.511         29.393         67.539          4.383          7.225
         4126.0         12.505         28.367         67.840          4.283          7.034
         4126.5         12.498         27.341         68.140          4.241          6.820
         4127.0         12.491         26.316         68.440          4.199          6.371
         4127.5         12.484         25.290         68.740          3.792          5.921
         4128.0         12.478         24.265         69.040          3.829          5.472
         4128.5         12.471         23.239         68.913          3.867          5.306
         4129.0         12.464         23.473         68.587          3.904          5.261
         4129.5         12.487         24.605         68.261          3.942          5.215
         4130.0         12.512         25.149         67.935          3.937          5.169
         4130.5         12.536         24.496         67.609          3.677          5.128
         4131.0         12.560         23.842         67.283          3.418          5.091
         4131.5         12.585         23.189         66.957          3.226          5.145
         4132.0         12.609         22.536         66.632          3.618          5.215
         4132.5         12.633         21.882         69.557          3.934          5.286
         4133.0         12.658         21.884         73.439          3.696          4.664
         4133.5         12.682         23.666         74.353          3.459          4.067
         4134.0         12.706         25.448         73.176          3.222          3.915
         4134.5         12.727         27.230         71.999          3.189          3.763
         4135.0         12.655         29.012         70.822          3.205          3.843
         4135.5         12.583         30.794         69.645          3.566          3.984
         4136.0         12.511         32.520         68.468          4.190          4.125
         4136.5         12.439         30.967         68.978          4.814          4.441
         4137.0         12.367         29.415         69.489          5.438          5.084
         4137.5         12.295         27.862         70.001          5.724          5.727
         4138.0         12.270         26.309         70.512          5.201          5.606
         4138.5         12.264         24.757         71.023          4.679          4.993
         4139.0         12.259         23.257         70.927          4.156          4.379
         4139.5         12.253         23.824         70.573          3.634          3.836
         4140.0         12.248         24.390         70.219          3.153          3.369
         4140.5         12.242         24.957         69.864          3.148          3.323
         4141.0         12.236         25.523         69.510          3.143          3.606
         4141.5         12.231         26.089         69.156          3.138          3.888
         4142.0         12.225         26.656         68.801          3.133          4.125
         4142.5         12.220         27.222         69.550          3.127          3.945
