###############################################
##         ENVERUS                           ##
##         ESS - Open Hole                   ##
##         PERMIAN / DELAWARE                ##
##         Nov 03 2023  V4.0                 ##
##         42-109-33144-00-00                ##
###############################################
## Copyright 2017-2023  ENVERUS.  All Rights Reserved. 
## Confidential - Property of ENVERUS, use governed by terms and 
## conditions found within the existing Information Services Subscription Agreement 
## (as may be amended, the “ISSA”) between Customer and ENVERUS. 
## 
~VERSION INFORMATION
# MNEM.UNIT                               DATA : DESCRIPTION OF MNEMONIC
#-----.-----     ----------------------------- : -----------------------------
VERS.                                     2.00 : CWLS LOG ASCII STANDARD - VERSION 2.00
WRAP.                                       NO : MULTIPLE LINES PER DEPTH STEP
VEND.                                  ENVERUS : VENDOR
TYPE.                          ESS - OPEN HOLE : ENVERUS ESSENTIAL CURVES – ACCESSIBLE THROUGH ENVERUS PRISM(TM)
DOC.                                  44408038 : ENVERUS HEADER RAW DOCUMENT ID
#___________________________________________________________________________________________________ 
~WELL INFORMATION 
# jhvnPe+1QU9E4rmF00QVhgJB4IQXrbTj+4JQBaOQ+xeerJB1ro+a2ny8/YeKPBUHGPa8yPZn1kHe7+9ZkyRs1A== 
# MNEM.UNIT                                              DATA : DESCRIPTION OF MNEMONIC 
#-----.-----                    ----------------------------- : ----------------------------- 
CNTY.                                               CULBERSON : COUNTY 
STATE.                                                  TEXAS : STATE 
CNTRY.                                                    USA : COUNTRY 
API.                                             42-109-33144 : API (10 Digit) 
API_14.                                    42-109-33144-00-00 : API (14 Digits) 
API_14_std.                                 42-109-33144-0000 : API (14 Digits Standard) 
UWI.                                           42109331440000 : UNIQUE WELL ID 
WELL.                                        PAT FEE 4 NO. 3H : WELL NAME
STRT.FT                                                8880.0 : START DEPTH
STOP.FT                                               14320.0 : STOP DEPTH
STEP.FT                                                   0.5 : STEP BETWEEN DEPTHS
NULL.                                                 -999.25 : NULL VALUE
LOC.                                     API  42-109-33144LAT : LOCATION 
FL1.                                     API  42-109-33144LAT : LOCATIONLINE1 
DMF.                                                       KB : DRILL MEAS FROM 
PDAT.                                                      GL : PERMANENT DATUM 
FLD.                                    FORD, WEST (WOLFCAMP) : FIELD NAME 
COMP.                            CAPITAN ENERGY, INCORPORATED : COMPANY 
DATE.                                             21-SEP-2017 : DATE 
SVCO.                                             HALLIBURTON : SERVICECONAME 
PROV.                                                   TEXAS : PROVINCE 
BASI.                                                 PERMIAN : BASIN 
RANG.                                                     N/A : RANGE 
TOWN.                                                     N/A : TOWNSHIP 
SECT.                                                     N/A : SECTION 
SON.                                                      N/A : JOB NUMBER 
SRVC.                                             HALLIBURTON : SERVICE COMPANY 
LMF.                                                       KB : LOG MEASURED FROM 
EGL.FT                                              3093.0000 : GROUND ELEVATION 
BAP.FT                                                 0.0000 : GL ELEV ONSHORE 
GVFD.G                                                 1.0000 : GRAVITY FIELD 
EKB.FT                                              3114.0000 : KB ELEVATION 
EDF.FT                                              3113.0000 : DF ELEVATION
#___________________________________________________________________________________________________ 
~CURVE INFORMATION 
# MNEM.UNIT           : CURVE DESCRIPTION 
#-----.-----          : ----------------------------- 
 DEPT.FT               : MEASURED DEPTH 
 GR.API                : GAMMA RAY (GR_CHI - GR_CHI) 
 GR__01.API            : GAMMA RAY (GR_OH - GR_OH) 
 DT.US/FT              : SONIC DELTA TRANSIT TIME (DTC_CHI - DTC_CHI) 
 DT__01.US/FT          : SONIC DELTA TRANSIT TIME (DTC_OH - DTC_OH) 
 PE.B/E                : PHOTOELECTRIC EFFECT/FACTOR (PE_CHI - PE_CHI) 
 PE__01.B/E            : PHOTOELECTRIC EFFECT/FACTOR (PE_OH - PE_OH) 
 RESS_LL.OHMM          : SHALLOW LATEROLOG (LLS_CHI - LLS_CHI) 
 RESS_LL__01.OHMM      : SHALLOW LATEROLOG (LLS_OH - LLS_OH) 
 RESD_LL.OHMM          : DEEP LATEROLOG (LLD_CHI - LLD_CHI) 
 RESD_LL__01.OHMM      : DEEP LATEROLOG (LLD_OH - LLD_OH) 
 NPHI.V/V              : NEUTRON POROSITY (NPHI_CHI - NPHI_CHI) 
 NPHI__01.V/V          : NEUTRON POROSITY (NPHI_OH - NPHI_OH) 
 SPHI.V/V              : SONIC POROSITY (SPHI_CHI - SPHI_CHI) 
 RHOB.G/CC             : BULK DENSITY (RHOB_CHI - RHOB_CHI) 
 RHOB__01.G/CC         : BULK DENSITY (RHOB_OH - RHOB_OH) 
 #___________________________________________________________________________________________________ 
~A         DEPT             GR         GR__01             DT         DT__01             PE         PE__01        RESS_LL    RESS_LL__01        RESD_LL    RESD_LL__01           NPHI       NPHI__01           SPHI           RHOB       RHOB__01
# ...
        11770.0         90.646       -999.250         68.546       -999.250         3.6521      -999.2500        70.0883      -999.2500        78.9675      -999.2500        0.13223     -999.25000        0.14810         2.5673      -999.2500
        11770.5         85.676       -999.250         68.114       -999.250         3.7011      -999.2500        71.3513      -999.2500        80.1499      -999.2500        0.12944     -999.25000        0.14510         2.5703      -999.2500
        11771.0         84.880       -999.250         67.811       -999.250         3.7264      -999.2500        72.3902      -999.2500        81.0731      -999.2500        0.12737     -999.25000        0.14290         2.5719      -999.2500
        11771.5         80.465       -999.250         67.298       -999.250         3.7725      -999.2500        72.6078      -999.2500        81.0139      -999.2500        0.12445     -999.25000        0.13930         2.5749      -999.2500
        11772.0         77.260       -999.250         66.852       -999.250         3.8154      -999.2500        73.9014      -999.2500        82.0817      -999.2500        0.12191     -999.25000        0.13620         2.5777      -999.2500
        11772.5         81.631       -999.250         66.921       -999.250         3.8253      -999.2500        78.1653      -999.2500        86.7986      -999.2500        0.12040     -999.25000        0.13660         2.5773      -999.2500
        11773.0         76.302       -999.250         66.458       -999.250         3.8902      -999.2500        80.7026      -999.2500        89.3556      -999.2500        0.11726     -999.25000        0.13340         2.5803      -999.2500
        11773.5         74.581       -999.250         66.328       -999.250         3.9302      -999.2500        84.6742      -999.2500        93.7006      -999.2500        0.11557     -999.25000        0.13240         2.5814      -999.2500
        11774.0         74.494       -999.250         66.312       -999.250         3.9483      -999.2500        87.9751      -999.2500        97.2770      -999.2500        0.11494     -999.25000        0.13230         2.5819      -999.2500
        11774.5         82.724       -999.250         66.726       -999.250         3.9089      -999.2500        92.8504      -999.2500       102.6114      -999.2500        0.11624     -999.25000        0.13530         2.5803      -999.2500
        11775.0         76.473       -999.250         66.079       -999.250         3.9507      -999.2500        92.6955      -999.2500       101.3568      -999.2500        0.11471     -999.25000        0.13070         2.5848      -999.2500
        11775.5         73.371       -999.250         65.493       -999.250         3.9824      -999.2500        93.0887      -999.2500       100.7626      -999.2500        0.11263     -999.25000        0.12650         2.5892      -999.2500
        11776.0         70.457       -999.250         64.959       -999.250         4.0231      -999.2500        94.9116      -999.2500       101.8965      -999.2500        0.11009     -999.25000        0.12280         2.5932      -999.2500
        11776.5         69.620       -999.250         64.438       -999.250         4.0643      -999.2500        97.2643      -999.2500       103.6878      -999.2500        0.10679     -999.25000        0.11910         2.5968      -999.2500
        11777.0         67.494       -999.250         63.950       -999.250         4.1058      -999.2500        97.4834      -999.2500       103.4854      -999.2500        0.10372     -999.25000        0.11560         2.5997      -999.2500
        11777.5         74.814       -999.250         64.241       -999.250         4.0806      -999.2500       102.8543      -999.2500       109.1277      -999.2500        0.10411     -999.25000        0.11770         2.5979      -999.2500
        11778.0         72.836       -999.250         64.009       -999.250         4.1036      -999.2500       103.7922      -999.2500       109.8046      -999.2500        0.10297     -999.25000        0.11600         2.5996      -999.2500
        11778.5         75.794       -999.250         64.148       -999.250         4.0994      -999.2500       107.7386      -999.2500       113.9798      -999.2500        0.10301     -999.25000        0.11700         2.5989      -999.2500
        11779.0         61.059       -999.250         63.096       -999.250         4.2026      -999.2500       103.2362      -999.2500       108.4732      -999.2500        0.09883     -999.25000        0.10960         2.6059      -999.2500
        11779.5         63.453       -999.250         63.246       -999.250         4.2038      -999.2500       108.1511      -999.2500       113.6403      -999.2500        0.09890     -999.25000        0.11060         2.6051      -999.2500
        11780.0         60.037       -999.250         63.087       -999.250         4.2268      -999.2500       109.3553      -999.2500       114.6614      -999.2500        0.09856     -999.25000        0.10950         2.6067      -999.2500
        11780.5         52.285       -999.250         62.714       -999.250         4.2633      -999.2500       106.2814      -999.2500       111.1595      -999.2500        0.09792     -999.25000        0.10690         2.6096      -999.2500
        11781.0         60.397       -999.250         63.382       -999.250         4.2018      -999.2500       110.5908      -999.2500       116.0409      -999.2500        0.10092     -999.25000        0.11160         2.6055      -999.2500
        11781.5         60.069       -999.250         63.408       -999.250         4.1902      -999.2500       109.1444      -999.2500       114.4325      -999.2500        0.10170     -999.25000        0.11180         2.6056      -999.2500
        11782.0         65.472       -999.250         63.701       -999.250         4.1559      -999.2500       111.2151      -999.2500       116.6745      -999.2500        0.10292     -999.25000        0.11390         2.6037      -999.2500
        11782.5         60.222       -999.250         63.281       -999.250         4.1809      -999.2500       107.2536      -999.2500       112.0524      -999.2500        0.10188     -999.25000        0.11090         2.6066      -999.2500
        11783.0         59.638       -999.250         63.209       -999.250         4.1826      -999.2500       106.2956      -999.2500       110.9681      -999.2500        0.10172     -999.25000        0.11040         2.6071      -999.2500
        11783.5         66.753       -999.250         63.744       -999.250         4.1242      -999.2500       107.5390      -999.2500       112.5977      -999.2500        0.10441     -999.25000        0.11420         2.6035      -999.2500
        11784.0         71.540       -999.250         64.214       -999.250         4.0765      -999.2500       106.6701      -999.2500       112.2192      -999.2500        0.10671     -999.25000        0.11750         2.6002      -999.2500
        11784.5         64.040       -999.250         63.899       -999.250         4.0920      -999.2500        99.3900      -999.2500       104.4914      -999.2500        0.10667     -999.25000        0.11530         2.6024      -999.2500
        11785.0         75.912       -999.250         64.905       -999.250         3.9978      -999.2500       103.3863      -999.2500       109.3072      -999.2500        0.11184     -999.25000        0.12240         2.5959      -999.2500
        11785.5         77.707       -999.250         65.275       -999.250         3.9704      -999.2500       104.9284      -999.2500       111.1763      -999.2500        0.11435     -999.25000        0.12500         2.5940      -999.2500
        11786.0         61.683       -999.250         64.388       -999.250         4.0461      -999.2500        98.4486      -999.2500       103.7489      -999.2500        0.11152     -999.25000        0.11870         2.6005      -999.2500
        11786.5         66.179       -999.250         64.694       -999.250         4.0366      -999.2500       101.8708      -999.2500       107.6727      -999.2500        0.11205     -999.25000        0.12090         2.5983      -999.2500
