#--------------------------------------------------#
#----------------DRILLING INFO, INC.---------------#
#---------------WWW.DRILLINGINFO.COM---------------#
#------------------COPYRIGHT 2018------------------#
#--------------------------------------------------#
#THIS FILE MAY BE USED ONLY IN ACCORDANCE WITH A CURRENT SUBSCRIPTION AGREEMENT BETWEEN
#THE USER AND DRILLING INFO, INC. NO PART OF THIS FILE MAY BE REPRODUCED, USED, COPIED,
#MODIFIED, PROPAGATED, OR DISTRIBUTED EXCEPT IN ACCORDANCE WITH THE SUBSCRIPTION
#AGREEMENT. UNAUTHORIZED USE OR DISTRIBUTION OF ALL OR ANY PART OF THIS FILE MAY VIOLATE
#COPYRIGHT, TRADEMARK, AND/OR OTHER LAWS AND IS SUBJECT TO CIVIL AS WELL AS CRIMINAL
#SANCTIONS.
#--------------------------------------------------#
#THIS FILE IS PROVIDED "AS-IS" AND ALL WARRANTIES ARE EXPRESSLY DISCLAIMED, WHETHER
#EXPRESS, ORAL, IMPLIED, STATUTORY OR OTHERWISE, INCLUDING ANY IMPLIED WARRANTY OF FITNESS
#FOR A PARTICULAR PURPOSE, MERCHANTABILITY, TITLE OR NON-INFRINGEMENT, AND ANY WARRANTIES
#ARISING BY VIRTUE OF CUSTOM OF TRADE OR COURSE OF DEALING.  FURTHER, DRILLING INFO,
#INC. AND ITS LICENSORS DO NOT REPRESENT OR WARRANT THAT THIS FILE WILL MEET USER'S
#REQUIREMENTS OR ARE SUITABLE FOR USER'S NEEDS OR THAT THE DATA OR RESULTS PROVIDED IN
#CONJUNCTION THEREWITH ARE CORRECT, ACCURATE, TIMELY OR RELIABLE. THESE DISCLAIMERS SHALL
#APPLY REGARDLESS OF ANY FAILURE OF ESSENTIAL PURPOSE OF ANY LIMITED REMEDY.  SOME
#JURISDICTIONS DO NOT ALLOW THE EXCLUSION OF CERTAIN WARRANTIES SO SOME OF THE ABOVE
#EXCLUSIONS MAY NOT APPLY. IN NO EVENT SHALL DRILLING INFO, INC. OR ANY OF ITS AFFILIATES
#BE LIABLE UNDER ANY LEGAL THEORY, WHETHER IN TORT (INCLUDING WITHOUT LIMITATION
#NEGLIGENCE), CONTRACT, STRICT LIABILITY, STATUTORY OR OTHERWISE, FOR ANY SPECIAL,
#INCIDENTAL, CONSEQUENTIAL, EXEMPLARY, PUNITIVE OR INDIRECT DAMAGE OF ANY KIND, INCLUDING
#WITHOUT LIMITATION LOSS OF REVENUE, PROFITS, GOODWILL, USE, AND/OR DATA OR THE COST OF
#PROCUREMENT OF SUBSTITUTE GOODS OR SERVICES, EVEN IF APPRISED OF THE POSSIBILITY OF SUCH
#DAMAGES IN ADVANCE.
#--------------------------------------------------#
# Exported from DI Transform
# DI Transform - A Product of Drillinginfo, Inc. - www.drillinginfo.com
#--------------------------------------------------#
#
~VERSION INFORMATION
 VERS.        2.0 : LAS ASCII STANDARD - VERSION 2.0
 WRAP.         NO : ONE LINE PER DEPTH STEP

~WELL INFORMATION
#MNEM.UNIT       DATA TYPE       INFORMATION
#---------       ---------       -----------
 STRT.ft          9043 : Start Depth
 STOP.ft         16870 : Stop Depth
 STEP.ft           0.5 : Step Length
 NULL.         -999.25 : Null Value
 COMP.                 : Company
 WELL.          DRD_55 : Well Name
 FLD.                  : Field Name
 LOC.                  : Well Location
 CNTY.                 : County
 STAT.                 : State or Province
 CTRY.                 : Country
 SRVC.                 : Service Company
 DATE.                 : Date
 API.   42109326310000 : Well Identifier

~CURVE INFORMATION
#MNEM.UNIT       API CODE       CURVE DESCRIPTION
#---------       --------       -----------------
 DEPT.ft          : <Measured Depth>
 CAL.in           : Caliper
 DPHI.%           : Density Porosity
 DT.us/ft         : Sonic
 GR.gAPI          : Gamma Ray
 ILD.ohmm         : Deep Resistivity
 ILS.ohmm         : Shallow Resistivity
 RHOB.g/cm3       : Density

~PARAMETER INFORMATION
#MNEM.UNIT       VALUE       DESCRIPTION
#---------       -----       -----------
 EKB.ft      3382 : Elevation above MSL

~A       DEPT         CAL        DPHI          DT          GR         ILD         ILS        RHOB
# ...
         9617     -999.25     26.5626     73.8067     69.5801     -999.25     -999.25      2.2577
       9617.5     -999.25     27.4941     75.6037     72.5309     -999.25     -999.25      2.2428
         9618     -999.25     26.5863     78.9313      73.419     -999.25     -999.25      2.2769
       9618.5     -999.25     24.4605     81.1899     73.7335     -999.25     -999.25      2.3382
         9619     -999.25     22.3098     83.5075     68.4456     -999.25     -999.25      2.3396
       9619.5     -999.25     22.2785     83.7661     63.9214     -999.25     -999.25      2.3253
         9620     -999.25     24.4478     82.0204     69.0423     -999.25     -999.25      2.2987
       9620.5     -999.25     26.4161     78.1211     75.0386     -999.25     -999.25       2.278
         9621     -999.25     26.2131     74.8107     76.4772     -999.25     -999.25      2.2541
       9621.5     -999.25     24.3433     73.5975     76.0241     -999.25     -999.25      2.2743
         9622     -999.25     22.4565     74.4275     77.3779     -999.25     -999.25       2.307
       9622.5     -999.25     23.7133     75.9429     79.7009     -999.25     -999.25       2.299
         9623     -999.25     25.4786     76.8195     80.2469     -999.25     -999.25        2.29
       9623.5     -999.25     25.9462     75.4304     78.7037     -999.25     -999.25      2.2742
         9624     -999.25      24.829     72.8861     77.1605     -999.25     -999.25      2.2777
       9624.5     -999.25     22.3077     70.0851     76.1305     -999.25     -999.25      2.2911
         9625     -999.25     20.1973     68.8738     75.6173     -999.25     -999.25      2.2882
       9625.5     -999.25     19.8632     69.0714     74.0741     -999.25     -999.25      2.3231
         9626     -999.25     21.5707     70.0671     72.2479     -999.25     -999.25      2.3494
       9626.5     -999.25      23.376     70.5792     70.9877     -999.25     -999.25      2.3244
         9627     -999.25     25.4338      70.188     70.9877     -999.25     -999.25      2.2944
       9627.5     -999.25     26.8062     68.4065     70.9877     -999.25     -999.25      2.2613
         9628     -999.25     27.8055      67.646     72.7658     -999.25     -999.25      2.2357
       9628.5     -999.25     28.4585     68.5286     75.7217     -999.25     -999.25      2.2267
         9629     -999.25      28.201     71.4598      75.503     -999.25     -999.25       2.227
       9629.5     -999.25     27.5146     75.1381     75.1277     -999.25     -999.25       2.234
         9630     -999.25     26.7042     77.4125     72.1825     -999.25     -999.25       2.247
       9630.5     -999.25     25.3381     78.4689     68.3163     -999.25     -999.25      2.2575
         9631     -999.25     24.5733     77.8741      66.358     -999.25     -999.25      2.2687
       9631.5     -999.25     24.7614     78.9436     64.8148     -999.25     -999.25       2.282
         9632     -999.25     25.6626     82.0838     62.8905     -999.25     -999.25      2.2806
       9632.5     -999.25     26.0093     85.3481     61.7284     -999.25     -999.25      2.2699
         9633     -999.25     25.3009     87.8137     63.2716     -999.25     -999.25      2.2647
       9633.5     -999.25     23.6627      87.261     64.8148     -999.25     -999.25      2.2775
         9634     -999.25     22.9611     84.5037     66.6457     -999.25     -999.25      2.2965
       9634.5     -999.25      23.575     82.1039     67.5697     -999.25     -999.25      2.3061
         9635     -999.25     25.0702     80.2398     68.2088     -999.25     -999.25       2.296
       9635.5     -999.25     26.7135      78.345     67.2792     -999.25     -999.25      2.2825
         9636     -999.25     25.7117     75.5166      66.358     -999.25     -999.25      2.2699
       9636.5     -999.25     21.9985     72.6455     64.8148     -999.25     -999.25      2.2545
         9637     -999.25     15.0564       70.17     63.2716     -999.25     -999.25      2.2476
       9637.5     -999.25      6.4586     70.5288     64.8148     -999.25     -999.25      2.5075
         9638     -999.25     -7.7433     72.3475     66.8374     -999.25     -999.25      2.8104
       9638.5     -999.25      -9.918     73.2591     67.9012     -999.25     -999.25      2.9618
         9639     -999.25     -9.8828     66.2561     65.8623     -999.25     -999.25           3
       9639.5     -999.25     -0.6362     60.8549     61.9961     -999.25     -999.25      2.7882
         9640     -999.25     15.4787     57.1589     63.7837     -999.25     -999.25      2.5147
       9640.5     -999.25     17.5503     54.7941     66.1067     -999.25     -999.25      2.4241
         9641     -999.25     16.3065     55.0059      66.358     -999.25     -999.25      2.4193
       9641.5     -999.25     16.4344     55.4503     67.9012     -999.25     -999.25      2.4228
         9642     -999.25     16.6358     56.4077     71.5325     -999.25     -999.25      2.4278
       9642.5     -999.25       15.97     57.4176     73.8555     -999.25     -999.25      2.4375
         9643     -999.25     14.4997     58.3037     71.9697     -999.25     -999.25      2.4751
       9643.5     -999.25     13.3948     58.7473     69.4444     -999.25     -999.25        2.49
         9644     -999.25     13.1606     58.7347     67.9012     -999.25     -999.25      2.4886
       9644.5     -999.25     14.6963     58.4898      66.358     -999.25     -999.25      2.4862
         9645     -999.25     16.4905     58.6901     64.8148     -999.25     -999.25       2.443
       9645.5     -999.25     17.7372     59.7971     64.8148     -999.25     -999.25      2.4083
         9646     -999.25     19.0576     62.4823     66.9683     -999.25     -999.25      2.3905
       9646.5     -999.25     19.3443     64.4096     70.8345     -999.25     -999.25      2.3816
         9647     -999.25     20.3026     65.3077     74.7007     -999.25     -999.25      2.3531
       9647.5     -999.25     24.5114     65.2011     78.5669     -999.25     -999.25       2.298
         9648     -999.25     29.7597     65.2309     80.2469     -999.25     -999.25      2.1825
       9648.5     -999.25     29.8962     67.2254     80.2469     -999.25     -999.25      2.0534
         9649     -999.25     29.8962     71.6839     74.9579     -999.25     -999.25      2.0052
       9649.5     -999.25     29.8962     77.5944     68.1614     -999.25     -999.25      2.0124
         9650     -999.25     29.8962     80.4662     50.9715     -999.25     -999.25      2.0369
       9650.5     -999.25     29.1688     80.5273     32.8458     -999.25     -999.25      2.1786
         9651     -999.25     28.2969      79.034     23.6532     -999.25     -999.25      2.2105
       9651.5     -999.25     29.0442      76.802     17.7803     -999.25     -999.25      2.2058
         9652     -999.25     29.5506      75.391     16.1067     -999.25     -999.25      2.2035
       9652.5     -999.25     28.0988     75.1797     17.1116     -999.25     -999.25      2.2306
         9653     -999.25     25.4912     75.6477     19.7538     -999.25     -999.25      2.2673
       9653.5     -999.25     23.1951     75.9605     19.7538     -999.25     -999.25      2.3004
         9654     -999.25     22.3607      75.653      18.441     -999.25     -999.25      2.3202
       9654.5     -999.25     23.4803        74.4     20.2674     -999.25     -999.25      2.2904
         9655     -999.25     26.5553      72.896     19.2518     -999.25     -999.25      2.2566
       9655.5     -999.25     28.0223     72.1592     16.6317     -999.25     -999.25      2.2363
         9656     -999.25     28.3248     72.3882     16.1067     -999.25     -999.25      2.2247
       9656.5     -999.25      26.782     73.1325     16.1138     -999.25     -999.25      2.2406
         9657     -999.25     26.4053      73.655     18.4576     -999.25     -999.25      2.2522
       9657.5     -999.25     27.3643     73.9184     20.2749     -999.25     -999.25      2.2407
