###############################################
##         ENVERUS                           ##
##         ESS - Open Hole                   ##
##         PERMIAN / DELAWARE                ##
##         Nov 03 2023  V4.0                 ##
##         42-109-33144-00-00                ##
###############################################
## Copyright 2017-2023  ENVERUS.  All Rights Reserved. 
## Confidential - Property of ENVERUS, use governed by terms and 
## conditions found within the existing Information Services Subscription Agreement 
## (as may be amended, the “ISSA”) between Customer and ENVERUS. 
## 
~VERSION INFORMATION
# MNEM.UNIT                               DATA : DESCRIPTION OF MNEMONIC
#-----.-----     ----------------------------- : -----------------------------
VERS.                                     2.00 : CWLS LOG ASCII STANDARD - VERSION 2.00
WRAP.                                       NO : MULTIPLE LINES PER DEPTH STEP
VEND.                                  ENVERUS : VENDOR
TYPE.                          ESS - OPEN HOLE : ENVERUS ESSENTIAL CURVES – ACCESSIBLE THROUGH ENVERUS PRISM(TM)
DOC.                                  44408038 : ENVERUS HEADER RAW DOCUMENT ID
#___________________________________________________________________________________________________ 
~WELL INFORMATION 
# jhvnPe+1QU9E4rmF00QVhgJB4IQXrbTj+4JQBaOQ+xeerJB1ro+a2ny8/YeKPBUHGPa8yPZn1kHe7+9ZkyRs1A== 
# MNEM.UNIT                                              DATA : DESCRIPTION OF MNEMONIC 
#-----.-----                    ----------------------------- : ----------------------------- 
CNTY.                                               CULBERSON : COUNTY 
STATE.                                                  TEXAS : STATE 
CNTRY.                                                    USA : COUNTRY 
API.                                             42-109-33144 : API (10 Digit) 
API_14.                                    42-109-33144-00-00 : API (14 Digits) 
API_14_std.                                 42-109-33144-0000 : API (14 Digits Standard) 
UWI.                                           42109331440000 : UNIQUE WELL ID 
WELL.                                        PAT FEE 4 NO. 3H : WELL NAME
STRT.FT                                                8880.0 : START DEPTH
STOP.FT                                               14320.0 : STOP DEPTH
STEP.FT                                                   0.5 : STEP BETWEEN DEPTHS
NULL.                                                 -999.25 : NULL VALUE
LOC.                                     API  42-109-33144LAT : LOCATION 
FL1.                                     API  42-109-33144LAT : LOCATIONLINE1 
DMF.                                                       KB : DRILL MEAS FROM 
PDAT.                                                      GL : PERMANENT DATUM 
FLD.                                    FORD, WEST (WOLFCAMP) : FIELD NAME 
COMP.                            CAPITAN ENERGY, INCORPORATED : COMPANY 
DATE.                                             21-SEP-2017 : DATE 
SVCO.                                             HALLIBURTON : SERVICECONAME 
PROV.                                                   TEXAS : PROVINCE 
BASI.                                                 PERMIAN : BASIN 
RANG.                                                     N/A : RANGE 
TOWN.                                                     N/A : TOWNSHIP 
SECT.                                                     N/A : SECTION 
SON.                                                      N/A : JOB NUMBER 
SRVC.                                             HALLIBURTON : SERVICE COMPANY 
LMF.                                                       KB : LOG MEASURED FROM 
EGL.FT                                              3093.0000 : GROUND ELEVATION 
BAP.FT                                                 0.0000 : GL ELEV ONSHORE 
GVFD.G                                                 1.0000 : GRAVITY FIELD 
EKB.FT                                              3114.0000 : KB ELEVATION 
EDF.FT                                              3113.0000 : DF ELEVATION
#___________________________________________________________________________________________________ 
~CURVE INFORMATION 
# MNEM.UNIT           : CURVE DESCRIPTION 
#-----.-----          : ----------------------------- 
 DEPT.FT               : MEASURED DEPTH 
 GR.API                : GAMMA RAY (GR_CHI - GR_CHI) 
 GR__01.API            : GAMMA RAY (GR_OH - GR_OH) 
 DT.US/FT              : SONIC DELTA TRANSIT TIME (DTC_CHI - DTC_CHI) 
 DT__01.US/FT          : SONIC DELTA TRANSIT TIME (DTC_OH - DTC_OH) 
 PE.B/E                : PHOTOELECTRIC EFFECT/FACTOR (PE_CHI - PE_CHI) 
 PE__01.B/E            : PHOTOELECTRIC EFFECT/FACTOR (PE_OH - PE_OH) 
 RESS_LL.OHMM          : SHALLOW LATEROLOG (LLS_CHI - LLS_CHI) 
 RESS_LL__01.OHMM      : SHALLOW LATEROLOG (LLS_OH - LLS_OH) 
 RESD_LL.OHMM          : DEEP LATEROLOG (LLD_CHI - LLD_CHI) 
 RESD_LL__01.OHMM      : DEEP LATEROLOG (LLD_OH - LLD_OH) 
 NPHI.V/V              : NEUTRON POROSITY (NPHI_CHI - NPHI_CHI) 
 NPHI__01.V/V          : NEUTRON POROSITY (NPHI_OH - NPHI_OH) 
 SPHI.V/V              : SONIC POROSITY (SPHI_CHI - SPHI_CHI) 
 RHOB.G/CC             : BULK DENSITY (RHOB_CHI - RHOB_CHI) 
 RHOB__01.G/CC         : BULK DENSITY (RHOB_OH - RHOB_OH) 
 #___________________________________________________________________________________________________ 
~A         DEPT             GR         GR__01             DT         DT__01             PE         PE__01        RESS_LL    RESS_LL__01        RESD_LL    RESD_LL__01           NPHI       NPHI__01           SPHI           RHOB       RHOB__01
# ...
        12127.0         49.972       -999.250         59.251       -999.250         4.0270      -999.2500       101.1798      -999.2500       100.7328      -999.2500        0.08847     -999.25000        0.08240         2.6228      -999.2500
        12127.5         43.032       -999.250         58.840       -999.250         3.9681      -999.2500        96.9517      -999.2500        96.3054      -999.2500        0.08772     -999.25000        0.07950         2.6258      -999.2500
        12128.0         42.947       -999.250         58.646       -999.250         3.9717      -999.2500        97.4296      -999.2500        96.5631      -999.2500        0.08714     -999.25000        0.07810         2.6261      -999.2500
        12128.5         59.641       -999.250         59.468       -999.250         4.0673      -999.2500       109.6929      -999.2500       108.7888      -999.2500        0.08988     -999.25000        0.08390         2.6183      -999.2500
        12129.0         62.479       -999.250         59.324       -999.250         4.0972      -999.2500       111.2635      -999.2500       110.1398      -999.2500        0.08910     -999.25000        0.08290         2.6175      -999.2500
        12129.5         54.706       -999.250         58.562       -999.250         4.0626      -999.2500       104.5351      -999.2500       103.1370      -999.2500        0.08647     -999.25000        0.07750         2.6216      -999.2500
        12130.0         51.333       -999.250         58.211       -999.250         4.0030      -999.2500       102.5653      -999.2500       100.7923      -999.2500        0.08665     -999.25000        0.07500         2.6225      -999.2500
        12130.5         54.945       -999.250         58.458       -999.250         3.9616      -999.2500       106.6573      -999.2500       104.5383      -999.2500        0.08945     -999.25000        0.07680         2.6195      -999.2500
        12131.0         51.392       -999.250         58.116       -999.250         3.9030      -999.2500       104.2218      -999.2500       101.7899      -999.2500        0.08964     -999.25000        0.07440         2.6205      -999.2500
        12131.5         61.074       -999.250         58.848       -999.250         3.9299      -999.2500       112.8317      -999.2500       110.3209      -999.2500        0.09287     -999.25000        0.07950         2.6152      -999.2500
        12132.0         55.648       -999.250         58.500       -999.250         3.8945      -999.2500       108.1343      -999.2500       105.6269      -999.2500        0.09183     -999.25000        0.07710         2.6178      -999.2500
        12132.5         50.087       -999.250         58.127       -999.250         3.8563      -999.2500       103.8955      -999.2500       101.3353      -999.2500        0.09087     -999.25000        0.07440         2.6204      -999.2500
        12133.0         48.704       -999.250         58.037       -999.250         3.8227      -999.2500       103.1708      -999.2500       100.4731      -999.2500        0.09143     -999.25000        0.07380         2.6205      -999.2500
        12133.5         48.314       -999.250         57.995       -999.250         3.8193      -999.2500       103.5153      -999.2500       100.7290      -999.2500        0.09150     -999.25000        0.07350         2.6205      -999.2500
        12134.0         53.648       -999.250         58.408       -999.250         3.8392      -999.2500       108.0102      -999.2500       105.2080      -999.2500        0.09313     -999.25000        0.07640         2.6177      -999.2500
        12134.5         56.795       -999.250         58.665       -999.250         3.8516      -999.2500       109.8581      -999.2500       107.1591      -999.2500        0.09390     -999.25000        0.07830         2.6162      -999.2500
        12135.0         48.917       -999.250         58.019       -999.250         3.8296      -999.2500       101.6766      -999.2500        99.1407      -999.2500        0.09085     -999.25000        0.07370         2.6208      -999.2500
        12135.5         48.782       -999.250         58.071       -999.250         3.8647      -999.2500       101.9378      -999.2500        99.5708      -999.2500        0.08996     -999.25000        0.07410         2.6215      -999.2500
        12136.0         48.180       -999.250         57.935       -999.250         3.8916      -999.2500       100.6190      -999.2500        98.3616      -999.2500        0.08855     -999.25000        0.07310         2.6225      -999.2500
        12136.5         52.641       -999.250         58.286       -999.250         3.9437      -999.2500       105.3628      -999.2500       103.1446      -999.2500        0.08916     -999.25000        0.07560         2.6205      -999.2500
        12137.0         52.332       -999.250         58.228       -999.250         3.9232      -999.2500       104.7091      -999.2500       102.4150      -999.2500        0.08946     -999.25000        0.07520         2.6204      -999.2500
        12137.5         58.399       -999.250         58.568       -999.250         3.9082      -999.2500       109.2903      -999.2500       106.7612      -999.2500        0.09201     -999.25000        0.07760         2.6166      -999.2500
        12138.0         62.510       -999.250         58.891       -999.250         3.9030      -999.2500       113.3415      -999.2500       110.6912      -999.2500        0.09394     -999.25000        0.07990         2.6140      -999.2500
        12138.5         54.267       -999.250         58.194       -999.250         3.8409      -999.2500       105.4305      -999.2500       102.6641      -999.2500        0.09211     -999.25000        0.07490         2.6178      -999.2500
        12139.0         48.929       -999.250         57.803       -999.250         3.8201      -999.2500       102.0917      -999.2500        99.2529      -999.2500        0.09081     -999.25000        0.07220         2.6205      -999.2500
        12139.5         55.299       -999.250         58.241       -999.250         3.8318      -999.2500       107.3978      -999.2500       104.4244      -999.2500        0.09300     -999.25000        0.07530         2.6168      -999.2500
        12140.0         54.025       -999.250         58.082       -999.250         3.8271      -999.2500       106.2119      -999.2500       103.1899      -999.2500        0.09247     -999.25000        0.07410         2.6175      -999.2500
        12140.5         58.165       -999.250         58.386       -999.250         3.8561      -999.2500       110.3279      -999.2500       107.2711      -999.2500        0.09340     -999.25000        0.07630         2.6155      -999.2500
        12141.0         53.642       -999.250         58.027       -999.250         3.8783      -999.2500       106.4713      -999.2500       103.5816      -999.2500        0.09086     -999.25000        0.07370         2.6186      -999.2500
        12141.5         60.306       -999.250         58.584       -999.250         3.9720      -999.2500       115.2008      -999.2500       112.3429      -999.2500        0.09153     -999.25000        0.07770         2.6159      -999.2500
        12142.0         61.441       -999.250         58.776       -999.250         4.0330      -999.2500       119.0869      -999.2500       116.3243      -999.2500        0.09098     -999.25000        0.07900         2.6160      -999.2500
        12142.5         55.194       -999.250         58.439       -999.250         4.0294      -999.2500       115.2828      -999.2500       112.5726      -999.2500        0.08924     -999.25000        0.07670         2.6193      -999.2500
        12143.0         48.618       -999.250         58.135       -999.250         4.0373      -999.2500       111.7207      -999.2500       109.1423      -999.2500        0.08723     -999.25000        0.07450         2.6229      -999.2500
        12143.5         54.436       -999.250         58.648       -999.250         4.0462      -999.2500       116.7750      -999.2500       114.2528      -999.2500        0.08944     -999.25000        0.07810         2.6197      -999.2500
