###############################################
##         ENVERUS                           ##
##         ESS - Open Hole                   ##
##         PERMIAN / DELAWARE                ##
##         Nov 03 2023  V4.0                 ##
##         42-109-32507-90-00                ##
###############################################
## Copyright 2017-2023  ENVERUS.  All Rights Reserved. 
## Confidential - Property of ENVERUS, use governed by terms and 
## conditions found within the existing Information Services Subscription Agreement 
## (as may be amended, the “ISSA”) between Customer and ENVERUS. 
## 
~VERSION INFORMATION
# MNEM.UNIT                               DATA : DESCRIPTION OF MNEMONIC
#-----.-----     ----------------------------- : -----------------------------
VERS.                                     2.00 : CWLS LOG ASCII STANDARD - VERSION 2.00
WRAP.                                       NO : MULTIPLE LINES PER DEPTH STEP
VEND.                                  ENVERUS : VENDOR
TYPE.                          ESS - OPEN HOLE : ENVERUS ESSENTIAL CURVES – ACCESSIBLE THROUGH ENVERUS PRISM(TM)
DOC.                                  51094130 : ENVERUS HEADER RAW DOCUMENT ID
#___________________________________________________________________________________________________ 
~WELL INFORMATION 
# OeTAuI96vYP/1gAnXdiC+b2e5mg9bdq0rVS4GA6NX+ctg1PKQ5RhcqUsdOd2aOUDNf5EtC5635oDT1THDUi6iw== 
# MNEM.UNIT                                              DATA : DESCRIPTION OF MNEMONIC 
#-----.-----                    ----------------------------- : ----------------------------- 
CNTY.                                               CULBERSON : COUNTY 
STATE.                                                  TEXAS : STATE 
CNTRY.                                                    USA : COUNTRY 
API.                                             42-109-32507 : API (10 Digit) 
API_14.                                    42-109-32507-90-00 : API (14 Digits) 
API_14_std.                                 42-109-32507-9000 : API (14 Digits Standard) 
UWI.                                           42109325079000 : UNIQUE WELL ID 
WELL.                               42109325070000_PREV_API14 : WELL NAME
STRT.FT                                                2104.5 : START DEPTH
STOP.FT                                                9085.0 : STOP DEPTH
STEP.FT                                                   0.5 : STEP BETWEEN DEPTHS
NULL.                                                 -999.25 : NULL VALUE
PREV_APII.                                     42109325070000 : WELL IDENTIFIER
#___________________________________________________________________________________________________ 
~PARAMETER INFORMATION 
# MNEM.UNIT                                              DATA : DESCRIPTION OF MNEMONIC 
#-----.-----                    ----------------------------- : ----------------------------- 
EKB.FT                                                 3578.5 : ELEVATION ABOVE MSL
#___________________________________________________________________________________________________ 
~CURVE INFORMATION 
# MNEM.UNIT           : CURVE DESCRIPTION 
#-----.-----          : ----------------------------- 
 DEPT.FT               : MEASURED DEPTH 
 GR__A.API             : GAMMA RAY (GAMMA RAY) 
 DT__A.US/FT           : SONIC DELTA TRANSIT TIME (SONIC) 
 #___________________________________________________________________________________________________ 
~A         DEPT          GR__A          DT__A
# ...
         8977.5        100.217        124.436
         8978.0        105.148        113.846
         8978.5        121.771        106.622
         8979.0        151.114         90.692
         8979.5        166.251         85.398
         8980.0        183.767         74.000
         8980.5        195.918         65.113
         8981.0        204.364         68.719
         8981.5        219.198         74.483
         8982.0        232.219         79.522
         8982.5        223.506         90.289
         8983.0        209.707         89.945
         8983.5        204.356         73.287
         8984.0        207.487         70.340
         8984.5        235.548         68.703
         8985.0        265.817         85.088
         8985.5        211.785        121.641
         8986.0        179.960        146.158
         8986.5        125.070        154.211
         8987.0         90.935        155.874
         8987.5         62.080        153.964
         8988.0         46.393        151.119
         8988.5         42.495        141.341
         8989.0         42.904        137.293
         8989.5         43.700        138.753
         8990.0         48.000        145.985
         8990.5         55.312        142.794
         8991.0         69.886        121.040
         8991.5         97.220        110.777
         8992.0        138.747        105.262
         8992.5        177.411         92.771
         8993.0        197.553         84.614
         8993.5        200.024         75.335
         8994.0        199.436         71.984
         8994.5        193.305         70.810
         8995.0        187.241         70.497
         8995.5        216.340         68.227
         8996.0        240.617         77.072
         8996.5        249.513         94.526
         8997.0        245.235        102.353
         8997.5        217.665        105.243
         8998.0        162.922        110.653
         8998.5        133.701        113.531
         8999.0        130.010        120.828
         8999.5        133.992        121.848
         9000.0        127.259        121.573
         9000.5        124.854        115.748
         9001.0        143.746        115.701
         9001.5        170.643        128.224
         9002.0        170.518        143.961
         9002.5        156.341        141.750
         9003.0        124.970        138.169
         9003.5        141.563        128.733
         9004.0        200.692        118.554
         9004.5        208.955        121.794
         9005.0        190.150        126.115
         9005.5        163.068        130.069
         9006.0        131.046        136.351
         9006.5        105.033        129.421
         9007.0         87.521        102.687
         9007.5        104.348         98.701
         9008.0        143.200         98.734
         9008.5        160.246         98.959
         9009.0        181.979         97.090
         9009.5        195.410         97.761
         9010.0        201.684         98.536
         9010.5        176.378         95.136
         9011.0        158.927         88.520
         9011.5        186.766         79.110
         9012.0        235.649         89.996
         9012.5        226.823        108.401
         9013.0        177.676        125.511
         9013.5        143.263        124.216
         9014.0        121.895        117.627
         9014.5        133.418        111.974
         9015.0        154.890        116.587
         9015.5        147.045        120.059
         9016.0        124.334        127.732
         9016.5        115.933        127.085
         9017.0        113.552        127.989
         9017.5        106.836        135.775
         9018.0        100.038        132.865
         9018.5         91.106        123.719
         9019.0         89.279        109.477
         9019.5        107.808         97.392
         9020.0        139.347         95.396
         9020.5        161.916         87.141
         9021.0        184.061         82.580
         9021.5        213.089         81.797
         9022.0        226.932         86.084
         9022.5        225.399         95.352
         9023.0        209.219        104.596
         9023.5        202.212        108.920
         9024.0        194.970        116.226
         9024.5        181.018        114.147
         9025.0        162.900        104.484
         9025.5        160.771         97.687
         9026.0        178.215         90.212
         9026.5        213.699         89.524
         9027.0        227.423         91.268
         9027.5        223.471         89.314
         9028.0        212.320         87.945
         9028.5        203.842         88.581
         9029.0        201.560         94.920
         9029.5        199.037        107.685
         9030.0        198.643        125.126
         9030.5        198.226        112.502
         9031.0        196.152         91.805
         9031.5        193.914         83.658
         9032.0        193.372         81.862
         9032.5        195.909         81.469
         9033.0        199.143         88.267
         9033.5        201.949         97.321
         9034.0        202.339         92.549
         9034.5        201.560         92.308
         9035.0        204.788         91.759
         9035.5        207.407         87.332
         9036.0       -999.250        104.164
         9036.5       -999.250        117.259
         9037.0       -999.250        112.006
         9037.5       -999.250        101.072
         9038.0       -999.250         95.908
         9038.5       -999.250         71.854
         9039.0       -999.250         69.220
         9039.5       -999.250         88.579
         9040.0       -999.250         94.142
         9040.5       -999.250         95.648
         9041.0       -999.250         95.267
         9041.5       -999.250         82.079
         9042.0       -999.250         78.185
         9042.5       -999.250         96.271
         9043.0       -999.250         98.987
         9043.5       -999.250        101.266
         9044.0       -999.250         98.099
         9044.5       -999.250         68.029
         9045.0       -999.250         60.135
         9045.5       -999.250         69.353
         9046.0       -999.250         77.398
         9046.5       -999.250         94.842
         9047.0       -999.250        115.518
         9047.5       -999.250        123.939
         9048.0       -999.250        121.830
         9048.5       -999.250        102.606
         9049.0       -999.250         70.556
         9049.5       -999.250         61.404
         9050.0       -999.250         59.731
         9050.5       -999.250         67.357
         9051.0       -999.250         93.892
         9051.5       -999.250        130.511
         9052.0       -999.250        148.557
         9052.5       -999.250        156.793
         9053.0       -999.250        152.522
         9053.5       -999.250        142.492
         9054.0       -999.250        128.927
         9054.5       -999.250         93.983
         9055.0       -999.250         92.117
         9055.5       -999.250         93.296
         9056.0       -999.250         95.268
         9056.5       -999.250        100.615
         9057.0       -999.250        106.633
         9057.5       -999.250        108.911
         9058.0       -999.250        110.068
         9058.5       -999.250        110.613
         9059.0       -999.250        109.805
         9059.5       -999.250         97.862
         9060.0       -999.250         64.397
         9060.5       -999.250         62.055
         9061.0       -999.250         62.224
         9061.5       -999.250         69.867
         9062.0       -999.250         83.046
         9062.5       -999.250         98.528
         9063.0       -999.250        103.700
         9063.5       -999.250        106.049
         9064.0       -999.250        107.412
