~VERSION INFORMATION
 VERS.                2.0:   CWLS LOG ASCII STANDARD - VERSION 2.0
 WRAP.                 NO:   ONE LINE PER DEPTH STEP
~WELL INFORMATION
#MNEM.UNIT      DATA TYPE    INFORMATION
#----------   ------------   ------------------------------
 STRT.FT          68.0000:   START DEPTH
 STOP.FT        1517.0000:   STOP DEPTH
 STEP.FT           0.5000:   STEP LENGTH
 NULL.          -999.2500:   NULL VALUE
 COMP. LINCOLN ROCK CORPORATION:   COMPANY
 WELL.        HOLLER #602:   WELL
 FLD .            UNNAMED:   FIELD
 LOC .                   :   LOCATION
 CNTY.          CULBERSON:   COUNTY
 STAT.              TEXAS:   STATE
 CTRY. UNITED STATES OF AMERICA:   COUNTRY
 SRVC.           Gearhart:   SERVICE COMPANY
 DATE.        24-Jun-1984:   LOGDATE
 API .     42109317410000:   API NUMBER
~CURVE INFORMATION
#MNEM.UNIT       API CODE    CURVE DESCRIPTION
#----------   ------------   ------------------------------
 DEPT.F                  :   
 CALXS.IN    60 280 13 00:   CALIPER FROM X AXIS OF X-Y CALIPER(S) FROM SONIC LOG
 GRD .GAPI   45 310 01 00:   GAMMA RAY FROM DENSITY LOG
 GRS .GAPI   60 310 01 00:   GAMMA RAY FROM SONIC LOG
 TEND.LB     45 635 00 00:   TENSION FROM DENSITY LOG
 TENR.LB     11 635 00 00:   TENSION FROM RESISTIVITY LOG
 TENS.LB     60 635 00 00:   TENSION FROM SONIC LOG
 CALYD.IN    45 280 24 00:   CALIPER FROM X AXIS OF X-Y CALIPER(S) FROM DENSITY LOG
 CNS_LS.DEC  42 890 01 00:   COMPENSATED NEUTRON POROSITY
 CDL_LS.DEC  45 890 10 00:   COMPENSATED DENSITY POROSITY LIMESTONE
 RHOB.G/C3   45 350 01 00:   BULK DENSITY
 DRHO.G/C3   45 356 01 00:   BULK DENSITY CORRECTION
 GRR .GAPI   11 310 01 00:   GAMMA RAY FROM RESISTIVITY LOG
 RLLD.OHMM   11 220 10 00:   RAW LATEROLOG DEEP RESISTIVITY
 RLLS.OHMM   11 220 09 00:   RAW LATEROLOG SHALLOW RESISTIVITY
 DT  .US/F   60 500 00 00:   DELTA-T (INTERVAL TRANSIT TIME)
 SPHI.DEC    60 890 00 00:   SONIC POROSITY
~PARAMETER INFORMATION
#MNEM.UNIT          VALUE    DESCRIPTION
#----------   ------------   ------------------------------
 PD  .                 GL:   PERMANENT DATUM
 EPD .FT             3532:   ELEVATION PERMANENT DATUM
 LMF .                 GL:   LOG MEASURED FROM
 DMF .                RKB:   DRILLING MEASURED FROM
 EKB .FT             3544:   KELLY BUSHING
 EDF .FT             3543:   DRILLING FLOOR
 EGL .FT             3532:   GROUND LEVEL
 DATE.           06/24/84:   RUN DATE
 RUN .                  1:   RUN NUMBER
 DD  .FT             1502:   DEPTH DRILLER
 DL  .FT             1506:   DEPTH LOGGER
 BLI .FT             1505:   BOTTOM LOG INTERVAL
 TLI .FT               90:   TOP LOG INTERVAL
 CS  .IN              4.5:   CASING SIZE
 CBD .FT              101:   CASING BOTTOM DRILLER
 CBL .FT             1502:   CASING BOTTOM LOGGER
 BS  .IN            7.875:   BIT SIZE
 BSD .FT             1502:   BIT SIZE AT DEPTH
 DFT .          FRESH H2O:   DRILLING FLUID TYPE
 DFD .                8.4:   DRILLING FLUID DENSITY
 DFV .                 27:   DRILLING FLUID VISCOSITY
 DFPH.                 12:   DRILLING FLUID PH
 MSS .                PIT:   MUD SAMPLE SOURCE
 RMS .OHMM           2.32:   RESISTIVITY MUD SAMPLE
 MST .DEGF             77:   MUD SAMPLE TEMPERATURE
 RMF .OHMM           2.32:   RESISTIVITY MUD FILTRATE SAMPLE
 MFST.DEGF             77:   MUD FILTRATE SAMPLE TEMPERATURE
 MFSS.               MEAS:   MUD FILTRATE SAMPLE SOURCE
 TCS .HRS            0940:   TIME CIRCULATED STOPPED
 TLAB.HRS            1319:   TIME LOGGER AT BOTTOM
 MRT .DEGF            770:   MAXIMUM RECORDED TEMPERATURE
 LUN .               7583:   LOGGING UNIT NUMBER
 LUL .              HOBBS:   LOGGING UNIT LOCATION
 ENGI.             BRYANT:   RECORDING ENGINEER
 WITN.             BURROW:   WITNESSED BY
 CLNT.            :   CLIENT CODE
 ORIG.      1" 2.5" PRINT:   ORIGIN OF DATA
 UWI .     42109317410000:   UNIQUE WELL ID
 
~OTHER INFORMATION
~A   DEPT    CALXS        GRD        GRS       TEND       TENR       TENS      CALYD      CNS_LS     CDL_LS      RHOB       DRHO          GRR     RLLD       RLLS         DT       SPHI   
# ...
  842.0000     8.3765     8.1406     4.2025   957.2790   692.1911   851.0088     8.1973    -0.0044     0.2540     2.9559    -0.0102     5.4080 16840.2246 65588.8672    50.1148    -0.0138
  842.5000     8.3841     7.8494     4.4539   956.5057   691.6991   863.0997     8.1981    -0.0047     0.2521     2.9492    -0.0062     5.6365 16063.3516 65293.5703    50.2644    -0.0123
  843.0000     8.3924     7.6645     4.9056   955.5372   691.2072   874.6507     8.1989    -0.0050     0.2525     2.9426    -0.0020     5.8704 17248.6465 65291.0430    50.2369    -0.0120
  843.5000     8.3976     7.3051     5.3969   954.5699   688.8241   877.5426     8.1997    -0.0053     0.2583     2.9359    -0.0099     5.8704 19194.3477 65288.5195    50.1040    -0.0135
  844.0000     8.3891     6.7229     5.4974   953.3802   686.4410   865.9888     8.2005    -0.0056     0.2641     2.9322    -0.0153     4.8516 21775.7539 64861.2734    49.9326    -0.0146
  844.5000     8.3842     6.6686     4.8976   951.3048   685.9503   839.3636     8.2013    -0.0059     0.2685     2.9330    -0.0184     3.8462 26764.8184 67693.7734    49.8167    -0.0156
  845.0000     8.3958     6.7199     4.7436   949.2282   685.4596   837.5289     8.2216    -0.0060     0.2677     2.9378    -0.0204     4.4130 37839.8242 73541.2734    49.4983    -0.0169
  845.5000     8.4109     6.9295     4.8813   947.1527   683.0769   833.4920     8.2216    -0.0058     0.2621     2.9475    -0.0204     5.0985 36761.8633 67661.6484    49.4083    -0.0187
  846.0000     8.4225     7.0388     5.7991   945.0773   682.5870   831.6557     8.2216    -0.0056     0.2605     2.9535    -0.0204     5.7841 34403.6953 60081.8398    49.2364    -0.0200
  846.5000     8.4173     6.8659     7.3981   943.0006   680.2056   827.6179     8.2216    -0.0054     0.2605     2.9500    -0.0204     6.4696 35744.3359 55415.1836    49.0001    -0.0219
  847.0000     8.4096     6.6932     8.9581   940.9252   677.8225   825.7791     8.2216    -0.0052     0.2605     2.9466    -0.0225     7.1552 37849.9688 55746.8633    48.8831    -0.0224
  847.5000     8.4108     7.0200     8.4323   938.8498   677.3343   821.7410     8.2165    -0.0050     0.2605     2.9432    -0.0243     7.8947 40974.6758 60737.8945    48.9803    -0.0221
  848.0000     8.3897     7.3468     5.7950   936.7731   676.8473   819.9013     8.2115    -0.0048     0.2618     2.9398    -0.0265     7.1579 42581.8477 69890.5547    49.0520    -0.0213
  848.5000     8.4124     7.4985     6.6480   934.6977   674.4655   815.8619     8.2064    -0.0046     0.2638     2.9364    -0.0268     6.3581 48235.8203 73126.1953    49.0219    -0.0215
  849.0000     8.4277     6.9494     7.8914   932.6211   672.0841   814.0198     8.2013    -0.0044     0.2658     2.9330    -0.0271     5.5583 52451.4375 74948.6875    48.9564    -0.0217
  849.5000     8.4310     6.6614     9.0331   930.5457   671.5971   809.9804     8.2007    -0.0042     0.2678     2.9295    -0.0274     5.0607 51696.9141 78637.2188    48.9924    -0.0219
  850.0000     8.4339     6.8981     9.6279   928.4702   693.1120   805.5741     8.1991    -0.0040     0.2698     2.9261    -0.0277     5.0607 47813.9883 78761.7266    48.9986    -0.0224
  850.5000     8.4394     7.6607    10.1670   926.3935   695.6930   802.7288     8.1975    -0.0038     0.2719     2.9227    -0.0281     5.0607 43931.0625 74076.6719    49.0048    -0.0229
  851.0000     8.4269     7.8919    10.3932   924.3181   698.2738   820.0856     8.1959    -0.0036     0.2735     2.9193    -0.0284     5.4548 40449.9180 66233.0234    48.9038    -0.0223
  851.5000     8.4401     7.7194     9.9839   922.2415   700.8560   839.3020     8.1943    -0.0034     0.2745     2.9159    -0.0267     6.1242 35146.3750 62754.2188    48.8922    -0.0222
  852.0000     8.4424     7.5468     7.9442   920.1660   703.4368   853.2806     8.1927    -0.0031     0.2752     2.9119    -0.0264     6.6802 26489.2500 52462.7969    48.8806    -0.0221
  852.5000     8.4423     7.3742     5.9064   918.0906   706.0176   830.6675     8.1911    -0.0029     0.2803     2.9119    -0.0298     6.2753 17832.1250 41767.7383    49.0931    -0.0211
  853.0000     8.4422     7.2378     4.8042   916.0140   708.5986   826.5068     8.1895    -0.0029     0.2841     2.9251    -0.0332     5.8704  9175.0000 32983.6953    49.3616    -0.0191
  853.5000     8.4383     7.0688     4.8620   913.9386   711.1807   824.2079     8.1878    -0.0030     0.2762     2.9413    -0.0367     4.1336  9175.7021 25957.3457    49.6741    -0.0170
  854.0000     8.4425     6.7396     5.4190   911.8632   713.7617   821.9092     8.1862    -0.0031     0.2676     2.9574    -0.0304     3.1158  9437.0557 37387.7930    49.6868    -0.0173
  854.5000     8.4431     6.8456     7.1394   909.4863   716.3425   793.4234     8.1846    -0.0033     0.2575     2.9735    -0.0236     2.5134 24393.4297 54791.0469    49.3655    -0.0189
  855.0000     8.4349     7.2573     6.3234   903.5466   718.9232   790.0515     8.1830    -0.0034     0.2483     2.9787    -0.0169     2.5337 41679.5273 62219.2031    49.0959    -0.0212
  855.5000     8.4559     7.6746     5.3034   897.6057   746.2743   790.6196     8.1814    -0.0035     0.2466     2.9775    -0.0124     3.1194 46790.5898 56194.0938    49.0326    -0.0222
  856.0000     8.4768     7.5833     4.2833   891.6661   734.7350   796.4627     8.1798    -0.0036     0.2418     2.9761    -0.0130     3.7051 44986.3984 56204.3945    48.9693    -0.0226
  856.5000     8.4591     7.1532     4.2039   891.6661   723.1957   812.0791     8.1782    -0.0037     0.2409     2.9752    -0.0135     4.2908 40937.9766 63661.5508    48.9061    -0.0228
  857.0000     8.4481     7.1047     4.5172   891.6661   715.8143   827.6878     8.1767    -0.0038     0.2427     2.9716    -0.0141     4.8765 38162.5391 59833.4805    48.9061    -0.0224
  857.5000     8.4475     7.7651     4.9367   901.3859   714.6697   824.0330     8.1751    -0.0040     0.2458     2.9657    -0.0173     5.2328 38800.2578 59844.3320    48.9908    -0.0222
  858.0000     8.4470     8.9709     5.2712   913.5371   713.5248   820.3784     8.1735    -0.0041     0.2484     2.9599    -0.0216     5.4838 38091.9336 72525.4844    48.9751    -0.0221
  858.5000     8.4461     9.6943     5.6612   925.6881   712.3814   818.5871     8.1719    -0.0042     0.2516     2.9581    -0.0265     5.7348 30543.6230 75578.3984    48.9955    -0.0221
  859.0000     8.4327     9.4143     6.1502   937.8380   711.2367   816.7943     8.1703    -0.0043     0.2548     2.9620    -0.0265     5.6858 22995.3125 68002.8906    49.0360    -0.0218
  859.5000     8.4488     8.0147     6.5599   949.9891   710.0920   813.1397     8.1687    -0.0044     0.2531     2.9659    -0.0265     5.2842 22881.2578 62844.4102    49.0838    -0.0213
  860.0000     8.4395     6.9567     6.6292   957.2790   710.3262   810.2357     8.1671    -0.0045     0.2515     2.9653    -0.0201     4.8826 29851.5898 61016.7539    49.1115    -0.0209
  860.5000     8.4383     6.4213     6.4269   953.9915   712.4984   827.1896     8.1664    -0.0047     0.2507     2.9545    -0.0148     4.4810 36821.9219 64994.2539    49.1392    -0.0207
  861.0000     8.4355     6.0924     6.8619   950.7597   714.6722   824.7185     8.1656    -0.0048     0.2542     2.9464    -0.0170     4.7874 42220.3086 73990.0156    49.1669    -0.0212
  861.5000     8.4364     6.2095     7.4849   945.5181   715.7795   826.2766     8.1622    -0.0049     0.2572     2.9464    -0.0191     6.2753 41330.8984 86323.5000    49.1946    -0.0204
  862.0000     8.4355     6.6143     7.6542   944.1987   723.9568   850.8935     8.1625    -0.0050     0.2578     2.9511    -0.0204     5.8664 38959.9414 76008.2734    49.2311    -0.0200
  862.5000     8.4383     7.0146     6.9974   946.6225   728.0536   857.3559     8.1592    -0.0051     0.2575     2.9550    -0.0168     5.3644 38179.4961 56323.6719    49.2676    -0.0200
  863.0000     8.4377     7.4250     5.9317   949.0462   736.2321   855.3893     8.1559    -0.0052     0.2556     2.9589    -0.0131     5.0607 38993.5195 62543.1953    49.3041    -0.0201
