~Version Information
 VERS.                  2.0:   CWLS log ASCII Standard -VERSION 2.0
 WRAP.                   NO:   One line per depth step
~Well Information Block
#MNEM.UNIT     VALUE/NAME     DESCRIPTION
#---------     -----------    ---------------------------
 STRT.F              8564.0000: START DEPTH
 STOP.F             14132.0000: STOP DEPTH
 STEP.F                 0.5000: STEP DEPTH
 NULL.                 -999.25: NULL VALUE
 FL6 .       API  42-109-33219:  LOCATIONLINE6
 LOC .     253' FEL & 408' FNL:  LOCATION
 FL4 .           ABSTRACT 1760:  LOCATIONLINE4
 FL3 .        T&P RR CO SURVEY:  LOCATIONLINE3
 FL2 .     SECTION 32, BLOCK 58 T2:  LOCATIONLINE2
 FL1 .     253' FEL & 408' FNL:  LOCATIONLINE1
 DMF .                      KB:  DRILL MEAS FROM
 PDAT.                      GL:  PERMANENT DATUM
 CTRY.                     USA:  COUNTRY NAME
 PROV.                   TEXAS:  PROVINCE
 STAT.                   TEXAS:  STATE NAME
 CNTY.               CULBERSON:  COUNTY NAME
 FLD .     FORD, WEST (WOLFCAMP):  FIELD NAME
 WELL.        MOTHER FEE 28 2H:  WELL NAME
 COMP.     CAPITAN ENERGY INC.:  COMPANY
 DATE.             24-Jan-2018:  DATE
 SVCO.             Halliburton:  SERVICECONAME
 HIDE.                        :  WELLNAMEOPERAT
 BASI.                 PERMIAN:  BASIN
 UWI .            42-109-33219LAT:  UNIQUE WELL IDENTIFIER
 API .            42-109-33219LAT:  API NUMBER
 RANG.                     N/A:  RANGE
 TOWN.                     N/A:  TOWNSHIP
 SECT.                     N/A:  SECTION
 SON .               904563795:  JOB NUMBER
 SRVC.             Halliburton:  SERVICE COMPANY
 LMF .                      KB:  LOG MEASURED FROM
 EGL .ft             3142.0000:  GROUND ELEVATION
 BAP .ft                0.0000:  GL ELEV ONSHORE
 GVFD.g                 1.0000:  GRAVITY FIELD
 EKB .ft             3167.0000:  KB ELEVATION
 EDF .ft             3166.0000:  DF ELEVATION
~Curve Information Block
#MNEM.UNIT                 API CODE     Curve Description
#---------               -----------    ---------------------------
 DEPT.F                 00 000 000 000:  Depth
 CCL .V                 00 000 000 000:  Casing Collar Locator
 NPHI_OH.pu             00 000 000 000:  NPHI_OH
 NPHI_CHI.pu            00 000 000 000:  NPHI_CHI
 GR_OH.api              00 000 000 000:  GR_OH
 GR_CHI.api             00 000 000 000:  GR_CHI
 RHOB_OH.g/cc           00 000 000 000:  RHOB_OH
 RHOB_CHI.g/cc          00 000 000 000:  RHOB_CHI
 PE_OH.b/e              00 000 000 000:  PE_OH
 PE_CHI.b/e             00 000 000 000:  PE_CHI
 DTC_OH.uspf            00 000 000 000:  DTC_OH
 DTC_CHI.uspf           00 000 000 000:  DTC_CHI
 SPHI_CHI.pu            00 000 000 000:  SPHI_CHI
 RT10_OH.ohmm           00 000 000 000:  RT10_OH
 RT10_CHI.ohmm          00 000 000 000:  RT10_CHI
 RT30_OH.ohmm           00 000 000 000:  RT30_OH
 RT30_CHI.ohmm          00 000 000 000:  RT30_CHI
 RT90_OH.ohmm           00 000 000 000:  RT90_OH
 RT90_CHI.ohmm          00 000 000 000:  RT90_CHI
 SGF .cu                00 000 000 000:  Formation Sigma
 CRNF.NONE              00 000 000 000:  CaptMode Capt Ratio
 RIN .NONE              00 000 000 000:  CaptMode Gross Inel Ratio
#Other Information
#
#WARRANTY: Halliburton will use its best efforts to furnish customers with 
#accurate information and interpretations that are part of, and incident to, the services 
#provided.  However, Halliburton cannot and does not warrant the accuracy 
#or correctness of such information and interpretations.  Under no circumstances should any 
#such information or interpretation be relied upon as the sole basis for any drilling, 
#completion, production, or financial decision or any procedure involving any risk to the 
#safety of any drilling venture, drilling rig or its crew or any other third party.  The 
#Customer has full responsibility for all drilling, completion and production operation.  
#Halliburton makes no representations or warranties, either expressed or 
#implied, including, but not limited to, the implied warranties of merchantability or fitness 
#for a particular purpose, with respect to the services rendered.  In no event will 
#Halliburton be liable for failure to obtain any particular results or for 
#any damages, including, but not limited to, indirect, special or consequential damages, 
#resulting from the use of any information or interpretation provided by Halliburton.
#
~A    DEPT       CCL    NPHI_OH NPHI_CHI  GR_OH    GR_CHI  RHOB_OH RHOB_CHI  PE_OH   PE_CHI   DTC_OH  DTC_CHI SPHI_CHI RT10_OH  RT10_CHI RT30_OH  RT30_CHI RT90_OH  RT90_CHI   SGF    CRNF   RIN   
# ...
   11147.0000    2.1189 -999.25   9.9202  -999.25  99.1851 -999.25   2.6119 -999.25    3.5482 -999.25 69.0323  15.1600  -999.25  33.4903  -999.25  32.5027  -999.25  36.1316 23.0509 0.9289 1.1085
   11147.5000    2.0817 -999.25   9.9380  -999.25  98.5903 -999.25   2.6120 -999.25    3.5598 -999.25 69.1642  15.2500  -999.25  33.0908  -999.25  32.1585  -999.25  35.7481 22.8037 0.9319 1.1055
   11148.0000    2.0414 -999.25  10.5135  -999.25 112.8207 -999.25   2.6074 -999.25    3.5700 -999.25 69.1348  15.2300  -999.25  29.0595  -999.25  27.7996  -999.25  30.8123 22.6525 0.9393 1.1046
   11148.5000    0.0000 -999.25   9.6745  -999.25  97.5023 -999.25   2.6147 -999.25    3.6071 -999.25 68.6435  14.8800  -999.25  37.3115  -999.25  36.6813  -999.25  41.1445 22.4812 0.9415 1.1034
   11149.0000    0.0000 -999.25   9.6238  -999.25  96.2586 -999.25   2.6143 -999.25    3.5966 -999.25 68.6147  14.8600  -999.25  39.1612  -999.25  38.7114  -999.25  43.5474 22.3339 0.9396 1.1021
   11149.5000    0.0000 -999.25   9.8226  -999.25  98.5246 -999.25   2.6111 -999.25    3.5648 -999.25 68.8313  15.0200  -999.25  38.7727  -999.25  38.3417  -999.25  43.1524 22.0832 0.9274 1.1028
   11150.0000    0.0000 -999.25  10.2110  -999.25 106.0920 -999.25   2.6073 -999.25    3.5507 -999.25 68.9558  15.1000  -999.25  35.8207  -999.25  35.1326  -999.25  39.4550 21.9012 0.9254 1.1066
   11150.5000    0.0000 -999.25  10.7618  -999.25 116.6849 -999.25   2.6029 -999.25    3.5584 -999.25 69.1078  15.2100  -999.25  31.0456  -999.25  30.0532  -999.25  33.5844 21.7942 0.9279 1.1172
   11151.0000    0.0000 -999.25  11.1536  -999.25 127.4063 -999.25   2.6016 -999.25    3.6228 -999.25 68.8176  15.0100  -999.25  27.7305  -999.25  26.5697  -999.25  29.6377 21.7862 0.9362 1.1257
   11151.5000    0.0000 -999.25  10.3484  -999.25 112.9534 -999.25   2.6115 -999.25    3.7163 -999.25 68.7623  14.9700  -999.25  31.8728  -999.25  31.1123  -999.25  34.9732 21.8728 0.9372 1.1301
   11152.0000    0.0000 -999.25  10.4031  -999.25 110.7666 -999.25   2.6128 -999.25    3.7459 -999.25 69.1782  15.2600  -999.25  29.3362  -999.25  28.5693  -999.25  31.9741 21.8881 0.9238 1.1263
   11152.5000    0.0000 -999.25  10.2087  -999.25 103.2623 -999.25   2.6151 -999.25    3.7433 -999.25 69.5006  15.4900  -999.25  29.1953  -999.25  28.5247  -999.25  31.8386 21.9565 0.9085 1.1170
   11153.0000    0.0000 -999.25  10.8521  -999.25 114.1886 -999.25   2.6087 -999.25    3.7028 -999.25 69.7675  15.6800  -999.25  24.9396  -999.25  23.9694  -999.25  26.5503 21.9662 0.9031 1.1095
   11153.5000    0.0000 -999.25  10.5331  -999.25 113.6940 -999.25   2.6123 -999.25    3.7471 -999.25 69.1664  15.2500  -999.25  27.3675  -999.25  26.4220  -999.25  29.4451 22.1489 0.9119 1.1055
   11154.0000    0.0000 -999.25   9.6927  -999.25 103.4361 -999.25   2.6209 -999.25    3.8144 -999.25 68.3122  14.6500  -999.25  34.7453  -999.25  34.2119  -999.25  38.5901 22.3815 0.9276 1.1048
   11154.5000    0.0000 -999.25   9.4800  -999.25 102.0876 -999.25   2.6224 -999.25    3.8093 -999.25 67.8954  14.3500  -999.25  37.5341  -999.25  37.0574  -999.25  41.9181 22.6031 0.9400 1.1036
   11155.0000    0.0000 -999.25   9.8917  -999.25 107.7461 -999.25   2.6168 -999.25    3.7426 -999.25 68.2844  14.6300  -999.25  34.4405  -999.25  33.6838  -999.25  37.9224 22.6964 0.9401 1.1038
   11155.5000    0.0000 -999.25  10.0176  -999.25 108.3775 -999.25   2.6135 -999.25    3.6727 -999.25 68.4470  14.7400  -999.25  34.4304  -999.25  33.5897  -999.25  37.7392 22.6993 0.9370 1.1030
   11156.0000    2.5134 -999.25  10.1784  -999.25 105.8772 -999.25   2.6094 -999.25    3.5799 -999.25 69.0333  15.1600  -999.25  33.5298  -999.25  32.6540  -999.25  36.5040 22.7148 0.9305 1.1051
   11156.5000    2.4898 -999.25  10.0521  -999.25 101.2166 -999.25   2.6097 -999.25    3.5535 -999.25 69.1936  15.2700  -999.25  34.7614  -999.25  34.0087  -999.25  38.0173 22.7943 0.9278 1.1056
   11157.0000    2.4663 -999.25   9.7446  -999.25  95.8666 -999.25   2.6127 -999.25    3.5710 -999.25 68.9746  15.1200  -999.25  37.6302  -999.25  37.1207  -999.25  41.6359 22.8830 0.9306 1.1053
   11157.5000    2.4427 -999.25  10.2165  -999.25 106.9566 -999.25   2.6094 -999.25    3.5782 -999.25 69.0225  15.1500  -999.25  32.6292  -999.25  31.6479  -999.25  35.3099 22.9692 0.9333 1.1053
   11158.0000    2.4192 -999.25  10.0509  -999.25 105.6456 -999.25   2.6115 -999.25    3.5968 -999.25 68.7556  14.9600  -999.25  33.7400  -999.25  32.7732  -999.25  36.6219 22.8664 0.9381 1.1043
   11158.5000    2.3957 -999.25   9.9322  -999.25 101.7281 -999.25   2.6123 -999.25    3.5850 -999.25 68.8552  15.0300  -999.25  34.3295  -999.25  33.4322  -999.25  37.3277 22.5433 0.9373 1.1035
   11159.0000    2.3721 -999.25  10.1168  -999.25 105.0129 -999.25   2.6101 -999.25    3.5731 -999.25 68.9720  15.1100  -999.25  33.4436  -999.25  32.4959  -999.25  36.2725 22.1714 0.9329 1.0982
   11159.5000    2.3486 -999.25  10.5805  -999.25 113.3394 -999.25   2.6055 -999.25    3.5678 -999.25 69.1784  15.2600  -999.25  30.7507  -999.25  29.6975  -999.25  33.1035 21.9163 0.9305 1.0931
   11160.0000    2.3250 -999.25  10.5813  -999.25 114.4288 -999.25   2.6054 -999.25    3.5793 -999.25 69.0095  15.1400  -999.25  31.6879  -999.25  30.7095  -999.25  34.3421 21.8960 0.9338 1.0935
   11160.5000    2.3015 -999.25   9.7118  -999.25  99.6073 -999.25   2.6127 -999.25    3.6178 -999.25 68.3651  14.6900  -999.25  41.6711  -999.25  41.5675  -999.25  47.1377 22.1436 0.9412 1.0969
   11161.0000    2.2779 -999.25   9.6154  -999.25  98.5636 -999.25   2.6139 -999.25    3.6410 -999.25 68.2264  14.5900  -999.25  42.9167  -999.25  42.9791  -999.25  48.8554 22.5124 0.9451 1.1032
   11161.5000    2.2544 -999.25   9.6913  -999.25  99.5901 -999.25   2.6135 -999.25    3.6340 -999.25 68.3663  14.6900  -999.25  41.2431  -999.25  41.1125  -999.25  46.6059 22.8092 0.9468 1.1042
   11162.0000    2.2309 -999.25   9.9561  -999.25 101.7882 -999.25   2.6113 -999.25    3.6043 -999.25 68.8921  15.0600  -999.25  36.7468  -999.25  36.2303  -999.25  40.7561 23.0339 0.9484 1.1040
   11162.5000    2.2073 -999.25   9.9610  -999.25  98.7306 -999.25   2.6095 -999.25    3.5263 -999.25 69.1838  15.2600  -999.25  36.1635  -999.25  35.4795  -999.25  39.6849 23.3086 0.9497 1.1016
   11163.0000    2.1838 -999.25  10.0123  -999.25  99.4563 -999.25   2.6076 -999.25    3.4770 -999.25 69.1546  15.2400  -999.25  36.6582  -999.25  35.8810  -999.25  40.0963 23.3484 0.9533 1.1032
   11163.5000    2.1602 -999.25  10.2673  -999.25 104.9734 -999.25   2.6040 -999.25    3.4244 -999.25 69.1260  15.2200  -999.25  35.3293  -999.25  34.2703  -999.25  38.1913 23.4023 0.9519 1.1026
   11164.0000    2.1367 -999.25  10.1404  -999.25 101.8075 -999.25   2.6049 -999.25    3.4186 -999.25 69.1348  15.2300  -999.25  36.3975  -999.25  35.4241  -999.25  39.4982 23.2202 0.9507 1.1023
   11164.5000    2.1131 -999.25  10.2176  -999.25 101.8235 -999.25   2.6039 -999.25    3.4019 -999.25 69.3364  15.3700  -999.25  35.4940  -999.25  34.4753  -999.25  38.3604 22.9165 0.9514 1.1022
   11165.0000    2.0896 -999.25  10.0089  -999.25  97.6859 -999.25   2.6065 -999.25    3.4348 -999.25 69.2832  15.3300  -999.25  37.0027  -999.25  36.2027  -999.25  40.3897 22.5565 0.9554 1.1033
   11165.5000    2.0661 -999.25  10.0990  -999.25  99.9091 -999.25   2.6062 -999.25    3.4541 -999.25 69.3081  15.3500  -999.25  36.1288  -999.25  35.3107  -999.25  39.4068 22.0944 0.9545 1.1067
   11166.0000    2.0425 -999.25  10.5804  -999.25 109.7142 -999.25   2.6026 -999.25    3.4767 -999.25 69.4601  15.4600  -999.25  32.2534  -999.25  31.2398  -999.25  34.7882 21.7898 0.9442 1.1059
   11166.5000    2.0190 -999.25  10.6858  -999.25 110.6883 -999.25   2.6025 -999.25    3.5185 -999.25 69.6001  15.5600  -999.25  31.4611  -999.25  30.5887  -999.25  34.1210 21.6023 0.9252 1.1013
   11167.0000    1.9954 -999.25  10.6638  -999.25 108.6557 -999.25   2.6034 -999.25    3.5512 -999.25 69.7796  15.6900  -999.25  31.4238  -999.25  30.7257  -999.25  34.3331 21.4684 0.9104 1.0943
   11167.5000    1.9719 -999.25  10.0809  -999.25  98.7916 -999.25   2.6096 -999.25    3.6132 -999.25 69.4966  15.4900  -999.25  36.5186  -999.25  36.3846  -999.25  41.0254 21.4927 0.9036 1.0909
