###############################################
##         ENVERUS                           ##
##         ESS - Open Hole                   ##
##         PERMIAN / DELAWARE                ##
##         Nov 03 2023  V4.0                 ##
##         42-109-33370-00-00                ##
###############################################
## Copyright 2017-2023  ENVERUS.  All Rights Reserved. 
## Confidential - Property of ENVERUS, use governed by terms and 
## conditions found within the existing Information Services Subscription Agreement 
## (as may be amended, the “ISSA”) between Customer and ENVERUS. 
## 
~VERSION INFORMATION
# MNEM.UNIT                               DATA : DESCRIPTION OF MNEMONIC
#-----.-----     ----------------------------- : -----------------------------
VERS.                                     2.00 : CWLS LOG ASCII STANDARD - VERSION 2.00
WRAP.                                       NO : MULTIPLE LINES PER DEPTH STEP
VEND.                                  ENVERUS : VENDOR
TYPE.                          ESS - OPEN HOLE : ENVERUS ESSENTIAL CURVES – ACCESSIBLE THROUGH ENVERUS PRISM(TM)
DOC.                                  52814434 : ENVERUS HEADER RAW DOCUMENT ID
#___________________________________________________________________________________________________ 
~WELL INFORMATION 
# 4wk/Fx8UuugU+iebl2dHJIcndKaYvWbTE+/Vf37HP7rynMiEVi3nAb6NYbehQO/VbM9PVY38flJCaeNisGRn4g== 
# MNEM.UNIT                                              DATA : DESCRIPTION OF MNEMONIC 
#-----.-----                    ----------------------------- : ----------------------------- 
CNTY.                                               CULBERSON : COUNTY 
STATE.                                                  TEXAS : STATE 
CNTRY.                                                    USA : COUNTRY 
API.                                             42-109-33370 : API (10 Digit) 
API_14.                                    42-109-33370-00-00 : API (14 Digits) 
API_14_std.                                 42-109-33370-0000 : API (14 Digits Standard) 
UWI.                                           42109333700000 : UNIQUE WELL ID 
WELL.                                       ROXANNE FEE 46 3H : WELL NAME
STRT.FT                                                8800.0 : START DEPTH
STOP.FT                                               14157.0 : STOP DEPTH
STEP.FT                                                   0.5 : STEP BETWEEN DEPTHS
NULL.                                                 -999.25 : NULL VALUE
LOC.                                        API  42-109-33370 : LOCATION 
FL1.                                        API  42-109-33370 : LOCATIONLINE1 
DMF.                                                       KB : DRILL MEAS FROM 
PDAT.                                                      GL : PERMANENT DATUM 
FLD.                                    FORD, WEST (WOLFCAMP) : FIELD NAME 
COMP.                                          CAPITAN ENERGY : COMPANY 
DATE.                                             29-APR-2019 : DATE 
SVCO.                                             HALLIBURTON : SERVICECONAME 
PROV.                                                   TEXAS : PROVINCE 
BASI.                                                 PERMIAN : BASIN 
RANG.                                                     N/A : RANGE 
TOWN.                                                     N/A : TOWNSHIP 
SECT.                                                     N/A : SECTION 
SON.                                                905631605 : JOB NUMBER 
SRVC.                                             HALLIBURTON : SERVICE COMPANY 
LMF.                                                       KB : LOG MEASURED FROM 
BAP.FT                                                 0.0000 : GL ELEV ONSHORE 
GVFD.G                                                 1.0000 : GRAVITY FIELD
#___________________________________________________________________________________________________ 
~CURVE INFORMATION 
# MNEM.UNIT           : CURVE DESCRIPTION 
#-----.-----          : ----------------------------- 
 DEPT.FT               : MEASURED DEPTH 
 GR.API                : GAMMA RAY (GR_CHI - GR_CHI) 
 GR__01.API            : GAMMA RAY (GR_OH - GR_OH) 
 DT.US/FT              : SONIC DELTA TRANSIT TIME (DTC_CHI - DTC_CHI) 
 DT__01.US/FT          : SONIC DELTA TRANSIT TIME (DTC_OH - DTC_OH) 
 PE.B/E                : PHOTOELECTRIC EFFECT/FACTOR (PE_CHI - PE_CHI) 
 PE__01.B/E            : PHOTOELECTRIC EFFECT/FACTOR (PE_OH - PE_OH) 
 RESS_10.OHMM          : 10 INCH SHALLOW INDUCTION RESISTIVITY (RT10_CHI - RT10_CHI) 
 RESS_10__01.OHMM      : 10 INCH SHALLOW INDUCTION RESISTIVITY (RT10_OH - RT10_OH) 
 RESM_30.OHMM          : 30 INCH MEDIUM INDUCTION RESISTIVITY (RT30_CHI - RT30_CHI) 
 RESM_30__01.OHMM      : 30 INCH MEDIUM INDUCTION RESISTIVITY (RT30_OH - RT30_OH) 
 RESD_90.OHMM          : 90 INCH DEEP INDUCTION RESISTIVITY (RT90_CHI - RT90_CHI) 
 RESD_90__01.OHMM      : 90 INCH DEEP INDUCTION RESISTIVITY (RT90_OH - RT90_OH) 
 NPHI.V/V              : NEUTRON POROSITY (NPHI_CHI - NPHI_CHI) 
 NPHI__01.V/V          : NEUTRON POROSITY (NPHI_OH - NPHI_OH) 
 SPHI.V/V              : SONIC POROSITY (SPHI_CHI - SPHI_CHI) 
 RHOB.G/CC             : BULK DENSITY (RHOB_CHI - RHOB_CHI) 
 RHOB__01.G/CC         : BULK DENSITY (RHOB_OH - RHOB_OH) 
 #___________________________________________________________________________________________________ 
~A         DEPT             GR         GR__01             DT         DT__01             PE         PE__01        RESS_10    RESS_10__01        RESM_30    RESM_30__01        RESD_90    RESD_90__01           NPHI       NPHI__01           SPHI           RHOB       RHOB__01
# ...
        13780.0         85.142       -999.250         72.789       -999.250         3.8489      -999.2500         62.046       -999.250         64.092       -999.250         68.183       -999.250        0.13390     -999.25000        0.17840         2.5946      -999.2500
        13780.5         82.935       -999.250         72.804       -999.250         3.8302      -999.2500         61.677       -999.250         63.710       -999.250         67.777       -999.250        0.13260     -999.25000        0.17850         2.5950      -999.2500
        13781.0         82.892       -999.250         72.859       -999.250         3.8073      -999.2500         61.265       -999.250         63.285       -999.250         67.324       -999.250        0.13210     -999.25000        0.17890         2.5941      -999.2500
        13781.5         85.051       -999.250         72.947       -999.250         3.7852      -999.2500         60.963       -999.250         62.972       -999.250         66.992       -999.250        0.13250     -999.25000        0.17960         2.5923      -999.2500
        13782.0         89.280       -999.250         73.077       -999.250         3.7634      -999.2500         60.823       -999.250         62.828       -999.250         66.838       -999.250        0.13390     -999.25000        0.18050         2.5894      -999.2500
        13782.5         95.913       -999.250         73.262       -999.250         3.7446      -999.2500         60.763       -999.250         62.766       -999.250         66.773       -999.250        0.13680     -999.25000        0.18170         2.5855      -999.2500
        13783.0        103.148       -999.250         73.470       -999.250         3.7277      -999.2500         60.633       -999.250         62.632       -999.250         66.630       -999.250        0.14030     -999.25000        0.18290         2.5813      -999.2500
        13783.5        110.297       -999.250         73.707       -999.250         3.7086      -999.2500         60.284       -999.250         62.271       -999.250         66.246       -999.250        0.14410     -999.25000        0.18410         2.5771      -999.2500
        13784.0        114.577       -999.250         73.842       -999.250         3.6926      -999.2500         59.686       -999.250         61.653       -999.250         65.589       -999.250        0.14650     -999.25000        0.18480         2.5746      -999.2500
        13784.5        114.975       -999.250         73.851       -999.250         3.6808      -999.2500         58.984       -999.250         60.929       -999.250         64.818       -999.250        0.14680     -999.25000        0.18490         2.5742      -999.2500
        13785.0        111.636       -999.250         73.733       -999.250         3.6834      -999.2500         58.459       -999.250         60.386       -999.250         64.241       -999.250        0.14520     -999.25000        0.18450         2.5761      -999.2500
        13785.5        107.596       -999.250         73.582       -999.250         3.6956      -999.2500         58.250       -999.250         60.171       -999.250         64.011       -999.250        0.14320     -999.25000        0.18380         2.5786      -999.2500
        13786.0        102.975       -999.250         73.473       -999.250         3.7192      -999.2500         58.384       -999.250         60.309       -999.250         64.158       -999.250        0.14190     -999.25000        0.18300         2.5816      -999.2500
        13786.5         98.538       -999.250         73.398       -999.250         3.7453      -999.2500         58.882       -999.250         60.823       -999.250         64.705       -999.250        0.14090     -999.25000        0.18210         2.5845      -999.2500
        13787.0         93.089       -999.250         73.256       -999.250         3.7820      -999.2500         59.852       -999.250         61.825       -999.250         65.772       -999.250        0.13920     -999.25000        0.18100         2.5882      -999.2500
        13787.5         86.256       -999.250         72.996       -999.250         3.8245      -999.2500         61.292       -999.250         63.313       -999.250         67.354       -999.250        0.13600     -999.25000        0.17960         2.5930      -999.2500
        13788.0         80.373       -999.250         72.749       -999.250         3.8560      -999.2500         63.160       -999.250         65.242       -999.250         69.406       -999.250        0.13200     -999.25000        0.17830         2.5969      -999.2500
        13788.5         76.418       -999.250         72.532       -999.250         3.8692      -999.2500         65.121       -999.250         67.268       -999.250         71.562       -999.250        0.12750     -999.25000        0.17740         2.5991      -999.2500
        13789.0         75.482       -999.250         72.484       -999.250         3.8491      -999.2500         66.513       -999.250         68.706       -999.250         73.092       -999.250        0.12380     -999.25000        0.17740         2.5986      -999.2500
        13789.5         76.971       -999.250         72.603       -999.250         3.8173      -999.2500         66.664       -999.250         68.862       -999.250         73.258       -999.250        0.12240     -999.25000        0.17840         2.5963      -999.2500
        13790.0         81.263       -999.250         72.952       -999.250         3.7692      -999.2500         64.911       -999.250         67.051       -999.250         71.330       -999.250        0.12420     -999.25000        0.18070         2.5918      -999.2500
        13790.5         87.445       -999.250         73.513       -999.250         3.7105      -999.2500         61.105       -999.250         63.120       -999.250         67.149       -999.250        0.12930     -999.25000        0.18400         2.5859      -999.2500
        13791.0         95.347       -999.250         74.160       -999.250         3.6424      -999.2500         55.723       -999.250         57.560       -999.250         61.234       -999.250        0.13680     -999.25000        0.18780         2.5790      -999.2500
        13791.5        103.198       -999.250         74.784       -999.250         3.5733      -999.2500         49.820       -999.250         51.462       -999.250         54.747       -999.250        0.14540     -999.25000        0.19150         2.5726      -999.2500
        13792.0        112.508       -999.250         75.349       -999.250         3.5009      -999.2500         44.622       -999.250         46.093       -999.250         49.036       -999.250        0.15460     -999.25000        0.19470         2.5659      -999.2500
        13792.5        121.063       -999.250         75.715       -999.250         3.4452      -999.2500         41.161       -999.250         42.518       -999.250         45.232       -999.250        0.16190     -999.25000        0.19670         2.5607      -999.2500
        13793.0        126.742       -999.250         75.788       -999.250         3.4083      -999.2500         39.656       -999.250         40.963       -999.250         43.578       -999.250        0.16520     -999.25000        0.19720         2.5578      -999.2500
        13793.5        126.155       -999.250         75.553       -999.250         3.4160      -999.2500         40.123       -999.250         41.445       -999.250         44.091       -999.250        0.16300     -999.25000        0.19610         2.5589      -999.2500
        13794.0        118.929       -999.250         75.050       -999.250         3.4615      -999.2500         41.929       -999.250         43.311       -999.250         46.076       -999.250        0.15550     -999.25000        0.19380         2.5639      -999.2500
        13794.5        109.861       -999.250         74.495       -999.250         3.5070      -999.2500         43.764       -999.250         45.206       -999.250         48.092       -999.250        0.14650     -999.25000        0.19130         2.5699      -999.2500
