~Version Information
 VERS.                  2.0:   CWLS log ASCII Standard -VERSION 2.0
 WRAP.                   NO:   One line per depth step
~Well Information Block
#MNEM.UNIT     VALUE/NAME     DESCRIPTION
#---------     -----------    ---------------------------
 STRT.F              8650.0000: START DEPTH
 STOP.F             14150.0000: STOP DEPTH
 STEP.F                 0.5000: STEP DEPTH
 NULL.                 -999.25: NULL VALUE
 LOC .     A1759-SEC34-BLK58-T2-:  LOCATION
 FL4 .        API 42-109-33169:  LOCATIONLINE4
 FL2 .     T&P RR CO-337FSL-25:  LOCATIONLINE2
 FL1 .     A1759-SEC34-BLK58-T2-:  LOCATIONLINE1
 DMF .                      KB:  DRILL MEAS FROM
 PDAT.                      GL:  PERMANENT DATUM
 CNTY.               CULBERSON:  COUNTY NAME
 FLD .     FORD, WEST (WOLFCAMP):  FIELD NAME
 WELL.         ALICE FEE 34 2H:  WELL NAME
 COMP.     CAPITAN ENERGY INC.:  COMPANY
 DATE.             27-Mar-2018:  DATE
 SVCO.             Halliburton:  SERVICECONAME
 PROV.                   TEXAS:  PROVINCE
 STAT.                   TEXAS:  STATE NAME
 CTRY.                     USA:  COUNTRY NAME
 HIDE.                        :  WELLNAMEOPERAT
 BASI.                 PERMIAN:  BASIN
 UWI .            42-109-33169LAT:  UNIQUE WELL IDENTIFIER
 API .            42-109-33169LAT:  API NUMBER
 RANG.                     N/A:  RANGE
 TOWN.                     N/A:  TOWNSHIP
 SECT.                     N/A:  SECTION
 SRVC.             Halliburton:  SERVICE COMPANY
 LMF .                      KB:  LOG MEASURED FROM
 TVDS.ft             3088.0000:  TVDSS CORRECTN
 EGL .ft             3063.0000:  GROUND ELEVATION
 APD .ft               25.0000:  DEPTH ABOVE PD
 EPD .ft             3063.0000:  ELEVATION
 BAP .ft                0.0000:  GL ELEV ONSHORE
 GVFD.g                 1.0000:  GRAVITY FIELD
 EKB .ft             3088.0000:  KB ELEVATION
 EDF .ft             3087.0000:  DF ELEVATION
~Curve Information Block
#MNEM.UNIT                 API CODE     Curve Description
#---------               -----------    ---------------------------
 DEPT.F                 00 000 000 000:  Depth
 CCL .mV                00 000 000 000:  Casing Collar Locator
 NPHI_OH.pu             00 000 000 000:  NPHI_OH
 NPHI_CHI.pu            00 000 000 000:  NPHI_CHI
 GR_OH.api              00 000 000 000:  GR_OH
 GR_CHI.api             00 000 000 000:  GR_CHI
 RHOB_OH.g/cc           00 000 000 000:  RHOB_OH
 RHOB_CHI.g/cc          00 000 000 000:  RHOB_CHI
 PE_OH.b/e              00 000 000 000:  PE_OH
 PE_CHI.b/e             00 000 000 000:  PE_CHI
 MSFL_OH.ohmm           00 000 000 000:  MSFL_OH
 MSFL_CHI.ohmm          00 000 000 000:  MSFL_CHI
 LLS_OH.ohmm            00 000 000 000:  LLS_OH
 LLS_CHI.ohmm           00 000 000 000:  LLS_CHI
 LLD_OH.ohmm            00 000 000 000:  LLD_OH
 LLD_CHI.ohmm           00 000 000 000:  LLD_CHI
 DTC_OH.uspf            00 000 000 000:  DTC_OH
 DTC_CHI.uspf           00 000 000 000:  DTC_CHI
 SPHI_CHI.pu            00 000 000 000:  SPHI_CHI
 SGF .cu                00 000 000 000:  Formation Sigma
 CRNF.NONE              00 000 000 000:  CM GrsCaptRatio
 RIN .NONE              00 000 000 000:  CM GrsInelRatio
#Other Information
#
#WARRANTY: Halliburton will use its best efforts to furnish customers with 
#accurate information and interpretations that are part of, and incident to, the services 
#provided.  However, Halliburton cannot and does not warrant the accuracy 
#or correctness of such information and interpretations.  Under no circumstances should any 
#such information or interpretation be relied upon as the sole basis for any drilling, 
#completion, production, or financial decision or any procedure involving any risk to the 
#safety of any drilling venture, drilling rig or its crew or any other third party.  The 
#Customer has full responsibility for all drilling, completion and production operation.  
#Halliburton makes no representations or warranties, either expressed or 
#implied, including, but not limited to, the implied warranties of merchantability or fitness 
#for a particular purpose, with respect to the services rendered.  In no event will 
#Halliburton be liable for failure to obtain any particular results or for 
#any damages, including, but not limited to, indirect, special or consequential damages, 
#resulting from the use of any information or interpretation provided by Halliburton.
#
~A    DEPT       CCL    NPHI_OH NPHI_CHI  GR_OH    GR_CHI  RHOB_OH RHOB_CHI  PE_OH  PE_CHI  MSFL_OH   MSFL_CHI  LLS_OH   LLS_CHI   LLD_OH   LLD_CHI  DTC_OH  DTC_CHI SPHI_CHI   SGF    CRNF   RIN   
# ...
   11930.0000    0.0000 -999.25  11.6681  -999.25 110.8098 -999.25   2.5760 -999.25 3.6743    -999.25  54.4053   -999.25  86.1677   -999.25  95.9852 -999.25 66.5884  13.4300 21.1556 0.6664 1.0159
   11930.5000    0.0000 -999.25  10.8559  -999.25  91.6790 -999.25   2.5874 -999.25 3.7453    -999.25  42.6092   -999.25  72.7444   -999.25  81.9200 -999.25 66.0398  13.0400 21.2548 0.6593 1.0125
   11931.0000    0.0000 -999.25  10.3549  -999.25  80.8512 -999.25   2.5945 -999.25 3.7883    -999.25  36.1782   -999.25  64.0287   -999.25  72.4480 -999.25 65.6903  12.7900 21.3589 0.6543 1.0091
   11931.5000    0.0000 -999.25  10.9521  -999.25  93.6186 -999.25   2.5862 -999.25 3.7279    -999.25  41.1710   -999.25  69.8516   -999.25  78.3817 -999.25 66.2833  13.2100 21.4032 0.6469 1.0083
   11932.0000    0.0000 -999.25  11.3859  -999.25 105.5892 -999.25   2.5803 -999.25 3.6798    -999.25  47.7206   -999.25  77.1790   -999.25  85.9141 -999.25 66.4723  13.3500 21.3687 0.6464 1.0104
   11932.5000    0.0000 -999.25  11.2428  -999.25 102.9454 -999.25   2.5823 -999.25 3.6894    -999.25  47.9782   -999.25  78.0513   -999.25  87.1745 -999.25 66.2385  13.1800 21.3609 0.6481 1.0141
   11933.0000   30.3192 -999.25  11.0889  -999.25 101.1874 -999.25   2.5845 -999.25 3.7015    -999.25  48.5732   -999.25  79.3596   -999.25  88.6947 -999.25 65.9750  13.0000 21.4040 0.6548 1.0158
   11933.5000    0.0000 -999.25  11.0293  -999.25  99.6116 -999.25   2.5853 -999.25 3.7084    -999.25  48.1185   -999.25  78.9961   -999.25  88.4574 -999.25 65.9043  12.9500 21.4972 0.6621 1.0173
   11934.0000    0.0000 -999.25  10.7262  -999.25  92.3216 -999.25   2.5896 -999.25 3.7364    -999.25  43.5371   -999.25  73.3272   -999.25  82.5369 -999.25 65.6716  12.7800 21.6415 0.6702 1.0154
   11934.5000  -63.3584 -999.25  10.8822  -999.25  95.5844 -999.25   2.5874 -999.25 3.7176    -999.25  44.3927   -999.25  73.9385   -999.25  83.0025 -999.25 65.8695  12.9200 21.7529 0.6777 1.0125
   11935.0000    0.0000 -999.25  10.9909  -999.25  96.6912 -999.25   2.5859 -999.25 3.7016    -999.25  43.1679   -999.25  71.5601   -999.25  80.3217 -999.25 66.0832  13.0700 21.8083 0.6858 1.0109
   11935.5000    0.0000 -999.25  11.2871  -999.25 101.3964 -999.25   2.5818 -999.25 3.6720    -999.25  43.4277   -999.25  70.8663   -999.25  79.3369 -999.25 66.5031  13.3700 21.8168 0.6919 1.0102
   11936.0000    0.0000 -999.25  11.6967  -999.25 108.0978 -999.25   2.5759 -999.25 3.6402    -999.25  46.1510   -999.25  73.4255   -999.25  82.1070 -999.25 66.9308  13.6700 21.8919 0.6992 1.0141
   11936.5000    0.0000 -999.25  10.5956  -999.25  80.8628 -999.25   2.5912 -999.25 3.7395    -999.25  32.3818   -999.25  56.4352   -999.25  64.4617 -999.25 66.0356  13.0400 22.0486 0.7055 1.0202
   11937.0000    0.0000 -999.25  11.1409  -999.25  88.6040 -999.25   2.5833 -999.25 3.6998    -999.25  35.9200   -999.25  61.1957   -999.25  69.8943 -999.25 66.6689  13.4900 22.2764 0.7038 1.0261
   11937.5000    0.0000 -999.25  11.4859  -999.25  94.2144 -999.25   2.5784 -999.25 3.6666    -999.25  37.8506   -999.25  63.1300   -999.25  72.0053 -999.25 67.0911  13.7800 22.4774 0.7002 1.0278
   11938.0000    0.0000 -999.25  11.5576  -999.25  94.4834 -999.25   2.5775 -999.25 3.6495    -999.25  36.3605   -999.25  60.3936   -999.25  68.9555 -999.25 67.2609  13.9000 22.5372 0.6948 1.0264
   11938.5000    0.0000 -999.25  11.6566  -999.25  97.9170 -999.25   2.5763 -999.25 3.6255    -999.25  36.8092   -999.25  60.1211   -999.25  68.4352 -999.25 67.3356  13.9600 22.5400 0.6923 1.0215
   11939.0000    0.0000 -999.25  11.2458  -999.25  91.0742 -999.25   2.5823 -999.25 3.6472    -999.25  32.5881   -999.25  54.3587   -999.25  61.9214 -999.25 66.9724  13.7000 22.4813 0.6921 1.0165
   11939.5000    0.0000 -999.25  11.2974  -999.25  94.5944 -999.25   2.5818 -999.25 3.6352    -999.25  33.9524   -999.25  55.9107   -999.25  63.3534 -999.25 66.9653  13.7000 22.4800 0.6877 1.0142
   11940.0000    0.0000 -999.25  11.7915  -999.25 106.6454 -999.25   2.5749 -999.25 3.5949    -999.25  39.4315   -999.25  62.4259   -999.25  70.0867 -999.25 67.3352  13.9600 22.5258 0.6827 1.0147
   11940.5000    0.0000 -999.25  11.3176  -999.25  94.9754 -999.25   2.5814 -999.25 3.6399    -999.25  34.8866   -999.25  57.4773   -999.25  65.1508 -999.25 66.9371  13.6800 22.5948 0.6744 1.0159
   11941.0000    0.0000 -999.25  11.1273  -999.25  91.1858 -999.25   2.5841 -999.25 3.6534    -999.25  33.3665   -999.25  55.4276   -999.25  63.0801 -999.25 66.6743  13.4900 22.7789 0.6737 1.0182
   11941.5000    0.0000 -999.25  10.4523  -999.25  77.4218 -999.25   2.5937 -999.25 3.7036    -999.25  26.5907   -999.25  45.5725   -999.25  52.3735 -999.25 65.9595  12.9800 22.8463 0.6728 1.0172
   11942.0000    0.0000 -999.25  10.8727  -999.25  90.5490 -999.25   2.5882 -999.25 3.6454    -999.25  31.9753   -999.25  52.4237   -999.25  59.5430 -999.25 66.2265  13.1700 22.8152 0.6736 1.0130
   11942.5000    0.0000 -999.25  11.4950  -999.25 105.2480 -999.25   2.5796 -999.25 3.5875    -999.25  38.9039   -999.25  60.9299   -999.25  68.4319 -999.25 66.7355  13.5300 22.7047 0.6730 1.0091
   11943.0000    0.0000 -999.25  10.8190  -999.25  90.7942 -999.25   2.5891 -999.25 3.6428    -999.25  31.7658   -999.25  51.9419   -999.25  58.8413 -999.25 66.1952  13.1500 22.6081 0.6721 1.0068
   11943.5000   37.7360 -999.25  10.6333  -999.25  86.5336 -999.25   2.5916 -999.25 3.6656    -999.25  30.3189   -999.25  50.3071   -999.25  57.1204 -999.25 66.0564  13.0500 22.5816 0.6731 1.0075
   11944.0000    0.0000 -999.25  10.6653  -999.25  86.8302 -999.25   2.5910 -999.25 3.6706    -999.25  31.0432   -999.25  51.6557   -999.25  58.6746 -999.25 66.0549  13.0500 22.5572 0.6768 1.0117
   11944.5000    0.0000 -999.25  10.4849  -999.25  81.8630 -999.25   2.5934 -999.25 3.6921    -999.25  28.9050   -999.25  48.7201   -999.25  55.6927 -999.25 65.8067  12.8800 22.4773 0.6848 1.0191
   11945.0000    0.0000 -999.25   9.9548  -999.25  68.6408 -999.25   2.6007 -999.25 3.7476    -999.25  22.7519   -999.25  39.5100   -999.25  45.7489 -999.25 65.1530  12.4100 22.2924 0.6916 1.0261
   11945.5000    0.0000 -999.25  10.1844  -999.25  71.6848 -999.25   2.5974 -999.25 3.7371    -999.25  24.0286   -999.25  41.5844   -999.25  48.2078 -999.25 65.3211  12.5300 22.2197 0.6958 1.0311
   11946.0000    0.0000 -999.25  10.7965  -999.25  83.4812 -999.25   2.5886 -999.25 3.6962    -999.25  31.0103   -999.25  52.5155   -999.25  60.3835 -999.25 66.0884  13.0800 22.1903 0.6948 1.0290
   11946.5000    0.0000 -999.25  11.1210  -999.25  90.1852 -999.25   2.5840 -999.25 3.6718    -999.25  34.4165   -999.25  57.7135   -999.25  65.7750 -999.25 66.6393  13.4600 22.1910 0.6896 1.0218
   11947.0000    0.0000 -999.25  11.5122  -999.25  99.6694 -999.25   2.5786 -999.25 3.6382    -999.25  37.5291   -999.25  61.4008   -999.25  69.1547 -999.25 67.1601  13.8300 22.1714 0.6868 1.0133
   11947.5000    0.0000 -999.25  10.0944  -999.25  69.4016 -999.25   2.5985 -999.25 3.7570    -999.25  25.2090   -999.25  44.4196   -999.25  51.0281 -999.25 65.8890  12.9300 22.1482 0.6832 1.0076
   11948.0000   70.6658 -999.25  10.4395  -999.25  78.7506 -999.25   2.5938 -999.25 3.7215    -999.25  28.7486   -999.25  49.6705   -999.25  56.5309 -999.25 66.2047  13.1600 22.2731 0.6791 1.0044
   11948.5000    0.0000 -999.25  10.7010  -999.25  84.8414 -999.25   2.5901 -999.25 3.6996    -999.25  31.3692   -999.25  53.4979   -999.25  60.6256 -999.25 66.3913  13.2900 22.3027 0.6783 1.0058
   11949.0000   33.0389 -999.25   9.7813  -999.25  65.8490 -999.25   2.6031 -999.25 3.7737    -999.25  23.8860   -999.25  41.8993   -999.25  48.2304 -999.25 65.3878  12.5800 22.2830 0.6782 1.0031
   11949.5000    0.0000 -999.25   9.7271  -999.25  66.9542 -999.25   2.6040 -999.25 3.7695    -999.25  24.4474   -999.25  42.4184   -999.25  48.6605 -999.25 65.3569  12.5600 22.2934 0.6829 1.0001
   11950.0000    0.0000 -999.25   9.9139  -999.25  72.1286 -999.25   2.6014 -999.25 3.7500    -999.25  26.4993   -999.25  45.5169   -999.25  51.8633 -999.25 65.6145  12.7400 22.3055 0.6888 0.9965
