~VERSION INFORMATION
VERS. 2.0 : CWLS Log ASCII Standard - version 2.0
WRAP.  NO : One line per depth step
#--------------------------------------------------#
#----------------DRILLING INFO, INC.---------------#
#---------------WWW.DRILLINGINFO.COM---------------#
#------------------COPYRIGHT 2015------------------#
#--------------------------------------------------#
#THIS FILE MAY BE USED ONLY IN ACCORDANCE WITH A CURRENT SUBSCRIPTION AGREEMENT BETWEEN
#THE USER AND DRILLING INFO, INC. NO PART OF THIS FILE MAY BE REPRODUCED, USED, COPIED,
#MODIFIED, PROPAGATED, OR DISTRIBUTED EXCEPT IN ACCORDANCE WITH THE SUBSCRIPTION
#AGREEMENT. UNAUTHORIZED USE OR DISTRIBUTION OF ALL OR ANY PART OF THIS FILE MAY VIOLATE
#COPYRIGHT, TRADEMARK, AND/OR OTHER LAWS AND IS SUBJECT TO CIVIL AS WELL AS CRIMINAL
#SANCTIONS.
#--------------------------------------------------#
#THIS FILE IS PROVIDED "AS-IS" AND ALL WARRANTIES ARE EXPRESSLY DISCLAIMED, WHETHER
#EXPRESS, ORAL, IMPLIED, STATUTORY OR OTHERWISE, INCLUDING ANY IMPLIED WARRANTY OF FITNESS
#FOR A PARTICULAR PURPOSE, MERCHANTABILITY, TITLE OR NON-INFRINGEMENT, AND ANY WARRANTIES
#ARISING BY VIRTUE OF CUSTOM OF TRADE OR COURSE OF DEALING.  FURTHER, DRILLING INFO,
#INC. AND ITS LICENSORS DO NOT REPRESENT OR WARRANT THAT THIS FILE WILL MEET USER'S
#REQUIREMENTS OR ARE SUITABLE FOR USER'S NEEDS OR THAT THE DATA OR RESULTS PROVIDED IN
#CONJUNCTION THEREWITH ARE CORRECT, ACCURATE, TIMELY OR RELIABLE. THESE DISCLAIMERS SHALL
#APPLY REGARDLESS OF ANY FAILURE OF ESSENTIAL PURPOSE OF ANY LIMITED REMEDY.  SOME
#JURISDICTIONS DO NOT ALLOW THE EXCLUSION OF CERTAIN WARRANTIES SO SOME OF THE ABOVE
#EXCLUSIONS MAY NOT APPLY. IN NO EVENT SHALL DRILLING INFO, INC. OR ANY OF ITS AFFILIATES
#BE LIABLE UNDER ANY LEGAL THEORY, WHETHER IN TORT (INCLUDING WITHOUT LIMITATION
#NEGLIGENCE), CONTRACT, STRICT LIABILITY, STATUTORY OR OTHERWISE, FOR ANY SPECIAL,
#INCIDENTAL, CONSEQUENTIAL, EXEMPLARY, PUNITIVE OR INDIRECT DAMAGE OF ANY KIND, INCLUDING
#WITHOUT LIMITATION LOSS OF REVENUE, PROFITS, GOODWILL, USE, AND/OR DATA OR THE COST OF
#PROCUREMENT OF SUBSTITUTE GOODS OR SERVICES, EVEN IF APPRISED OF THE POSSIBILITY OF SUCH
#DAMAGES IN ADVANCE.
#--------------------------------------------------#
~WELL INFORMATION
#MNEMONIC     .UNIT              VALUE :DESCRIPTION
#--------------------------------------------------#
STRT       .FT                35 :START DEPTH
STOP       .FT                15948 :STOP DEPTH
STEP       .FT                   0.500 :STEP
NULL       .                  -999.250 :NULL
API        .                421093136200 :API NUMBER
COMP       .         ARRINGTON DAVID H. OIL & GAS INC :COMPANY
WELL       .        SCOTT UNIT  1 :WELL
DATE       .                17-Jun-1991 :LOG DATE
~CURVE INFORMATION
#MNEMONIC     .UNIT      API CODE :CURVE DESCRIPTION
#--------------------------------------------------#
DEPTH       .FT                      :Measured Depth
CAL.INCH        UNKNOWN   :CAL
DT.US/FT        UNKNOWN   :DT
GR.API        UNKNOWN   :GR
~A    DEPTH    CAL    DT    GR
# ...
 8369.5     10.557   66.942   74.613
 8370     10.542   67.907   80.922
 8370.5     10.577   68.871   86.401
 8371     10.608   69.835   89.827
 8371.5     10.599   70.799   92.304
 8372     10.591   71.713   87.414
 8372.5     10.583   70.671   80.488
 8373     10.562   68.839   66.868
 8373.5     10.669   65.015   55.077
 8374     10.775   61.366   44.015
 8374.5     10.711   59.441   33.928
 8375     10.645   57.515   23.585
 8375.5     10.579   55.59   20.021
 8376     10.514   53.664   20.548
 8376.5     10.53   53.759   22.071
 8377     10.554   54.193   23.664
 8377.5     10.578   54.627   25.883
 8378     10.602   55.136   28.102
 8378.5     10.623   55.692   40.521
 8379     10.583   58.126   59.1
 8379.5     10.543   64.976   74.186
 8380     10.533   68.078   76.099
 8380.5     10.548   65.134   66.937
 8381     10.563   62.133   47.581
 8381.5     10.578   62.621   50.655
 8382     10.593   64.138   54.498
 8382.5     10.606   63.927   61.704
 8383     10.533   62.864   58.28
 8383.5     10.46   61.801   48.527
 8384     10.392   60.767   47.399
 8384.5     10.435   59.829   43.168
 8385     10.478   58.892   35.631
 8385.5     10.52   56.874   26.844
 8386     10.563   54.774   20.648
 8386.5     10.606   52.825   18.468
 8387     10.616   52.011   23.354
 8387.5     10.6   52.708   30.326
 8388     10.584   55.774   40.128
 8388.5     10.569   58.84   44.534
 8389     10.562   58.416   40.226
 8389.5     10.578   57.657   35.567
 8390     10.588   56.898   35.57
 8390.5     10.563   57.578   41.38
 8391     10.537   59.987   55.21
 8391.5     10.512   62.397   66.655
 8392     10.495   64.807   70.154
 8392.5     10.517   66.41   69.099
 8393     10.539   64.199   49.628
 8393.5     10.561   61.989   40.265
 8394     10.583   59.778   33.908
 8394.5     10.546   57.567   34
 8395     10.475   58.459   39.061
 8395.5     10.404   60.815   48.564
 8396     10.367   63.171   55.041
 8396.5     10.397   61.944   50.553
 8397     10.428   60.463   38.496
 8397.5     10.458   58.981   36.435
 8398     10.489   59.833   41.296
 8398.5     10.519   62.865   52.496
 8399     10.498   66.365   71.026
 8399.5     10.466   70.104   83.516
 8400     10.446   71.837   89.836
 8400.5     10.484   73.007   92.614
 8401     10.521   74.178   91.188
 8401.5     10.557   74.307   86.825
 8402     10.542   73.382   79.717
 8402.5     10.528   69.024   68.706
 8403     10.513   63.01   45.647
 8403.5     10.478   56.728   37.411
 8404     10.427   58.104   35.451
 8404.5     10.377   60.764   46.714
 8405     10.344   67.651   71.01
 8405.5     10.362   71.09   83.585
 8406     10.38   74.529   87.411
 8406.5     10.398   73.731   85.555
 8407     10.411   72.182   75.56
 8407.5     10.421   70.628   66.414
 8408     10.43   68.459   60.753
 8408.5     10.44   66.291   55.091
 8409     10.449   65.149   53.73
 8409.5     10.459   64.317   53.722
 8410     10.468   62.92   52.113
 8410.5     10.48   61.523   50.78
 8411     10.497   60.126   46.514
 8411.5     10.513   59.76   42.755
 8412     10.529   60.057   43.422
 8412.5     10.545   60.353   44.088
 8413     10.566   60.649   45.949
 8413.5     10.602   61.592   50.356
 8414     10.637   63.188   56.405
 8414.5     10.673   64.912   66.298
 8415     10.661   67.946   73.763
 8415.5     10.599   70.979   76.739
 8416     10.583   71.083   73.606
 8416.5     10.599   68.588   66.459
 8417     10.614   62.981   57.527
 8417.5     10.63   59.608   45.866
 8418     10.646   60.509   45.428
 8418.5     10.661   62.322   54.888
 8419     10.675   66.704   67.48
 8419.5     10.679   70.013   84.102
 8420     10.684   71.399   86.224
 8420.5     10.688   69.836   85.106
 8421     10.673   69.104   80.572
 8421.5     10.629   68.387   76.039
 8422     10.584   67.705   72.647
 8422.5     10.54   67.023   69.521
 8423     10.496   65.863   63.004
 8423.5     10.451   63.984   52.104
 8424     10.466   62.104   45.985
 8424.5     10.502   62.185   42.983
 8425     10.537   62.599   43.164
 8425.5     10.573   63.013   48.388
 8426     10.608   64.833   52.165
 8426.5     10.644   66.53   54.401
 8427     10.668   65.634   54.295
 8427.5     10.624   62.466   45.261
 8428     10.58   59.158   38.997
 8428.5     10.536   55.849   34.953
 8429     10.492   58.684   33.03
 8429.5     10.448   62.129   50.552
 8430     10.877   65.574   57.15
 8430.5     10.915   66.176   66.921
 8431     10.934   63.707   66.489
 8431.5     10.907   61.239   53.916
 8432     10.881   59.975   43.182
 8432.5     10.854   60.483   41.673
 8433     10.826   60.992   44.341
 8433.5     10.797   60.898   44.639
 8434     10.768   60.084   43.036
 8434.5     10.739   59.955   39.929
 8435     10.71   63.635   40.78
 8435.5     10.672   67.315   45.056
 8436     10.619   67.533   54.711
 8436.5     10.58   65.701   53.814
 8437     10.622   63.36   46.06
 8437.5     10.665   62.095   43.34
 8438     10.708   63.784   46.961
 8438.5     10.739   66.104   63.081
 8439     10.728   71.8   77.474
 8439.5     10.717   74.203   87.838
 8440     10.707   72.246   86.799
 8440.5     10.696   69.553   75.283
 8441     10.685   62.84   63.383
 8441.5     10.675   59.938   50.246
 8442     10.664   57.247   37.109
 8442.5     10.653   54.556   27.112
 8443     10.643   54.121   21.777
 8443.5     10.648   55.171   20.044
 8444     10.656   56.22   22.905
 8444.5     10.665   57.573   26.541
 8445     10.674   61.626   29.423
 8445.5     10.683   61.881   33.869
 8446     10.69   62.137   39.87
 8446.5     10.685   64.197   45.49
 8447     10.68   66.942   50.924
 8447.5     10.675   67.61   56.094
 8448     10.635   66.73   59.3
 8448.5     10.588   65.85   54.59
 8449     10.542   59.046   44.585
 8449.5     10.516   55.944   27.749
 8450     10.557   55.568   25.864
 8450.5     10.597   59.282   33.325
 8451     10.638   63.482   40.386
 8451.5     10.611   66.755   60.636
 8452     10.579   68.815   63.913
 8452.5     10.548   68.986   64.989
 8453     10.516   67.96   62.221
 8453.5     10.585   66.607   58.886
 8454     10.698   65.039   53.555
 8454.5     10.81   62.64   47.483
 8455     10.8   58.557   40.704
 8455.5     10.772   56.098   28.276
 8456     10.744   55.839   26.386
 8456.5     10.715   56.838   30.794
 8457     10.687   57.872   34.287
 8457.5     10.67   60.007   35.795
 8458     10.661   62.32   39.787
 8458.5     10.653   64.701   50.216
 8459     10.645   67.081   61.361
 8459.5     10.637   68.706   66.19
 8460     10.629   70.073   68.636
 8460.5     10.62   71.174   71.083
 8461     10.612   71.509   73.266
 8461.5     10.612   71.393   73.481
 8462     10.624   71.276   73.706
 8462.5     10.637   70.627   74.939
 8463     10.65   69.246   71.77
 8463.5     10.639   57.721   55.453
 8464     10.598   57.105   37.083
 8464.5     10.556   59.432   41.2
 8465     10.565   64.317   54.146
 8465.5     10.605   66.031   60.551
 8466     10.637   66.114   62.945
 8466.5     10.603   64.503   59.508
 8467     10.569   63.435   56.071
 8467.5     10.535   64.342   58.426
 8468     10.556   65.248   68.805
 8468.5     10.607   66.893   71.34
 8469     10.658   67.93   72.699
 8469.5     10.685   68.53   72.699
 8470     10.668   69.129   75.633
 8470.5     10.651   70.191   78.777
 8471     10.634   71.266   80.299
 8471.5     10.618   72.341   81.822
 8472     10.601   72.953   82.455
 8472.5     10.579   72.862   81.22
 8473     10.55   72.278   78.965
 8473.5     10.52   70.806   75.698
 8474     10.491   69.379   71.782
 8474.5     10.461   68.108   67.538
 8475     10.48   66.986   60.958
 8475.5     10.509   63.314   54.379
 8476     10.538   61.043   48.876
 8476.5     10.566   60.034   44.28
 8477     10.566   59.243   40.615
 8477.5     10.555   56.935   35.001
 8478     10.544   58.189   31.275
 8478.5     10.534   63.736   35.883
 8479     10.525   67.991   46.068
 8479.5     10.559   71.777   59.018
 8480     10.593   73.101   67.835
 8480.5     10.627   73.511   69.74
 8481     10.662   72.984   73.444
 8481.5     10.659   72.646   79.04
