###############################################
##         ENVERUS                           ##
##         ESS - Open Hole                   ##
##         PERMIAN / DELAWARE                ##
##         Nov 02 2023  V4.0                 ##
##         42-109-31408-00-00                ##
###############################################
## Copyright 2017-2023  ENVERUS.  All Rights Reserved. 
## Confidential - Property of ENVERUS, use governed by terms and 
## conditions found within the existing Information Services Subscription Agreement 
## (as may be amended, the “ISSA”) between Customer and ENVERUS. 
## 
~VERSION INFORMATION
# MNEM.UNIT                               DATA : DESCRIPTION OF MNEMONIC
#-----.-----     ----------------------------- : -----------------------------
VERS.                                     2.00 : CWLS LOG ASCII STANDARD - VERSION 2.00
WRAP.                                       NO : MULTIPLE LINES PER DEPTH STEP
VEND.                                  ENVERUS : VENDOR
TYPE.                          ESS - OPEN HOLE : ENVERUS ESSENTIAL CURVES – ACCESSIBLE THROUGH ENVERUS PRISM(TM)
DOC.                                  31850517 : ENVERUS HEADER RAW DOCUMENT ID
#___________________________________________________________________________________________________ 
~WELL INFORMATION 
# bqLd+XSZJOn45CI61XVoQu+UOVndmKoY6sdO6/bnbKn7IExcVbobTFa2ZjWyWmdO1mIol927X6bTh1nHm93KmQ== 
# MNEM.UNIT                                              DATA : DESCRIPTION OF MNEMONIC 
#-----.-----                    ----------------------------- : ----------------------------- 
CNTY.                                               CULBERSON : COUNTY 
STATE.                                                  TEXAS : STATE 
CNTRY.                                                    USA : COUNTRY 
API.                                             42-109-31408 : API (10 Digit) 
API_14.                                    42-109-31408-00-00 : API (14 Digits) 
API_14_std.                                 42-109-31408-0000 : API (14 Digits Standard) 
UWI.                                           42109314080000 : UNIQUE WELL ID 
WELL.                                           CASTILE 48  1 : WELL NAME
STRT.FT                                                2207.0 : START DEPTH
STOP.FT                                               11710.0 : STOP DEPTH
STEP.FT                                                   0.5 : STEP BETWEEN DEPTHS
NULL.                                                 -999.25 : NULL VALUE
COMP.                                         TENNECO OIL CO. : COMPANY 
DATE.                                             28-APR-1980 : LOG DATE
#___________________________________________________________________________________________________ 
~CURVE INFORMATION 
# MNEM.UNIT           : CURVE DESCRIPTION 
#-----.-----          : ----------------------------- 
 DEPT.FT               : MEASURED DEPTH 
 CALI.IN               : CALIPER (CAL - CAL) 
 GR.API                : GAMMA RAY (GR) 
 DT.US/FT              : SONIC DELTA TRANSIT TIME (DT) 
 RESS.OHMM             : SHALLOW INDUCTION RESISTIVITY (ILS - ILS) 
 RESD.OHMM             : DEEP INDUCTION RESISTIVITY (ILD - ILD) 
 #___________________________________________________________________________________________________ 
~A         DEPT           CALI             GR             DT           RESS           RESD
# ...
         3483.0         10.860         73.368         66.000        139.358        119.887
         3483.5         10.834         76.280         66.276        170.701        176.763
         3484.0         10.809         79.191         66.083        200.845        233.640
         3484.5         10.784         82.102         65.033        229.120        290.517
         3485.0         10.758         81.040         63.983        236.245        313.670
         3485.5         10.733         79.271         63.414        215.020        272.112
         3486.0         10.708         77.503         63.704        193.796        201.805
         3486.5         10.682         75.734         63.993        172.572        169.356
         3487.0         10.657         73.965         64.283        151.347        156.932
         3487.5         10.646         67.796         63.749        130.123        144.508
         3488.0         10.667         60.901         63.176        109.533        132.084
         3488.5         10.688         54.005         63.061        103.812        124.431
         3489.0         10.709         47.257         63.442         98.091        120.989
         3489.5         10.730         49.211         63.823         96.007        117.546
         3490.0         10.751         51.165         64.204        104.441        114.104
         3490.5         10.772         53.119         64.457         96.071        110.662
         3491.0         10.793         55.073         63.691         75.350         97.561
         3491.5         10.814         57.027         62.926         54.629         70.102
         3492.0         10.835         58.981         62.160         33.908         42.643
         3492.5         10.856         60.935         61.394         22.295         23.054
         3493.0         10.877         56.975         60.628         21.599         23.163
         3493.5         10.898         51.146         60.296         23.070         23.273
         3494.0         10.919         45.317         62.362         25.138         23.383
         3494.5         10.940         39.487         64.427         25.776         23.041
         3495.0         10.960         33.658         66.493         22.417         19.628
         3495.5         10.981         33.001         67.769         19.059         16.880
         3496.0         11.002         33.503         67.823         15.701         15.020
         3496.5         11.023         33.966         67.877         12.342         13.160
         3497.0         11.044         33.362         67.931         11.782         11.362
         3497.5         11.065         32.758         67.274         11.929         12.143
         3498.0         11.086         32.153         66.597         12.883         12.923
         3498.5         11.107         31.549         65.920         13.838         13.703
         3499.0         11.128         30.994         65.243         14.524         14.483
         3499.5         11.149         31.656         65.224         14.741         15.415
         3500.0         11.170         32.318         65.836         14.957         17.438
         3500.5         11.191         32.979         66.449         16.218         19.462
         3501.0         11.212         33.641         67.061         15.476         18.794
         3501.5         11.233         34.302         67.673         13.931         17.860
         3502.0         11.254         34.964         67.131         12.387         16.927
         3502.5         11.275         35.402         66.041         12.005         15.994
         3503.0         11.296         35.441         64.952         11.686         15.128
         3503.5         11.317         35.479         65.098         12.954         16.252
         3504.0         11.338         35.518         65.827         14.222         17.376
         3504.5         11.332         35.556         66.556         13.734         15.522
         3505.0         11.327         35.595         67.284         12.702         12.840
         3505.5         11.322         35.440         68.013         11.670         12.426
         3506.0         11.317         34.687         68.279         10.637         12.012
         3506.5         11.312         33.933         68.469         10.565         11.866
         3507.0         11.307         33.180         68.659         10.971         11.741
         3507.5         11.301         32.427         68.848         10.669         11.616
         3508.0         11.296         31.673         69.038         10.366         12.077
         3508.5         11.291         37.276         68.266         10.645         13.105
         3509.0         11.286         45.651         67.480         15.721         23.981
         3509.5         11.281         54.027         66.696         30.947         57.903
         3510.0         11.276         62.402         66.374         49.080         73.559
         3510.5         11.270         70.778         66.052         58.347         71.843
         3511.0         11.265         72.179         65.730         55.654         70.126
         3511.5         11.260         68.744         65.269         50.906         66.993
         3512.0         11.273         65.309         64.699         45.490         62.841
         3512.5         11.296         61.874         64.130         42.131         58.689
         3513.0         11.319         58.439         63.674         40.566         54.537
         3513.5         11.342         55.004         64.280         39.001         50.385
         3514.0         11.366         51.569         64.886         36.816         46.682
         3514.5         11.389         49.344         65.492         33.937         43.502
         3515.0         11.412         48.786         66.097         31.058         40.321
         3515.5         11.435         47.142         66.703         28.179         37.140
         3516.0         11.458         45.146         67.309         25.058         32.751
         3516.5         11.481         43.224         67.915         21.383         25.808
         3517.0         11.504         41.364         68.287         17.709         18.865
         3517.5         11.528         39.504         68.251         14.605         16.396
         3518.0         11.551         37.645         68.215         13.107         16.162
         3518.5         11.574         37.006         68.179         12.618         15.929
         3519.0         11.597         36.964         68.143         12.807         15.695
         3519.5         11.620         36.923         68.107         12.996         15.462
         3520.0         11.643         36.882         68.071         13.185         16.208
         3520.5         11.666         36.841         68.452         13.759         17.231
         3521.0         11.690         39.778         69.230         14.882         18.253
         3521.5         11.713         51.748         70.009         16.006         19.275
         3522.0         11.736         50.534         70.788         17.130         18.595
         3522.5         11.759         49.320         71.566         15.371         14.973
         3523.0         11.782         48.107         72.345         13.346         13.335
         3523.5         11.805         46.893         71.828         12.252         11.880
         3524.0         11.820         45.679         70.839         11.158         10.426
         3524.5         11.816         44.466         69.851         12.019         12.566
         3525.0         11.813         43.252         69.542         13.123         14.711
         3525.5         11.809         42.038         69.472         14.227         16.857
         3526.0         11.805         40.825         69.402         14.194         17.351
         3526.5         11.801         39.611         69.332         13.890         17.418
