###############################################
##         ENVERUS                           ##
##         ESS - Open Hole                   ##
##         PERMIAN / DELAWARE                ##
##         Nov 03 2023  V4.0                 ##
##         42-109-33370-00-00                ##
###############################################
## Copyright 2017-2023  ENVERUS.  All Rights Reserved. 
## Confidential - Property of ENVERUS, use governed by terms and 
## conditions found within the existing Information Services Subscription Agreement 
## (as may be amended, the “ISSA”) between Customer and ENVERUS. 
## 
~VERSION INFORMATION
# MNEM.UNIT                               DATA : DESCRIPTION OF MNEMONIC
#-----.-----     ----------------------------- : -----------------------------
VERS.                                     2.00 : CWLS LOG ASCII STANDARD - VERSION 2.00
WRAP.                                       NO : MULTIPLE LINES PER DEPTH STEP
VEND.                                  ENVERUS : VENDOR
TYPE.                          ESS - OPEN HOLE : ENVERUS ESSENTIAL CURVES – ACCESSIBLE THROUGH ENVERUS PRISM(TM)
DOC.                                  52814434 : ENVERUS HEADER RAW DOCUMENT ID
#___________________________________________________________________________________________________ 
~WELL INFORMATION 
# 4wk/Fx8UuugU+iebl2dHJIcndKaYvWbTE+/Vf37HP7rynMiEVi3nAb6NYbehQO/VbM9PVY38flJCaeNisGRn4g== 
# MNEM.UNIT                                              DATA : DESCRIPTION OF MNEMONIC 
#-----.-----                    ----------------------------- : ----------------------------- 
CNTY.                                               CULBERSON : COUNTY 
STATE.                                                  TEXAS : STATE 
CNTRY.                                                    USA : COUNTRY 
API.                                             42-109-33370 : API (10 Digit) 
API_14.                                    42-109-33370-00-00 : API (14 Digits) 
API_14_std.                                 42-109-33370-0000 : API (14 Digits Standard) 
UWI.                                           42109333700000 : UNIQUE WELL ID 
WELL.                                       ROXANNE FEE 46 3H : WELL NAME
STRT.FT                                                8800.0 : START DEPTH
STOP.FT                                               14157.0 : STOP DEPTH
STEP.FT                                                   0.5 : STEP BETWEEN DEPTHS
NULL.                                                 -999.25 : NULL VALUE
LOC.                                        API  42-109-33370 : LOCATION 
FL1.                                        API  42-109-33370 : LOCATIONLINE1 
DMF.                                                       KB : DRILL MEAS FROM 
PDAT.                                                      GL : PERMANENT DATUM 
FLD.                                    FORD, WEST (WOLFCAMP) : FIELD NAME 
COMP.                                          CAPITAN ENERGY : COMPANY 
DATE.                                             29-APR-2019 : DATE 
SVCO.                                             HALLIBURTON : SERVICECONAME 
PROV.                                                   TEXAS : PROVINCE 
BASI.                                                 PERMIAN : BASIN 
RANG.                                                     N/A : RANGE 
TOWN.                                                     N/A : TOWNSHIP 
SECT.                                                     N/A : SECTION 
SON.                                                905631605 : JOB NUMBER 
SRVC.                                             HALLIBURTON : SERVICE COMPANY 
LMF.                                                       KB : LOG MEASURED FROM 
BAP.FT                                                 0.0000 : GL ELEV ONSHORE 
GVFD.G                                                 1.0000 : GRAVITY FIELD
#___________________________________________________________________________________________________ 
~CURVE INFORMATION 
# MNEM.UNIT           : CURVE DESCRIPTION 
#-----.-----          : ----------------------------- 
 DEPT.FT               : MEASURED DEPTH 
 GR.API                : GAMMA RAY (GR_CHI - GR_CHI) 
 GR__01.API            : GAMMA RAY (GR_OH - GR_OH) 
 DT.US/FT              : SONIC DELTA TRANSIT TIME (DTC_CHI - DTC_CHI) 
 DT__01.US/FT          : SONIC DELTA TRANSIT TIME (DTC_OH - DTC_OH) 
 PE.B/E                : PHOTOELECTRIC EFFECT/FACTOR (PE_CHI - PE_CHI) 
 PE__01.B/E            : PHOTOELECTRIC EFFECT/FACTOR (PE_OH - PE_OH) 
 RESS_10.OHMM          : 10 INCH SHALLOW INDUCTION RESISTIVITY (RT10_CHI - RT10_CHI) 
 RESS_10__01.OHMM      : 10 INCH SHALLOW INDUCTION RESISTIVITY (RT10_OH - RT10_OH) 
 RESM_30.OHMM          : 30 INCH MEDIUM INDUCTION RESISTIVITY (RT30_CHI - RT30_CHI) 
 RESM_30__01.OHMM      : 30 INCH MEDIUM INDUCTION RESISTIVITY (RT30_OH - RT30_OH) 
 RESD_90.OHMM          : 90 INCH DEEP INDUCTION RESISTIVITY (RT90_CHI - RT90_CHI) 
 RESD_90__01.OHMM      : 90 INCH DEEP INDUCTION RESISTIVITY (RT90_OH - RT90_OH) 
 NPHI.V/V              : NEUTRON POROSITY (NPHI_CHI - NPHI_CHI) 
 NPHI__01.V/V          : NEUTRON POROSITY (NPHI_OH - NPHI_OH) 
 SPHI.V/V              : SONIC POROSITY (SPHI_CHI - SPHI_CHI) 
 RHOB.G/CC             : BULK DENSITY (RHOB_CHI - RHOB_CHI) 
 RHOB__01.G/CC         : BULK DENSITY (RHOB_OH - RHOB_OH) 
 #___________________________________________________________________________________________________ 
~A         DEPT             GR         GR__01             DT         DT__01             PE         PE__01        RESS_10    RESS_10__01        RESM_30    RESM_30__01        RESD_90    RESD_90__01           NPHI       NPHI__01           SPHI           RHOB       RHOB__01
# ...
         9160.0         95.862         79.194         70.441         70.013         2.6993         2.6186          6.581         10.845          6.798          9.770          7.232          9.617        0.11820        0.09060        0.15900         2.5738         2.5802
         9160.5         84.263         74.973         69.536         69.292         2.7613         2.5341          7.268         11.269          7.508         10.175          7.987         10.004        0.10630        0.07920        0.15480         2.5823         2.5754
         9161.0         74.872         75.423         68.553         68.230         2.8151         2.5234          8.028         11.911          8.293         10.765          8.822         10.579        0.09490        0.07570        0.15050         2.5898         2.5757
         9161.5         73.417         80.819         68.005         66.749         2.8473         2.5816          8.682         13.127          8.969         11.859          9.541         11.651        0.08970        0.07870        0.14760         2.5923         2.5816
         9162.0         79.852         88.984         68.056         64.998         2.8452         2.7239          9.110         14.280          9.410         12.883         10.011         12.665        0.09170        0.08870        0.14680         2.5893         2.5935
         9162.5         89.387         90.846         68.464         63.435         2.8196         2.9140          9.336         14.567          9.644         13.274         10.259         13.066        0.09700        0.09740        0.14760         2.5833         2.6124
         9163.0         94.464         82.772         68.759         62.550         2.8028         3.1080          9.432         14.633          9.743         13.555         10.365         13.353        0.09990        0.09260        0.14860         2.5797         2.6370
         9163.5         95.289         74.556         68.830         62.477         2.7970         3.2167          9.412         14.681          9.722         13.738         10.343         13.525        0.09970        0.08230        0.14930         2.5787         2.6568
         9164.0         90.790         75.645         68.688         63.186         2.8003         3.1596          9.200         13.977          9.504         13.048         10.110         12.827        0.09700        0.08100        0.14950         2.5811         2.6605
         9164.5         86.275         83.164         68.641         64.421         2.7963         2.9812          8.738         12.097          9.026         11.292          9.602         11.083        0.09580        0.08980        0.15020         2.5833         2.6462
         9165.0         85.561         89.764         68.829         66.291         2.7660         2.7977          8.015          9.933          8.279          9.312          8.808          9.126        0.09810        0.10160        0.15170         2.5828         2.6217
         9165.5         89.794         93.442         69.315         68.662         2.7060         2.6756          7.136          8.382          7.371          7.877          7.842          7.701        0.10420        0.10770        0.15430         2.5788         2.6000
         9166.0         93.184         94.802         69.916         70.755         2.6634         2.6230          6.295          7.348          6.503          6.900          6.918          6.725        0.11120        0.11070        0.15750         2.5752         2.5900
         9166.5         94.303         94.194         70.424         72.309         2.6435         2.6209          5.619          6.492          5.804          6.100          6.175          5.933        0.11640        0.11240        0.16040         2.5732         2.5902
         9167.0         93.456         93.403         70.803         73.115         2.6541         2.6453          5.164          6.013          5.335          5.660          5.675          5.494        0.11940        0.11320        0.16270         2.5728         2.5957
         9167.5         91.834         93.710         70.906         73.155         2.6628         2.6750          4.875          5.864          5.036          5.539          5.357          5.367        0.11920        0.11370        0.16400         2.5733         2.6022
         9168.0         90.739         94.538         70.900         72.766         2.6657         2.6908          4.669          5.932          4.823          5.630          5.131          5.446        0.11790        0.11510        0.16460         2.5735         2.6056
         9168.5         91.167         95.400         70.890         72.245         2.6574         2.6916          4.476          6.070          4.623          5.789          4.918          5.594        0.11710        0.11610        0.16510         2.5728         2.6053
         9169.0         93.061         96.873         70.979         71.997         2.6457         2.6773          4.251          6.357          4.392          6.106          4.672          5.894        0.11770        0.11740        0.16570         2.5712         2.6009
         9169.5         96.522         98.781         71.158         72.058         2.6255         2.6613          3.978          6.636          4.109          6.422          4.371          6.200        0.11980        0.11910        0.16660         2.5686         2.5951
         9170.0         99.787        100.706         71.308         72.059         2.5918         2.6533          3.669          6.860          3.790          6.670          4.032          6.445        0.12230        0.12090        0.16740         2.5661         2.5900
         9170.5        101.600        102.697         71.423         72.001         2.5594         2.6533          3.388          7.128          3.499          6.919          3.723          6.693        0.12480        0.12260        0.16790         2.5646         2.5867
         9171.0        101.202        104.583         71.444         72.201         2.5353         2.6639          3.205          7.286          3.310          7.016          3.522          6.801        0.12620        0.12580        0.16800         2.5646         2.5872
         9171.5         99.467        105.582         71.375         72.639         2.5264         2.6884          3.183          7.369          3.288          7.018          3.498          6.819        0.12660        0.12760        0.16760         2.5659         2.5917
         9172.0         98.325        104.134         71.268         72.875         2.5355         2.7070          3.355          7.474          3.466          7.034          3.687          6.848        0.12620        0.12650        0.16680         2.5672         2.5984
         9172.5         97.061        100.069         71.073         72.576         2.5540         2.7010          3.699          7.642          3.821          7.108          4.065          6.935        0.12480        0.12340        0.16530         2.5690         2.6053
         9173.0         96.323         95.367         70.808         71.921         2.5780         2.6952          4.187          8.048          4.325          7.379          4.601          7.211        0.12280        0.11880        0.16330         2.5707         2.6114
         9173.5         94.618         90.993         70.433         71.129         2.6094         2.7267          4.785          8.854          4.943          7.974          5.258          7.800        0.11990        0.11310        0.16070         2.5734         2.6179
         9174.0         91.440         86.443         69.962         70.009         2.6565         2.8303          5.487          9.979          5.668          8.848          6.030          8.655        0.11640        0.10620        0.15750         2.5774         2.6281
         9174.5         87.112         79.792         69.410         68.214         2.7220         3.0544          6.292         11.531          6.499         10.141          6.914          9.912        0.11220        0.09840        0.15390         2.5827         2.6463
