###############################################
##         ENVERUS                           ##
##         ESS - Open Hole                   ##
##         PERMIAN / DELAWARE                ##
##         Nov 03 2023  V4.0                 ##
##         42-109-32709-00-00                ##
###############################################
## Copyright 2017-2023  ENVERUS.  All Rights Reserved. 
## Confidential - Property of ENVERUS, use governed by terms and 
## conditions found within the existing Information Services Subscription Agreement 
## (as may be amended, the “ISSA”) between Customer and ENVERUS. 
## 
~VERSION INFORMATION
# MNEM.UNIT                               DATA : DESCRIPTION OF MNEMONIC
#-----.-----     ----------------------------- : -----------------------------
VERS.                                     2.00 : CWLS LOG ASCII STANDARD - VERSION 2.00
WRAP.                                       NO : MULTIPLE LINES PER DEPTH STEP
VEND.                                  ENVERUS : VENDOR
TYPE.                          ESS - OPEN HOLE : ENVERUS ESSENTIAL CURVES – ACCESSIBLE THROUGH ENVERUS PRISM(TM)
DOC.                                  32116645 : ENVERUS HEADER RAW DOCUMENT ID
#___________________________________________________________________________________________________ 
~WELL INFORMATION 
# 8SOIrMNgLSTosdYTMQVb7KPebVRgGb4NQOaGG3/cpRvPeoxWQd7So5pZ7XPWbXIrV4d26no2f3ffGwkTWQV8GA== 
# MNEM.UNIT                                              DATA : DESCRIPTION OF MNEMONIC 
#-----.-----                    ----------------------------- : ----------------------------- 
CNTY.                                               CULBERSON : COUNTY 
STATE.                                                  TEXAS : STATE 
CNTRY.                                                    USA : COUNTRY 
API.                                             42-109-32709 : API (10 Digit) 
API_14.                                    42-109-32709-00-00 : API (14 Digits) 
API_14_std.                                 42-109-32709-0000 : API (14 Digits Standard) 
UWI.                                           42109327090000 : UNIQUE WELL ID 
WELL.                                    42109327090000_API14 : WELL NAME
STRT.FT                                                  26.5 : START DEPTH
STOP.FT                                                5244.0 : STOP DEPTH
STEP.FT                                                   0.5 : STEP BETWEEN DEPTHS
NULL.                                                 -999.25 : NULL VALUE
#___________________________________________________________________________________________________ 
~PARAMETER INFORMATION 
# MNEM.UNIT                                              DATA : DESCRIPTION OF MNEMONIC 
#-----.-----                    ----------------------------- : ----------------------------- 
EKB.FT                                                   3124 : ELEVATION ABOVE MSL
#___________________________________________________________________________________________________ 
~CURVE INFORMATION 
# MNEM.UNIT           : CURVE DESCRIPTION 
#-----.-----          : ----------------------------- 
 DEPT.FT               : MEASURED DEPTH 
 CALI.IN               : CALIPER (CAL - CALIPER) 
 GR.API                : GAMMA RAY (GAMMA RAY) 
 DT.US/FT              : SONIC DELTA TRANSIT TIME (SONIC) 
 PE.B/E                : PHOTOELECTRIC EFFECT/FACTOR (PHOTOELECTRIC FACTOR) 
 RESS.OHMM             : SHALLOW INDUCTION RESISTIVITY (ILS - SHALLOW RESISTIVITY) 
 RESS_LL.OHMM          : SHALLOW LATEROLOG (LLS - SHALLOW RESISTIVITY) 
 RESD_LL.OHMM          : DEEP LATEROLOG (LLD - DEEP RESISTIVITY) 
 DPHI.V/V              : DENSITY POROSITY (DENSITY POROSITY) 
 NPHI.V/V              : NEUTRON POROSITY (NEUTRON POROSITY) 
 RHOB.G/CC             : BULK DENSITY (DENSITY) 
 #___________________________________________________________________________________________________ 
~A         DEPT           CALI             GR             DT             PE           RESS        RESS_LL        RESD_LL           DPHI           NPHI           RHOB
# ...
         2403.0          8.447         25.849        318.705         5.1021       1253.592      2000.0000      6790.6290       -0.16459       -0.01403         2.9815
         2403.5          8.407         27.817        318.986         5.1626       1159.816      1893.9122      6941.6693       -0.16933       -0.01785         2.9815
         2404.0          8.367         28.942        319.501         5.2706       1120.216      1532.1150      5989.4236       -0.16530       -0.01795         2.9695
         2404.5          8.352         24.075        319.501         5.3909       1108.204      2000.0000      6473.1290       -0.15374       -0.01795         2.9495
         2405.0          8.326         20.267        318.653         5.3670       1138.817      2000.0000      9605.0362       -0.14058       -0.01872         2.9323
         2405.5          8.286         17.105        317.328         5.2660       1203.080      2000.0000     14123.4635       -0.13233       -0.01953         2.9215
         2406.0          8.246         14.491        315.741         5.2465       1312.515      2000.0000     26612.9468       -0.13166       -0.01992         2.9254
         2406.5          8.202         17.791        315.324         5.2465       1392.658      2000.0000     41118.1157       -0.14029       -0.01913         2.9413
         2407.0          8.146         25.105        314.919         5.2663       1406.233      2000.0000     41118.1157       -0.14924       -0.01874         2.9509
         2407.5          8.106         25.995        314.116         5.2212       1445.972      2000.0000     41071.3205       -0.14748       -0.01913         2.9428
         2408.0          8.066         23.890        313.496         5.2071       1455.335      2000.0000     40999.3334       -0.14054       -0.01899         2.9323
         2408.5          8.055         26.152        313.235         5.2268       1436.645      2000.0000     40927.4531       -0.13340       -0.01834         2.9241
         2409.0          8.055         29.373        313.013         5.3154       1435.550      2000.0000     40855.6920       -0.13116       -0.01795         2.9226
         2409.5          8.055         26.299        312.954         5.3452       1482.015      2000.0000     40784.0827       -0.13336       -0.01716         2.9236
         2410.0          8.055         23.107        313.757         5.3328       1531.675      2000.0000     40712.5705       -0.13210       -0.01716         2.9221
         2410.5          8.055         23.499        314.560         5.2526       1633.229      2000.0000     40641.1953       -0.13116       -0.01610         2.9227
         2411.0          8.055         25.124        314.541         5.1874       1713.834      2000.0000     40569.9619       -0.13280       -0.01528         2.9258
         2411.5          8.055         27.111        314.221         5.1874       1649.009      2000.0000     40498.8160       -0.13714       -0.01368         2.9328
         2412.0          8.042         28.198        314.018         5.1105       1525.779      2000.0000     40427.8245       -0.13980       -0.01207         2.9353
         2412.5          8.016         27.660        314.638         5.0106       1442.176      2000.0000     40370.4623       -0.13770       -0.01007         2.9323
         2413.0          8.016         27.591        315.846         4.9710       1408.706      2000.0000     40370.4623       -0.13929       -0.01045         2.9370
         2413.5          8.000         30.567        316.629         4.9921       1164.445      2000.0000     40370.4623       -0.14692       -0.00963         2.9501
         2414.0          7.996         33.682        316.890         5.0526        956.825      2000.0000     38114.5956       -0.15095       -0.00769         2.9567
         2414.5          7.996         31.324        316.890         5.1131        867.183      2000.0000     29978.8740       -0.15444       -0.00730         2.9611
         2415.0          7.996         25.654        316.629         5.1933        916.715      2000.0000     27436.8572       -0.15892       -0.00678         2.9685
         2415.5          7.996         24.282        316.368         5.2268       1044.104      2000.0000     26032.6781       -0.15829       -0.00651         2.9622
         2416.0          7.996         26.944        315.873         5.2268       1140.520      2000.0000     28663.4949       -0.15231       -0.00690         2.9533
         2416.5          8.035         28.198        315.585         5.2268       1186.244      2000.0000     19817.6611       -0.15218       -0.00671         2.9581
         2417.0          8.036         25.009        315.572         5.1874       1159.695      2000.0000     18638.9637       -0.15699       -0.00713         2.9579
         2417.5          8.036         19.095        314.802         5.1282       1211.305      2000.0000     29840.0903       -0.14776       -0.00744         2.9395
         2418.0          8.036         17.624        314.541         5.1282       1299.970      2000.0000     40068.6900       -0.13090       -0.00690         2.9134
         2418.5          8.055         18.906        315.063         5.2596       1353.333      2000.0000     40434.2989       -0.12257       -0.00502         2.9073
         2419.0          8.055         20.757        315.233         5.2860       1353.333      2000.0000     39761.3816       -0.12555       -0.00414         2.9121
         2419.5          8.055         20.757        315.063         5.2483       1353.333      2000.0000     38991.5791       -0.12336       -0.00493         2.9051
         2420.0          8.055         22.518        315.324         5.2071       1281.741      2000.0000     37960.3641       -0.11815       -0.00533         2.9012
         2420.5          8.055         26.297        315.846         5.2071       1006.796      2000.0000     40068.6900       -0.11851       -0.00653         2.8981
         2421.0          8.032         30.663        316.107         5.2268        748.272      2000.0000     40478.3752       -0.11330       -0.00769         2.8912
         2421.5          7.992         34.747        316.629         5.2071        749.589      2000.0000     40434.2989       -0.11282       -0.00769         2.9018
         2422.0          7.957         34.153        317.359         5.1233       1105.504      2000.0000     38812.5179       -0.12766       -0.00779         2.9282
         2422.5          7.957         29.032        318.423         5.0202       1562.375      2000.0000     35605.9922       -0.14434       -0.00900         2.9485
         2423.0          7.957         22.387        319.226         4.9112       1652.684      2000.0000     32172.8636       -0.15363       -0.01006         2.9586
         2423.5          7.957         17.991        320.290         4.9310       1667.764      2000.0000     29985.9146       -0.15365       -0.00949         2.9583
         2424.0          7.964         14.024        322.549         4.9310       1644.818      2000.0000     25927.4502       -0.15344       -0.00908         2.9566
         2424.5          8.004         12.991        329.468         4.8602       1637.740      2000.0000     26625.0450       -0.15409       -0.00967         2.9549
         2425.0          8.031         16.154        330.793         4.8453       1637.740      2000.0000     25989.2322       -0.14315       -0.01032         2.9343
         2425.5          7.987         16.841        321.674         5.0159       1577.976      2000.0000     25738.3492       -0.13095       -0.01017         2.9204
         2426.0          7.947         16.057        325.659         5.1438       1498.299      2000.0000     25581.5011       -0.13317       -0.01006         2.9253
         2426.5          7.937         17.601        327.457         5.1310       1482.015      2000.0000     29637.1206       -0.13288       -0.00972         2.9191
         2427.0          7.937         20.579        328.782         5.0219       1584.587      2000.0000     30492.9686       -0.12376       -0.00967         2.9074
