###############################################
##         ENVERUS                           ##
##         ESS - Open Hole                   ##
##         PERMIAN / DELAWARE                ##
##         Nov 03 2023  V4.0                 ##
##         42-109-32507-90-00                ##
###############################################
## Copyright 2017-2023  ENVERUS.  All Rights Reserved. 
## Confidential - Property of ENVERUS, use governed by terms and 
## conditions found within the existing Information Services Subscription Agreement 
## (as may be amended, the “ISSA”) between Customer and ENVERUS. 
## 
~VERSION INFORMATION
# MNEM.UNIT                               DATA : DESCRIPTION OF MNEMONIC
#-----.-----     ----------------------------- : -----------------------------
VERS.                                     2.00 : CWLS LOG ASCII STANDARD - VERSION 2.00
WRAP.                                       NO : MULTIPLE LINES PER DEPTH STEP
VEND.                                  ENVERUS : VENDOR
TYPE.                          ESS - OPEN HOLE : ENVERUS ESSENTIAL CURVES – ACCESSIBLE THROUGH ENVERUS PRISM(TM)
DOC.                                  51094130 : ENVERUS HEADER RAW DOCUMENT ID
#___________________________________________________________________________________________________ 
~WELL INFORMATION 
# OeTAuI96vYP/1gAnXdiC+b2e5mg9bdq0rVS4GA6NX+ctg1PKQ5RhcqUsdOd2aOUDNf5EtC5635oDT1THDUi6iw== 
# MNEM.UNIT                                              DATA : DESCRIPTION OF MNEMONIC 
#-----.-----                    ----------------------------- : ----------------------------- 
CNTY.                                               CULBERSON : COUNTY 
STATE.                                                  TEXAS : STATE 
CNTRY.                                                    USA : COUNTRY 
API.                                             42-109-32507 : API (10 Digit) 
API_14.                                    42-109-32507-90-00 : API (14 Digits) 
API_14_std.                                 42-109-32507-9000 : API (14 Digits Standard) 
UWI.                                           42109325079000 : UNIQUE WELL ID 
WELL.                               42109325070000_PREV_API14 : WELL NAME
STRT.FT                                                2104.5 : START DEPTH
STOP.FT                                                9085.0 : STOP DEPTH
STEP.FT                                                   0.5 : STEP BETWEEN DEPTHS
NULL.                                                 -999.25 : NULL VALUE
PREV_APII.                                     42109325070000 : WELL IDENTIFIER
#___________________________________________________________________________________________________ 
~PARAMETER INFORMATION 
# MNEM.UNIT                                              DATA : DESCRIPTION OF MNEMONIC 
#-----.-----                    ----------------------------- : ----------------------------- 
EKB.FT                                                 3578.5 : ELEVATION ABOVE MSL
#___________________________________________________________________________________________________ 
~CURVE INFORMATION 
# MNEM.UNIT           : CURVE DESCRIPTION 
#-----.-----          : ----------------------------- 
 DEPT.FT               : MEASURED DEPTH 
 GR__A.API             : GAMMA RAY (GAMMA RAY) 
 DT__A.US/FT           : SONIC DELTA TRANSIT TIME (SONIC) 
 #___________________________________________________________________________________________________ 
~A         DEPT          GR__A          DT__A
# ...
         5323.5        102.806        115.494
         5324.0         84.548        118.439
         5324.5         74.145        118.002
         5325.0         72.125        111.852
         5325.5         73.790        104.010
         5326.0         77.936        103.467
         5326.5         83.689        105.126
         5327.0         82.120        112.243
         5327.5         74.430        123.450
         5328.0         76.855        128.993
         5328.5         79.708        128.555
         5329.0         80.500        120.971
         5329.5         81.672        110.390
         5330.0         81.693        101.128
         5330.5         84.851         99.318
         5331.0         86.940         98.929
         5331.5         87.699         97.586
         5332.0         90.706         95.522
         5332.5         93.057         94.779
         5333.0         98.547         94.785
         5333.5        115.742         95.424
         5334.0        114.705         93.908
         5334.5        102.608         92.150
         5335.0         89.455         92.635
         5335.5         83.141         98.232
         5336.0         80.702        103.194
         5336.5         81.455        105.926
         5337.0         84.383        104.135
         5337.5         88.103         98.844
         5338.0         89.677         94.628
         5338.5         88.274         92.707
         5339.0         85.348         93.987
         5339.5         85.424         94.223
         5340.0         86.995         92.656
         5340.5         95.260         90.032
         5341.0         97.544         88.763
         5341.5         96.551         87.394
         5342.0         96.398         87.685
         5342.5        115.414         91.602
         5343.0        154.351         97.423
         5343.5        234.498        106.735
         5344.0        257.682        114.193
         5344.5        225.587        119.119
         5345.0        185.867        122.373
         5345.5        175.277        125.197
         5346.0        165.006        127.361
         5346.5        149.225        127.453
         5347.0        143.931        126.862
         5347.5        173.500        123.222
         5348.0        186.207        120.488
         5348.5        183.068        118.598
         5349.0        160.608        119.120
         5349.5        130.186        121.268
         5350.0        100.222        121.569
         5350.5         94.057        118.834
         5351.0        104.100        114.663
         5351.5        114.261        111.555
         5352.0        116.515        110.548
         5352.5        117.697        111.566
         5353.0        131.093        112.351
         5353.5        149.751        112.746
         5354.0        154.738        112.954
         5354.5        124.158        112.561
         5355.0        107.904        111.969
         5355.5        102.116        111.406
         5356.0         98.907        113.272
         5356.5         96.737        114.754
         5357.0        104.169        117.005
         5357.5        125.377        118.208
         5358.0        164.847        117.819
         5358.5        184.469        117.868
         5359.0        202.456        118.403
         5359.5        208.577        119.243
         5360.0        208.963        121.130
         5360.5        191.568        121.591
         5361.0        194.232        123.564
         5361.5        183.064        125.916
         5362.0        159.589        131.480
         5362.5        131.609        137.474
         5363.0        119.744        137.772
         5363.5        139.347        135.393
         5364.0        171.377        128.971
         5364.5        205.721        124.072
         5365.0        224.468        121.394
         5365.5        239.000        120.351
         5366.0        232.141        121.831
         5366.5        192.639        127.470
         5367.0        134.441        137.372
         5367.5        133.725        137.805
         5368.0        153.910        134.476
         5368.5        216.387        122.977
         5369.0        245.379        118.071
         5369.5        251.038        117.696
         5370.0        250.682        119.068
         5370.5        256.909        119.577
         5371.0        262.048        119.182
         5371.5        204.093        121.595
         5372.0        194.143        130.159
         5372.5        115.857        141.313
         5373.0         77.358        147.657
         5373.5         67.347        142.832
         5374.0         71.574        138.409
         5374.5         77.122        126.581
         5375.0         78.269        120.948
         5375.5         77.973        115.890
         5376.0         77.973        115.005
         5376.5         81.285        113.470
         5377.0         89.274        111.544
         5377.5        102.288        109.564
         5378.0        107.900        108.779
         5378.5        110.117        108.364
         5379.0        118.633        109.149
         5379.5        153.251        111.349
         5380.0        164.746        113.603
         5380.5        183.013        116.956
         5381.0        163.117        118.910
         5381.5        117.719        120.740
         5382.0        109.904        121.712
         5382.5        104.108        124.058
         5383.0        115.799        123.715
         5383.5        157.461        122.541
         5384.0        174.305        121.562
         5384.5        179.294        122.248
         5385.0        153.427        126.182
         5385.5        135.823        126.607
         5386.0        132.611        127.518
         5386.5        134.463        127.778
         5387.0        142.944        125.238
         5387.5        159.613        122.886
         5388.0        169.478        121.608
         5388.5        180.877        118.987
         5389.0        177.388        119.182
         5389.5        179.554        119.593
         5390.0        183.458        121.017
         5390.5        181.371        124.818
         5391.0        164.794        130.362
         5391.5        159.860        132.380
         5392.0        180.634        130.879
         5392.5        279.584        125.321
         5393.0        337.830        120.751
         5393.5        320.066        120.361
         5394.0        273.070        122.168
         5394.5        194.535        125.414
         5395.0        186.527        124.830
         5395.5        206.425        125.116
         5396.0        208.866        125.122
         5396.5        189.742        128.119
         5397.0        178.633        125.950
         5397.5        182.873        121.661
         5398.0        192.119        118.782
         5398.5        209.932        117.429
         5399.0        208.684        118.700
         5399.5        201.897        122.227
         5400.0        196.939        123.221
         5400.5        189.290        124.006
         5401.0        173.522        127.693
         5401.5        148.485        130.379
         5402.0        136.896        129.752
         5402.5        134.461        128.962
         5403.0        152.175        124.135
         5403.5        161.670        121.149
         5404.0        164.515        118.212
         5404.5        166.086        116.456
         5405.0        167.252        116.269
         5405.5        168.031        117.054
         5406.0        166.822        118.228
         5406.5        166.082        119.544
         5407.0        168.352        118.177
         5407.5        172.469        118.014
         5408.0        174.355        118.014
         5408.5        166.566        117.819
         5409.0        154.837        118.014
         5409.5        153.580        117.819
         5410.0        158.427        118.470
