~VERSION INFORMATION
 VERS.                2.0:   CWLS LOG ASCII STANDARD - VERSION 2.0
 WRAP.                 NO:   ONE LINE PER DEPTH STEP
~WELL INFORMATION
#MNEM.UNIT      DATA TYPE    INFORMATION
#----------   ------------   ------------------------------
 STRT.FT          68.0000:   START DEPTH
 STOP.FT        1517.0000:   STOP DEPTH
 STEP.FT           0.5000:   STEP LENGTH
 NULL.          -999.2500:   NULL VALUE
 COMP. LINCOLN ROCK CORPORATION:   COMPANY
 WELL.        HOLLER #602:   WELL
 FLD .            UNNAMED:   FIELD
 LOC .                   :   LOCATION
 CNTY.          CULBERSON:   COUNTY
 STAT.              TEXAS:   STATE
 CTRY. UNITED STATES OF AMERICA:   COUNTRY
 SRVC.           Gearhart:   SERVICE COMPANY
 DATE.        24-Jun-1984:   LOGDATE
 API .     42109317410000:   API NUMBER
~CURVE INFORMATION
#MNEM.UNIT       API CODE    CURVE DESCRIPTION
#----------   ------------   ------------------------------
 DEPT.F                  :   
 CALXS.IN    60 280 13 00:   CALIPER FROM X AXIS OF X-Y CALIPER(S) FROM SONIC LOG
 GRD .GAPI   45 310 01 00:   GAMMA RAY FROM DENSITY LOG
 GRS .GAPI   60 310 01 00:   GAMMA RAY FROM SONIC LOG
 TEND.LB     45 635 00 00:   TENSION FROM DENSITY LOG
 TENR.LB     11 635 00 00:   TENSION FROM RESISTIVITY LOG
 TENS.LB     60 635 00 00:   TENSION FROM SONIC LOG
 CALYD.IN    45 280 24 00:   CALIPER FROM X AXIS OF X-Y CALIPER(S) FROM DENSITY LOG
 CNS_LS.DEC  42 890 01 00:   COMPENSATED NEUTRON POROSITY
 CDL_LS.DEC  45 890 10 00:   COMPENSATED DENSITY POROSITY LIMESTONE
 RHOB.G/C3   45 350 01 00:   BULK DENSITY
 DRHO.G/C3   45 356 01 00:   BULK DENSITY CORRECTION
 GRR .GAPI   11 310 01 00:   GAMMA RAY FROM RESISTIVITY LOG
 RLLD.OHMM   11 220 10 00:   RAW LATEROLOG DEEP RESISTIVITY
 RLLS.OHMM   11 220 09 00:   RAW LATEROLOG SHALLOW RESISTIVITY
 DT  .US/F   60 500 00 00:   DELTA-T (INTERVAL TRANSIT TIME)
 SPHI.DEC    60 890 00 00:   SONIC POROSITY
~PARAMETER INFORMATION
#MNEM.UNIT          VALUE    DESCRIPTION
#----------   ------------   ------------------------------
 PD  .                 GL:   PERMANENT DATUM
 EPD .FT             3532:   ELEVATION PERMANENT DATUM
 LMF .                 GL:   LOG MEASURED FROM
 DMF .                RKB:   DRILLING MEASURED FROM
 EKB .FT             3544:   KELLY BUSHING
 EDF .FT             3543:   DRILLING FLOOR
 EGL .FT             3532:   GROUND LEVEL
 DATE.           06/24/84:   RUN DATE
 RUN .                  1:   RUN NUMBER
 DD  .FT             1502:   DEPTH DRILLER
 DL  .FT             1506:   DEPTH LOGGER
 BLI .FT             1505:   BOTTOM LOG INTERVAL
 TLI .FT               90:   TOP LOG INTERVAL
 CS  .IN              4.5:   CASING SIZE
 CBD .FT              101:   CASING BOTTOM DRILLER
 CBL .FT             1502:   CASING BOTTOM LOGGER
 BS  .IN            7.875:   BIT SIZE
 BSD .FT             1502:   BIT SIZE AT DEPTH
 DFT .          FRESH H2O:   DRILLING FLUID TYPE
 DFD .                8.4:   DRILLING FLUID DENSITY
 DFV .                 27:   DRILLING FLUID VISCOSITY
 DFPH.                 12:   DRILLING FLUID PH
 MSS .                PIT:   MUD SAMPLE SOURCE
 RMS .OHMM           2.32:   RESISTIVITY MUD SAMPLE
 MST .DEGF             77:   MUD SAMPLE TEMPERATURE
 RMF .OHMM           2.32:   RESISTIVITY MUD FILTRATE SAMPLE
 MFST.DEGF             77:   MUD FILTRATE SAMPLE TEMPERATURE
 MFSS.               MEAS:   MUD FILTRATE SAMPLE SOURCE
 TCS .HRS            0940:   TIME CIRCULATED STOPPED
 TLAB.HRS            1319:   TIME LOGGER AT BOTTOM
 MRT .DEGF            770:   MAXIMUM RECORDED TEMPERATURE
 LUN .               7583:   LOGGING UNIT NUMBER
 LUL .              HOBBS:   LOGGING UNIT LOCATION
 ENGI.             BRYANT:   RECORDING ENGINEER
 WITN.             BURROW:   WITNESSED BY
 CLNT.            :   CLIENT CODE
 ORIG.      1" 2.5" PRINT:   ORIGIN OF DATA
 UWI .     42109317410000:   UNIQUE WELL ID
 
~OTHER INFORMATION
~A   DEPT    CALXS        GRD        GRS       TEND       TENR       TENS      CALYD      CNS_LS     CDL_LS      RHOB       DRHO          GRR     RLLD       RLLS         DT       SPHI   
# ...
  390.5000     8.6343     4.7461     4.5174   945.5532   540.4152   773.8640     8.0114    -0.0055     0.2564     2.9392    -0.0245     6.1306 64968.3750 29118.3496    49.4547    -0.0184
  391.0000     8.6124     4.7193     4.5066   946.7972   539.5571   773.6419     8.0114    -0.0063     0.2582     2.9492    -0.0211     5.8704 59493.8789 29730.1230    49.5928    -0.0165
  391.5000     8.6189     5.2110     4.8472   948.0413   538.6975   773.4211     8.0114    -0.0068     0.2605     2.9499    -0.0221     6.3185 55114.2813 30028.3828    49.6845    -0.0165
  392.0000     8.6477     5.7026     5.2645   949.2841   537.8381   773.1991     8.0114    -0.0064     0.2618     2.9462    -0.0267     6.7737 55141.8867 30124.1465    49.4988    -0.0197
  392.5000     8.6492     6.0948     5.2494   950.5281   536.9799   772.9769     8.0114    -0.0061     0.2633     2.9425    -0.0327     7.2290 62667.3906 30219.9102    49.0138    -0.0224
  393.0000     8.6507     5.7594     4.6353   951.7721   545.7564   772.7548     8.0114    -0.0057     0.2648     2.9387    -0.0327     6.2753 73862.0781 30625.4219    48.7947    -0.0230
  393.5000     8.6570     5.0746     4.4108   953.0162   532.9490   773.5824     8.0114    -0.0054     0.2663     2.9350    -0.0327     5.0607 56252.0000 30640.5273    48.7058    -0.0235
  394.0000     8.6828     4.4034     4.1696   954.2602   529.7964   778.6054     8.0114    -0.0050     0.2678     2.9313    -0.0291     4.6894 55233.9922 30655.6348    48.8089    -0.0235
  394.5000     8.6749     4.2444     4.4402   955.5030   538.7672   765.3264     8.0114    -0.0046     0.2695     2.9276    -0.0314     4.2504 56349.8320 30670.7422    48.7697    -0.0236
  395.0000     8.6510     4.3951     5.5579   956.7470   547.7382   757.3583     8.0114    -0.0043     0.2723     2.9261    -0.0337     3.8462 61836.8164 30685.8477    48.7228    -0.0241
  395.5000     8.6519     4.8130     8.8224   957.9911   571.3688   761.0080     8.0113    -0.0039     0.2744     2.9261    -0.0359     4.1225 58491.0469 30634.6230    48.7872    -0.0239
  396.0000     8.6528     5.2978    16.5115   959.2351   553.4406   764.6577     8.0112    -0.0039     0.2760     2.9249    -0.0329     5.1012 54302.2578 30483.9004    48.8180    -0.0227
  396.5000     8.6538     5.7826    26.5511   960.4791   534.0752   768.3062     8.0110    -0.0047     0.2741     2.9291    -0.0269     6.8084 61338.8086 30333.1777    48.8264    -0.0225
  397.0000     8.6547     5.6751    34.6327   961.7218   550.7426   771.9559     8.0108    -0.0051     0.2708     2.9378    -0.0209     8.2996 53041.5039 30182.4551    48.8687    -0.0225
  397.5000     8.6557     5.7090    39.7322   962.9659   537.2514   771.8381     8.0107    -0.0043     0.2644     2.9465    -0.0149     7.2740 46822.4453 30031.7324    48.8054    -0.0226
  398.0000     8.6697     5.5324    43.2675   964.2099   530.4142   771.7215     8.0105    -0.0036     0.2601     2.9482    -0.0108     6.3635 54130.7383 29881.0098    48.8113    -0.0226
  398.5000     8.6477     5.2795    45.7063   965.4539   550.1958   771.6036     8.0103    -0.0028     0.2618     2.9442    -0.0137     5.4530 62018.1250 27814.3379    48.9421    -0.0223
  399.0000     8.6645     4.8338    47.1147   966.6979   569.9762   771.4858     8.0101    -0.0038     0.2653     2.9402    -0.0166     5.0079 58129.2500 24313.5566    49.1042    -0.0212
  399.5000     8.6814     4.4341    46.0401   967.9408   564.8350   765.5199     8.0100    -0.0047     0.2686     2.9395    -0.0176     4.9151 41465.2227 21515.8516    49.1425    -0.0210
  400.0000     8.6816     4.8120    45.1405   967.0676   550.9070   757.2980     8.0118    -0.0056     0.2695     2.9420    -0.0157     4.8223 26464.0449 18718.1465    48.9952    -0.0214
  400.5000     8.6819     5.7182    44.4106   963.3417   564.8496   755.3847     8.0107    -0.0065     0.2675     2.9445    -0.0138     4.7295 24443.7969 15920.4424    48.9068    -0.0222
  401.0000     8.6821     6.6448    43.6806   948.6182   574.4908   761.7366     8.0116    -0.0069     0.2662     2.9470    -0.0122     4.7133 24069.0293 13122.7373    48.9127    -0.0222
  401.5000     8.6824     7.3345    43.3534   936.9302   576.8301   768.0884     8.0093    -0.0069     0.2597     2.9459    -0.0154     4.9904 20088.4063 10325.0322    48.9422    -0.0221
  402.0000     8.6826     6.5933    43.2947   954.6198   567.9361   771.9006     8.0112    -0.0069     0.2627     2.9405    -0.0240     5.2676 14726.9658  7527.3271    49.1278    -0.0216
  402.5000     8.6828     5.9865    42.6172   972.9345   560.8471   771.9006     8.0090    -0.0069     0.2679     2.9350    -0.0325     5.5447 10244.7461  6881.8638    49.2799    -0.0192
  403.0000     8.6703     5.4201    40.4491   959.4699   565.4399   771.9006     8.0109    -0.0063     0.2732     2.9296    -0.0411     5.8704 10341.7529  6882.3120    49.6270    -0.0169
  403.5000     8.6519     5.3029    37.6864   951.1730   570.0325   771.9006     8.0086    -0.0053     0.2746     2.9245    -0.0449     5.3117 12113.9219  9395.5820    49.9999    -0.0153
  404.0000     8.6438     5.5528    34.9123   940.5018   574.6254   771.9006     8.0106    -0.0041     0.2749     2.9200    -0.0409     4.6343 12704.4902 10002.9346    49.6379    -0.0159
  404.5000     8.6357     5.6797    31.2364   963.8099   582.5302   771.9006     8.0084    -0.0028     0.2752     2.9155    -0.0366     3.9568  8304.6934  8435.0527    49.3834    -0.0182
  405.0000     8.6276     5.5179    27.5605   966.9836   563.3398   771.9006     8.0102    -0.0028     0.2814     2.9111    -0.0327     3.5870  3904.8955  6867.1709    49.1549    -0.0205
  405.5000     8.6195     5.4643    28.1366   958.4964   568.1292   771.9006     8.0081    -0.0030     0.2882     2.9068    -0.0367     4.1968  2165.1226  5299.2891    48.9787    -0.0219
  406.0000     8.6114     5.5505    32.5893   916.1089   593.4196   771.9006     8.0099    -0.0033     0.2862     2.9042    -0.0341     4.6726 16303.5381 12056.7998    48.9214    -0.0221
  406.5000     8.6033     5.5960    37.0419   963.0674   571.6046   771.9006     8.0077    -0.0037     0.2842     2.9055    -0.0306     4.7404 45590.3125 22982.6309    48.9346    -0.0222
  407.0000     8.6069     5.6822    38.8230   968.8712   558.5166   771.9006     8.0096    -0.0041     0.2822     2.9068    -0.0327     4.8081 54711.6680 27284.4648    48.9478    -0.0222
  407.5000     8.6045     5.7571    34.7537   978.7222   573.4220   771.9006     8.0074    -0.0045     0.2830     2.9079    -0.0353     4.8758 56543.5469 28872.9961    48.9610    -0.0222
  408.0000     8.6020     5.8922    29.6671   984.5236   570.5820   771.9006     8.0092    -0.0049     0.2847     2.9063    -0.0378     4.9436 56552.9141 28877.0742    48.9741    -0.0220
  408.5000     8.5996     6.1446    22.9544   977.2151   541.1212   771.9006     8.0071    -0.0054     0.2866     2.9050    -0.0388     5.0113 49751.5156 29108.8574    49.0572    -0.0214
  409.0000     8.5971     6.5374    19.5808   966.8428   577.5089   771.9006     8.0089    -0.0058     0.2801     2.9038    -0.0348     5.2901 39286.6133 29340.6406    49.1078    -0.0209
  409.5000     8.5894     7.0368    16.8029   981.6105   611.6746   771.9006     8.0067    -0.0060     0.2732     2.9243    -0.0315     6.1370 40992.8633 29572.4219    49.1471    -0.0210
  410.0000     8.5889     7.1708    12.8283   987.0846   559.3736   772.1294     8.0073    -0.0057     0.2663     2.9421    -0.0282     7.0850 45327.9844 29622.5488    49.3366    -0.0200
  410.5000     8.5932     7.1457    10.0369   983.8590   586.8948   772.9878     8.0066    -0.0054     0.2589     2.9585    -0.0249     6.8613 49631.3320 29749.0547    49.5261    -0.0175
  411.0000     8.5986     6.4083     7.7918   980.7125   614.4047   773.8488     8.0066    -0.0051     0.2551     2.9485    -0.0216     6.2915 54873.5781 30085.9082    49.7156    -0.0158
  411.5000     8.6101     5.6297     5.9727   981.2375   593.3110   772.8315     8.0058    -0.0048     0.2548     2.9392    -0.0183     5.0607 56692.0547 30058.5371    49.9473    -0.0153
