###############################################
##         ENVERUS                           ##
##         ESS - Open Hole                   ##
##         PERMIAN / DELAWARE                ##
##         Nov 02 2023  V4.0                 ##
##         42-109-32346-90-00                ##
###############################################
## Copyright 2017-2023  ENVERUS.  All Rights Reserved. 
## Confidential - Property of ENVERUS, use governed by terms and 
## conditions found within the existing Information Services Subscription Agreement 
## (as may be amended, the “ISSA”) between Customer and ENVERUS. 
## 
~VERSION INFORMATION
# MNEM.UNIT                               DATA : DESCRIPTION OF MNEMONIC
#-----.-----     ----------------------------- : -----------------------------
VERS.                                     2.00 : CWLS LOG ASCII STANDARD - VERSION 2.00
WRAP.                                       NO : MULTIPLE LINES PER DEPTH STEP
VEND.                                  ENVERUS : VENDOR
TYPE.                          ESS - OPEN HOLE : ENVERUS ESSENTIAL CURVES – ACCESSIBLE THROUGH ENVERUS PRISM(TM)
DOC.                                  51092887 : ENVERUS HEADER RAW DOCUMENT ID
#___________________________________________________________________________________________________ 
~WELL INFORMATION 
# XhrHiXkIrwGIJmPLTIo0+WseqdI1VWn+o0JF90EYfb9BJ/ikjsIPmHpj3yVLlwnYQ/npclNvflN3Ll99f4ZCqQ== 
# MNEM.UNIT                                              DATA : DESCRIPTION OF MNEMONIC 
#-----.-----                    ----------------------------- : ----------------------------- 
CNTY.                                               CULBERSON : COUNTY 
STATE.                                                  TEXAS : STATE 
CNTRY.                                                    USA : COUNTRY 
API.                                             42-109-32346 : API (10 Digit) 
API_14.                                    42-109-32346-90-00 : API (14 Digits) 
API_14_std.                                 42-109-32346-9000 : API (14 Digits Standard) 
UWI.                                           42109323469000 : UNIQUE WELL ID 
WELL.                                                  DRD_55 : WELL NAME
STRT.FT                                                 334.5 : START DEPTH
STOP.FT                                                4950.0 : STOP DEPTH
STEP.FT                                                   0.5 : STEP BETWEEN DEPTHS
NULL.                                                 -999.25 : NULL VALUE
PREV_APII.                                     42109323460000 : WELL IDENTIFIER
#___________________________________________________________________________________________________ 
~PARAMETER INFORMATION 
# MNEM.UNIT                                              DATA : DESCRIPTION OF MNEMONIC 
#-----.-----                    ----------------------------- : -----------------------------
#___________________________________________________________________________________________________ 
~CURVE INFORMATION 
# MNEM.UNIT           : CURVE DESCRIPTION 
#-----.-----          : ----------------------------- 
 DEPT.FT               : MEASURED DEPTH 
 CALI.IN               : CALIPER (CAL - CALIPER) 
 GR.API                : GAMMA RAY (GAMMA RAY) 
 DT.US/FT              : SONIC DELTA TRANSIT TIME (SONIC) 
 #___________________________________________________________________________________________________ 
~A         DEPT           CALI             GR             DT
# ...
         3040.5          9.606         50.877         73.528
         3041.0          9.606         51.485         73.465
         3041.5          9.545         55.436         72.203
         3042.0          9.463         56.601         70.507
         3042.5          9.329         58.060         67.392
         3043.0          9.294         57.770         67.451
         3043.5          9.294         49.407         69.145
         3044.0          9.294         46.252         69.527
         3044.5          9.255         45.333         70.032
         3045.0          9.236         45.809         71.032
         3045.5          9.294         47.059         72.529
         3046.0          9.294         48.925         73.347
         3046.5          9.294         49.990         73.373
         3047.0          9.189         50.973         71.906
         3047.5          9.065         50.173         69.192
         3048.0          9.060         49.181         65.310
         3048.5          9.060         44.039         63.936
         3049.0          9.012         39.020         65.664
         3049.5          8.994         40.300         68.631
         3050.0          9.068         43.473         71.597
         3050.5          9.158         51.475         74.040
         3051.0          9.177         52.471         74.064
         3051.5          9.177         54.681         72.810
         3052.0          9.095         54.818         71.378
         3052.5          8.997         47.739         70.813
         3053.0          8.944         46.135         70.912
         3053.5          8.944         46.468         67.855
         3054.0          8.896         46.589         65.875
         3054.5          8.798         45.614         64.243
         3055.0          8.690         43.794         65.739
         3055.5          8.702         40.901         69.724
         3056.0          8.816         40.689         71.253
         3056.5          8.885         46.738         71.684
         3057.0          8.924         49.218         71.599
         3057.5          8.944         53.058         71.657
         3058.0          8.927         53.967         71.239
         3058.5          8.905         52.271         70.576
         3059.0          8.886         47.768         70.005
         3059.5          8.846         49.417         69.665
         3060.0          8.825         50.532         69.324
         3060.5          8.749         53.021         69.267
         3061.0          8.729         53.490         69.507
         3061.5          8.729         58.729         69.592
         3062.0          8.734         62.513         69.706
         3062.5          8.723         63.681         69.547
         3063.0          8.690         64.179         68.873
         3063.5          8.671         68.221         68.389
         3064.0          8.651         67.939         68.603
         3064.5          8.632         63.379         68.687
         3065.0          8.632         60.661         68.978
         3065.5          8.632         58.270         69.057
         3066.0          8.632         57.168         70.229
         3066.5          8.665         56.160         70.335
         3067.0          8.671         58.633         70.184
         3067.5          8.671         64.104         69.372
         3068.0          8.671         64.544         68.595
         3068.5          8.690         61.134         67.920
         3069.0          8.729         59.748         68.054
         3069.5          8.749         56.902         68.492
         3070.0          8.751         55.722         68.496
         3070.5          8.788         52.212         68.707
         3071.0          8.807         46.274         71.815
         3071.5          8.851         43.225         73.383
         3072.0          8.885         42.481         72.032
         3072.5          8.970         39.813         70.729
         3073.0          8.991         39.181         70.928
         3073.5          9.074         42.265         72.146
         3074.0          9.187         44.865         74.116
         3074.5          9.325         48.844         76.743
         3075.0          9.341         48.807         75.702
         3075.5          9.190         48.049         73.961
         3076.0          9.046         46.451         72.325
         3076.5          8.948         42.897         67.633
         3077.0          8.832         41.164         64.491
         3077.5          8.692         40.569         64.224
         3078.0          8.633         39.396         65.115
         3078.5          8.632         39.373         69.499
         3079.0          8.611         43.805         72.163
         3079.5          8.593         49.441         71.906
         3080.0          8.593         50.570         71.179
         3080.5          8.589         52.946         68.525
         3081.0          8.554         50.883         67.968
         3081.5          8.534         49.153         67.446
         3082.0          8.534         52.703         67.689
         3082.5          8.534         58.792         68.245
         3083.0          8.534         61.404         67.965
         3083.5          8.534         57.205         67.376
         3084.0          8.534         54.414         66.809
         3084.5          8.534         46.384         66.314
         3085.0          8.519         43.470         65.948
         3085.5          8.529         44.500         66.122
         3086.0          8.534         46.614         66.423
         3086.5          8.570         56.291         66.695
         3087.0          8.610         62.912         66.597
         3087.5          8.632         60.730         65.692
         3088.0          8.632         58.604         65.423
         3088.5          8.632         58.390         65.806
         3089.0          8.632         62.206         66.421
         3089.5          8.632         63.158         66.713
         3090.0          8.632         63.585         66.775
         3090.5          8.632         69.086         66.894
         3091.0          8.671         71.986         67.247
         3091.5          8.690         71.930         67.522
         3092.0          8.690         71.854         67.639
         3092.5          8.690         72.232         67.923
         3093.0          8.690         78.691         68.483
         3093.5          8.690         92.590         68.998
         3094.0          8.690         98.108         69.155
         3094.5          8.690        100.933         68.427
         3095.0          8.710         85.109         67.877
         3095.5          8.710         68.141         67.427
         3096.0          8.729         48.783         67.687
         3096.5          8.749         43.721         68.530
         3097.0          8.768         46.635         68.746
         3097.5          8.788         49.781         68.863
         3098.0          8.807         52.549         68.482
         3098.5          8.867         53.398         67.883
         3099.0          8.926         52.803         66.230
         3099.5          8.944         51.626         65.296
         3100.0          8.944         50.376         65.004
         3100.5          8.944         53.963         65.520
         3101.0          8.944         55.425         67.744
         3101.5          8.951         54.831         68.535
         3102.0          9.010         52.742         68.713
         3102.5          9.021         48.453         68.863
         3103.0          9.041         50.973         67.500
         3103.5          9.041         52.298         65.095
         3104.0          8.951         51.142         64.278
         3104.5          8.866         48.928         64.488
         3105.0          8.866         52.362         66.856
         3105.5          8.901         51.015         69.527
         3106.0          8.921         49.557         70.487
